~VERSION INFORMATION
 VERS.                2.0:   CWLS LOG ASCII STANDARD - VERSION 2.0
 WRAP.                 NO:   ONE LINE PER DEPTH STEP
~WELL INFORMATION
#MNEM.UNIT      DATA TYPE    INFORMATION
#----------   ------------   ------------------------------
 STRT.F           80.0000:   START DEPTH
 STOP.F          744.0000:   STOP DEPTH
 STEP.F            0.5000:   STEP LENGTH
 NULL.          -999.2500:   NO VALUE
 COMP.               NAVY:   COMPANY
 WELL. RES 3 TEAPOT DOM #44-S-11:   WELL
 FLD .             TEAPOT:   FIELD
 LOC .      S11 T38N R78W:   LOCATION
 CNTY.            NATRONA:   COUNTY
 STAT.            WYOMING:   STATE
 CTRY. UNITED STATES OF AMERICA:   COUNTRY
 SRVC.       Schlumberger:   SERVICE COMPANY
 DATE.        09-JUL-1962:   LOGDATE
 API .       490250634600:   API NUMBER
~CURVE INFORMATION
#MNEM.UNIT       API CODE    CURVE DESCRIPTION
#----------   ------------   ------------------------------
 DEPT.F                  :   
 SPR .MV     05 010 01 00:   SPONTANEOUS POTENTIAL FROM RES.
 ASN .OHMM   05 041 16 00:   AMPLIFIED SHORT NORMAL 16"
 ILD .OHMM   05 120 46 00:   INDUCTION LOG DEEP
 CILD.MMHO   05 110 46 00:   CONDUCTIVITY INDUCTION LOG DEEP
 GR  .GAPI   30 310 01 00:   GAMMA RAY
~PARAMETER INFORMATION
#MNEM.UNIT          VALUE    DESCRIPTION
#----------   ------------   ------------------------------
 PD  .                 KB:   PERMANENT DATUM
 EPD .F              5182:   ELEVATION PERMANENT DATUM
 EKB .F              5182:   KELLING BUSHING
 EGL .F              5177:   GROUND LEVEL
 DATE.        09-JUL-1962:   RUN DATE
 RUN .                  1:   RUN NUMBER
 DD  .F               745:   DEPTH DRILLER
 DL  .F               745:   DEPTH LOGGER
 BLI .F               744:   BOTTOM LOG INTERVAL
 TLI .F                90:   TOP LOG INTERVAL
 BS  .IN             6.75:   BIT SIZE
 BSD .F               745:   BIT SIZE AT DEPTH
 DFT .           OIL EMUL:   DRILLING FLUID TYPE
 DFD .               10.3:   DRILLING FLUID DENSITY
 DFV .                 50:   DRILLING FLUID VISCOSITY
 DFL .                3.4:   DRILLING FLUID LOSS
 RMS .OHMM            7.0:   RESISTIVITY MUD SAMPLE
 MST .F                73:   MUD SAMPLE TEMPERATURE
 RMF .OHMM            4.5:   RESISTIVITY MUD FILTRATE SAMPLE
 MFST.F                73:   MUD FILTRATE SAMPLE TEMPERATURE
 RMC .OHMM           13.5:   RESISTIVITY MUD CAKE
 MCST.F                73:   MUD CAKE SAMPLE TEMPERATURE
 MFSS.               MEAS:   MUD FILTRATE SAMPLE SOURCE
 MCSS.               MEAS:   MUD CAKE SAMPLE SOURCE
 TCS .HRS            0030:   TIME CURCULATED STOPPED
 LUN .               2503:   LOGGING UNIT NUMBER
 LUL .               CSPR:   LOGGING UNIT LOCATION
 ENGI.           ELLERMAN:   RECORDING ENGINEER
 WITN.          JORGENSON:   WITNESSED BY
 CLNT.            A2DTECH:   CLIENT CODE
 ORIG.           5" PRINT:   ORIGIN OF DATA
 UWI .       490250634600:   UNIQUE WELL ID
 DICO. A2D Technologies, Inc.:   DIGITIZING COMPANY
~OTHER INFORMATION
~A   DEPT      SPR        ASN        ILD       CILD         GR   
   80.0000   -59.5442  -999.2500  -999.2500  -999.2500  -999.2500
   80.5000   -59.5532  -999.2500  -999.2500  -999.2500  -999.2500
   81.0000   -59.4076  -999.2500  -999.2500  -999.2500  -999.2500
   81.5000   -58.8091  -999.2500  -999.2500  -999.2500  -999.2500
   82.0000   -57.4462  -999.2500  -999.2500  -999.2500  -999.2500
   82.5000   -59.1320  -999.2500  -999.2500  -999.2500  -999.2500
   83.0000   -59.7508  -999.2500  -999.2500  -999.2500  -999.2500
   83.5000   -59.7599  -999.2500  -999.2500  -999.2500  -999.2500
   84.0000   -59.9213  -999.2500  -999.2500  -999.2500  -999.2500
   84.5000   -60.0828  -999.2500  -999.2500  -999.2500  -999.2500
   85.0000   -60.0918  -999.2500  -999.2500  -999.2500  -999.2500
   85.5000   -59.3387  -999.2500  -999.2500  -999.2500  -999.2500
   86.0000   -57.9758  -999.2500  -999.2500  -999.2500  -999.2500
   86.5000   -57.5223  -999.2500  -999.2500  -999.2500  -999.2500
   87.0000   -57.3841  -999.2500  -999.2500  -999.2500  -999.2500
   87.5000   -57.3933  -999.2500  -999.2500  -999.2500  -999.2500
   88.0000   -57.4024  -999.2500  -999.2500  -999.2500  -999.2500
   88.5000   -57.5919  -999.2500  -999.2500  -999.2500  -999.2500
   89.0000   -58.6420  -999.2500  -999.2500  -999.2500  -999.2500
   89.5000   -59.1083  -999.2500  -999.2500  -999.2500  -999.2500
   90.0000   -59.1174     0.0000     1.1224    10.4439  -999.2500
   90.5000   -59.1264     1.1894     4.4578    64.4971  -999.2500
   91.0000   -59.1354     7.5176     5.2142   257.8852  -999.2500
   91.5000   -58.9920     4.9065     5.0588   198.9281  -999.2500
   92.0000   -59.0011     4.8906     4.9799   199.7289  -999.2500
   92.5000   -59.0101     4.8604     4.9010   202.0425  -999.2500
   93.0000   -58.4071     4.8282     4.8221   204.4127  -999.2500
   93.5000   -58.8757     4.7536     4.6674   207.5518  -999.2500
   94.0000   -59.0372     4.6689     4.5127   209.7511  -999.2500
   94.5000   -59.0462     4.4949     4.2062   215.0905  -999.2500
   95.0000   -59.0553     4.3125     3.8997   230.3922  -999.2500
   95.5000   -59.0643     4.0694     3.5932   254.5690  -999.2500
   96.0000   -58.9207     3.8264     3.2109   299.4443  -999.2500
   96.5000   -58.9299     3.3253     2.7526   352.3531  -999.2500
   97.0000   -58.9389     3.0822     2.7496   405.2619  -999.2500
   97.5000   -58.4782     3.0971     2.7466   459.6836  -999.2500
   98.0000   -57.2601     3.3093     2.8195   461.2610  -999.2500
   98.5000   -57.2896     3.2786     2.8295   453.6263  -999.2500
   99.0000   -58.0627     3.0810     3.0404   447.4841  -999.2500
   99.5000   -58.9864     2.9441     3.2650   430.3213  -999.2500
  100.0000   -59.3003     3.2170     3.6414   397.8820  -999.2500
  100.5000   -59.4618     3.7630     4.0936   357.2751  -999.2500
  101.0000   -59.4708     4.2027     4.4700   316.6682  -999.2500
  101.5000   -59.4798     4.3542     4.8464   276.0612  -999.2500
  102.0000   -59.4889     4.4297     5.1469   232.4089  -999.2500
  102.5000   -59.3455     4.4446     5.0680   218.0811  -999.2500
  103.0000   -58.1327     4.4140     5.0650   211.9767  -999.2500
  103.5000   -57.9893     4.4288     4.9861   218.1698  -999.2500
  104.0000   -58.1530     4.4741     4.9073   225.1032  -999.2500
  104.5000   -58.7718     4.4585     4.8284   229.7150  -999.2500
  105.0000   -58.9333     4.4431     4.7495   230.4170  -999.2500
  105.5000   -59.0948     4.3821     4.5948   231.2178  -999.2500
  106.0000   -59.2562     4.2907     4.5159   235.0443  -999.2500
  106.5000   -58.9604     4.2145     4.2832   241.8966  -999.2500
  107.0000   -58.2022     4.1384     4.0425   251.0181  -999.2500
  107.5000   -57.4541     4.0622     3.7380   260.8961  -999.2500
  108.0000   -57.3107     3.9405     3.5033   274.7462  -999.2500
  108.5000   -57.1673     3.8036     3.2862   299.8241  -999.2500
  109.0000   -57.6359     3.6516     3.2074   324.9020  -999.2500
  109.5000   -58.4071     3.4995     3.0526   350.2532  -999.2500
  110.0000   -58.7210     3.3475     3.0496   375.8781  -999.2500
  110.5000   -58.5754     3.1651     3.1233   401.5030  -999.2500
  111.0000   -58.2795     3.1478     3.1195   423.0790  -999.2500
  111.5000   -57.5286     3.2707     3.1165   411.7881  -999.2500
  112.0000   -57.5376     3.4980     3.1901   399.7296  -999.2500
  112.5000   -57.5467     3.3460     3.2630   388.4276  -999.2500
  113.0000   -58.1655     3.2850     3.4118   366.1869  -999.2500
  113.5000   -58.3269     3.4940     3.7115   331.2635  -999.2500
  114.0000   -57.8764     4.2700     3.9361   294.7708  -999.2500
  114.5000   -58.3450     4.5660     4.3884   267.4378  -999.2500
  115.0000   -58.5065     4.6949     5.4476   236.4689  -999.2500
  115.5000   -58.6679     4.7705     5.5963   205.5001  -999.2500
  116.0000   -58.6770     4.8916     5.6692   187.5317  -999.2500
  116.5000   -58.3811     4.9368     5.6661   192.8822  -999.2500
  117.0000   -57.7804     4.9518     5.5762   197.4651  -999.2500
  117.5000   -59.4792     4.8907     5.3560   202.0481  -999.2500
  118.0000   -59.9329     4.8145     5.0495   205.8746  -999.2500
  118.5000   -59.9421     4.7232     4.7430   215.7526  -999.2500
  119.0000   -59.9529     4.5560     4.2848   230.9256  -999.2500
  119.5000   -59.9620     4.3736     3.7507   252.1500  -999.2500
  120.0000   -59.8163     4.1305     3.5201   284.7209  -999.2500
  120.5000   -59.5227     3.7660     3.3653   315.9047  -999.2500
  121.0000   -59.3793     3.5684     3.3624   334.9932  -999.2500
  121.5000   -58.9310     3.4922     3.4360   342.3538  -999.2500
  122.0000   -58.4828     3.7955     3.5089   344.6674  -999.2500
  122.5000   -57.7296     3.5979     3.5051   345.4683  -999.2500
  123.0000   -56.8240     3.4610     3.6539   341.7305  -999.2500
  123.5000   -57.7477     3.5214     3.8026   332.6977  -999.2500
  124.0000   -58.3665     3.7942     4.0272   317.9472  -999.2500
  124.5000   -58.5279     3.9457     4.3277   299.8586  -999.2500
  125.0000   -58.6894     4.0061     4.6282   281.7701  -999.2500
  125.5000   -58.8509     4.1435     4.8528   263.6815  -999.2500
  126.0000   -59.0123     4.2810     4.9257   245.5929  -999.2500
  126.5000   -58.8689     4.4356     4.9986   232.3663  -999.2500
  127.0000   -58.8781     4.6015     5.0715   229.3850  -999.2500
  127.5000   -58.8872     4.6419     5.0677   228.6618  -999.2500
  128.0000   -58.8963     4.6263     4.9889   227.9498  -999.2500
  128.5000   -58.7526     4.5805     4.9100   227.2378  -999.2500
  129.0000   -58.7639     4.5195     4.8311   228.0497  -999.2500
  129.5000   -58.6183     4.4282     4.6005   229.6069  -999.2500
  130.0000   -59.2393     4.3217     4.3699   235.0975  -999.2500
  130.5000   -58.0288     4.1696     4.0634   246.6936  -999.2500
  131.0000   -58.0379     4.0176     3.9087   264.5469  -999.2500
  131.5000   -58.0469     3.8503     3.7539   281.9892  -999.2500
  132.0000   -58.0559     3.7286     3.6751   297.9186  -999.2500
  132.5000   -58.0650     3.6525     3.5962   316.8737  -999.2500
  133.0000   -57.9216     3.6370     3.5932   317.6746  -999.2500
  133.5000   -57.7782     3.6670     3.5902   318.4754  -999.2500
  134.0000   -56.7201     3.6972     3.5872   322.3019  -999.2500
  134.5000   -56.4220     3.6057     3.5842   328.3977  -999.2500
  135.0000   -56.4075     3.3020     3.5812   338.2757  -999.2500
  135.5000   -57.0521     3.3927     3.5781   348.3251  -999.2500
  136.0000   -57.3660     3.3772     3.4993   354.2511  -999.2500
  136.5000   -57.5275     3.3011     3.4198   354.3050  -999.2500
  137.0000   -57.5366     3.2552     3.3409   358.8880  -999.2500
  137.5000   -57.5457     3.1942     3.1103   387.2917  -999.2500
  138.0000   -57.7073     3.1011     2.7279   421.2924  -999.2500
  138.5000   -57.5636     2.9181     2.6490   455.2931  -999.2500
  139.0000   -57.5749     2.8122     2.6461   483.1609  -999.2500
  139.5000   -57.5839     2.7833     2.6431   486.1876  -999.2500
  140.0000   -57.7454     2.8740     2.7167   449.9332  -999.2500
  140.5000   -57.7544     2.9951     2.7896   431.8233  -999.2500
