~VERSION INFORMATION
 VERS.                2.0:   CWLS LOG ASCII STANDARD - VERSION 2.0
 WRAP.                 NO:   ONE LINE PER DEPTH STEP
~WELL INFORMATION
#MNEM.UNIT      DATA TYPE    INFORMATION
#----------   ------------   ------------------------------
 STRT.F           30.0000:   START DEPTH
 STOP.F          637.0000:   STOP DEPTH
 STEP.F            0.5000:   STEP LENGTH
 NULL.          -999.2500:   NO VALUE
 COMP.    FENIX & SCISSON:   COMPANY
 WELL.        NPR #82-S-3:   WELL
 FLD .             TEAPOT:   FIELD
 LOC .       S3 T38N R78W:   LOCATION
 CNTY.            NATRONA:   COUNTY
 STAT.            WYOMING:   STATE
 CTRY. UNITED STATES OF AMERICA:   COUNTRY
 SRVC.              Welex:   SERVICE COMPANY
 DATE.        08-MAY-1977:   LOGDATE
 API .       490251035100:   API NUMBER
~CURVE INFORMATION
#MNEM.UNIT       API CODE    CURVE DESCRIPTION
#----------   ------------   ------------------------------
 DEPT.F                  :   
 SPR .MV     07 010 01 00:   SPONTANEOUS POTENTIAL FROM RES.
 ILD .OHMM   07 120 46 00:   INDUCTION LOG DEEP
 ILM .OHMM   07 120 44 00:   INDUCTION LOG MEDIUM
 SGRD.OHMM   07 220 05 00:   SHALLOW GUARD RESISTIVITY
 GRD .GAPI   45 310 01 00:   GAMMA RAY FROM DENSITY LOG
 CALD.IN     45 280 60 00:   CALIPER FROM DENSITY LOG
 CORR.G/C3   45 356 01 00:   DENSITY CORRECTION
 RHOB.G/C3   45 350 01 00:   BULK DENSITY
 DPHI.DEC    45 890 12 00:   DENSITY POROSITY SANDSTONE
~PARAMETER INFORMATION
#MNEM.UNIT          VALUE    DESCRIPTION
#----------   ------------   ------------------------------
 PD  .                 GL:   PERMANENT DATUM
 EPD .F              5100:   ELEVATION PERMANENT DATUM
 LMF .                 GL:   LOG MEASURED FROM
 DMF .                 GL:   DRILLING MEASURED FROM
 EGL .F              5100:   GROUND LEVEL
 DATE.        08-MAY-1977:   RUN DATE
 RUN .                  1:   RUN NUMBER
 DD  .F               635:   DEPTH DRILLER
 DL  .F               640:   DEPTH LOGGER
 BLI .F               638:   BOTTOM LOG INTERVAL
 TLI .F                30:   TOP LOG INTERVAL
 CS  .IN            8.625:   CASING SIZE
 CBD .F                40:   CASING BOTTOM DRILLER
 CBL .F                38:   CASING BOTTOM LOGGER
 BS  .IN            7.875:   BIT SIZE
 BSD .F               635:   BIT SIZE AT DEPTH
 DFT .            KCL MUD:   DRILLING FLUID TYPE
 DFD .                8.8:   DRILLING FLUID DENSITY
 DFV .                 32:   DRILLING FLUID VISCOSITY
 DFPH.                7.5:   DRILLING FLUID PH
 MSS .           FLOWLINE:   MUD SAMPLE SOURCE
 RMS .OHMM            .25:   RESISTIVITY MUD SAMPLE
 MST .F                80:   MUD SAMPLE TEMPERATURE
 RMF .OHMM            .22:   RESISTIVITY MUD FILTRATE SAMPLE
 MFST.F                80:   MUD FILTRATE SAMPLE TEMPERATURE
 RMC .OHMM            .31:   RESISTIVITY MUD CAKE
 MCST.F                80:   MUD CAKE SAMPLE TEMPERATURE
 MFSS.               MEAS:   MUD FILTRATE SAMPLE SOURCE
 MCSS.               MEAS:   MUD CAKE SAMPLE SOURCE
 RMB .OHMM            .23:   RESISTIVITY MUD AT BHT
 BHT .F                87:   BOTTOM HOLE TEMPERATURE
 TCS .HRS            0130:   TIME CURCULATED STOPPED
 MRT .F                87:   MAXIMUM RECORDED TEMPERATURE
 LUN .               8611:   LOGGING UNIT NUMBER
 LUL .             CASPER:   LOGGING UNIT LOCATION
 ENGI.            C. DOAK:   RECORDING ENGINEER
 WITN.            R. LYON:   WITNESSED BY
 CLNT.            A2DTECH:   CLIENT CODE
 ORIG.           5" PRINT:   ORIGIN OF DATA
 UWI .       490251035100:   UNIQUE WELL ID
 DICO. A2D Technologies, Inc.:   DIGITIZING COMPANY
~OTHER INFORMATION
~A   DEPT      SPR        ILD        ILM       SGRD         GRD      CALD        CORR        RHOB     DPHI   
# ...
  577.5000   -39.9457    10.0036    10.9077    14.6260   108.3428     7.8744     0.0386     2.4940     0.1096
  578.0000   -40.2229     9.7397    11.2222    14.3355   105.9740     7.8300     0.0401     2.4956     0.1084
  578.5000   -40.5000     9.4829    10.8497    14.5466   109.2681     7.8039     0.0402     2.4987     0.1061
  579.0000   -40.9203     9.1064    10.2750    13.7804   111.2189     7.9546     0.0418     2.5047     0.1018
  579.5000   -41.0542     8.7450     9.7308    13.6001   113.0208     7.9565     0.0448     2.5100     0.0972
  580.0000   -41.3314     8.3940     9.9671    13.2440   115.2692     7.9588     0.0434     2.5123     0.0966
  580.5000   -41.6110     7.8875    10.0840    12.8059   117.6664     7.9756     0.0420     2.5102     0.0981
  581.0000   -41.8904     7.1230     9.5163    12.2972   122.2957     7.9626     0.0406     2.4931     0.1049
  581.5000   -42.1699     6.6150     8.5903    11.7299   126.1810     7.9645     0.0377     2.4767     0.1162
  582.0000   -42.3015     6.3513     7.8621    10.0163   128.7270     7.9511     0.0347     2.4604     0.1282
  582.5000   -41.8414     5.9748     7.0357     7.4529   130.5289     7.9238     0.0318     2.4530     0.1341
  583.0000   -41.0854     5.6594     6.3780     6.4081   133.5214     7.9104     0.0304     2.4433     0.1395
  583.5000   -40.6253     5.3606     6.8634     7.3125   135.4721     7.8975     0.0290     2.4337     0.1463
  584.0000   -40.3131     5.6686     7.5549    13.5174   129.8336     7.8845     0.0244     2.4211     0.1523
  584.5000   -40.0009     6.1618     8.3846    15.6328   122.8558     7.8869     0.0186     2.4331     0.1409
  585.0000   -39.8366     6.6063     9.2271    14.8094   110.8185     7.8888     0.0172     2.4683     0.1256
  585.5000   -39.6723     7.3310     9.8929    14.4155   107.9923     7.8908     0.0188     2.4788     0.1175
  586.0000   -39.3601     8.2481    10.7427    15.1440   108.1234     7.8927     0.0234     2.4848     0.1148
  586.5000   -39.0479     8.8430    11.2018    15.2582   115.1086     7.8946     0.0249     2.4797     0.1151
  587.0000   -38.7357     9.3511    11.4403    14.8586   115.7941     7.9114     0.0235     2.4865     0.1139
  587.5000   -38.4235     9.8206    12.0127    14.8710   114.8934     7.9282     0.0236     2.4858     0.1141
  588.0000   -38.2593    10.1026    12.4422    14.8834   114.6361     7.9301     0.0177     2.4784     0.1183
  588.5000   -38.0950    10.1103    12.7987    14.8957   116.5909     7.9617     0.0177     2.4776     0.1153
  589.0000   -37.7828    10.2583    12.3739    14.9081   118.5417     7.9637     0.0180     2.4898     0.1092
  589.5000   -37.6185    10.4805    13.0840    15.0237   119.8931     7.9953     0.0241     2.4996     0.1053
  590.0000   -37.4543    10.7075    12.7372    15.7796   117.8301     7.9824     0.0300     2.5026     0.1044
  590.5000   -37.2900    11.0150    13.9401    16.8036   115.9118     7.9843     0.0300     2.5042     0.0999
  591.0000   -37.1257    11.3313    13.2018    16.5839   114.2911     7.9709     0.0331     2.5050     0.1059
  591.5000   -37.1094    11.5767    13.4868    16.4836   112.2240     7.9579     0.0302     2.5012     0.1088
  592.0000   -36.7972    11.7463    14.9653    16.8456   111.0498     7.9455     0.0257     2.4961     0.1040
  592.5000   -36.7808    11.9183    13.7875    17.0936   111.5125     7.9325     0.0273     2.4983     0.1010
  593.0000   -36.7645    12.0098    14.5787    17.4653   112.5703     7.9191     0.0289     2.5053     0.1019
  593.5000   -36.7482    12.1856    15.1501    18.0929   113.1818     7.9062     0.0290     2.5054     0.0994
  594.0000   -36.5839    12.1949    14.7313    18.2553   113.4957     7.9086     0.0231     2.5025     0.1006
  594.5000   -36.5676    12.2885    14.6533    18.2446   113.8095     7.9105     0.0201     2.4966     0.1096
  595.0000   -36.5512    12.3829    15.1729    18.1343   113.9705     7.9124     0.0187     2.4825     0.1125
  595.5000   -36.5349    12.5642    14.4290    18.4210   110.5682     7.9144     0.0143     2.4795     0.1176
  596.0000   -36.3706    12.6607    14.6393    18.9495   107.1618     7.9311     0.0129     2.4662     0.1256
  596.5000   -36.2063    12.6703    16.0219    19.3437   105.9876     7.9479     0.0130     2.4565     0.1316
  597.0000   -36.1900    12.8558    16.3649    19.3597   104.5157     7.9647     0.0145     2.4656     0.1262
  597.5000   -36.0257    13.0441    14.3696    19.2317   102.7462     7.9815     0.0176     2.4716     0.1205
  598.0000   -36.0094    12.9644    13.2387    18.5889   101.4232     7.9834     0.0237     2.4747     0.1133
  598.5000   -35.9930    12.4489    12.7971    17.7439   101.2902     8.0002     0.0267     2.4934     0.1096
  599.0000   -35.8288    12.8064    14.4990    18.3902   101.7533     8.0021     0.0269     2.5002     0.1090
  599.5000   -35.8124    13.3570    16.4244    19.3086   102.5135     8.0040     0.0254     2.4869     0.1117
  600.0000   -35.6504    13.6599    14.7685    19.5906   104.2669     8.0136     0.0254     2.4862     0.1099
  600.5000   -35.6284    13.4677    14.2287    19.4980   105.8170     8.0013     0.0300     2.4945     0.1030
  601.0000   -35.6064    13.8519    15.2545    19.4054   110.8889     7.9881     0.0331     2.5027     0.0994
  601.5000   -35.5808    13.9557    15.4728    19.0916   112.9846     7.9881     0.0347     2.5087     0.1018
  602.0000   -35.5587    13.0341    13.4910    18.2026   115.6755     7.9881     0.0331     2.5066     0.1027
  602.5000   -35.5366    12.2576    12.9504    17.3550   116.8783     7.9881     0.0319     2.4984     0.0976
  603.0000   -35.5144    12.5207    12.9597    18.0984   118.6733     7.9881     0.0320     2.5059     0.0922
  603.5000   -35.3444    12.3565    13.3294    19.5355   114.2245     8.0030     0.0322     2.5224     0.0898
  604.0000   -35.3223    11.8612    12.8855    21.6762   109.1773     8.0030     0.0323     2.5321     0.0871
  604.5000   -35.3001    12.3706    12.9821    23.0770   106.3623     8.0030     0.0324     2.5412     0.0830
  605.0000   -35.2780    12.8115    13.8204    20.5367   103.2466     8.0178     0.0325     2.5300     0.0883
  605.5000   -35.4093    12.5548    14.8145    17.5355   106.5359     8.0178     0.0326     2.5188     0.0925
  606.0000   -35.5351    12.3902    15.3620    16.9487   109.9709     8.0178     0.0327     2.5144     0.0938
  606.5000   -35.8033    12.2294    14.7726    18.4210   114.1499     8.0178     0.0328     2.5242     0.0907
  607.0000   -35.9291    11.9861    14.0256    17.0880   114.3636     8.0178     0.0328     2.5295     0.0874
  607.5000   -36.0605    11.8289    13.6686    17.3353   111.0496     8.0178     0.0329     2.5355     0.0851
  608.0000   -36.3287    11.5936    13.3967    17.7077   107.1929     8.0030     0.0330     2.5385     0.0895
  608.5000   -36.3065    11.4399    13.3124    15.9772   108.0982     7.9881     0.0331     2.5214     0.0928
  609.0000   -36.4379    11.2139    13.3204    15.8743   108.8546     7.9881     0.0332     2.5155     0.0952
  609.5000   -36.4102    10.9908    13.1460    16.1063   109.6110     7.9881     0.0333     2.5163     0.0967
  610.0000   -36.3881    10.7722    13.0614    16.4523   107.0936     7.9881     0.0305     2.5178     0.0982
  610.5000   -36.5194    10.6294    13.0708    16.2340   106.1531     7.9881     0.0276     2.5149     0.0991
  611.0000   -36.7876    10.4194    12.9867    15.6953   108.1600     7.9881     0.0262     2.5089     0.1006
  611.5000   -36.7655    10.2827    12.9960    15.4870   106.9819     7.9733     0.0248     2.5023     0.1030
  612.0000   -36.8968    10.1464    13.0035    15.8220   110.2681     7.9585     0.0249     2.5031     0.1036
  612.5000   -37.0226    10.0147    13.0110    15.2948   112.9590     7.9585     0.0234     2.5039     0.1053
  613.0000   -37.1484     9.9517    12.7522    14.8873   114.1639     7.9585     0.0236     2.5009     0.1090
  613.5000   -37.2742    10.0248    12.4128    14.5910   114.4739     7.9585     0.0252     2.5010     0.1054
