~VERSION INFORMATION
 VERS.                2.0:   CWLS LOG ASCII STANDARD - VERSION 2.0
 WRAP.                 NO:   ONE LINE PER DEPTH STEP
~WELL INFORMATION
#MNEM.UNIT      DATA TYPE    INFORMATION
#----------   ------------   ------------------------------
 STRT.F            0.0000:   START DEPTH
 STOP.F          542.0000:   STOP DEPTH
 STEP.F            0.5000:   STEP LENGTH
 NULL.          -999.2500:   NO VALUE
 COMP. LAWRENCE/ALLISON INC:   COMPANY
 WELL.          SX #12-11:   WELL
 FLD .             TEAPOT:   FIELD
 LOC .      S11 T38N R78W:   LOCATION
 CNTY.            NATRONA:   COUNTY
 STAT.            WYOMING:   STATE
 CTRY. UNITED STATES OF AMERICA:   COUNTRY
 SRVC.           Gearhart:   SERVICE COMPANY
 DATE.        16-SEP-1988:   LOGDATE
 API .       490251124300:   API NUMBER
~CURVE INFORMATION
#MNEM.UNIT       API CODE    CURVE DESCRIPTION
#----------   ------------   ------------------------------
 DEPT.F                  :   
 GRR .GAPI   07 310 01 00:   GAMMA RAY FROM RES. LOG.
 RLL .OHMM   07 220 00 00:   LATEROLOG RESISTIVITY
 RILD.OHMM   07 120 46 00:   INDUCTION LOG DEEP RESISTIVITY
 RILM.OHMM   07 120 44 00:   INDUCTION LOG MEDIUM RESISTIVITY
 SPR .MV     07 010 01 00:   SPONTANEOUS POTENTIAL
~PARAMETER INFORMATION
#MNEM.UNIT          VALUE    DESCRIPTION
#----------   ------------   ------------------------------
 PD  .                 GL:   PERMANENT DATUM
 EPD .F              5163:   ELEVATION PERMANENT DATUM
 LMF .                 KB:   LOG MEASURED FROM
 DAPD.F                10:   FEET ABOVE PERMANENT DATUM
 DMF .                 KB:   DRILLING MEASURED FROM
 EKB .F              5173:   KELLING BUSHING
 EDF .F              5172:   DRILLING FLOOR
 EGL .F              5163:   GROUND LEVEL
 DATE.            9-16-88:   RUN DATE
 RUN .                  1:   RUN NUMBER
 DD  .F               550:   DEPTH DRILLER
 DL  .F               545:   DEPTH LOGGER
 BLI .F               542:   BOTTOM LOG INTERVAL
 CS  .IN            9.625:   CASING SIZE
 CBD .F                50:   CASING BOTTOM DRILLER
 CBL .F                50:   CASING BOTTOM LOGGER
 BS  .IN             8.75:   BIT SIZE
 BSD .F               550:   BIT SIZE AT DEPTH
 DFT .                MUD:   DRILLING FLUID TYPE
 MSS .           FLOWLINE:   MUD SAMPLE SOURCE
 RMS .OHMM            .55:   RESISTIVITY MUD SAMPLE
 MST .F                70:   MUD SAMPLE TEMPERATURE
 RMF .OHMM            .42:   RESISTIVITY MUD FILTRATE SAMPLE
 MFST.F                71:   MUD FILTRATE SAMPLE TEMPERATURE
 RMC .OHMM            .71:   RESISTIVITY MUD CAKE
 MCST.F                71:   MUD CAKE SAMPLE TEMPERATURE
 MFSS.                  M:   MUD FILTRATE SAMPLE SOURCE
 MCSS.                  M:   MUD CAKE SAMPLE SOURCE
 RMB .OHMM            .30:   RESISTIVITY MUD AT BHT
 BHT .F                81:   BOTTOM HOLE TEMPERATURE
 TCS .HRS            1430:   TIME CURCULATED STOPPED
 TLAB.HRS            1900:   TIME LOGGER AT BOTTOM
 MRT .F                81:   MAXIMUM RECORDED TEMPERATURE
 LUN .               7597:   LOGGING UNIT NUMBER
 LUL .           GILLETTE:   LOGGING UNIT LOCATION
 ENGI.     BENCK/ROUSSEAU:   RECORDING ENGINEER
 WITN.             STRONG:   WITNESSED BY
 CLNT.            A2DTECH:   CLIENT CODE
 ORIG.        2" 5" PRINT:   ORIGIN OF DATA
 UWI .       490251124300:   UNIQUE WELL ID
 DICO. A2D Technologies, Inc.:   DIGITIZING COMPANY
~OTHER INFORMATION
~A    DEPT      GRR       RLL       RILD       RILM        SPR   
# ...
   61.0000    72.6251   104.0411     1.7500     1.5162   -36.6256
   61.5000    73.1484   102.1096     1.9580     1.7316   -37.2454
   62.0000    77.1780    80.6984     2.1384     1.9775   -38.2559
   62.5000    84.0374    64.9420     2.3355     2.1819   -39.3957
   63.0000    91.0674    50.4109     2.5507     2.2183   -40.5553
   63.5000    90.2384    28.9744     2.7880     2.2550   -40.8868
   64.0000    88.5002    15.9724     2.9637     2.2926   -40.2470
   64.5000    87.2652    16.4277     3.0308     2.3428   -39.5373
   65.0000    89.4819    15.6679     3.0991     2.4210   -40.3797
   65.5000    92.7625    17.7703     3.0840     2.5015   -41.3529
   66.0000    95.9464    21.6565     3.0704     2.5846   -42.3443
   66.5000    93.1244    26.3781     3.1370     2.6705   -42.3497
   67.0000    89.3624    31.7405     3.3261     2.7439   -41.7726
   67.5000    90.8332    36.0901     3.5599     2.7252   -41.5727
   68.0000    93.3476    46.2309     3.8101     2.7166   -41.7979
   68.5000    93.6312    59.5187     4.0779     3.0406   -41.9437
   69.0000    87.2491    76.6258     4.3643     3.3418   -41.8361
   69.5000    81.6334    98.3535     4.6726     3.6728   -41.6317
   70.0000    77.7240   101.1573     4.8594     4.0366   -41.0836
   70.5000    76.9148    90.8129     5.0880     4.3826   -40.5436
   71.0000    78.3732    68.1926     5.3809     4.3184   -40.0049
   71.5000    79.8662    44.1331     5.6907     4.2530   -39.4851
   72.0000    80.4044    28.5623     6.0188     4.1900   -39.1106
   72.5000    79.4358    21.5770     6.3637     4.1439   -38.7480
   73.0000    76.3868    18.7268     6.6201     4.3503   -38.3803
   73.5000    73.3894    16.4604     6.6747     4.5216   -38.2364
   74.0000    72.4051    12.6170     6.7380     4.7002   -38.1003
   74.5000    71.8470     9.0371     7.0205     4.8845   -37.9694
   75.0000    69.4866     6.4729     7.3448     4.9814   -37.8760
   75.5000    66.8867     5.6163     7.6842     5.0936   -38.2304
   76.0000    65.7038     5.3367     8.0393     5.0920   -38.5881
   76.5000    69.4325     5.3916     8.5258     5.1074   -38.7898
   77.0000    73.6506     5.4979     8.5258     5.1208   -38.9530
   77.5000    75.5256     5.5921     8.4723     5.1404   -39.1140
   78.0000    75.1594     5.3546     8.0798     5.0837   -39.2857
   78.5000    74.2086     5.1536     7.7070     4.9753   -39.6812
   79.0000    73.2457     4.9603     7.3512     4.6985   -40.0994
   79.5000    72.2845     4.7692     7.0121     4.2710   -40.5177
   80.0000    71.3260     4.6807     6.6874     4.0122   -40.9355
   80.5000    70.5478     4.8885     6.4484     3.9621   -41.3536
   81.0000    71.1568     5.1116     6.3208     3.9177   -41.7704
   81.5000    71.7805     5.3436     6.1963     4.1372   -42.2680
   82.0000    72.4000     5.4494     6.0743     4.3724   -42.8167
   82.5000    73.0146     5.4780     5.9718     4.6204   -43.3611
   83.0000    73.6172     5.4889     5.9718     4.8821   -44.1707
   83.5000    74.3428     5.2954     5.9947     5.1586   -45.1211
   84.0000    77.5494     5.1637     6.0936     5.4377   -46.0764
   84.5000    80.7783     5.0925     6.1939     5.5278   -47.0325
   85.0000    83.8859     5.0925     6.2962     5.6155   -47.9866
   85.5000    89.4251     5.0925     6.3998     5.7045   -48.8922
   86.0000    95.2049     5.3735     6.4972     5.7951   -49.4924
   86.5000   100.9076     5.7407     6.4676     5.8844   -50.0688
   87.0000   103.7999     6.1331     6.4238     5.9683   -50.6451
   87.5000   104.8269     6.3562     6.3769     6.0280   -51.2202
   88.0000   105.2952     6.5000     6.4220     5.6481   -51.8225
   88.5000   105.7581     6.6470     6.4969     5.3717   -52.4652
   89.0000   106.2367     6.8089     6.4317     5.1404   -53.1323
   89.5000   107.5783     6.7192     6.3062     5.3169   -53.1280
   90.0000   110.8477     6.6403     6.1999     5.4791   -52.8148
   90.5000   114.1186     6.5624     6.2262     5.6462   -52.5472
   91.0000   117.0511     6.4854     6.4085     5.8609   -52.7458
   91.5000   116.3430     6.3766     6.5961     5.8454   -52.9496
   92.0000   112.8990     6.3256     6.7893     5.8250   -53.1175
   92.5000   109.2721     6.1999     6.8937     5.8047   -53.3890
   93.0000   105.5663     6.2582     6.9301     5.7844   -53.6648
   93.5000   106.5207     6.3422     6.9748     5.7642   -53.7726
   94.0000   109.2093     6.4492     7.0219     5.7505   -53.7757
   94.5000   111.7527     6.5593     7.0695     5.9756   -53.8641
   95.0000   110.7924     6.8172     7.1173     6.2641   -54.3437
   95.5000   109.6912     7.0693     7.1655     6.5670   -54.7812
   96.0000   108.5952     7.3300     7.2140     6.8730   -54.6776
   96.5000   107.5225     7.6004     7.2628     6.9405   -54.5559
   97.0000   108.1233     7.8804     7.3617     7.0030   -54.4365
   97.5000   111.7522     8.1710     7.4711     7.0030   -54.3176
   98.0000   115.3006     8.2298     7.5822     7.0030   -54.2000
   98.5000   118.8797     8.2502     7.6949     7.0030   -54.1429
   99.0000   116.3691     8.2708     7.8093     6.9377   -54.0958
   99.5000   113.1019     8.2895     7.9254     7.1392   -54.0497
  100.0000   109.7927     8.4333     7.9846     7.4432   -54.0023
  100.5000   108.2252     8.5673     8.1449     7.7603   -54.2626
  101.0000   110.2485     8.7034     8.2936     7.9846   -54.8237
  101.5000   112.5737     8.9460     8.4450     7.9583   -55.3873
  102.0000   113.5039     9.2418     8.5992     7.9099   -55.9476
  102.5000   113.2290     9.5473     8.7562     7.9563   -56.3412
  103.0000   111.1500     9.8451     8.9160     8.0426   -55.5498
  103.5000   109.0867    10.0553     9.0188     8.1295   -55.7171
  104.0000   107.0070    10.2048     8.9729     8.2174   -56.5913
  104.5000   104.9799    10.2558     8.9395     8.2895   -56.3586
  105.0000   105.2093    10.2830     8.9061     8.2140   -56.4804
  105.5000   107.1762     9.9489     8.8729     8.1509   -57.1708
  106.0000   109.1137     9.7163     8.8398     8.0884   -57.3421
  106.5000   111.0622     9.4891     8.8068     8.0263   -57.1097
  107.0000   113.4973     9.2673     8.7740     7.9647   -57.2371
  107.5000   115.9565     9.1518     8.7270     7.9036   -57.9856
  108.0000   118.4204     9.0937     8.6776     7.8429   -57.4277
  108.5000   119.4027     9.0360     8.6285     7.7623   -57.6861
  109.0000   120.3175     8.9786     8.5796     7.8024   -58.0488
  109.5000   121.2412     8.9216     8.5311     7.8843   -57.7054
  110.0000   121.9811     8.8650     8.4828     7.9679   -57.3527
  110.5000   119.9419     8.8087     8.4347     8.0524   -57.5313
  111.0000   119.7089     8.7528     8.3870     8.1372   -57.9490
  111.5000   121.6284     8.6972     8.3395     8.2132   -58.3720
  112.0000   123.4676     8.6419     8.2923     8.1351   -58.6734
  112.5000   124.2558     8.5779     8.2453     8.0530   -58.5354
  113.0000   122.9723     8.4971     8.1987     7.9717   -58.4701
  113.5000   121.7330     8.4171     8.1522     7.8913   -58.3921
  114.0000   121.2330     8.3378     8.1061     7.8117   -57.9169
  114.5000   120.7639     8.2592     8.0597     7.7632   -57.3658
  115.0000   120.2892     8.1815     8.0511     7.7632   -57.1342
  115.5000   119.8109     8.1038     8.0425     7.7633   -56.8855
  116.0000   119.3032     8.0599     8.0338     7.7625   -56.9473
  116.5000   120.0862     8.0968     8.0252     7.7618   -57.0930
  117.0000   121.2184     8.1234     8.0166     7.7632   -57.2404
  117.5000   122.3588     8.1502     8.0079     7.4904   -57.3889
  118.0000   123.5005     8.1770     7.9993     7.2026   -57.4205
  118.5000   124.6498     8.2117     7.9862     7.1317   -57.3752
  119.0000   125.6380     8.1608     7.9873     7.1327   -57.3287
  119.5000   125.2026     8.0832     7.8740     7.1751   -57.2814
  120.0000   124.9674     8.0070     7.7885     7.2026   -57.2097
  120.5000   124.7575     7.9316     7.7039     7.2299   -57.0291
  121.0000   124.4840     7.8568     7.6207     7.2573   -56.8515
  121.5000   123.0326     7.7830     7.5478     7.2704   -56.6740
