~VERSION INFORMATION
 VERS.                2.0:   CWLS LOG ASCII STANDARD - VERSION 2.0
 WRAP.                 NO:   ONE LINE PER DEPTH STEP
~WELL INFORMATION
#MNEM.UNIT      DATA TYPE    INFORMATION
#----------   ------------   ------------------------------
 STRT.F            4.0000:   START DEPTH
 STOP.F          674.0000:   STOP DEPTH
 STEP.F            0.5000:   STEP LENGTH
 NULL.          -999.2500:   NO VALUE
 COMP. LAWRENCE/ALLISON INC:   COMPANY
 WELL.         21X #10-10:   WELL
 FLD .             TEAPOT:   FIELD
 LOC .      S10 T38N R78W:   LOCATION
 CNTY.            NATRONA:   COUNTY
 STAT.            WYOMING:   STATE
 CTRY. UNITED STATES OF AMERICA:   COUNTRY
 SRVC.           Gearhart:   SERVICE COMPANY
 DATE.        17-AUG-1987:   LOGDATE
 API .       490251118400:   API NUMBER
~CURVE INFORMATION
#MNEM.UNIT       API CODE    CURVE DESCRIPTION
#----------   ------------   ------------------------------
 DEPT.F                  :   
 GRR .GAPI   07 310 01 00:   GAMMA RAY FROM RESISTIVITY
 ILD .OHMM   07 120 46 00:   INDUCTION LOG DEEP
 ILM .OHMM   07 120 44 00:   INDUCTION LOG MEDIUM
~PARAMETER INFORMATION
#MNEM.UNIT          VALUE    DESCRIPTION
#----------   ------------   ------------------------------
 PD  .                 GL:   PERMANENT DATUM
 EPD .F              5253:   ELEVATION PERMANENT DATUM
 LMF .                 KB:   LOG MEASURED FROM
 DAPD.F                12:   FEET ABOVE PERMANENT DATUM
 DMF .                 KB:   DRILLING MEASURED FROM
 EKB .F              5265:   KELLING BUSHING
 EDF .F              5263:   DRILLING FLOOR
 EGL .F              5253:   GROUND LEVEL
 DATE.        17-AUG-1987:   RUN DATE
 RUN .                  1:   RUN NUMBER
 DD  .F               690:   DEPTH DRILLER
 DL  .F               682:   DEPTH LOGGER
 BLI .F               674:   BOTTOM LOG INTERVAL
 TLI .F                60:   TOP LOG INTERVAL
 CS  .IN            8.625:   CASING SIZE
 CBD .F                50:   CASING BOTTOM DRILLER
 CBL .F                60:   CASING BOTTOM LOGGER
 BS  .IN             7.87:   BIT SIZE
 BSD .F               690:   BIT SIZE AT DEPTH
 DFT .               FOAM:   DRILLING FLUID TYPE
 TCS .HRS            1500:   TIME CURCULATED STOPPED
 TLAB.HRS            1609:   TIME LOGGER AT BOTTOM
 LUN .               7597:   LOGGING UNIT NUMBER
 LUL .           GILLETTE:   LOGGING UNIT LOCATION
 ENGI.           JOHNSTON:   RECORDING ENGINEER
 WITN.             STRONG:   WITNESSED BY
 CLNT.            A2DTECH:   CLIENT CODE
 ORIG.       2", 5" PRINT:   ORIGIN OF DATA
 UWI .       490251118400:   UNIQUE WELL ID
 DICO. A2D Technologies, Inc.:   DIGITIZING COMPANY
~OTHER INFORMATION
~A    DEPT      GRR       ILD        ILM   
# ...
   95.0000   114.7443     7.8246     7.0570
   95.5000   112.9355     7.8251     7.1577
   96.0000   111.1267     7.8804     7.3106
   96.5000   110.8340     7.8810     7.4668
   97.0000   112.6763     7.8268     7.6797
   97.5000   112.0834     7.8274     7.7892
   98.0000   107.5390     7.8279     7.7908
   98.5000   105.4263     7.8832     7.7924
   99.0000   104.2249     7.9389     7.7398
   99.5000   104.5443     7.9395     7.6875
  100.0000   104.8632     7.8388     7.5826
  100.5000   106.4276     7.5636     7.2723
  101.0000   108.8480     7.3567     7.1720
  101.5000   111.9023     7.1561     6.9751
  102.0000   112.2211     7.1079     6.8787
  102.5000   112.8439     7.1093     6.8315
  103.0000   113.7706     7.2611     6.8798
  103.5000   113.7854     7.5232     6.8803
  104.0000   112.8884     7.7432     6.8808
  104.5000   111.0795     7.7906     7.0269
  105.0000   109.2706     7.7921     7.0766
  105.5000   107.7657     7.9032     7.1266
  106.0000   105.8116     8.0158     7.6956
  106.5000   101.4161     8.1869     8.0252
  107.0000    98.0875     8.4201     8.1955
  107.5000    97.7947     8.5999     8.2535
  108.0000    98.7251     8.7224     8.2540
  108.5000   100.5636     8.7853     8.2546
  109.0000   106.3535     8.7875     8.2553
  109.5000   109.7119     8.7282     8.2558
  110.0000   110.3346     8.6091     8.2564
  110.5000   108.8207     8.4326     8.2570
  111.0000   107.8946     8.0888     8.2575
  111.5000   106.7317     8.0904     8.0308
  112.0000   107.9660     7.9796     7.5953
  112.5000   108.8927     7.8164     7.1335
  113.0000   109.2115     7.7637     7.1840
  113.5000   109.2264     7.8197     7.1845
  114.0000   109.8491     7.8763     7.1850
  114.5000   110.7758     7.9886     7.1855
  115.0000   112.6144     7.9902     7.1860
  115.5000   114.7569     7.9918     7.2368
  116.0000   115.6839     7.9934     7.5467
  116.5000   115.3981     8.0510     7.8699
  117.0000   112.6774     8.1657     8.0974
  117.5000   108.1330     8.1674     8.2651
  118.0000   109.0597     8.1691     8.3235
  118.5000   110.5943     8.1708     8.2661
  119.0000   111.5210     8.1728     8.2092
  119.5000   112.1437     8.1745     8.2099
  120.0000   112.7665     8.2333     8.2104
  120.5000   113.0852     8.2926     8.2685
  121.0000   112.4922     8.4108     8.3269
  121.5000   111.8991     8.4714     8.3238
  122.0000   112.5256     8.5324     8.2702
  122.5000   111.9325     8.5341     8.2709
  123.0000   111.3357     8.5359     8.2138
  123.5000   110.7464     8.4787     8.1006
  124.0000   111.9770     8.3049     7.9889
  124.5000   112.5998     8.1347     7.8787
  125.0000   112.6146     8.1363     7.7701
  125.5000   111.7173     8.1380     7.5567
  126.0000   114.1885     8.0827     7.4007
  126.5000   116.9524     7.9728     7.4530
  127.0000   117.5372     7.9190     7.4017
  127.5000   115.4281     7.9206     7.2996
  128.0000   113.0113     7.8672     7.1989
  128.5000   111.8066     7.8692     7.1996
  129.0000   111.8252     7.8708     7.2000
  129.5000   111.8400     7.8724     7.2510
  130.0000   111.8548     7.8738     7.3533
  130.5000   111.8697     7.9307     7.4076
  131.0000   111.5806     7.9878     7.5099
  131.5000   112.2310     8.0454     7.5106
  132.0000   112.5258     8.1033     7.4587
  132.5000   112.5407     8.1050     7.4593
  133.0000   112.5555     8.1067     7.5121
  133.5000   112.5703     8.1654     7.5652
  134.0000   113.4970     8.2242     7.6187
  134.5000   115.9435     8.2834     7.7263
  135.0000   119.6057     8.2276     7.7809
  135.5000   121.1403     8.2292     7.8359
  136.0000   121.1552     8.2885     7.9467
  136.5000   113.4681     8.5247     8.0589
  137.0000   108.0223     8.6461     8.0595
  137.5000   106.9140     8.7694     8.1165
  138.0000   106.0170     8.7716     8.1737
  138.5000   110.2908     8.7733     8.1174
  139.0000   113.0412     8.7751     8.1750
  139.5000   114.5758     8.6554     8.2341
  140.0000   116.4144     8.5966     8.2987
  140.5000   119.4687     8.5988     8.4082
  141.0000   121.0033     8.7823     8.5269
  141.5000   121.3221     8.8455     8.6473
  142.0000   120.3890     8.8474     8.7085
  142.5000   120.1360     8.8492     8.7894
  143.0000   122.2822     8.9056     8.8320
  143.5000   123.2089     8.9772     8.5896
  144.0000   122.3119     8.9791     8.5303
  144.5000   120.8069     9.0442     8.5310
  145.0000   119.9099     9.3019     8.5316
  145.5000   119.6171     9.4344     8.7133
  146.0000   120.2436     9.5024     8.8431
  146.5000   121.4742     9.7052     8.9606
  147.0000   122.4276     9.9123     9.0240
  147.5000   123.3313     9.9837     9.0878
  148.0000   120.9145    10.0556     9.4770
  148.5000   116.0661    10.4162     9.7459
  149.0000   115.7733    10.4896     9.6788
  149.5000   116.0958    10.4922     9.7472
  150.0000   116.7186    10.5204    10.0950
  150.5000   118.2580    10.4946    10.3818
  151.0000   117.0601    10.7173    10.5387
  151.5000   114.6464    11.0211    10.6936
  152.0000   114.0564    11.0219    10.9087
  152.5000   114.3782    11.0998    10.9874
  153.0000   114.0877    11.1006    10.9896
  153.5000   113.1983    11.0243    10.9155
  154.0000   109.8727    11.0251    10.7659
  154.5000   109.2807    10.8732    10.6932
  155.0000   109.9088    10.7982    10.6211
  155.5000   110.2736    10.7239    10.6238
  156.0000   112.9883    10.5028    10.7004
  156.5000   116.3497    10.3579    10.6276
  157.0000   121.2308    10.3588    10.5564
  157.5000   123.9843    10.3691    10.2680
  158.0000   123.3943    10.2882    10.0574
  158.5000   121.5885    10.2174    10.1299
  159.0000   120.9985    10.1471    10.2030
  159.5000   121.3204    10.2190    10.0539
  160.0000   124.0738    10.1487     9.9267
  160.5000   123.4838    10.2204     9.9288
  161.0000   121.0701    10.2211     9.9308
  161.5000   114.9848    10.2218     9.9329
  162.0000   112.2914    10.0809     9.8653
  162.5000   115.2483     9.6686     9.6634
  163.0000   119.3226     9.3380     9.3341
  163.5000   121.1642     9.1453     9.1421
  164.0000   121.7855     9.0765     9.0804
  164.5000   120.8916     9.2750     9.2104
  165.0000   121.2179     9.4761     9.3418
  165.5000   121.8437     9.6726     9.4750
  166.0000   121.8616     9.7410     9.6101
  166.5000   121.5711     9.6068     9.7472
  167.0000   122.2014     9.4086     9.7519
  167.5000   123.7391     9.4092     9.8196
  168.0000   121.6293     9.4099     9.8217
  168.5000   121.0393     9.5427     9.7553
  169.0000   121.7021     9.6101     9.8257
  169.5000   125.9428     9.5440     9.8277
  170.0000   127.4805     9.3471     9.7569
  170.5000   126.5865     9.2183     9.5528
  171.0000   122.3447     9.0895     9.3530
  171.5000   122.3670     8.8971     8.9209
  172.0000   122.0765     8.5993     8.7375
  172.5000   122.3984     8.3634     8.4992
  173.0000   121.5044     8.1338     8.3827
  173.5000   122.4387     8.0778     7.9852
  174.0000   125.4961     8.0785     7.5532
  174.5000   129.1614     8.1356     7.2957
  175.0000   131.6109     8.1362     7.1957
  175.5000   132.5410     8.1936     7.2480
  176.0000   131.8622     8.1372     7.4028
  176.5000   128.0217     8.1948     7.6139
  177.0000   123.4804     8.3685     7.8310
  177.5000   120.7627     8.7918     8.1675
  178.0000   117.7411     8.9741     8.3436
  178.5000   115.0235     9.0376     8.5255
  179.0000   114.1250     9.1015     8.7723
  179.5000   114.7553     9.1021     8.9509
  180.0000   115.0772     8.9143     8.9527
  180.5000   115.0951     8.8528     8.8923
  181.0000   114.5046     8.6703     8.9564
  181.5000   114.5230     8.2579     8.9580
  182.0000   115.1570     8.0874     8.9599
  182.5000   115.8055     8.1446     8.9621
  183.0000   116.0965     8.1452     8.9640
  183.5000   114.2952     8.1458     9.0286
  184.0000   114.0046     8.2033     9.0937
  184.5000   114.3310     8.2614     9.1593
  185.0000   116.4766     8.4366     9.3549
  185.5000   118.0142     9.0464     9.4883
