~VERSION INFORMATION
 VERS.                2.0:   CWLS LOG ASCII STANDARD - VERSION 2.0
 WRAP.                 NO:   ONE LINE PER DEPTH STEP
~WELL INFORMATION
#MNEM.UNIT      DATA TYPE    INFORMATION
#----------   ------------   ------------------------------
 STRT.F            0.0000:   START DEPTH
 STOP.F          537.0000:   STOP DEPTH
 STEP.F            0.5000:   STEP LENGTH
 NULL.          -999.2500:   NO VALUE
 COMP.   FLUOR DANIEL INC:   COMPANY
 WELL. NAVAL PETROLEUM RESERVE 3 X 83 #6-10:   WELL
 FLD .             TEAPOT:   FIELD
 LOC .      S10 T38N R78W:   LOCATION
 CNTY.            NATRONA:   COUNTY
 STAT.            WYOMING:   STATE
 CTRY. UNITED STATES OF AMERICA:   COUNTRY
 SRVC.      Western Atlas:   SERVICE COMPANY
 DATE.        30-APR-1996:   LOGDATE
 API .       490252278500:   API NUMBER
~CURVE INFORMATION
#MNEM.UNIT       API CODE    CURVE DESCRIPTION
#----------   ------------   ------------------------------
 DEPT.F                  :   
 GRR .GAPI   07 310 01 00:   GAMMA RAY FROM RES. LOG.
 RILD.OHMM   07 120 46 00:   INDUCTION LOG DEEP RESISTIVITY
 RILM.OHMM   07 120 44 00:   INDUCTION LOG MEDIUM RESISTIVITY
~PARAMETER INFORMATION
#MNEM.UNIT          VALUE    DESCRIPTION
#----------   ------------   ------------------------------
 PD  .                 GL:   PERMANENT DATUM
 EPD .F              5178:   ELEVATION PERMANENT DATUM
 LMF .                 KB:   LOG MEASURED FROM
 DAPD.F                10:   FEET ABOVE PERMANENT DATUM
 DMF .                 KB:   DRILLING MEASURED FROM
 EKB .F              5188:   KELLING BUSHING
 EDF .F              5187:   DRILLING FLOOR
 EGL .F              5178:   GROUND LEVEL
 DATE.            4-30-96:   RUN DATE
 RUN .                  1:   RUN NUMBER
 DD  .F               545:   DEPTH DRILLER
 DL  .F               545:   DEPTH LOGGER
 BLI .F               537:   BOTTOM LOG INTERVAL
 CS  .IN            9.625:   CASING SIZE
 CBD .F                96:   CASING BOTTOM DRILLER
 CBL .F                96:   CASING BOTTOM LOGGER
 BS  .IN             8.75:   BIT SIZE
 BSD .F               545:   BIT SIZE AT DEPTH
 DFT .                AIR:   DRILLING FLUID TYPE
 BHT .F                82:   BOTTOM HOLE TEMPERATURE
 MRT .F                82:   MAXIMUM RECORDED TEMPERATURE
 LUN .            ML 4116:   LOGGING UNIT NUMBER
 LUL .             CASPER:   LOGGING UNIT LOCATION
 ENGI.        VERN RAUTIO:   RECORDING ENGINEER
 WITN.         JAY LEBERU:   WITNESSED BY
 CLNT.            A2DTECH:   CLIENT CODE
 ORIG.        2" 5" PRINT:   ORIGIN OF DATA
 UWI .       490252278500:   UNIQUE WELL ID
 DICO. A2D Technologies, Inc.:   DIGITIZING COMPANY
~OTHER INFORMATION
~A    DEPT       GRR     RILD       RILM   
# ...
  182.0000   105.8089    10.8050    11.0845
  182.5000   106.0211    10.7301    11.0172
  183.0000   104.4828    10.6556    10.9503
  183.5000   103.0964    10.5898    10.8838
  184.0000   103.5246    10.6214    10.8177
  184.5000   104.2787    10.6560    10.7897
  185.0000   105.3957    10.6893    10.9472
  185.5000   106.5083    10.7313    11.0814
  186.0000   107.6107    10.7813    11.2172
  186.5000   108.4265    10.8315    11.3546
  187.0000   104.9871    10.8919    11.4123
  187.5000   100.5770    10.8920    11.2682
  188.0000    96.1915    10.8172    11.1657
  188.5000    95.8242    10.7472    11.0366
  189.0000    98.6482    10.6893    10.8511
  189.5000   101.9602    10.4379    10.6688
  190.0000   107.6602    10.1867    10.4895
  190.5000   112.7982     9.9188    10.2969
  191.0000   115.2678     9.7884    10.1614
  191.5000   111.5275     9.6464    10.0140
  192.0000   110.2037     9.5064     9.8687
  192.5000   110.5247     9.3777     9.7357
  193.0000   110.7598     9.3245     9.6753
  193.5000   109.0911     9.2642     9.6088
  194.0000   107.4528     9.2042     9.5422
  194.5000   106.2040     9.1446     9.4760
  195.0000   104.9538     9.0854     9.4103
  195.5000   103.7934     9.0334     9.3450
  196.0000   105.6215     9.0069     9.2802
  196.5000   107.2927     8.8661     9.2039
  197.0000   107.7243     8.9086     9.2477
  197.5000   108.1710     8.9774     9.3193
  198.0000   108.6128     9.0467     9.3918
  198.5000   109.0558     9.1183     9.4658
  199.0000   108.6274     9.1303     9.6358
  199.5000   106.2641     9.1457     9.8574
  200.0000   103.7461     9.1611    10.1061
  200.5000   101.1369     9.1764     9.9982
  201.0000   101.0438     9.1916     9.8489
  201.5000   101.6163     9.2032     9.6811
  202.0000   102.2031     9.0065     9.4472
  202.5000   102.7826     8.8490     9.2190
  203.0000   103.3610     8.6940     9.0136
  203.5000   103.9397     8.5418     8.8268
  204.0000   104.5261     8.3924     8.6436
  204.5000   106.5021     8.2447     8.4642
  205.0000   108.6533     8.1094     8.2888
  205.5000   109.3943     7.9913     8.1341
  206.0000   110.7549     7.8749     8.0517
  206.5000   112.1084     7.7602     7.9701
  207.0000   112.3032     7.6472     7.8893
  207.5000   108.9948     7.5358     7.8093
  208.0000   104.9056     7.4917     7.7782
  208.5000   100.3390     7.5121     7.7985
  209.0000   103.4286     7.5281     7.8151
  209.5000   108.2113     7.5442     7.8317
  210.0000   112.3248     7.5604     7.8485
  210.5000   112.5733     7.5632     7.8514
  211.0000   111.5270     7.5618     7.8500
  211.5000   110.0057     7.6294     7.9202
  212.0000   107.6227     7.6743     7.9668
  212.5000   105.0698     7.7195     8.0137
  213.0000   102.6243     7.7649     8.0609
  213.5000   105.4362     7.8595     8.1591
  214.0000   109.1324     7.9757     8.2797
  214.5000   108.8651     8.0937     8.4020
  215.0000   105.7327     8.2133     8.5262
  215.5000   102.6064     8.2585     8.6059
  216.0000   101.0307     8.3604     8.8189
  216.5000   103.5842     8.4615     8.9494
  217.0000   106.4302     8.4261     8.8913
  217.5000   108.7202     8.3833     8.7618
  218.0000   109.3596     8.3410     8.6922
  218.5000   111.1260     8.2989     8.6743
  219.0000   114.1413     8.2570     8.6564
  219.5000   117.3473     8.2153     8.6385
  220.0000   119.0644     8.1739     8.6207
  220.5000   119.4746     8.1326     8.6029
  221.0000   118.3330     8.0916     8.5851
  221.5000   116.0940     8.0508     8.5674
  222.0000   112.6823     7.9989     8.5497
  222.5000   109.4852     7.9999     8.5321
  223.0000   106.6077     7.9995     8.5145
  223.5000   107.3691     7.9994     8.4969
  224.0000   111.4867     7.9995     8.4793
  224.5000   115.5549     7.9995     8.4614
  225.0000   116.7688     7.9995     8.4339
  225.5000   114.5152     7.9966     8.3988
  226.0000   114.0215     7.9822     8.3636
  226.5000   115.0753     7.9683     8.3286
  227.0000   116.1374     7.9544     8.2938
  227.5000   115.6435     7.9408     8.2591
  228.0000   112.8807     7.9267     8.2270
  228.5000   111.3360     7.7680     8.0358
  229.0000   112.2874     7.5936     7.8616
  229.5000   111.6984     7.4231     7.6911
  230.0000   109.3533     7.2565     7.5242
  230.5000   108.3504     7.0936     7.3622
  231.0000   108.3393     6.9056     7.1667
  231.5000   106.9337     6.6977     6.9471
  232.0000   104.9766     6.4961     6.7342
  232.5000   107.6082     6.3006     6.5261
  233.0000   111.1031     6.0954     6.3863
  233.5000   112.3549     5.9855     6.3362
  234.0000   110.1396     6.0122     6.2730
  234.5000   107.3748     6.0328     6.3726
  235.0000   104.7898     6.0895     6.5304
  235.5000   105.5619     6.2448     6.6920
  236.0000   108.5879     6.4042     6.8577
  236.5000   110.7896     6.5676     7.0274
  237.0000   112.2902     6.7351     7.1638
  237.5000   113.0779     6.9069     7.2998
  238.0000   113.8046     7.0838     7.4384
  238.5000   113.4633     7.1398     7.5796
  239.0000   110.5504     7.2100     7.7230
  239.5000   109.5711     7.2854     7.8541
  240.0000   109.8139     7.2650     7.6795
  240.5000   110.8164     7.2377     7.5953
  241.0000   112.7309     7.1940     7.5310
  241.5000   114.0483     7.1041     7.4672
  242.0000   113.7277     7.0153     7.4040
  242.5000   113.3461     6.9276     7.3538
  243.0000   112.9518     6.8411     7.2140
  243.5000   112.5642     6.7556     7.0783
  244.0000   112.8913     6.6712     6.9451
  244.5000   116.1708     6.4235     6.7404
  245.0000   117.5383     6.0673     6.4891
  245.5000   113.5304     5.7308     6.0880
  246.0000   108.9249     5.4130     5.6851
  246.5000   106.4152     5.1067     5.3013
  247.0000   106.7156     4.9859     5.1347
  247.5000   107.2488     4.8326     4.9700
  248.0000   107.7827     4.7831     4.8734
  248.5000   108.3402     4.8785     5.0768
  249.0000   109.5647     4.9654     5.3076
  249.5000   110.8418     5.2038     5.6359
  250.0000   112.1207     5.4514     6.0054
  250.5000   113.3948     5.7125     6.3992
  251.0000   114.4085     5.9829     6.8238
  251.5000   114.0746     6.3484     6.9751
  252.0000   113.7643     6.8301     7.1316
  252.5000   113.4417     6.9604     7.2264
  253.0000   113.2805     7.0687     7.3384
  253.5000   116.6132     7.1780     7.4516
  254.0000   120.1223     7.2890     7.5668
  254.5000   123.0510     7.4017     7.6838
  255.0000   121.7297     7.5161     7.8030
  255.5000   119.3935     7.6341     7.9248
  256.0000   116.6113     7.6410     7.9431
  256.5000   114.1692     7.6731     8.0266
  257.0000   113.2989     7.7052     8.1110
  257.5000   113.6455     7.7375     8.1964
  258.0000   113.9608     7.7700     8.2826
  258.5000   114.6147     7.8026     8.3697
  259.0000   115.7541     7.8353     8.4036
  259.5000   117.0439     7.8513     8.4284
  260.0000   118.3430     7.9054     8.4534
  260.5000   119.2076     7.9636     8.4785
  261.0000   118.3948     8.0219     8.5036
  261.5000   115.4539     8.0754     8.5288
  262.0000   111.8297     8.0171     8.5406
  262.5000   110.4745     7.9547     8.4516
  263.0000   112.1976     7.8928     8.3858
  263.5000   114.3062     7.8314     8.3206
  264.0000   114.6431     7.7782     8.2559
  264.5000   113.0231     7.8256     8.2270
  265.0000   113.5160     7.8767     8.2277
  265.5000   114.3709     7.9265     8.2284
  266.0000   115.2155     7.8438     8.1426
  266.5000   115.2510     7.7228     8.0171
  267.0000   115.2390     7.6056     7.8943
  267.5000   114.9591     7.4917     7.7782
  268.0000   114.3856     7.2075     7.4808
  268.5000   114.1304     6.9406     7.2064
  269.0000   114.4264     6.5263     6.8005
  269.5000   114.7160     6.0164     6.3130
  270.0000   115.0067     5.5468     5.8578
  270.5000   115.2313     5.1129     5.4038
  271.0000   115.1063     4.6963     4.8748
  271.5000   114.9909     4.1105     4.3957
  272.0000   114.8799     3.5745     3.7879
  272.5000   114.0599     3.1090     3.2649
