~VERSION INFORMATION
 VERS.                2.0:   CWLS LOG ASCII STANDARD - VERSION 2.0
 WRAP.                 NO:   ONE LINE PER DEPTH STEP
~WELL INFORMATION
#MNEM.UNIT      DATA TYPE    INFORMATION
#----------   ------------   ------------------------------
 STRT.F            4.0000:   START DEPTH
 STOP.F          510.0000:   STOP DEPTH
 STEP.F            0.5000:   STEP LENGTH
 NULL.          -999.2500:   NO VALUE
 COMP. LAWRENCE/ALLISON INC:   COMPANY
 WELL.     68-46 SX #68-3:   WELL
 FLD .             TEAPOT:   FIELD
 LOC .       S3 T38N R78W:   LOCATION
 CNTY.            NATRONA:   COUNTY
 STAT.            WYOMING:   STATE
 CTRY. UNITED STATES OF AMERICA:   COUNTRY
 SRVC.           Gearhart:   SERVICE COMPANY
 DATE.        15-SEP-1987:   LOGDATE
 API .       490251116400:   API NUMBER
~CURVE INFORMATION
#MNEM.UNIT       API CODE    CURVE DESCRIPTION
#----------   ------------   ------------------------------
 DEPT.F                  :   
 GRR .GAPI   07 310 01 00:   GAMMA RAY
 RILD.OHMM   07 120 46 00:   INDUCTION LOG DEEP RESISTIVITY
 RILM.OHMM   07 120 44 00:   INDUCTION LOG MEDIUM RESISTIVITY
 RLL .OHMM   07 220 00 00:   LATEROLOG RESISTIVITY
 SPR .MV     07 010 01 00:   SPONTANEOUS POTENTIAL
~PARAMETER INFORMATION
#MNEM.UNIT          VALUE    DESCRIPTION
#----------   ------------   ------------------------------
 ENGI.           JOHNSTON:   RECORDING ENGINEER
 WITN.         MR. STRONG:   WITNESSED BY
 PD  .                 GL:   PERMANENT DATUM
 EPD .F              5162:   ELEVATION PERMANENT DATUM
 LMF .                 KB:   LOG MEASURED FROM
 DAPD.F                 8:   FEET ABOVE PERMANENT DATUM
 DMF .                 KB:   DRILLING MEASURED FROM
 EKB .F              5170:   KELLING BUSHING
 EDF .F              5169:   DRILLING FLOOR
 EGL .F              5162:   GROUND LEVEL
 DATE.        15-SEP-1987:   RUN DATE
 RUN .                  1:   RUN NUMBER
 DD  .F               519:   DEPTH DRILLER
 DL  .F               512:   DEPTH LOGGER
 BLI .F               500:   BOTTOM LOG INTERVAL
 TLI .F                50:   TOP LOG INTERVAL
 CS  .IN            8.625:   CASING SIZE
 CBD .F                50:   CASING BOTTOM DRILLER
 CBL .F                50:   CASING BOTTOM LOGGER
 BS  .IN             7.87:   BIT SIZE
 BSD .F               519:   BIT SIZE AT DEPTH
 DFT .                MUD:   DRILLING FLUID TYPE
 RMS .OHMM           0.64:   RESISTIVITY MUD SAMPLE
 MST .F                71:   MUD SAMPLE TEMPERATURE
 RMF .OHMM           0.48:   RESISTIVITY MUD FILTRATE SAMPLE
 MFST.F                71:   MUD FILTRATE SAMPLE TEMPERATURE
 RMC .OHMM           0.76:   RESISTIVITY MUD CAKE
 MCST.F                71:   MUD CAKE SAMPLE TEMPERATURE
 MFSS.              CHART:   MUD FILTRATE SAMPLE SOURCE
 MCSS.              CHART:   MUD CAKE SAMPLE SOURCE
 TCS .HRS            1100:   TIME CURCULATED STOPPED
 TLAB.HRS            1638:   TIME LOGGER AT BOTTOM
 LUN .               7650:   LOGGING UNIT NUMBER
 LUL .           GILLETTE:   LOGGING UNIT LOCATION
 CLNT.            A2DTECH:   CLIENT CODE
 ORIG.           5" PRINT:   ORIGIN OF DATA
 UWI .       490251116400:   UNIQUE WELL ID
 DICO. A2D Technologies, Inc.:   DIGITIZING COMPANY
~OTHER INFORMATION
~A    DEPT       GRR     RILD       RILM        RLL        SPR   
# ...
  126.0000   109.2846     8.8520     7.9153     8.6701   -37.7317
  126.5000   109.5890     8.7894     7.8589     8.4898   -37.1235
  127.0000   107.1537     8.8508     7.7392     8.2409   -36.5155
  127.5000   104.4140     8.8500     7.5324     8.0237   -36.2121
  128.0000   100.7610     8.8494     7.4264     7.8554   -36.2136
  128.5000    98.3257     8.7868     7.3218     7.9096   -36.2151
  129.0000    99.5576     8.6636     7.3208     8.0207   -36.2166
  129.5000   101.1608     8.6024     7.2687     8.1329   -36.6754
  130.0000   104.7184     8.6018     7.2676     8.1315   -36.9817
  130.5000   102.2831     8.5410     7.2667     8.0171   -36.8105
  131.0000   101.3699     8.4806     7.2656     7.9042   -36.5273
  131.5000   101.6743     8.4175     7.2138     7.9081   -36.5292
  132.0000   102.2831     8.2933     7.1623     8.0138   -36.5307
  132.5000   102.2831     8.0719     6.9549     8.1260   -36.3797
  133.0000   101.9787     7.9030     6.5665     8.0678   -36.2287
  133.5000   101.9787     7.6835     6.1778     7.5728   -35.9253
  134.0000   101.0208     7.4177     5.9639     7.0090   -35.3069
  134.5000    99.8478     7.2117     5.8388     6.5330   -34.7088
  135.0000   102.2831     7.1106     5.7972     6.3068   -34.1009
  135.5000   104.7184     7.1101     5.7964     6.2180   -33.3401
  136.0000   106.5449     7.1604     5.8366     6.3942   -32.7319
  136.5000   105.3272     7.3179     6.0018     7.1089   -32.2760
  137.0000   103.8052     7.5725     6.1719     7.3560   -31.6677
  137.5000   105.6317     7.7333     6.3879     7.4590   -31.9741
  138.0000   107.1619     7.8423     6.6189     7.5634   -31.4980
  138.5000   106.8077     7.9527     6.7628     7.6690   -30.7579
  139.0000   105.6317     8.1216     6.8816     7.7220   -30.1496
  139.5000   105.0228     8.2359     7.0045     7.6669   -29.8462
  140.0000   106.5449     8.2933     7.0963     7.5590   -29.6949
  140.5000   107.4581     8.2927     7.1957     7.4526   -29.8492
  141.0000   108.9802     8.2921     7.1945     7.5570   -30.0031
  141.5000   110.5023     8.2334     7.1431     7.7711   -30.0046
  142.0000   112.3288     8.1752     6.9933     7.8248   -29.8536
  142.5000   113.2420     8.1746     6.8949     7.7687   -29.7026
  143.0000   111.3770     8.0600     6.7978     7.6593   -29.7045
  143.5000   109.2846     7.9470     6.7021     7.6047   -29.7059
  144.0000   106.8493     7.7263     6.7012     7.6575   -29.7074
  144.5000   104.4140     7.4068     6.6963     7.6562   -29.7089
  145.0000   101.6743     7.0509     6.5982     7.6016   -29.7104
  145.5000    99.5434     6.8033     6.1570     7.3901   -29.5391
  146.0000    98.6301     6.5649     5.8200     7.0347   -28.9515
  146.5000   100.1522     6.2999     5.5792     6.6965   -28.1908
  147.0000   105.3334     6.1681     5.4239     6.5520   -27.7349
  147.5000   106.2405     6.0816     5.3102     6.4635   -27.1266
  148.0000   101.0655     6.1240     5.2723     6.5082   -26.5184
  148.5000    95.5860     6.1668     5.2716     6.5533   -26.3674
  149.0000    93.1507     6.2537     5.2709     6.6449   -25.9116
  149.5000    94.9772     6.4314     5.3823     6.7381   -25.6082
  150.0000   101.9787     6.6609     5.5570     6.9288   -25.0005
  150.5000   108.0670     6.8023     5.8047     7.1754   -24.8443
  151.0000   107.7626     6.9934     6.0525     7.3787   -24.6889
  151.5000   104.7184     7.2420     6.4140     7.4820   -24.3811
  152.0000   101.0248     7.5522     6.6899     7.5867   -24.6830
  152.5000   101.5221     7.7115     6.8804     7.7010   -23.7646
  153.0000   107.1537     7.8741     6.8804     7.8007   -23.1519
  153.5000   109.8935     8.0406     6.9289     7.9096   -22.6916
  154.0000   111.1111     8.2098     7.0269     7.9738   -22.2313
  154.5000   110.1979     8.3254     7.1764     8.1378   -21.7710
  155.0000   110.1979     8.4998     7.2830     8.2526   -20.7010
  155.5000   111.1111     8.6183     7.4328     8.4275   -21.0029
  156.0000   112.0244     8.7385     7.5379     8.4863   -21.3049
  156.5000   112.6332     8.7983     7.5910     8.5454   -20.9970
  157.0000   113.2420     8.7960     7.5379     8.5448   -20.9939
  157.5000   113.2420     8.4907     7.4328     8.4251   -20.8378
  158.0000   110.8067     8.4295     7.4852     8.1911   -20.3775
  158.5000   108.0670     8.6073     7.5910     8.1905   -20.0697
  159.0000   104.1096     8.7888     7.6983     8.2477   -19.9143
  159.5000   102.8919     8.8584     7.8072     8.4820   -19.6064
  160.0000   103.5008     8.9723     7.8072     8.6619   -19.1461
  160.5000   105.9361     8.9700     7.8622     8.7225   -18.8383
  161.0000   107.4581     8.9682     7.8622     8.7832   -18.6829
  161.5000   108.3714     8.9663     7.9176     8.7826   -18.6799
  162.0000   107.1537     8.9645     7.9176     8.7819   -18.0223
  162.5000   105.8853     8.9627     7.9176     8.7198   -17.1488
  163.0000   108.0670     8.9608     7.8622     8.7193   -16.9934
  163.5000   110.8067     8.9590     7.8622     8.6577   -16.8380
  164.0000   111.7199     8.8944     7.8072     8.5965   -16.6826
  164.5000   107.7626     8.7067     7.8072     8.4761   -16.6796
  165.0000   105.9361     8.3456     7.6983     8.4162   -16.3718
  165.5000   105.9361     7.9995     7.6445     8.2983   -15.9115
  166.0000   110.1979     7.7218     7.4852     8.2358   -14.8414
  166.5000   111.4155     7.3497     7.2270     8.1241   -14.2287
  167.0000   111.4155     7.0449     7.0269     7.9542   -14.2250
  167.5000   111.7707     6.8004     6.8804     7.7879   -14.2220
  168.0000   113.5464     6.5569     6.6899     7.6251   -14.0674
  168.5000   115.3729     6.2917     6.5015     7.3616   -14.5213
  169.0000   115.0685     6.0308     6.1494     7.0081   -14.5182
  169.5000   112.9376     5.7807     5.8958     6.7186   -14.5152
  170.0000   111.4155     5.4636     5.4961     6.3960   -14.5122
  170.5000   109.2846     4.9161     5.0877     6.0790   -14.6618
  171.0000   106.5449     4.3618     4.5792     5.6756   -14.6580
  171.5000   105.3272     3.9803     4.0074     5.2535   -14.5026
  172.0000   105.9361     3.4822     3.5566     4.8970   -14.1948
  172.5000   106.2405     3.1488     3.2236     4.2852   -14.0394
  173.0000   103.8052     2.9200     2.9170     3.7763   -13.8840
  173.5000   101.6743     2.8585     2.6205     3.3278   -13.4237
  174.0000    99.2390     2.8579     2.4688     3.1458   -12.9634
  174.5000    98.0213     2.8573     2.4344     3.0585   -12.1789
  175.0000    97.4125     2.8971     2.4862     3.2693   -11.2551
  175.5000   101.3699     3.0212     2.6484     3.7223   -10.5147
  176.0000   106.8493     3.2405     2.8812     4.2234   -10.5117
  176.5000   113.2420     3.5755     3.2011     4.7251   -10.3563
  177.0000   112.6129     4.0766     3.5816     5.2127   -10.2009
  177.5000   111.6692     4.7324     4.0713     5.7912   -10.0455
  178.0000   112.9376     5.2204     4.6000     6.3441    -9.7376
  178.5000   118.1126     5.7185     5.1235     6.7574    -9.5822
  179.0000   119.9391     6.2641     5.4576     6.9543    -9.2744
  179.5000   120.2435     6.5324     5.6526     6.8519    -9.2713
  180.0000   119.0259     6.7176     5.7729     6.7086    -9.2677
  180.5000   117.5038     6.7632     5.8958     6.6147    -9.1123
  181.0000   114.4597     6.7144     5.8958     6.6142    -9.1093
  181.5000   108.9802     6.6595     5.9373     6.6138    -9.1063
  182.0000   109.0614     6.4343     5.9373     6.7069    -9.1034
  182.5000   113.4957     6.2548     5.8835     6.7536    -9.1004
  183.0000   117.8082     6.0802     5.5738     6.8007    -9.0974
  183.5000   119.9391     5.8691     5.0167     6.5061    -9.0945
  184.0000   122.0700     5.7455     4.7427     5.9506    -8.9390
  184.5000   123.5921     5.6245     4.6114     5.6649    -8.9360
  185.0000   124.8097     5.5061     4.5792     5.5076    -8.9324
  185.5000   124.5053     5.3902     4.5471     5.5461    -8.3196
  186.0000   118.4170     5.4271     4.5792     5.5848    -8.0118
  186.5000   113.2420     5.5412     4.6776     5.7779    -7.7039
