~VERSION INFORMATION
 VERS.                2.0:   CWLS LOG ASCII STANDARD - VERSION 2.0
 WRAP.                 NO:   ONE LINE PER DEPTH STEP
~WELL INFORMATION
#MNEM.UNIT      DATA TYPE    INFORMATION
#----------   ------------   ------------------------------
 STRT.F          600.0000:   START DEPTH
 STOP.F         2218.0000:   STOP DEPTH
 STEP.F            0.5000:   STEP LENGTH
 NULL.          -999.2500:   NO VALUE
 COMP. US DEPTMNT OF ENRGY:   COMPANY
 WELL.   37 STX 10 #37-10:   WELL
 FLD .             TEAPOT:   FIELD
 LOC .      S10 T38N R78W:   LOCATION
 CNTY.            NATRONA:   COUNTY
 STAT.            WYOMING:   STATE
 CTRY. UNITED STATES OF AMERICA:   COUNTRY
 SRVC.            Unknown:   SERVICE COMPANY
 DATE.        15-MAY-1991:   LOGDATE
 API .       490251094200:   API NUMBER
~CURVE INFORMATION
#MNEM.UNIT       API CODE    CURVE DESCRIPTION
#----------   ------------   ------------------------------
 DEPT.F                  :   
 TGAS.UNITS  91 830 01 00:   TOTAL GAS FROM HOTWIRE
 ROP .MIN/FT 91 810 01 00:   RATE OF DRILLING PENETRATION
~PARAMETER INFORMATION
#MNEM.UNIT          VALUE    DESCRIPTION
#----------   ------------   ------------------------------
 EKB .F              5231:   KELLING BUSHING
 EGL .F              5221:   GROUND LEVEL
 DATE.            5-15-91:   RUN DATE
 DD  .F              2218:   DEPTH DRILLER
 BLI .F              2218:   BOTTOM LOG INTERVAL
 TLI .F               960:   TOP LOG INTERVAL
 ENGI.              TOWER:   RECORDING ENGINEER
 WITN.               HUSK:   WITNESSED BY
 CLNT.            A2DTECH:   CLIENT CODE
 ORIG.           5" PRINT:   ORIGIN OF DATA
 UWI .       490251094200:   UNIQUE WELL ID
 DICO. A2D Technologies, Inc.:   DIGITIZING COMPANY
~OTHER INFORMATION
~A   DEPT     TGAS          ROP 
# ...
 2058.0000    53.0647     0.7374
 2058.5000    53.1460     0.7363
 2059.0000    53.2273     0.7235
 2059.5000    53.3085     0.7036
 2060.0000    53.3898     0.7050
 2060.5000    53.5230     0.7062
 2061.0000    53.6561     0.7075
 2061.5000    53.7892     0.7087
 2062.0000    53.9224     0.7099
 2062.5000    54.0555     0.7112
 2063.0000    54.1886     0.7124
 2063.5000    54.3218     0.7137
 2064.0000    54.4549     0.7363
 2064.5000    54.5880     0.7983
 2065.0000    54.7212     0.8768
 2065.5000    54.8543     0.9553
 2066.0000    54.0614     1.0146
 2066.5000    52.2344     1.0396
 2067.0000    51.5375     1.0371
 2067.5000    50.5073     1.0259
 2068.0000    48.7412     1.0000
 2068.5000    48.1053     0.9739
 2069.0000    47.5014     0.9437
 2069.5000    46.3368     0.9261
 2070.0000    45.7627     0.9148
 2070.5000    45.0976     0.9036
 2071.0000    43.9332     0.8924
 2071.5000    42.1169     0.8791
 2072.0000    40.5146     0.8681
 2072.5000    37.9657     0.8571
 2073.0000    35.6295     0.8462
 2073.5000    35.5751     0.8352
 2074.0000    35.5206     0.8242
 2074.5000    35.4661     0.8022
 2075.0000    35.4116     0.7802
 2075.5000    35.3571     0.7473
 2076.0000    35.3027     0.7473
 2076.5000    35.2482     0.7477
 2077.0000    35.1937     0.7710
 2077.5000    35.1392     0.8159
 2078.0000    35.0847     0.8571
 2078.5000    35.0303     0.8560
 2079.0000    34.9758     0.8462
 2079.5000    34.9213     0.8445
 2080.0000    34.8593     0.8335
 2080.5000    34.7587     0.8236
 2081.0000    34.6582     0.8136
 2081.5000    34.5576     0.8022
 2082.0000    34.4571     0.8037
 2082.5000    34.3565     0.8055
 2083.0000    34.2560     0.8073
 2083.5000    34.1554     0.8090
 2084.0000    34.0549     0.8108
 2084.5000    33.9543     0.8126
 2085.0000    33.8538     0.8143
 2085.5000    33.7532     0.8161
 2086.0000    33.6527     0.8179
 2086.5000    33.5521     0.8197
 2087.0000    33.4516     0.8214
 2087.5000    33.3510     0.8232
 2088.0000    33.2505     0.8250
 2088.5000    33.1499     0.8268
 2089.0000    33.0494     0.8285
 2089.5000    32.9488     0.8303
 2090.0000    32.8483     0.8321
 2090.5000    32.7477     0.8339
 2091.0000    32.6472     0.8441
 2091.5000    32.5466     0.8781
 2092.0000    32.4461     0.9121
 2092.5000    32.3455     0.9501
 2093.0000    32.2450     0.9780
 2093.5000    32.1444     0.9780
 2094.0000    32.0374     0.9831
 2094.5000    32.0884     0.9890
 2095.0000    32.1429     0.9890
 2095.5000    32.1973     0.9890
 2096.0000    32.2518     0.9890
 2096.5000    32.3063     0.9890
 2097.0000    32.3608     0.9890
 2097.5000    32.4153     0.9667
 2098.0000    32.4697     0.9094
 2098.5000    32.5242     0.8901
 2099.0000    32.5787     0.8901
 2099.5000    32.6332     0.8901
 2100.0000    32.6745     0.8914
 2100.5000    32.6748     0.8930
 2101.0000    32.6751     0.8947
 2101.5000    32.6753     0.8963
 2102.0000    32.6756     0.8979
 2102.5000    32.6759     0.8997
 2103.0000    32.6762     0.9544
 2103.5000    32.6764     1.0200
 2104.0000    32.6767     1.0637
 2104.5000    32.6770     1.0188
 2105.0000    32.6772     0.9611
 2105.5000    32.6775     0.8863
 2106.0000    32.6778     0.8759
 2106.5000    32.6781     0.8866
 2107.0000    32.6783     0.8863
 2107.5000    32.6786     0.8839
 2108.0000    32.6789     0.8723
 2108.5000    32.6791     0.8635
 2109.0000    32.6794     0.8692
 2109.5000    32.6797     0.9016
 2110.0000    32.6800     0.9505
 2110.5000    32.6802     0.9603
 2111.0000    32.6805     0.9046
 2111.5000    32.6808     0.8277
 2112.0000    32.6810     0.7956
 2112.5000    32.6813     0.7953
 2113.0000    32.6816     0.8006
 2113.5000    32.6819     0.8235
 2114.0000    32.6821     0.8571
 2114.5000    32.6824     0.8843
 2115.0000    32.6827     0.9135
 2115.5000    32.6829     0.9255
 2116.0000    32.6832     0.9328
 2116.5000    32.6835     0.9360
 2117.0000    32.6838     0.9439
 2117.5000    32.6840     0.9380
 2118.0000    32.6843     0.9351
 2118.5000    32.6846     0.9239
 2119.0000    32.6849     0.8906
 2119.5000    32.6851     0.8574
 2120.0000    32.6854     0.8351
 2120.5000    32.7105     0.8451
 2121.0000    32.7379     0.8577
 2121.5000    32.7652     0.8800
 2122.0000    32.7926     0.8913
 2122.5000    32.8199     0.9135
 2123.0000    32.8473     0.9248
 2123.5000    32.8746     0.9360
 2124.0000    32.9020     0.9363
 2124.5000    32.9293     0.9366
 2125.0000    32.9567     0.8709
 2125.5000    32.9840     0.8163
 2126.0000    33.0114     0.8165
 2126.5000    33.0387     0.8168
 2127.0000    33.0661     0.8391
 2127.5000    33.0934     0.8723
 2128.0000    33.1208     0.8836
 2128.5000    33.1482     0.8948
 2129.0000    33.1755     0.8951
 2129.5000    33.2029     0.9174
 2130.0000    33.2302     0.9176
 2130.5000    33.2576     0.8959
 2131.0000    33.2849     0.8413
 2131.5000    33.3123     0.7646
 2132.0000    33.3396     0.7429
 2132.5000    33.3670     0.7432
 2133.0000    33.3943     0.7435
 2133.5000    33.4217     0.7437
 2134.0000    33.4490     0.7330
 2134.5000    33.4764     0.7223
 2135.0000    33.5037     0.7116
 2135.5000    33.5311     0.7119
 2136.0000    33.5584     0.7231
 2136.5000    33.5858     0.7344
 2137.0000    33.6131     0.7786
 2137.5000    33.6405     0.8338
 2138.0000    33.6678     0.8891
 2138.5000    33.6952     0.9443
 2139.0000    33.7225     0.9775
 2139.5000    33.7499     0.9888
 2140.0000    33.7772     1.0000
 2140.5000    33.8864     1.0113
 2141.0000    33.9956     0.9839
 2141.5000    34.1048     0.9218
 2142.0000    34.2140     0.8349
 2142.5000    34.3231     0.8022
 2143.0000    34.4323     0.8251
 2143.5000    34.5415     0.8767
 2144.0000    34.6507     0.9341
 2144.5000    34.7599     0.9560
 2145.0000    34.8690     0.9560
 2145.5000    34.9782     0.9560
 2146.0000    35.0874     0.9431
 2146.5000    35.1966     0.9069
 2147.0000    35.3058     0.8622
 2147.5000    35.4149     0.8273
 2148.0000    35.5241     0.7956
 2148.5000    35.6333     0.7683
 2149.0000    35.7425     0.7380
 2149.5000    35.8517     0.7147
 2150.0000    35.9608     0.7033
 2150.5000    36.0700     0.7232
 2151.0000    36.1792     0.8018
 2151.5000    36.2884     0.8908
 2152.0000    36.3976     0.9207
 2152.5000    36.5067     0.9121
 2153.0000    36.6159     0.9231
 2153.5000    36.7251     0.9121
 2154.0000    36.8343     0.9115
 2154.5000    36.9435     0.8854
 2155.0000    37.0527     0.8320
 2155.5000    37.1618     0.8132
 2156.0000    37.2710     0.8132
 2156.5000    37.3802     0.8132
 2157.0000    37.4894     0.8132
 2157.5000    37.5986     0.8181
 2158.0000    37.7077     0.8298
 2158.5000    37.8169     0.8414
 2159.0000    37.9261     0.8600
 2159.5000    38.0353     0.8984
 2160.0000    38.1094     0.9286
 2160.5000    38.1099     0.8954
 2161.0000    38.1105     0.8448
 2161.5000    38.1110     0.7942
 2162.0000    38.1116     0.7582
 2162.5000    38.1121     0.7619
 2163.0000    38.1126     0.7692
 2163.5000    38.1132     0.7736
 2164.0000    38.1137     0.7850
 2164.5000    38.1143     0.8117
 2165.0000    38.1148     0.8516
 2165.5000    38.1154     0.8740
 2166.0000    38.1159     0.8418
 2166.5000    38.1164     0.7802
 2167.0000    38.1170     0.7374
 2167.5000    38.1175     0.7106
 2168.0000    38.1181     0.6879
 2168.5000    38.1186     0.6652
 2169.0000    38.1192     0.6593
 2169.5000    38.1197     0.6374
 2170.0000    38.1202     0.6154
 2170.5000    38.1208     0.6044
 2171.0000    38.1213     0.6154
 2171.5000    38.1219     0.6374
 2172.0000    38.1224     0.6813
 2172.5000    38.1230     0.7253
 2173.0000    38.1235     0.7703
 2173.5000    38.1241     0.8059
 2174.0000    38.1246     0.8582
 2174.5000    38.1251     0.8681
 2175.0000    38.1257     0.8114
 2175.5000    38.1262     0.7473
 2176.0000    38.1268     0.7524
 2176.5000    38.1273     0.7780
 2177.0000    38.1278     0.8187
 2177.5000    38.1284     0.8462
 2178.0000    38.1289     0.7920
 2178.5000    38.1295     0.6923
 2179.0000    38.1300     0.6121
