~VERSION INFORMATION
 VERS.                2.0:   CWLS LOG ASCII STANDARD - VERSION 2.0
 WRAP.                 NO:   ONE LINE PER DEPTH STEP
~WELL INFORMATION
#MNEM.UNIT      DATA TYPE    INFORMATION
#----------   ------------   ------------------------------
 STRT.F           16.0000:   START DEPTH
 STOP.F          661.0000:   STOP DEPTH
 STEP.F            0.5000:   STEP LENGTH
 NULL.          -999.2500:   NO VALUE
 COMP. FENIX & SCISSON INC:   COMPANY
 WELL.  26-66 SX 11 #I-11:   WELL
 FLD .             TEAPOT:   FIELD
 LOC .      S11 T38N R78W:   LOCATION
 CNTY.            NATRONA:   COUNTY
 STAT.            WYOMING:   STATE
 CTRY. UNITED STATES OF AMERICA:   COUNTRY
 SRVC.      Dresser Atlas:   SERVICE COMPANY
 DATE.        22-JUL-1980:   LOGDATE
 API .       490251083200:   API NUMBER
~CURVE INFORMATION
#MNEM.UNIT       API CODE    CURVE DESCRIPTION
#----------   ------------   ------------------------------
 DEPT.F                  :   
 SFL .OHMM   07 220 01 00:   SHALLOW FOCUSED LOG RESISTIVITY
 ILD .OHMM   07 120 46 00:   INDUCTION LOG DEEP
 ILM .OHMM   07 120 44 00:   INDUCTION LOG MEDIUM
 SPR .MV     07 010 01 00:   SPONTANEOUS POTENTIAL
 CALD.IN     45 280 60 00:   CALIPER
 GRD .GAPI   45 310 01 00:   GAMMA RAY FROM DENSITY LOG
 RHOB.G/C3   45 350 01 00:   BULK DENSITY
 CORR.G/C3   45 356 01 00:   DENSITY CORRECTION
 DPHI.DEC    45 890 12 00:   DENSITY POROSITY SANDSTONE
 NPHI.DEC    42 890 03 00:   NEUTRON POROSITY SANDSTONE
~PARAMETER INFORMATION
#MNEM.UNIT          VALUE    DESCRIPTION
#----------   ------------   ------------------------------
 PD  .                 GL:   PERMANENT DATUM
 EPD .F              5193:   ELEVATION PERMANENT DATUM
 LMF .                 KB:   LOG MEASURED FROM
 DAPD.F                 5:   FEET ABOVE PERMANENT DATUM
 DMF .                 KB:   DRILLING MEASURED FROM
 EKB .F              5198:   KELLING BUSHING
 EDF .F              5196:   DRILLING FLOOR
 EGL .F              5193:   GROUND LEVEL
 DATE.            7-22-80:   RUN DATE
 RUN .                  1:   RUN NUMBER
 DD  .F               655:   DEPTH DRILLER
 DL  .F               655:   DEPTH LOGGER
 BLI .F               653:   BOTTOM LOG INTERVAL
 TLI .F                20:   TOP LOG INTERVAL
 BS  .IN            7.875:   BIT SIZE
 BSD .F               655:   BIT SIZE AT DEPTH
 DFT .                KCL:   DRILLING FLUID TYPE
 DFD .                9.1:   DRILLING FLUID DENSITY
 DFV .                 46:   DRILLING FLUID VISCOSITY
 DFPH.                 11:   DRILLING FLUID PH
 DFL .                  6:   DRILLING FLUID LOSS
 MSS .           FLOWLINE:   MUD SAMPLE SOURCE
 RMS .OHMM            .17:   RESISTIVITY MUD SAMPLE
 MST .F                75:   MUD SAMPLE TEMPERATURE
 RMF .OHMM            .13:   RESISTIVITY MUD FILTRATE SAMPLE
 MFST.F                75:   MUD FILTRATE SAMPLE TEMPERATURE
 RMC .OHMM            .26:   RESISTIVITY MUD CAKE
 MCST.F                75:   MUD CAKE SAMPLE TEMPERATURE
 MFSS.                  C:   MUD FILTRATE SAMPLE SOURCE
 MCSS.                  C:   MUD CAKE SAMPLE SOURCE
 TCS .HRS               1:   TIME CURCULATED STOPPED
 LUN .               6240:   LOGGING UNIT NUMBER
 LUL .               RVTN:   LOGGING UNIT LOCATION
 ENGI.   K. RALL/J. GETTY:   RECORDING ENGINEER
 WITN.            RHOADES:   WITNESSED BY
 CLNT.            A2DTECH:   CLIENT CODE
 ORIG.        2" 5" PRINT:   ORIGIN OF DATA
 UWI .       490251083200:   UNIQUE WELL ID
 DICO. A2D Technologies, Inc.:   DIGITIZING COMPANY
~OTHER INFORMATION
~A   DEPT      SFL        ILD        ILM        SPR       CALD        GRD       RHOB       CORR         DPHI     NPHI   
# ...
  384.5000     8.1647     7.9625     7.6942   -56.2364     8.0622   109.4909     2.5002     0.0218     0.1077     0.2780
  385.0000     8.1226     7.9224     7.6372   -56.2795     8.0646   107.3592     2.4914     0.0360     0.1103     0.2638
  385.5000     8.0808     7.8825     7.5795   -56.3225     8.0694   104.9482     2.4862     0.0406     0.1155     0.2779
  386.0000     8.0587     7.8427     7.4995   -56.3654     8.0743   103.7480     2.4793     0.0357     0.1187     0.3012
  386.5000     8.0247     7.8031     7.4995   -56.4083     8.0790   105.2888     2.4688     0.0248     0.1227     0.3336
  387.0000     7.9989     7.7096     7.4040   -56.4513     8.0812   105.5631     2.4622     0.0195     0.1298     0.3407
  387.5000     7.8991     7.4886     7.2558   -56.4942     8.0752   104.6107     2.4858     0.0406     0.1178     0.3392
  388.0000     7.7465     7.2830     7.1105   -56.5371     8.0696   103.9825     2.5282     0.0607     0.1017     0.3310
  388.5000     7.5969     7.0825     6.9681   -56.5801     8.0637   105.9956     2.5164     0.0401     0.0913     0.3186
  389.0000     7.4502     6.8870     6.8396   -56.6230     8.0624   108.4167     2.4966     0.0165     0.1068     0.3054
  389.5000     7.3063     6.7174     6.5381   -56.6658     8.0624   110.9580     2.4917     0.0233     0.1140     0.2906
  390.0000     7.1651     6.5083     6.2774   -56.7082     8.0624   113.4501     2.4911     0.0510     0.1120     0.2815
  390.5000     6.9276     6.2861     6.0271   -56.7547     8.0624   115.0386     2.4856     0.0564     0.1223     0.2926
  391.0000     6.5787     5.8389     5.4529   -56.8893     8.0624   110.2987     2.4880     0.0628     0.1161     0.3006
  391.5000     6.2474     5.1884     4.7756   -57.2907     8.0623   107.0140     2.4800     0.0708     0.1144     0.3015
  392.0000     5.9327     4.5218     4.3774   -57.8881     8.0625   107.1844     2.4447     0.0521     0.1306     0.3041
  392.5000     5.6195     3.9007     3.7706   -58.4935     8.0630   108.4112     2.3806     0.0276     0.1694     0.3293
  393.0000     5.2820     3.3650     3.2479   -59.1213     8.0860   106.8403     2.3337     0.0063     0.1995     0.3556
  393.5000     4.9655     2.9273     2.7976   -59.4070     8.0979   105.1142     2.3046     0.0084     0.2265     0.4024
  394.0000     4.5269     2.5679     2.4098   -59.1582     8.1025   103.3857     2.2755     0.0283     0.2464     0.4398
  394.5000     3.9264     2.2837     2.2352   -59.1268     8.1026   102.4564     2.2464     0.0411     0.2646     0.4610
  395.0000     3.4057     2.2053     2.1599   -59.0765     8.1026   101.6766     2.2175     0.0394     0.2764     0.4730
  395.5000     2.9582     2.1602     2.0873   -59.0303     8.1026   100.2375     2.1999     0.0367     0.2859     0.4630
  396.0000     2.8415     2.1430     2.0447   -59.0112     8.1026    97.8392     2.2145     0.0254     0.2695     0.4444
  396.5000     2.7992     2.3373     2.3559   -58.0631     8.1026    94.5463     2.2472     0.0078     0.2442     0.4020
  397.0000     3.4287     2.5109     2.7339   -57.6951     8.1026    94.0844     2.2925     0.0032     0.2190     0.3986
  397.5000     4.1752     2.6942     3.1727   -57.3176     8.1026    96.8833     2.3358     0.0069     0.1937     0.3995
  398.0000     5.0843     3.2004     3.8160   -56.9041     8.1026   106.8236     2.4029     0.0247     0.1706     0.3778
  398.5000     5.6992     3.8229     4.3648   -55.7364     8.1026   110.5157     2.4631     0.0422     0.1375     0.3366
  399.0000     6.1928     4.5691     4.7931   -55.0866     8.1026   109.4784     2.4717     0.0441     0.1247     0.3114
  399.5000     6.7291     5.2364     5.0205   -54.5480     8.1026   109.5892     2.4619     0.0429     0.1294     0.3044
  400.0000     6.9029     5.7697     5.2597   -54.7165     8.1026   111.6625     2.4399     0.0283     0.1412     0.3088
  400.5000     6.6113     6.3538     5.5103   -54.8857     8.1026   118.5417     2.4286     0.0322     0.1490     0.3130
  401.0000     6.4102     6.2732     5.9024   -55.4230     8.1026   124.8287     2.4519     0.0438     0.1405     0.3172
  401.5000     6.2378     6.1612     5.8823   -55.7659     8.1026   126.3410     2.4732     0.0545     0.1231     0.3105
  402.0000     6.2378     6.0512     5.8170   -55.8228     8.1026   119.6900     2.4638     0.0388     0.1290     0.3188
  402.5000     6.6006     5.9570     5.5688   -55.8747     8.1026   117.5507     2.4498     0.0263     0.1373     0.3472
  403.0000     6.8890     5.6812     5.3312   -55.9233     8.1027   117.4229     2.4620     0.0353     0.1377     0.3692
  403.5000     6.9668     5.3831     5.1037   -56.2552     8.0962   118.3481     2.4795     0.0535     0.1222     0.3883
  404.0000     6.6479     5.2815     4.9212   -56.8031     8.0875   119.8677     2.4827     0.0624     0.1164     0.3904
  404.5000     5.8060     5.2033     4.6437   -57.1640     8.0786   121.3626     2.4128     0.0477     0.1571     0.3906
  405.0000     5.0706     4.9841     4.6458   -57.0691     8.0699   122.4674     2.3825     0.0280     0.1740     0.3963
  405.5000     4.8644     4.7750     4.5976   -56.9573     8.0631   123.3139     2.3771     0.0146     0.1820     0.4025
  406.0000     5.1636     4.6444     4.5491   -56.8450     8.0700   122.2786     2.3893     0.0145     0.1729     0.4097
  406.5000     5.4832     4.7833     4.5189   -56.7590     8.0768   120.1225     2.4345     0.0311     0.1567     0.3805
  407.0000     5.5127     4.9504     4.7284   -56.4832     8.0835   119.6474     2.4516     0.0344     0.1404     0.3685
  407.5000     5.6863     5.0937     4.9514   -56.1426     8.0903   121.1813     2.4584     0.0323     0.1338     0.3660
  408.0000     5.9570     5.3463     5.1907   -55.7440     8.0970   124.7808     2.4595     0.0329     0.1330     0.3530
  408.5000     5.9546     5.6143     5.4938   -54.8972     8.1027   127.3857     2.4611     0.0391     0.1316     0.3185
  409.0000     6.0110     5.8969     5.7765   -54.7812     8.1064   129.3044     2.4707     0.0459     0.1266     0.3106
  409.5000     6.2943     6.1775     6.0720   -54.6573     8.1113   130.0141     2.4875     0.0528     0.1189     0.3136
  410.0000     6.7240     6.4652     6.3826   -54.5240     8.1163   126.5819     2.5045     0.0586     0.1059     0.3243
  410.5000     7.0963     6.8264     6.7091   -54.1979     8.1212   121.8033     2.5098     0.0497     0.1001     0.3129
  411.0000     7.2096     6.9916     6.9304   -53.8739     8.1261   120.3918     2.4932     0.0382     0.1094     0.2972
  411.5000     7.2961     7.1004     6.9949   -53.5572     8.1310   121.5787     2.4818     0.0270     0.1163     0.2909
  412.0000     7.4528     7.2109     7.0600   -53.4035     8.1360   123.7657     2.4837     0.0290     0.1191     0.2971
  412.5000     7.7086     7.3231     7.0963   -53.8859     8.1409   125.0779     2.4967     0.0386     0.1123     0.3163
  413.0000     7.5963     7.3626     7.0609   -54.3875     8.1422   123.8153     2.4959     0.0409     0.1096     0.3213
  413.5000     7.4259     7.2837     6.9834   -54.8976     8.1388   122.4961     2.4872     0.0317     0.1121     0.3261
  414.0000     7.2593     7.2300     6.9068   -55.2040     8.1354   120.6013     2.4590     0.0211     0.1239     0.3245
  414.5000     7.0964     7.1765     6.8310   -55.3376     8.1321   116.7617     2.4306     0.0089     0.1447     0.3203
  415.0000     6.9372     7.1249     6.7147   -55.3471     8.1287   117.6077     2.4332     0.0069     0.1482     0.3175
  415.5000     6.7816     7.0130     6.5848   -55.3336     8.1253   118.9796     2.4453     0.0083     0.1428     0.3166
  416.0000     6.6294     6.8477     6.4455   -54.8258     8.1218   117.7663     2.4422     0.0104     0.1394     0.3207
  416.5000     6.4807     6.6842     6.3103   -54.2821     8.1176   116.4860     2.4269     0.0076     0.1451     0.3294
  417.0000     6.3353     6.5246     6.1853   -53.9418     8.1134   116.0480     2.4120     0.0000     0.1540     0.3266
  417.5000     6.1806     6.3708     5.9992   -53.9901     8.1090   117.9332     2.4104     0.0009     0.1618     0.3140
