~VERSION INFORMATION
 VERS.                2.0:   CWLS LOG ASCII STANDARD - VERSION 2.0
 WRAP.                 NO:   ONE LINE PER DEPTH STEP
~WELL INFORMATION
#MNEM.UNIT      DATA TYPE    INFORMATION
#----------   ------------   ------------------------------
 STRT.F           24.5000:   START DEPTH
 STOP.F          750.0000:   STOP DEPTH
 STEP.F            0.5000:   STEP LENGTH
 NULL.          -999.2500:   NO VALUE
 COMP. FENIX & SCISSON INC:   COMPANY
 WELL.    NPR 3 SX #35-11:   WELL
 FLD .          N.P.R. #3:   FIELD
 LOC .      S11 T38N R78W:   LOCATION
 CNTY.            NATRONA:   COUNTY
 STAT.            WYOMING:   STATE
 CTRY. UNITED STATES OF AMERICA:   COUNTRY
 SRVC.            Unknown:   SERVICE COMPANY
 DATE.        23-FEB-1978:   LOGDATE
 API .       490251027200:   API NUMBER
~CURVE INFORMATION
#MNEM.UNIT       API CODE    CURVE DESCRIPTION
#----------   ------------   ------------------------------
 DEPT.F                  :   
 ILM .OHMM   07 120 44 00:   INDUCTION LOG MEDIUM
 ILD .OHMM   07 120 46 00:   INDUCTION LOG DEEP
 LL8 .OHMM   07 220 08 00:   LATEROLOG-8 RES.
 SPR .MV     07 010 01 00:   SPONTANEOUS POTENTIAL
 CALD.IN     45 280 60 00:   CALIPER FROM DENSITY LOG
 CORR.G/C3   45 356 01 00:   DENSITY CORRECTION
 DPHI.DEC    45 890 12 00:   DENSITY POROSITY SANDSTONE
 GRD .GAPI   45 310 01 00:   GAMMA RAY FROM DENSITY LOG
 RHOB.G/C3   45 350 01 00:   BULK DENSITY
 IL  .OHMM   05 120 40 00:   INDUCTION RESISTIVITY
 SN  .OHMM   05 040 16 00:   SHORT NORMAL 16"
 SPR1.MV     05 010 01 00:   SPONTANEOUS POTENTIAL INDUCTION ELECTRICAL LOG
~PARAMETER INFORMATION
#MNEM.UNIT          VALUE    DESCRIPTION
#----------   ------------   ------------------------------
 PD  .                 GL:   PERMANENT DATUM
 EPD .F              5204:   ELEVATION PERMANENT DATUM
 LMF .                 KB:   LOG MEASURED FROM
 DAPD.F                 4:   FEET ABOVE PERMANENT DATUM
 DMF .                 KB:   DRILLING MEASURED FROM
 EKB .F              5208:   KELLING BUSHING
 EGL .F              5204:   GROUND LEVEL
 DATE.        23-FEB-1978:   RUN DATE
 RUN .                  1:   RUN NUMBER
 DD  .F               755:   DEPTH DRILLER
 DL  .F               751:   DEPTH LOGGER
 BLI .F               745:   BOTTOM LOG INTERVAL
 TLI .F                45:   TOP LOG INTERVAL
 CS  .IN            8.625:   CASING SIZE
 CBD .F                40:   CASING BOTTOM DRILLER
 CBL .F                40:   CASING BOTTOM LOGGER
 BS  .IN            7.875:   BIT SIZE
 BSD .F               755:   BIT SIZE AT DEPTH
 DFT .         LIGNO SULF:   DRILLING FLUID TYPE
 DFD .                8.7:   DRILLING FLUID DENSITY
 DFV .                 33:   DRILLING FLUID VISCOSITY
 DFPH.                 10:   DRILLING FLUID PH
 DFL .                  4:   DRILLING FLUID LOSS
 MSS .           FLOWLINE:   MUD SAMPLE SOURCE
 RMS .OHMM            2.0:   RESISTIVITY MUD SAMPLE
 MST .F                60:   MUD SAMPLE TEMPERATURE
 RMF .OHMM            1.9:   RESISTIVITY MUD FILTRATE SAMPLE
 MFST.F                62:   MUD FILTRATE SAMPLE TEMPERATURE
 RMC .OHMM            3.5:   RESISTIVITY MUD CAKE
 MCST.F                60:   MUD CAKE SAMPLE TEMPERATURE
 MFSS.               MEAS:   MUD FILTRATE SAMPLE SOURCE
 RMB .OHMM           1.69:   RESISTIVITY MUD AT BHT
 BHT .F                71:   BOTTOM HOLE TEMPERATURE
 TCS .HRS               3:   TIME CURCULATED STOPPED
 MRT .F                71:   MAXIMUM RECORDED TEMPERATURE
 CLNT.            A2DTECH:   CLIENT CODE
 ORIG.           5" PRINT:   ORIGIN OF DATA
 UWI .       490251027200:   UNIQUE WELL ID
 DICO. A2D Technologies, Inc.:   DIGITIZING COMPANY
~OTHER INFORMATION
~A   DEPT      ILM        ILD        LL8        SPR       CALD       CORR       DPHI         GRD      RHOB         IL         SN       SPR1   
# ...
  388.5000    11.2908    11.1187    11.2728   -28.4103     8.2223     0.0435     0.1162   102.7299     2.4669     9.3734    10.2209   -35.2246
  389.0000    11.2202    11.0497    11.3611   -28.2408     8.2248     0.0539     0.1074   103.4978     2.4772     9.3753    10.2243   -35.2096
  389.5000    11.1523    11.0622    11.1383   -27.9227     8.2273     0.0512     0.1002   105.6051     2.4841     9.3454    10.1556   -35.3050
  390.0000    11.1640    11.0702    10.8449   -27.4560     8.2299     0.0384     0.1073   107.7123     2.4742     9.3144    10.1592   -35.4416
  390.5000    11.1733    11.0801    10.8546   -27.1379     8.2324     0.0220     0.1193   107.1410     2.4484     9.2519    10.0908   -35.3499
  391.0000    11.1826    11.0901    10.9397   -26.6712     8.2346     0.0143     0.1256   106.5697     2.4398     9.1856    10.0236   -35.1834
  391.5000    11.2037    11.1000    11.1786   -26.5018     8.2371     0.0212     0.1223   104.9567     2.4352     9.0649     9.8198   -35.2526
  392.0000    11.5127    11.1172    11.4227   -26.4808     8.2396     0.0198     0.1300   104.0877     2.4234     8.9806     9.6867   -35.5659
  392.5000    11.6824    11.2797    11.5919   -26.4636     8.2422     0.0175     0.1234   103.0700     2.4430     8.9437     9.6222   -36.1499
  393.0000    11.8546    11.6037    11.9271   -26.4390     8.2452     0.0228     0.1149   102.6415     2.4638     8.8841     9.5331   -36.2848
  393.5000    11.8644    11.8549    12.1876   -26.5719     8.2328     0.0377     0.1064   102.2249     2.4934     8.8820     9.4281   -36.1203
  394.0000    11.5488    11.8655    11.8664   -26.5458     8.2354     0.0367     0.1096   102.0940     2.4787     8.8178     9.3258   -35.9559
  394.5000    10.9396    11.1601    11.5512   -26.6735     8.2224     0.0340     0.1141   104.6091     2.4669     8.7064     9.2386   -35.9411
  395.0000    10.6506    10.7913    10.9111   -26.8351     8.2100     0.0469     0.1168   106.5327     2.4580     8.7082     9.1989   -35.9263
  395.5000    10.5861    10.5797    10.6523   -26.9599     8.1802     0.0409     0.1215   107.5461     2.4452     8.6493     9.1160   -35.9115
  396.0000    10.5951    10.5893    10.6860   -27.2570     8.1532     0.0335     0.1308   107.5278     2.4289     8.6516     9.0890   -35.8967
  396.5000    10.6039    10.5256    10.6716   -27.8039     8.1282     0.0261     0.1353   107.4219     2.4245     8.6531     9.0578   -36.0316
  397.0000    10.5398    10.5355    10.6077   -28.2087     8.1475     0.0233     0.1325   108.3542     2.4255     8.5948     9.0603   -36.0169
  397.5000    10.4756    10.5450    10.5443   -28.3363     8.1647     0.0280     0.1262   109.2684     2.4317     8.5970     8.9996   -36.0021
  398.0000    10.1271    10.5545    10.3922   -28.3150     8.1806     0.0319     0.1267   109.8849     2.4409     8.5907     9.0025   -35.5382
  398.5000    10.1376    10.3476    10.0652   -28.1456     8.1832     0.0297     0.1324   109.1473     2.4417     8.5407     9.0050   -35.3737
  399.0000    10.1461    10.2127    10.0743   -27.9762     8.1702     0.0276     0.1347   108.2758     2.4290     8.5250     9.0075   -35.5086
  399.5000    10.1546    10.0818    10.0140   -27.8039     8.1581     0.0308     0.1365   107.8630     2.4246     8.4851     9.0100   -35.4938
  400.0000    10.0705    10.0733     9.9540   -27.3403     8.1311     0.0286     0.1380   106.8452     2.4217     8.4282     9.0762   -35.7784
  400.5000     9.8245    10.0329     9.8954   -27.1108     8.1335     0.0212     0.1367   105.9778     2.4188     8.3739     8.9540   -36.1678
  401.0000     9.7672     9.8341     9.8335   -26.8112     8.1657     0.0229     0.1330   104.5151     2.4280     8.2047     8.7742   -36.5101
  401.5000     9.6394     9.7754     9.7741   -26.5368     8.1979     0.0200     0.1348   103.9453     2.4289     8.0390     8.5970   -36.0933
  402.0000     9.6496     9.7865     9.7825   -26.6707     8.2003     0.0172     0.1356   101.7386     2.4282     7.8766     8.4823   -35.3699
  402.5000     9.5893     9.7954     9.7233   -26.6461     8.2027     0.0158     0.1383    99.9783     2.4261     7.7175     8.3545   -34.9850
  403.0000     9.5993     9.8044     9.6644   -26.7800     8.2051     0.0212     0.1298    98.9621     2.4247     7.5616     8.1990   -35.0065
  403.5000     9.6074     9.8133     9.6727   -26.9090     8.2075     0.0266     0.1239    99.5827     2.4346     7.4603     8.0896   -35.1167
  404.0000     9.6138     9.8204     9.6808   -26.8893     8.2099     0.0275     0.1208   101.9891     2.4446     7.3606     8.0373   -35.2170
  404.5000     9.6218     9.8290     9.6890   -27.0183     8.2123     0.0246     0.1200   102.3497     2.4454     7.3128     7.9854   -35.6661
  405.0000     9.6298     9.6364     9.6971   -27.1473     8.2147     0.0233     0.1232   100.2542     2.4411     7.3158     8.0461   -36.0728
  405.5000     9.7045     9.6451     9.6365   -27.1276     8.2171     0.0204     0.1213   101.7678     2.4457     7.4211     8.1062   -36.2330
  406.0000     9.7125     9.6115     9.6467   -27.4056     8.2195     0.0123     0.1253   104.0253     2.4308     7.5804     8.1668   -36.0714
  406.5000     9.7208     9.5303     9.6548   -27.6835     8.2219     0.0094     0.1393   105.6877     2.4181     7.7431     8.2853   -35.9097
  407.0000     9.7290     9.5390     9.6630   -27.8166     8.2094     0.0171     0.1356   104.3738     2.4159     7.9093     8.4055   -35.8024
  407.5000     9.6682     9.4820     9.6046   -27.9456     8.2117     0.0217     0.1371   103.5064     2.4221     8.0232     8.5275   -35.8508
  408.0000     9.4780     9.3606     9.3510   -28.2182     8.2141     0.0136     0.1364   103.3766     2.4215     8.0824     8.6513   -35.9945
  408.5000     9.2936     9.3026     9.1651   -28.1986     8.2165     0.0047     0.1370   104.8965     2.4231     8.0298     8.7159   -35.9482
  409.0000     8.9860     8.8740     9.1017   -28.4761     8.2189     0.0267     0.1348   107.0053     2.4306     7.9776     8.8424   -35.8992
  409.5000     8.8092     8.6403     8.9306   -28.9023     8.1766     0.0358     0.1281   108.2148     2.4347     7.9257     8.9085   -36.1263
  410.0000     8.5176     8.4127     8.7550   -29.0361     8.0896     0.0194     0.1395   106.6097     2.4280     7.9291     8.9127   -36.1976
  410.5000     8.1790     8.1911     8.3492   -28.7144     8.0026     0.0369     0.1283   105.8847     2.4387     7.9324     8.9171   -35.9626
  411.0000     8.0720     7.9754     8.0173   -28.3976     7.9745     0.0461     0.1210   107.7022     2.4471     7.9909     8.9214   -35.5738
  411.5000     8.0805     7.8714     7.4375   -27.7563     7.9924     0.0349     0.1240   110.1086     2.4396     8.0499     8.9888   -35.4221
  412.0000     8.0873     7.8244     7.0425   -27.1521     8.0097     0.0313     0.1272   112.2110     2.4345     8.0533     9.0252   -35.6661
  412.5000     8.0927     7.8317     8.2057   -27.0059     8.0270     0.0269     0.1299   108.8201     2.4256     8.1128     9.0597   -36.0279
  413.0000     8.0435     7.8387     8.7994   -26.9866     8.0443     0.0226     0.1383   107.2087     2.4145     8.1161     9.0976   -36.3243
  413.5000     7.9949     7.9002     8.8068   -26.8185     8.0616     0.0242     0.1446   107.8293     2.4093     8.0640     9.1319   -36.6208
  414.0000     7.9466     7.9621     8.5153   -26.3531     8.0638     0.0221     0.1363   109.6405     2.4162     8.0116     9.1364   -36.8209
  414.5000     7.9533     8.0802     8.3461   -25.7391     8.0664     0.0245     0.1455   110.9988     2.4103     8.0141     9.1408   -37.0639
  415.0000     8.0706     8.1999     8.3549   -25.5709     8.0539     0.0329     0.1323   109.8401     2.4218     7.9619     9.1461   -37.1557
  415.5000     8.2463     8.3215     8.3619   -25.5513     8.0408     0.0391     0.1256   108.9727     2.4400     7.9660     9.1497   -37.1467
  416.0000     8.3680     8.4448     8.7213   -25.5334     8.0438     0.0482     0.1193   108.3965     2.4506     7.9694     9.1542   -37.2460
