~VERSION INFORMATION
 VERS.                2.0:   CWLS LOG ASCII STANDARD - VERSION 2.0
 WRAP.                 NO:   ONE LINE PER DEPTH STEP
~WELL INFORMATION
#MNEM.UNIT      DATA TYPE    INFORMATION
#----------   ------------   ------------------------------
 STRT.F           14.0000:   START DEPTH
 STOP.F          630.0000:   STOP DEPTH
 STEP.F            0.5000:   STEP LENGTH
 NULL.          -999.2500:   NO VALUE
 COMP. LAWRENCE/ALLISON INC:   COMPANY
 WELL.    78-53 SX #10-10:   WELL
 FLD .             TEAPOT:   FIELD
 LOC .      S10 T38N R78W:   LOCATION
 CNTY.            NATRONA:   COUNTY
 STAT.            WYOMING:   STATE
 CTRY. UNITED STATES OF AMERICA:   COUNTRY
 SRVC.           Gearhart:   SERVICE COMPANY
 DATE.        08-JUL-1986:   LOGDATE
 API .       490251108200:   API NUMBER
~CURVE INFORMATION
#MNEM.UNIT       API CODE    CURVE DESCRIPTION
#----------   ------------   ------------------------------
 DEPT.F                  :   
 GRR .GAPI   07 310 01 00:   GAMMA RAY FROM RES. LOG.
 RILD.OHMM   07 120 46 00:   INDUCTION LOG DEEP RESISTIVITY
 RILM.OHMM   07 120 44 00:   INDUCTION LOG MEDIUM
~PARAMETER INFORMATION
#MNEM.UNIT          VALUE    DESCRIPTION
#----------   ------------   ------------------------------
 PD  .                 GL:   PERMANENT DATUM
 EPD .F              5152:   ELEVATION PERMANENT DATUM
 LMF .                 KB:   LOG MEASURED FROM
 DAPD.F                 5:   FEET ABOVE PERMANENT DATUM
 DMF .                 KB:   DRILLING MEASURED FROM
 EKB .F              5157:   KELLING BUSHING
 EGL .F              5152:   GROUND LEVEL
 DATE.             7-8-86:   RUN DATE
 RUN .                  1:   RUN NUMBER
 DD  .F               630:   DEPTH DRILLER
 DL  .F               634:   DEPTH LOGGER
 BLI .F               625:   BOTTOM LOG INTERVAL
 TLI .F                47:   TOP LOG INTERVAL
 CS  .IN            8.625:   CASING SIZE
 CBD .F                47:   CASING BOTTOM DRILLER
 CBL .F                47:   CASING BOTTOM LOGGER
 BS  .IN            7.875:   BIT SIZE
 BSD .F               630:   BIT SIZE AT DEPTH
 DFT .               FOAM:   DRILLING FLUID TYPE
 TCS .HRS            1530:   TIME CURCULATED STOPPED
 TLAB.HRS            1644:   TIME LOGGER AT BOTTOM
 MRT .F                65:   MAXIMUM RECORDED TEMPERATURE
 LUN .               7609:   LOGGING UNIT NUMBER
 LUL .           GILLETTE:   LOGGING UNIT LOCATION
 ENGI.         WEATHERMON:   RECORDING ENGINEER
 WITN.             STRONG:   WITNESSED BY
 CLNT.            A2DTECH:   CLIENT CODE
 ORIG.       2", 5" PRINT:   ORIGIN OF DATA
 UWI .       490251108200:   UNIQUE WELL ID
 DICO. A2D Technologies, Inc.:   DIGITIZING COMPANY
~OTHER INFORMATION
~A   DEPT       GRR      RILD       RILM   
# ...
  105.0000   107.5633    10.2656    10.1691
  105.5000   107.3534    10.2300    10.1588
  106.0000   108.2167    10.1945    10.1486
  106.5000   108.9472    10.1592    10.1387
  107.0000   107.5832    10.1240    10.1298
  107.5000   106.7016    10.0036    10.1184
  108.0000   108.0169     9.8179     9.8765
  108.5000   111.0003     9.5763     9.6515
  109.0000   113.8911     9.3406     9.4315
  109.5000   116.0900     9.1108     9.2165
  110.0000   115.9146     8.8866     9.0065
  110.5000   114.0344     8.6679     8.8013
  111.0000   112.2689     8.4537     8.6000
  111.5000   111.3423     8.2475     8.3983
  112.0000   113.6323     8.1486     8.1514
  112.5000   116.9722     8.3493     8.2566
  113.0000   118.7225     8.5276     8.4003
  113.5000   113.1591     8.7094     8.5465
  114.0000   105.2635     8.8950     8.6953
  114.5000   100.8311     9.0847     8.8316
  115.0000   100.0373     9.2784     9.0676
  115.5000   101.1567     9.4764     9.3099
  116.0000   103.0092     9.6781     9.5586
  116.5000   104.8321     9.8371     9.6539
  117.0000   106.6548     9.8371     9.5587
  117.5000   108.4636     9.6613     9.4920
  118.0000   109.6828     9.5406     9.4258
  118.5000   108.8924     9.4215     9.3603
  119.0000   108.1449     9.3039     9.2952
  119.5000   107.2202     9.1877     9.2099
  120.0000   105.9617     9.0730     9.2398
  120.5000   102.6561     9.0392     9.2978
  121.0000    99.7294     9.0392     9.3571
  121.5000    99.2036     9.2809     9.5229
  122.0000   102.4018     9.6260     9.7902
  122.5000   105.5578     9.9300    10.0237
  123.0000   102.3649    10.0237     9.8677
  123.5000    98.3875    10.0237     9.9001
  124.0000    95.0829    10.0237     9.9326
  124.5000    97.5530    10.0237     9.9652
  125.0000   100.7838    10.0237     9.9977
  125.5000   104.0220    10.0237    10.0236
  126.0000   106.9241    10.0237     9.9828
  126.5000   108.2596    10.0237     9.9490
  127.0000   108.4749    10.0237     9.9153
  127.5000   109.1764    10.0237     9.8818
  128.0000   110.4879    10.0238     9.8483
  128.5000   111.4673    10.0240     9.8149
  129.0000   109.4653    10.0236     9.7818
  129.5000   106.5570    10.0255     9.7451
  130.0000   103.5746     9.9387     9.7735
  130.5000   103.2616     9.8731     9.8056
  131.0000   106.8491     9.8079     9.8377
  131.5000   109.9617     9.7432     9.8701
  132.0000   112.6941     9.6788     9.9022
  132.5000   113.6216     9.6150     9.9300
  133.0000   113.1616     9.5515     9.8281
  133.5000   112.6744     9.4884     9.7402
  134.0000   111.8939     9.3877     9.6532
  134.5000   109.6321     9.2771     9.5669
  135.0000   107.3429     9.1676     9.4814
  135.5000   107.2803     9.0593     9.3967
  136.0000   107.6744     8.9526     9.3119
  136.5000   108.6217     8.8709     9.2658
  137.0000   109.6645     8.8791     9.2137
  137.5000   109.7020     8.8888     9.1626
  138.0000   109.5623     8.8987     9.1250
  138.5000   109.4073     8.9085     9.0985
  139.0000   110.0798     8.9184     9.0593
  139.5000   110.5744     8.9282     9.0203
  140.0000   110.1116     8.9380     8.9815
  140.5000   107.9653     8.9479     8.9428
  141.0000   106.0300     8.9548     8.9043
  141.5000   105.7532     8.9539     8.8659
  142.0000   107.1880     9.0187     8.8274
  142.5000   108.7691     9.1069     8.7881
  143.0000   110.3689     9.1961     8.8676
  143.5000   110.1713     9.2861     8.9522
  144.0000   108.6767     9.3769     9.0375
  144.5000   107.1567     9.4686     9.1237
  145.0000   106.0350     9.5597     9.2108
  145.5000   105.1706     9.7493     9.2986
  146.0000   104.4737     9.7449     9.3855
  146.5000   104.4366     9.7698     9.5102
  147.0000   106.7069     9.7849     9.6341
  147.5000   109.3687     9.8000     9.6969
  148.0000   111.8283     9.8153     9.7482
  148.5000   111.9111     9.8306     9.7997
  149.0000   110.6049     9.8459     9.8515
  149.5000   109.1816     9.8612     9.9036
  150.0000   108.3855     9.8766     9.9559
  150.5000   107.6933     9.8919    10.0094
  151.0000   106.5107     9.9074    10.0237
  151.5000   104.2874     9.9226     9.9739
  152.0000   100.7658     9.9299     9.8797
  152.5000    99.3892     9.9297     9.7868
  153.0000   103.4340     9.9315     9.6730
  153.5000   107.4744     9.7268     9.5450
  154.0000   111.3191     9.4667     9.4184
  154.5000   110.9661     9.2132     9.2935
  155.0000   110.4229     8.9667     9.1702
  155.5000   109.8906     8.8181     9.0487
  156.0000   109.9578     8.7313     8.9547
  156.5000   110.1399     8.6454     8.8963
  157.0000   110.7841     8.5604     8.8394
  157.5000   111.9981     8.4761     8.7829
  158.0000   113.0654     8.4637     8.7268
  158.5000   112.3172     8.5067     8.6709
  159.0000   110.7557     8.5999     8.6154
  159.5000   109.3052     8.6941     8.5427
  160.0000   108.8163     8.7893     8.5775
  160.5000   108.8942     8.8856     8.6450
  161.0000   108.9851     8.9829     8.7139
  161.5000   110.3734     9.0813     8.7831
  162.0000   112.7669     9.1807     8.8529
  162.5000   115.0218     9.2813     8.9232
  163.0000   113.1524     9.3829     8.9940
  163.5000   109.1647     9.4857     9.0655
  164.0000   105.6413     9.5896     9.1246
  164.5000   104.1249     9.6618     9.3083
  165.0000   103.6765     9.7035     9.3991
  165.5000   103.6801     9.7451     9.4335
  166.0000   103.7823     9.7051     9.4741
  166.5000   104.0380     9.6657     9.4446
  167.0000   105.3507     9.6265     9.4088
  167.5000   109.7937     9.5874     9.3732
  168.0000   112.9380     9.5485     9.3375
  168.5000   115.0274     9.5097     9.2979
  169.0000   113.4996     9.4741     9.3278
  169.5000   109.8127     9.6844     9.3738
  170.0000   106.2035     9.8834     9.4195
  170.5000   104.4603    10.0298     9.4655
  171.0000   105.5784    10.0497     9.5117
  171.5000   108.3848    10.0696     9.5581
  172.0000   108.9397    10.0895     9.6047
  172.5000   106.6381    10.1095     9.6539
  173.0000   104.5519    10.2139     9.9085
  173.5000   103.6873    10.3774    10.1835
  174.0000   104.1270    10.6734    10.4662
  174.5000   106.1204    10.9778    10.7568
  175.0000   108.0496    11.2910    11.0554
  175.5000   109.4136    11.6130    11.3094
  176.0000   109.3965    11.8713    11.5562
  176.5000   106.1215    12.1570    11.8081
  177.0000   102.5512    12.4545    12.0656
  177.5000    98.9940    12.7534    12.3286
  178.0000    95.6511    13.0595    12.5988
  178.5000    94.3357    13.3732    12.8735
  179.0000    93.3446    13.6943    13.1682
  179.5000    92.3627    14.0232    13.4676
  180.0000    91.4406    14.3262    13.7738
  180.5000    91.7078    14.3262    14.0019
  181.0000    93.7581    14.2919    14.2457
  181.5000    95.7720    14.2542    14.4615
  182.0000    95.6391    14.2167    14.3561
  182.5000    95.2056    14.1523    14.2640
  183.0000    95.9937    13.8861    14.1717
  183.5000    97.2656    13.6250    14.0809
  184.0000    98.5726    13.3688    13.8659
  184.5000    99.1409    13.1173    13.6192
  185.0000    97.4735    12.8706    13.3766
  185.5000    96.1441    12.6345    13.1386
  186.0000    98.0957    12.4245    12.9047
  186.5000   100.0101    12.2181    12.6750
  187.0000    99.7919    12.0153    12.4495
  187.5000    97.2042    11.9682    12.2958
  188.0000    96.7789    11.9070    12.2282
  188.5000    96.4493    11.8460    12.1609
  189.0000    95.6634    11.7854    12.0939
  189.5000    94.6176    11.7251    12.0274
  190.0000    94.7433    11.6651    11.9612
  190.5000    95.4505    11.6054    11.8956
  191.0000    94.2081    11.5413    11.8299
  191.5000    92.7268    11.4049    11.7603
  192.0000    91.4988    11.3658    11.4401
  192.5000    92.7215    11.3268    11.1879
  193.0000    94.6454    11.2879    11.0946
  193.5000    96.8572    11.2491    11.0021
  194.0000    99.1287    11.2105    10.9103
  194.5000    99.3995    11.1720    10.8193
  195.0000    98.0999    11.1337    10.7291
  195.5000    96.5841    11.0954    10.6396
