~VERSION INFORMATION
 VERS.                2.0:   CWLS LOG ASCII STANDARD - VERSION 2.0
 WRAP.                 NO:   ONE LINE PER DEPTH STEP
~WELL INFORMATION
#MNEM.UNIT      DATA TYPE    INFORMATION
#----------   ------------   ------------------------------
 STRT.F           30.0000:   START DEPTH
 STOP.F          620.0000:   STOP DEPTH
 STEP.F            0.5000:   STEP LENGTH
 NULL.          -999.2500:   NO VALUE
 COMP. FENIX & SCISSON INC:   COMPANY
 WELL.       NPR-3 #62-15:   WELL
 FLD .             TEAPOT:   FIELD
 LOC .      S15 T38N R78W:   LOCATION
 CNTY.            NATRONA:   COUNTY
 STAT.            WYOMING:   STATE
 CTRY. UNITED STATES OF AMERICA:   COUNTRY
 SRVC.           BIRDWELL:   SERVICE COMPANY
 DATE.        08-JUN-1978:   LOGDATE
 API .       490251063700:   API NUMBER
~CURVE INFORMATION
#MNEM.UNIT       API CODE    CURVE DESCRIPTION
#----------   ------------   ------------------------------
 DEPT.F                  :   
 SPR .MV     05 010 01 00:   SPONTANEOUS POTENTIAL FROM RES.
 SN  .OHMM   05 040 16 00:   SHORT NORMAL 16"
 ILD .OHMM   05 120 46 00:   INDUCTION LOG DEEP
 CALD.IN     45 280 60 00:   CALIPER FROM DENSITY LOG
 GRD .GAPI   45 310 01 00:   GAMMA RAY FROM DENSITY LOG
 CORR.G/C3   45 356 01 00:   DENSITY CORRECTION
 DPHI.DEC    45 890 12 00:   DENSITY POROSITY SANDSTONE
 DEN .G/C3   45 350 01 00:   DENSITY
~PARAMETER INFORMATION
#MNEM.UNIT          VALUE    DESCRIPTION
#----------   ------------   ------------------------------
 PD  .                 GL:   PERMANENT DATUM
 EPD .F              5246:   ELEVATION PERMANENT DATUM
 LMF .                 KB:   LOG MEASURED FROM
 DAPD.F                 4:   FEET ABOVE PERMANENT DATUM
 DMF .                 KB:   DRILLING MEASURED FROM
 EKB .F              5250:   KELLING BUSHING
 EGL .F              5246:   GROUND LEVEL
 DATE.        08-JUN-1978:   RUN DATE
 RUN .                  1:   RUN NUMBER
 DD  .F               620:   DEPTH DRILLER
 DL  .F               627:   DEPTH LOGGER
 BLI .F               620:   BOTTOM LOG INTERVAL
 TLI .F                42:   TOP LOG INTERVAL
 CS  .IN            8.625:   CASING SIZE
 CBD .F                40:   CASING BOTTOM DRILLER
 CBL .F                42:   CASING BOTTOM LOGGER
 BS  .IN            7.875:   BIT SIZE
 BSD .F               620:   BIT SIZE AT DEPTH
 DFT .                KCL:   DRILLING FLUID TYPE
 DFD .                8.7:   DRILLING FLUID DENSITY
 DFV .                 31:   DRILLING FLUID VISCOSITY
 DFPH.               10.5:   DRILLING FLUID PH
 DFL .                 10:   DRILLING FLUID LOSS
 MSS .           FLOWLINE:   MUD SAMPLE SOURCE
 RMS .OHMM            .26:   RESISTIVITY MUD SAMPLE
 MST .F                76:   MUD SAMPLE TEMPERATURE
 RMF .OHMM            .28:   RESISTIVITY MUD FILTRATE SAMPLE
 MFST.F                76:   MUD FILTRATE SAMPLE TEMPERATURE
 RMC .OHMM            .40:   RESISTIVITY MUD CAKE
 MCST.F                77:   MUD CAKE SAMPLE TEMPERATURE
 MFSS.               MEAS:   MUD FILTRATE SAMPLE SOURCE
 MCSS.               MEAS:   MUD CAKE SAMPLE SOURCE
 RMB .OHMM            .28:   RESISTIVITY MUD AT BHT
 BHT .F                70:   BOTTOM HOLE TEMPERATURE
 TCS .HRS            0400:   TIME CURCULATED STOPPED
 MRT .F                70:   MAXIMUM RECORDED TEMPERATURE
 LUN .               2958:   LOGGING UNIT NUMBER
 LUL .               CASP:   LOGGING UNIT LOCATION
 ENGI.             MILLER:   RECORDING ENGINEER
 WITN.           MCGINLEY:   WITNESSED BY
 CLNT.            A2DTECH:   CLIENT CODE
 ORIG.           5" PRINT:   ORIGIN OF DATA
 UWI .       490251063700:   UNIQUE WELL ID
 DICO. A2D Technologies, Inc.:   DIGITIZING COMPANY
~OTHER INFORMATION
~A   DEPT      SPR         SN        ILD       CALD        GRD       CORR       DPHI        DEN   
# ...
  435.0000   -32.6340    11.0029     7.3438     7.8790    79.4724     0.0192     0.1152     2.4744
  435.5000   -32.3199    11.0867     7.4491     7.7024    77.9619     0.0146     0.1230     2.4759
  436.0000   -32.3052    11.4842     7.7670     7.5511    75.6984     0.0115     0.1447     2.4623
  436.5000   -31.6857    12.3142     8.3255     7.4449    70.2723     0.0114     0.1653     2.4285
  437.0000   -29.8384    13.2956     9.0483     7.5948    55.0570     0.0113     0.1884     2.3947
  437.5000   -27.9940    14.3553     9.9020     7.6544    49.3296     0.0157     0.2049     2.3466
  438.0000   -26.4044    15.1815    10.6139     7.5632    45.2589     0.0231     0.2224     2.3071
  438.5000   -25.1921    15.8348    11.3771     7.3516    39.9834     0.0485     0.2206     2.2917
  439.0000   -24.1295    16.2897    11.9450     7.2605    33.9468     0.0783     0.2137     2.3039
  439.5000   -23.0669    16.6426    12.1993     7.3049    32.4444     0.0917     0.1714     2.3636
  440.0000   -22.4534    17.0025    12.2034     7.4999    34.3675     0.0841     0.1886     2.3823
  440.5000   -21.8399    17.2510    12.2076     7.6347    39.3621     0.0316     0.2009     2.3507
  441.0000   -21.8252    17.3850    12.2117     7.5888    43.8757     0.0495     0.1877     2.3282
  441.5000   -21.8105    17.3968    12.1317     7.6935    47.9375     0.0599     0.1781     2.3673
  442.0000   -21.7958    17.4087    12.1360     7.6476    50.0415     0.0508     0.1835     2.3662
  442.5000   -21.7811    17.4205    12.0564     7.5565    51.5430     0.0418     0.1848     2.3647
  443.0000   -21.7664    17.4324    11.8959     7.5407    52.1421     0.0387     0.2019     2.3669
  443.5000   -21.9014    17.4442    11.9000     7.5703    51.9859     0.0131     0.2127     2.3211
  444.0000   -21.8862    17.3359    11.9040     7.6456    57.1020     0.0460     0.1971     2.3330
  444.5000   -21.8683    17.3477    11.9081     7.6890    59.8084     0.0714     0.1848     2.3637
  445.0000   -21.8536    17.2370    11.9121     7.6581    60.1062     0.0383     0.2011     2.3562
  445.5000   -21.8389    17.3713    11.9161     7.6422    59.1971     0.0293     0.2029     2.3269
  446.0000   -21.8242    17.0265    11.9202     7.6565    56.1806     0.0307     0.2113     2.3201
  446.5000   -21.8095    16.6885    11.9242     7.6861    48.6452     0.0396     0.2143     2.3117
  447.0000   -21.6451    16.5848    11.9283     7.7152    47.1348     0.0559     0.2036     2.3147
  447.5000   -21.6304    16.8272    11.9323     7.7297    46.6796     0.0746     0.2006     2.3259
  448.0000   -21.6157    16.9556    11.9364     7.7138    47.7283     0.0864     0.1749     2.3618
  448.5000   -21.6010    16.9673    11.8582     7.6377    50.4347     0.0789     0.1578     2.4023
  449.0000   -21.5863    16.9813    11.8632     7.4864    55.5507     0.0624     0.1566     2.4090
  449.5000   -21.5716    16.9928    11.8673     7.5009    58.2571     0.0360     0.1596     2.4059
  450.0000   -21.7066    17.0263    11.8707     7.4999    59.1574     0.0168     0.1653     2.3946
  450.5000   -21.6892    17.1328    11.8767     7.4088    57.3402     0.0133     0.1911     2.3787
  451.0000   -21.6732    17.1444    11.8823     7.3177    55.5265     0.0117     0.1977     2.3590
  451.5000   -21.6572    17.1559    11.8879     7.1363    53.7118     0.0116     0.1992     2.3344
  452.0000   -21.6407    17.1678    11.9024     6.9849    51.8970     0.0489     0.1974     2.3352
  452.5000   -21.6212    17.1819    12.1497     6.9829    50.0841     0.0532     0.1914     2.3411
  453.0000   -21.6052    17.1934    12.3246     7.0587    54.7434     0.0531     0.1962     2.3456
  453.5000   -21.5892    17.2050    12.4159     7.1338    55.9426     0.0530     0.2016     2.3320
  454.0000   -21.5731    17.2166    12.4217     7.2540    52.6200     0.0528     0.1998     2.3312
  454.5000   -21.5571    17.2282    12.5137     7.3913    48.3956     0.0527     0.2178     2.3267
  455.0000   -21.6948    17.2397    12.4334     7.4473    46.2796     0.0705     0.2280     2.3030
  455.5000   -21.9746    17.2513    12.2685     7.4616    47.3263     0.1033     0.2100     2.2881
  456.0000   -22.8564    17.2629    12.1059     7.5061    49.4272     0.1286     0.1803     2.3255
  456.5000   -22.6901    17.2748    11.9375     7.5503    52.7330     0.1345     0.1518     2.3764
  457.0000   -22.8204    17.2891    11.7058     7.5496    55.4363     0.1358     0.1419     2.4089
  457.5000   -23.7026    17.1787    11.4724     7.5641    57.8384     0.1297     0.1404     2.4336
  458.0000   -24.4350    16.8376    11.2423     7.5481    59.3369     0.1071     0.1530     2.4254
  458.5000   -24.8721    16.6177    11.0920     7.4720    59.6325     0.0815     0.1578     2.4054
  459.0000   -24.8521    16.5171    10.8708     7.3809    59.9243     0.0799     0.1611     2.3912
  459.5000   -24.8361    16.3014    10.7254     7.4706    61.8765     0.0828     0.1641     2.3861
  460.0000   -24.8201    15.9774    10.5116     7.4155    57.1984     0.0811     0.1671     2.3932
  460.5000   -24.8039    15.8783    10.4441     7.3634    60.9560     0.0810     0.1683     2.3972
  461.0000   -24.7874    15.9992    10.4491     7.4373    65.3159     0.0794     0.1599     2.3973
  461.5000   -24.7680    15.6842    10.4552     7.4964    68.6217     0.0792     0.1542     2.4041
  462.0000   -24.7520    15.3728    10.4601     7.5408    70.2708     0.0761     0.1611     2.4092
  462.5000   -25.1851    15.2746    10.4650     7.5751    70.3138     0.0730     0.1638     2.4019
  463.0000   -25.4685    15.3935    10.4699     7.6082    67.5449     0.0728     0.1623     2.3970
  463.5000   -25.7519    15.5106    10.5475     7.6414    62.4169     0.0727     0.1593     2.4003
  464.0000   -25.8862    15.4142    10.5525     7.6883    60.6021     0.0741     0.1578     2.4084
  464.5000   -26.0195    15.4245    10.5574     7.7325    63.9079     0.0709     0.1537     2.4157
  465.0000   -25.8533    15.2230    10.5624     7.7598    67.3642     0.0648     0.1507     2.4215
  465.5000   -25.8335    15.1284    10.6407     7.7738    69.3145     0.0572     0.1510     2.4215
  466.0000   -25.8175    15.0344    10.7207     7.7726    69.9096     0.0571     0.1510     2.4214
  466.5000   -26.1009    15.0470    10.7258     7.7540    69.1489     0.0599     0.1489     2.4214
  467.0000   -26.5380    15.1615    10.8052     7.7402    68.5390     0.0658     0.1405     2.4288
  467.5000   -26.9711    15.1717    10.8103     7.7720    67.3266     0.0701     0.1297     2.4408
  468.0000   -27.1048    15.1819    10.8154     7.8281    63.5540     0.0730     0.1075     2.4880
  468.5000   -27.0848    15.1922    10.7447     7.8270    61.2875     0.0714     0.0736     2.5337
  469.0000   -27.0688    15.2024    10.6033     7.7957    62.4849     0.0533     0.0733     2.5464
  469.5000   -27.0524    15.3181    10.4629     7.7798    62.0255    -0.0008     0.0952     2.5381
  470.0000   -27.0327    15.6496    10.3242     7.8236    62.3192    -0.0189     0.1084     2.4863
  470.5000   -27.0167    15.5337    10.1873     7.8830    66.2273    -0.0220     0.1453     2.4427
  471.0000   -27.0007    15.2459    10.0522     7.9120    68.6294    -0.0132     0.1603     2.4126
  471.5000   -26.9847    14.9432     9.9877     7.8955    69.6761    -0.0028     0.1678     2.3938
  472.0000   -26.9687    14.7480     9.8564     7.8793    70.5722     0.0075     0.1678     2.3953
  472.5000   -26.9527    14.6538     9.7920     7.8481    69.8117     0.0119     0.1657     2.3982
  473.0000   -26.9353    14.6662     9.7978     7.8168    68.1475     0.0118     0.1648     2.3989
  473.5000   -26.9206    14.5746     9.7349     7.7856    67.8388     0.0116     0.1639     2.3989
  474.0000   -26.9042    14.4842     9.7395     7.7995    67.8313     0.0115     0.1633     2.3988
  474.5000   -27.0343    14.4942     9.7441     7.8137    67.8238     0.0114     0.1621     2.3995
  475.0000   -27.0183    14.5042     9.7488     7.8424    67.8163     0.0112     0.1609     2.3995
