~VERSION INFORMATION
 VERS.                2.0:   CWLS LOG ASCII STANDARD - VERSION 2.0
 WRAP.                 NO:   ONE LINE PER DEPTH STEP
~WELL INFORMATION
#MNEM.UNIT      DATA TYPE    INFORMATION
#----------   ------------   ------------------------------
 STRT.F            0.0000:   START DEPTH
 STOP.F          825.0000:   STOP DEPTH
 STEP.F            0.5000:   STEP LENGTH
 NULL.          -999.2500:   NO VALUE
 COMP. BROWN JOHN E&C INC:   COMPANY
 WELL. NAVAL PETROLEUM RESERVE 3 SHX- #21-1-2:   WELL
 FLD .             TEAPOT:   FIELD
 LOC .       S2 T38N R78W:   LOCATION
 CNTY.            NATRONA:   COUNTY
 STAT.            WYOMING:   STATE
 CTRY. UNITED STATES OF AMERICA:   COUNTRY
 SRVC.     Atlas Wireline:   SERVICE COMPANY
 DATE.        11-NOV-1991:   LOGDATE
 API .       490252247600:   API NUMBER
~CURVE INFORMATION
#MNEM.UNIT       API CODE    CURVE DESCRIPTION
#----------   ------------   ------------------------------
 DEPT.F                  :   
 GRR .GAPI   07 310 01 00:   GAMMA RAY
 RFOC.OHMM   07 220 04 00:   RESISTIVITY FOCUSED LOG
 RILD.OHMM   07 120 46 00:   INDUCTION LOG DEEP RESISTIVITY
 RILM.OHMM   07 120 44 00:   INDUCTION LOG MEDIUM RESISTIVITY
 SPR .MV     07 010 01 00:   SPONTANEOUS POTENTIAL
~PARAMETER INFORMATION
#MNEM.UNIT          VALUE    DESCRIPTION
#----------   ------------   ------------------------------
 PD  .                 GL:   PERMANENT DATUM
 EPD .F              5110:   ELEVATION PERMANENT DATUM
 LMF .                 KB:   LOG MEASURED FROM
 DAPD.F                10:   FEET ABOVE PERMANENT DATUM
 DMF .                 KB:   DRILLING MEASURED FROM
 EKB .F              5120:   KELLING BUSHING
 EGL .F              5110:   GROUND LEVEL
 DATE.        11-NOV-1991:   RUN DATE
 RUN .                  1:   RUN NUMBER
 DD  .F               830:   DEPTH DRILLER
 DL  .F               527:   DEPTH LOGGER
 BLI .F               525:   BOTTOM LOG INTERVAL
 CS  .IN            9.625:   CASING SIZE
 CBD .F                58:   CASING BOTTOM DRILLER
 CBL .F                58:   CASING BOTTOM LOGGER
 BS  .IN             8.75:   BIT SIZE
 BSD .F               830:   BIT SIZE AT DEPTH
 DFT .          KCL WATER:   DRILLING FLUID TYPE
 RMS .OHMM          0.248:   RESISTIVITY MUD SAMPLE
 MST .F                93:   MUD SAMPLE TEMPERATURE
 BHT .F               104:   BOTTOM HOLE TEMPERATURE
 TCS .HRS               2:   TIME CURCULATED STOPPED
 MRT .F               104:   MAXIMUM RECORDED TEMPERATURE
 LUN .            HL 6274:   LOGGING UNIT NUMBER
 LUL .             CASPER:   LOGGING UNIT LOCATION
 ENGI.       P. RASMUSSEN:   RECORDING ENGINEER
 WITN.        GARY STRONG:   WITNESSED BY
 CLNT.            A2DTECH:   CLIENT CODE
 ORIG.           5" PRINT:   ORIGIN OF DATA
 UWI .       490252247600:   UNIQUE WELL ID
 DICO. A2D Technologies, Inc.:   DIGITIZING COMPANY
~OTHER INFORMATION
~A    DEPT       GRR     RFOC       RILD       RILM        SPR   
# ...
  793.0000   119.8453     6.5924     6.5123     6.2259   -61.7060
  793.5000   118.9398     7.3313     6.6459     6.3975   -61.7114
  794.0000   117.1376     7.9922     6.8768     6.6195   -61.5652
  794.5000   115.9302     8.1555     7.1182     6.8492   -61.5702
  795.0000   114.6508     8.2647     7.3713     7.0379   -61.5745
  795.5000   112.6277     8.3765     7.7241     7.2319   -61.4288
  796.0000   110.5260     8.4301     7.9374     7.4332   -61.2834
  796.5000   108.4244     8.5419     8.1565     7.6442   -61.1378
  797.0000   105.4246     8.6563     8.4398     7.9548   -60.9923
  797.5000   105.7182     9.0267     8.5535     8.1740   -61.0645
  798.0000   105.8445     9.7926     8.6689     8.2847   -61.3019
  798.5000   103.0119     9.1330     8.7249     8.3958   -61.4562
  799.0000   102.1078     8.8789     8.7206     8.3902   -61.6105
  799.5000   106.2923     8.7522     8.6555     8.3277   -61.6148
  800.0000   110.1787     8.7475     8.4735     8.2087   -61.6192
  800.5000   109.2747     8.7428     8.4111     8.1407   -61.7735
  801.0000   103.8796     8.7381     8.2915     8.0300   -61.1792
  801.5000   100.5804     8.6731     8.2304     7.9703   -60.7338
  802.0000   101.4728     8.6683     8.2265     7.9660   -60.4383
  802.5000   104.7604     8.6029     8.2226     7.9067   -61.4921
  803.0000   107.7645     8.7181     8.3353     7.9025   -61.7963
  803.5000   108.9404     8.8361     8.3959     7.8982   -61.5008
  804.0000   109.2340     8.9544     8.5003     7.8940   -61.1994
  804.5000   107.7297     8.9484     8.6138     7.7810   -60.7599
  805.0000   108.9215     8.6994     8.6097     7.6159   -60.3156
  805.5000   110.7121     8.5161     8.6057     7.5433   -60.3200
  806.0000   109.8081     8.3882     8.4833     7.3997   -60.3243
  806.5000   109.1717     8.2165     8.3627     7.2939   -60.3287
  807.0000   110.4109     8.0993     8.3011     7.1896   -60.6329
  807.5000   113.7627     7.8739     8.1782     7.0869   -60.9371
  808.0000   114.2758     7.6548     7.9548     6.9509   -61.5532
  808.5000   112.7715     7.3396     7.7876     6.7608   -62.2962
  809.0000   111.2687     7.1354     7.6238     6.5760   -63.5000
  809.5000   110.0653     6.9368     7.4121     6.3081   -63.6543
  810.0000   107.1868     6.7875     7.0093     5.9679   -63.0589
  810.5000  -999.2500     6.5101     6.4028     5.4917   -62.9123
  811.0000  -999.2500     6.2854     5.8085     4.7809   -63.5174
  811.5000  -999.2500     6.0265     4.4282     4.0456   -64.7212
  812.0000  -999.2500     5.6206     3.6986     3.3624   -65.6432
  812.5000  -999.2500     4.8915     2.9832     2.5981   -65.4795
  813.0000  -999.2500     3.9178     2.5427     2.2153   -64.8852
  813.5000  -999.2500     3.0734     2.2908     2.0527   -64.2899
  814.0000  -999.2500     2.5478     2.1365     1.9691   -64.4442
  814.5000  -999.2500     2.5119     2.1503     1.9420   -65.1982
  815.0000  -999.2500     2.6348     2.1793     2.1104   -65.3524
  815.5000  -999.2500     2.8813     2.2086     2.3254   -65.2024
  816.0000  -999.2500     3.5935     2.2550     2.6222   -63.9641
  816.5000  -999.2500     4.9037     2.3482     3.1110   -61.9183
  817.0000  -999.2500     6.8793     2.3850     3.6486   -61.4718
  817.5000  -999.2500     7.0396  -999.2500     4.1621   -61.6267
  818.0000  -999.2500     6.5924  -999.2500     4.8142   -61.6315
  818.5000  -999.2500     6.6395  -999.2500     5.3787   -61.4849
  819.0000  -999.2500     7.1546  -999.2500     5.8789   -61.1905
  819.5000  -999.2500     7.5056  -999.2500  -999.2500   -61.2054
  820.0000  -999.2500     7.6072  -999.2500  -999.2500   -61.5001
  820.5000  -999.2500     7.5496  -999.2500  -999.2500   -61.6533
  821.0000  -999.2500     7.5456  -999.2500  -999.2500   -61.0591
  821.5000  -999.2500     7.4895  -999.2500  -999.2500   -60.4637
  822.0000  -999.2500     7.4339  -999.2500  -999.2500   -59.8684
  822.5000  -999.2500     7.4298  -999.2500  -999.2500   -59.4230
  823.0000  -999.2500     7.3737  -999.2500  -999.2500   -59.2774
  823.5000  -999.2500     7.3189  -999.2500  -999.2500   -59.2819
  824.0000  -999.2500     7.2645  -999.2500  -999.2500   -59.2872
  824.5000  -999.2500     7.2606  -999.2500  -999.2500   -62.2984
  825.0000  -999.2500     7.3081  -999.2500  -999.2500   -64.7432
