~VERSION INFORMATION
 VERS.                2.0:   CWLS LOG ASCII STANDARD - VERSION 2.0
 WRAP.                 NO:   ONE LINE PER DEPTH STEP
~WELL INFORMATION
#MNEM.UNIT      DATA TYPE    INFORMATION
#----------   ------------   ------------------------------
 STRT.F           38.0000:   START DEPTH
 STOP.F          890.0000:   STOP DEPTH
 STEP.F            0.5000:   STEP LENGTH
 NULL.          -999.2500:   NO VALUE
 COMP. FENIX & SCISSON INC:   COMPANY
 WELL.       43 SX #14-14:   WELL
 FLD .             TEAPOT:   FIELD
 LOC .      S14 T38N R78W:   LOCATION
 CNTY.            NATRONA:   COUNTY
 STAT.            WYOMING:   STATE
 CTRY. UNITED STATES OF AMERICA:   COUNTRY
 SRVC.            Unknown:   SERVICE COMPANY
 DATE.        28-APR-1978:   LOGDATE
 API .       490251063600:   API NUMBER
~CURVE INFORMATION
#MNEM.UNIT       API CODE    CURVE DESCRIPTION
#----------   ------------   ------------------------------
 DEPT.F                  :   
 SPR .MV     05 010 01 00:   SPONTANEOUS POTENTIAL FROM RES.
 SN  .OHMM   05 040 16 00:   SHORT NORMAL 16"
 ILD .OHMM   05 120 46 00:   INDUCTION LOG DEEP
 CILD.MMHO   05 110 46 00:   CONDUCTIVITY INDUCTION LOG DEEP
 CALD.IN     45 280 60 00:   CALIPER FROM DENSITY LOG
 GRD .GAPI   45 310 01 00:   GAMMA RAY FROM DENSITY LOG
 CORR.G/C3   45 356 01 00:   DENSITY CORRECTION
 DPHI.DEC    45 890 12 00:   DENSITY POROSITY SANDSTONE
 DEN .G/C3   45 350 01 00:   COMPENSATED BULK DENSTIY
~PARAMETER INFORMATION
#MNEM.UNIT          VALUE    DESCRIPTION
#----------   ------------   ------------------------------
 PD  .                 GL:   PERMANENT DATUM
 EPD .F              5217:   ELEVATION PERMANENT DATUM
 LMF .                 KB:   LOG MEASURED FROM
 DMF .                 KB:   DRILLING MEASURED FROM
 EKB .F              5221:   KELLING BUSHING
 EGL .F              5217:   GROUND LEVEL
 DATE.        28-APR-1978:   RUN DATE
 RUN .                  1:   RUN NUMBER
 DD  .F               890:   DEPTH DRILLER
 DL  .F               890:   DEPTH LOGGER
 BLI .F               884:   BOTTOM LOG INTERVAL
 TLI .F                40:   TOP LOG INTERVAL
 CS  .IN            8.625:   CASING SIZE
 CBD .F                40:   CASING BOTTOM DRILLER
 CBL .F                40:   CASING BOTTOM LOGGER
 BS  .IN            7.875:   BIT SIZE
 BSD .F               890:   BIT SIZE AT DEPTH
 DFT .                KCL:   DRILLING FLUID TYPE
 DFD .                8.7:   DRILLING FLUID DENSITY
 DFV .                 34:   DRILLING FLUID VISCOSITY
 DFL .                4.8:   DRILLING FLUID LOSS
 MSS .            MUD PIT:   MUD SAMPLE SOURCE
 RMS .OHMM             .4:   RESISTIVITY MUD SAMPLE
 MST .F                56:   MUD SAMPLE TEMPERATURE
 RMF .OHMM            .38:   RESISTIVITY MUD FILTRATE SAMPLE
 MFST.F                64:   MUD FILTRATE SAMPLE TEMPERATURE
 RMC .OHMM              1:   RESISTIVITY MUD CAKE
 MCST.F                66:   MUD CAKE SAMPLE TEMPERATURE
 MFSS.               MEAS:   MUD FILTRATE SAMPLE SOURCE
 RMB .OHMM             .3:   RESISTIVITY MUD AT BHT
 BHT .F                74:   BOTTOM HOLE TEMPERATURE
 TCS .HRS            0100:   TIME CURCULATED STOPPED
 MRT .F                74:   MAXIMUM RECORDED TEMPERATURE
 LUN .               2958:   LOGGING UNIT NUMBER
 LUL .               CASP:   LOGGING UNIT LOCATION
 ENGI.             MILLER:   RECORDING ENGINEER
 WITN.           MCGINLEY:   WITNESSED BY
 CLNT.            A2DTECH:   CLIENT CODE
 ORIG.           5" PRINT:   ORIGIN OF DATA
 UWI .       490251063600:   UNIQUE WELL ID
 DICO. A2D Technologies, Inc.:   DIGITIZING COMPANY
~OTHER INFORMATION
~A   DEPT      SPR         SN        ILD       CILD       CALD        GRD       CORR       DPHI        DEN   
# ...
  841.0000   -34.0563     8.5611     8.5161   106.3459     8.0498    77.2208     0.0376     0.0642     2.5311
  841.5000   -34.0519     8.7436     8.6984   105.9603     8.0355    77.3824     0.0347     0.0671     2.5350
  842.0000   -34.0474     8.8077     8.8235   105.5436     8.0366    77.8640     0.0333     0.0632     2.5275
  842.5000   -34.0426     8.9337     9.0124   105.3507     8.0375    79.2304     0.0335     0.0620     2.5329
  843.0000   -34.0385     9.0614     9.0792   104.5196     8.0383    79.9692     0.0336     0.0610     2.5353
  843.5000   -34.1825     9.2546     9.2736   102.9394     8.0242    80.5806     0.0337     0.0616     2.5367
  844.0000   -34.1780     9.3931     9.4721   102.1083     8.0252    80.8921     0.0338     0.0664     2.5293
  844.5000   -34.1735     9.5871     9.6083   100.5281     8.0262    80.4540     0.0354     0.0682     2.5241
  845.0000   -34.1691     9.8006     9.8263    98.9479     8.0271    79.7161     0.0370     0.0651     2.5264
  845.5000   -34.3131     9.9421     9.9550    95.8696     8.0280    77.4790     0.0387     0.0627     2.5280
  846.0000   -34.4569    10.1433    10.0836    90.5441     8.0438    75.5416     0.0403     0.0579     2.5295
  846.5000   -34.4525    10.2884    10.2123    87.4658     8.0746    75.1034     0.0344     0.0726     2.5439
  847.0000   -34.5964    10.3647    10.3192    85.1365     8.0603    75.1154     0.0363     0.0716     2.5214
  847.5000   -34.5920    10.4407    10.3956    84.3054     8.0015    75.1524     0.0467     0.0623     2.5147
  848.0000   -34.5875    10.5172    10.4007    83.4743     7.9725    75.2915     0.0482     0.0566     2.5328
  848.5000   -34.5827    10.5944    10.4057    83.3922     8.0038    75.4531     0.0439     0.0586     2.5404
  849.0000   -34.5786    10.6720    10.3379    83.3102     8.0361    75.7647     0.0410     0.0549     2.5390
  849.5000   -34.5742    10.6764    10.3442    83.2281     8.1100    76.0762     0.0411     0.0607     2.5443
  850.0000   -34.5697    10.6797    10.3600    83.1461     8.1708    76.6867     0.0397     0.0670     2.5496
  850.5000   -34.5466    10.6299    10.4327    83.3000     8.2029    75.6517     0.0413     0.0702     2.5376
  851.0000   -34.5234    10.5839    10.5053    83.4540     8.1752    76.1196     0.0414     0.0705     2.5220
  851.5000   -34.5002    10.5379    10.5783    83.6080     8.1624    76.5839     0.0415     0.0705     2.5130
  852.0000   -34.4770    10.4919    10.5827    83.7154     8.1651    76.7483     0.0400     0.0705     2.5214
  852.5000   -34.4538    10.4831    10.5871    83.6695     8.1673    76.1631     0.0401     0.0704     2.5222
  853.0000   -34.4306    10.4875    10.5186    83.6243     8.1694    75.7242     0.0402     0.0704     2.5208
  853.5000   -34.4075    10.4919    10.5230    84.3296     8.1716    75.2924     0.0388     0.0728     2.5140
  854.0000   -34.3974    10.4240    10.4550    85.0337     8.1738    75.4573     0.0373     0.0791     2.5179
  854.5000   -34.2460    10.3567    10.4593    86.4852     8.1759    76.0749     0.0374     0.0812     2.5124
  855.0000   -34.0947    10.2898    10.4637    86.4401     8.1931    76.8390     0.0375     0.0808     2.5060
  855.5000   -34.0917    10.2233    10.3246    87.1461     8.1958    78.2028     0.0360     0.0805     2.5031
  856.0000   -33.9404    10.2277    10.1873    87.8502     8.2129    78.9670     0.0361     0.0811     2.5024
  856.5000   -33.9374    10.1615    10.1215    88.5631     8.2001    79.1278     0.0362     0.0823     2.5017
  857.0000   -34.0835    10.0959    10.0560    88.5067     8.2023    78.9955     0.0393     0.0717     2.5018
  857.5000   -34.0798    10.0307     9.9224    88.4616     8.2045    79.0105     0.0424     0.0657     2.5019
  858.0000   -34.2252    10.0350     9.9265    88.4165     8.1916    79.0255     0.0409     0.0672     2.5306
  858.5000   -34.2223    10.0391     9.8622    87.6223     8.1340    79.0431     0.0380     0.0677     2.5260
  859.0000   -34.2193    10.0433     9.7311    87.5771     8.0888    78.9041     0.0381     0.0681     2.5232
  859.5000   -34.2161     9.9782     9.6682    87.5320     8.0490    79.0722     0.0382     0.0671     2.5202
  860.0000   -34.2134     9.9826     9.6057    87.4869     8.0207    79.5364     0.0337     0.0665     2.5233
  860.5000   -34.2104     9.8500     9.4129    88.9399     8.0384    80.1507     0.0292     0.0715     2.5279
  861.0000   -34.2074     9.7181     9.4168    90.4041     8.0855    80.7649     0.0264     0.0763     2.5167
  861.5000   -34.2044     9.5900     9.3558    92.5949     8.1475    80.7796     0.0265     0.0808     2.5108
  862.0000   -34.3506     9.4626     9.2954    94.0592     8.1946    80.7975     0.0250     0.0820     2.5063
  862.5000   -34.3469     9.3369     9.2994    95.5122     8.1969    80.8120     0.0251     0.0819     2.4989
  863.0000   -34.3439     9.2119     9.3032    96.9652     8.1995    80.8265     0.0267     0.0765     2.4959
  863.5000   -34.6377     9.0905     9.2429    98.4069     8.2017    80.8410     0.0328     0.0714     2.5050
  864.0000   -35.2282     8.9688     9.1832    99.1221     8.2038    80.8555     0.0388     0.0666     2.5126
  864.5000   -35.6710     8.9118     9.1872   100.5638     8.2060    80.8700     0.0389     0.0662     2.5232
  865.0000   -35.6673     8.8533     9.1276   100.5187     8.2082    80.8858     0.0390     0.0677     2.5264
  865.5000   -35.6644     8.7366     9.0064   101.9830     8.2103    80.8996     0.0391     0.0674     2.5219
  866.0000   -35.8105     8.7402     8.9482   103.4360     8.2126    80.7673     0.0391     0.0659     2.5243
  866.5000   -35.8068     8.6829     8.9519   104.8777     8.1997    80.7818     0.0392     0.0667     2.5303
  867.0000   -35.9529     8.5684     8.9556   106.3420     8.2024    80.7963     0.0393     0.0649     2.5236
  867.5000   -36.0983     8.5122     8.8968   109.2818     8.2046    81.4105     0.0394     0.0601     2.5335
  868.0000   -36.0946     8.4572     8.7785   110.7348     8.1913    82.9243     0.0379     0.0616     2.5403
  868.5000   -36.0917     8.3449     8.7218   112.1991     8.1785    82.7888     0.0350     0.0657     2.5343
  869.0000   -36.2378     8.2910     8.6059   112.8917     8.1812    82.5035     0.0306     0.0666     2.5337
  869.5000   -36.0857     8.2953     8.4923   112.8466     8.1834    82.5216     0.0277     0.0697     2.5323
  870.0000   -36.0831     8.2987     8.4958   114.2996     8.1561    83.2858     0.0262     0.0723     2.5244
  870.5000   -36.0798     8.2334     8.4409   115.0035     8.1283    84.0499     0.0278     0.0704     2.5106
  871.0000   -36.0772     8.1599     8.3864   114.9584     8.1455    84.2143     0.0294     0.0650     2.5099
  871.5000   -36.0738     8.0864     8.2740   115.6623     8.1477    84.2289     0.0295     0.0638     2.5220
  872.0000   -36.0709     8.0129     8.2205   115.6172     8.1343    84.2434     0.0295     0.0644     2.5281
  872.5000   -36.0679     7.9394     8.1113   116.3324     8.0921    84.2579     0.0281     0.0685     2.5304
  873.0000   -36.0649     7.8659     8.0588   117.7854     8.0785    84.1225     0.0282     0.0718     2.5223
  873.5000   -36.0620     7.7924     7.9525   119.2271     8.0366    82.7913     0.0268     0.0676     2.5156
  874.0000   -36.0590     7.7189     7.9003   120.6914     8.0238    82.6522     0.0283     0.0688     2.5165
  874.5000   -36.0560     7.6679     7.8492   122.8935     8.0265    82.5168     0.0329     0.0705     2.5278
  875.0000   -36.0530     7.6098     7.6395   123.7204     8.0287    81.0357     0.0360     0.0684     2.5188
  875.5000   -36.0501     7.4655     7.5894   125.7994     8.0308    80.1470     0.0361     0.0675     2.5166
  876.0000   -36.0471     7.4099     7.4370   126.5034     8.0330    81.5145     0.0361     0.0747     2.5257
  876.5000   -35.8958     7.3120     7.2884   127.2073     8.0352    83.3283     0.0362     0.0719     2.5228
  877.0000   -35.8928     7.2715     7.2406   127.5964     8.0524    83.1927     0.0363     0.0689     2.5108
