~VERSION INFORMATION
 VERS.                2.0:   CWLS LOG ASCII STANDARD - VERSION 2.0
 WRAP.                 NO:   ONE LINE PER DEPTH STEP
~WELL INFORMATION
#MNEM.UNIT      DATA TYPE    INFORMATION
#----------   ------------   ------------------------------
 STRT.F           30.0000:   START DEPTH
 STOP.F          570.0000:   STOP DEPTH
 STEP.F            0.5000:   STEP LENGTH
 NULL.          -999.2500:   NO VALUE
 COMP.    FENIX & SCISSON:   COMPANY
 WELL.  NPR #3 #13SX11-11:   WELL
 FLD .             TEAPOT:   FIELD
 LOC .      S11 T38N R78W:   LOCATION
 CNTY.            NATRONA:   COUNTY
 STAT.            WYOMING:   STATE
 CTRY. UNITED STATES OF AMERICA:   COUNTRY
 SRVC.       Schlumberger:   SERVICE COMPANY
 DATE.        27-FEB-1977:   LOGDATE
 API .       490251029400:   API NUMBER
~CURVE INFORMATION
#MNEM.UNIT       API CODE    CURVE DESCRIPTION
#----------   ------------   ------------------------------
 DEPT.F                  :   
 GRD .GAPI   45 310 01 00:   GAMMA RAY FROM DENSITY LOG
 CALD.IN     45 280 60 00:   CALIPER FROM DENSITY LOG
 CORR.G/C3   45 356 01 00:   DENSITY CORRECTION
 DPHI.DEC    45 890 12 00:   DENSITY POROSITY STANDSTONE
 RHOB.G/C3   45 350 01 00:   BULK DENSITY
 SPR .MV     07 010 01 00:   SPONTANEOUS POTENTIAL
 ILD .OHMM   07 120 46 00:   INDUCTION LOG DEEP
 ILM .OHMM   07 120 44 00:   INDUCTION LOG MEDIUM
 LL8 .OHMM   07 220 08 00:   LATEROLOG-8 RES.
~PARAMETER INFORMATION
#MNEM.UNIT          VALUE    DESCRIPTION
#----------   ------------   ------------------------------
 PD  .                 GL:   PERMANENT DATUM
 EPD .F              5180:   ELEVATION PERMANENT DATUM
 LMF .                 GL:   LOG MEASURED FROM
 DAPD.F                 0:   FEET ABOVE PERMANENT DATUM
 DMF .                 GL:   DRILLING MEASURED FROM
 EKB .F              5183:   KELLING BUSHING
 EGL .F              5180:   GROUND LEVEL
 DATE.        27-FEB-1977:   RUN DATE
 RUN .                  1:   RUN NUMBER
 DD  .F               585:   DEPTH DRILLER
 DL  .F               571:   DEPTH LOGGER
 BLI .F               570:   BOTTOM LOG INTERVAL
 TLI .F                44:   TOP LOG INTERVAL
 CS  .IN            8.625:   CASING SIZE
 CBD .F                40:   CASING BOTTOM DRILLER
 CBL .F                44:   CASING BOTTOM LOGGER
 BS  .IN            7.875:   BIT SIZE
 BSD .F               585:   BIT SIZE AT DEPTH
 DFT .                KCL:   DRILLING FLUID TYPE
 DFD .                8.7:   DRILLING FLUID DENSITY
 DFV .                 42:   DRILLING FLUID VISCOSITY
 DFPH.                  8:   DRILLING FLUID PH
 DFL .                9.2:   DRILLING FLUID LOSS
 MSS .                PIT:   MUD SAMPLE SOURCE
 RMS .OHMM           .806:   RESISTIVITY MUD SAMPLE
 MST .F                70:   MUD SAMPLE TEMPERATURE
 RMF .OHMM           .720:   RESISTIVITY MUD FILTRATE SAMPLE
 MFST.F                70:   MUD FILTRATE SAMPLE TEMPERATURE
 MFSS.               MEAS:   MUD FILTRATE SAMPLE SOURCE
 RMB .OHMM           .973:   RESISTIVITY MUD AT BHT
 BHT .F                58:   BOTTOM HOLE TEMPERATURE
 TCS .HRS            0230:   TIME CURCULATED STOPPED
 MRT .F                58:   MAXIMUM RECORDED TEMPERATURE
 LUN .               5642:   LOGGING UNIT NUMBER
 LUL .             CASPER:   LOGGING UNIT LOCATION
 ENGI.         JIM MARTIN:   RECORDING ENGINEER
 WITN.         STUEBINGER:   WITNESSED BY
 CLNT.            A2DTECH:   CLIENT CODE
 ORIG.           5" PRINT:   ORIGIN OF DATA
 UWI .       490251029400:   UNIQUE WELL ID
 DICO. A2D Technologies, Inc.:   DIGITIZING COMPANY
~OTHER INFORMATION
~A   DEPT      GRD       CALD       CORR       DPHI       RHOB        SPR        ILD        ILM        LL8   
# ...
  285.5000   107.1620     8.0594     0.0296     0.1040     2.4845   -27.9456     9.1441     9.4396    10.3046
  286.0000   104.8987     8.0611     0.0151     0.1145     2.4529   -27.4924     8.8300     9.3048     9.7495
  286.5000   106.1433     8.0628     0.0109     0.1169     2.4574   -27.1903     8.7059     9.1094     9.8208
  287.0000   107.9688     8.0645     0.0221     0.1107     2.4829   -26.8882     8.7035     8.9182    10.1756
  287.5000   109.2033     8.0662     0.0296     0.1032     2.4994   -26.8882     8.7012     8.7309    10.5848
  288.0000   110.5216     8.0678     0.0341     0.0975     2.5122   -26.7372     8.6988     8.6670    10.7289
  288.5000   110.9814     8.0695     0.0266     0.0985     2.5137   -26.5861     8.6363     8.6634    10.6502
  289.0000   109.9284     8.0712     0.0124     0.1048     2.4994   -26.5861     8.6339     8.7210    10.4273
  289.5000   108.5727     8.0729     0.0041     0.1111     2.4934   -26.5861     8.5126     8.7166    10.1385
  290.0000   107.6710     8.0746    -0.0004     0.1145     2.4634   -26.1329     8.4515     8.6527     9.7219
  290.5000   107.0718     8.0762    -0.0004     0.1139     2.4581   -26.2840     8.3907     8.6492     9.5185
  291.0000   106.7752     8.0626     0.0049     0.1078     2.4733   -26.7372     8.3301     8.6456     9.5822
  291.5000   106.7812     8.0184     0.0131     0.1066     2.4859   -27.3414     8.2110     8.5230     9.7795
  292.0000   111.6283     7.9591     0.0026     0.1133     2.4727   -27.6435     8.0376     8.4021     9.8450
  292.5000   116.7780     7.9297     0.0117     0.1033     2.4851   -27.7946     7.8679     8.1689     9.8408
  293.0000   118.9019     7.9461     0.0079     0.1090     2.4761   -27.7946     7.7018     7.9421     9.7019
  293.5000   117.5463     7.9924     0.0019     0.1131     2.4708   -27.7946     7.5294     7.6683     9.4332
  294.0000   115.8881     8.0538    -0.0034     0.1084     2.4798   -28.0967     7.1890     7.4554     9.1085
  294.5000   114.3772     8.1000     0.0019     0.1175     2.4580   -28.2477     6.8941     7.0991     8.8563
  295.0000   112.2390     8.1011     0.0079     0.1126     2.4730   -28.3988     6.6573     6.8070     8.6709
  295.5000   110.4216     8.1172     0.0094     0.1083     2.4828   -28.3988     6.3842     6.4369     8.5485
  296.0000   109.0762     8.1183     0.0176     0.1039     2.4888   -28.3988     5.6726     5.9178     8.3696
  296.5000   108.6562     8.1193     0.0169     0.1148     2.4648   -28.3988     5.1821     5.0731     8.1378
  297.0000   110.4791     8.1354     0.0124     0.1090     2.4745   -28.2477     4.1209     4.5363     7.8035
  297.5000   111.6953     8.1365     0.0131     0.1268     2.4783   -28.0715     3.4162     4.0511     7.3798
  298.0000   112.9116     8.1376    -0.0020     0.1425     2.4227   -27.7946     3.1208     3.4685     6.6483
  298.5000   112.4637     8.1388    -0.0071     0.1386     2.4287   -27.7946     2.9109     3.0357     5.2499
  299.0000   114.1338     8.1399    -0.0002     0.1349     2.4317   -27.6435     2.8900     2.9927     3.8679
  299.5000   117.7706     8.1409     0.0019     0.1361     2.4287   -27.1903     2.9093     3.0122     3.0122
  300.0000   120.8008     8.1362     0.0035     0.1467     2.4197   -26.8630     3.0144     3.1335     2.8290
  300.5000   119.2841     8.1204     0.0049     0.1626     2.3826   -26.4350     3.2940     3.3406     3.4103
  301.0000   117.7668     8.1046     0.0063     0.1816     2.3400   -25.9819     3.5294     3.5305     3.7568
  301.5000   116.5520     8.0986     0.0078     0.2006     2.3137   -26.4350     3.8879     3.9167     4.1672
  302.0000   115.4885     8.1011     0.0100     0.2113     2.3002   -27.1903     4.4033     4.4059     5.5745
  302.5000   114.7276     8.1036     0.0133     0.2087     2.3144   -27.9456     4.7508     4.7873     6.4911
  303.0000   113.8154     8.1061     0.0174     0.1892     2.3362   -28.3988     5.2334     5.2744     7.0033
  303.5000   114.8699     8.1086    -0.0006     0.1697     2.3647   -28.2477     5.8863     5.8110     7.2480
  304.0000   121.8608     8.1110     0.0196     0.1502     2.4037   -27.7946     6.2633     6.3140     7.2435
  304.5000   124.1154     8.1135     0.0136     0.1336     2.4292   -27.3414     6.3491     6.4454     7.1389
  305.0000   124.5387     8.1147     0.0038     0.1230     2.4472   -27.0393     6.3025     6.4890     7.0913
  305.5000   121.5507     8.1150     0.0128     0.1291     2.4434   -26.8882     6.2136     6.3951     7.1067
  306.0000   120.1413     8.1153     0.0053     0.1363     2.4133   -26.8882     6.0415     6.1743     8.0282
  306.5000   120.8933     8.1156    -0.0053     0.1273     2.4216   -26.8882     5.7932     5.9141     8.5423
  307.0000   121.6452     8.1309     0.0030     0.1225     2.4389   -27.1903     5.3659     5.6438     7.9121
  307.5000   122.2459     8.1463     0.0059     0.1243     2.4456   -27.4924     5.1098     5.4880     7.0787
  308.0000   121.9388     8.1466     0.0029     0.1271     2.4456   -27.7946     5.0029     5.2269     6.3330
  308.5000   122.2380     8.1469    -0.0106     0.1304     2.4410   -27.7946     4.8643     4.8756     5.1416
  309.0000   122.5361     8.1472    -0.0060     0.1297     2.4335   -27.4844     4.7957     4.7085     5.3955
  309.5000   122.2279     8.1475    -0.0002     0.1289     2.4335   -27.0393     4.7940     4.7075     6.2394
  310.0000   123.7363     8.1478     0.0050     0.1292     2.4342   -26.8681     4.7923     4.7725     5.5052
  310.5000   125.8498     8.1482     0.0125     0.1365     2.4326   -26.5861     4.8694     4.9055     5.0995
  311.0000   127.3582     8.1334     0.0200     0.1503     2.4079   -26.5861     5.0971     5.0427     6.0205
  311.5000   126.7486     8.1337     0.0124     0.1639     2.3403   -26.7372     5.2752     5.2922     6.6321
  312.0000   122.9619     8.1340    -0.0048     0.1687     2.3305   -27.1903     5.4217     5.5160     6.8644
  312.5000   120.8394     8.1357    -0.0034     0.1534     2.3726   -27.7946     5.6111     5.8700     6.4315
  313.0000   120.7988     8.1378     0.0033     0.1399     2.4078   -27.7946     5.8475     6.2468     6.7179
  313.5000   123.7049     8.1399     0.0101     0.1438     2.4191   -27.7946     6.1363     6.5562     7.1481
  314.0000   126.4236     8.1420     0.0115     0.1248     2.4348   -27.7946     6.4393     6.8810     7.7121
  314.5000   127.9410     8.1441     0.0010     0.1218     2.4438   -27.7946     6.6643     7.1719     8.2083
  315.0000   129.7630     8.1462    -0.0035     0.1285     2.4445   -27.7946     7.0421     7.4234     8.6193
  315.5000   130.4948     8.1482     0.0009     0.1324     2.4130   -27.7946     7.3388     7.5779     8.9811
  316.0000   126.1089     8.1503     0.0062     0.1261     2.4362   -27.7946     7.4393     7.6291     9.2234
  316.5000   122.9204     8.1524     0.0054     0.1192     2.4542   -27.9456     7.4362     7.6275     9.2844
  317.0000   120.6467     8.1545     0.0069     0.1138     2.4715   -28.0967     7.3822     7.5732     9.2804
  317.5000   119.4319     8.1566     0.0114     0.1108     2.4752   -28.0967     7.3287     7.5193     9.2773
  318.0000   119.1248     8.1587     0.0109     0.1120     2.4759   -27.9456     7.2755     7.4658     9.0203
  318.5000   119.5742     8.1607     0.0053     0.1156     2.4579   -27.4924     7.2228     7.4127     8.7705
  319.0000   120.1749     8.1628     0.0112     0.1208     2.4413   -27.0393     7.0716     7.2555     8.5276
  319.5000   120.4741     8.1649     0.0089     0.1226     2.4404   -26.8882     6.9236     7.1523     8.2915
  320.0000   122.8890     8.1670    -0.0038     0.1180     2.4533   -27.1903     6.7787     7.0082     8.2886
  320.5000   123.4908     8.1693     0.0186     0.1134     2.4690   -27.1903     6.5910     6.9502     8.2858
  321.0000   119.4005     8.1696     0.0156     0.1093     2.4758   -27.6455     6.4079     6.6269     8.2829
  321.5000   119.6986     8.1699     0.0058     0.1112     2.4703   -27.8026     6.1856     6.2680     7.9426
