~VERSION INFORMATION
 VERS.                2.0:   CWLS LOG ASCII STANDARD - VERSION 2.0
 WRAP.                 NO:   ONE LINE PER DEPTH STEP
~WELL INFORMATION
#MNEM.UNIT      DATA TYPE    INFORMATION
#----------   ------------   ------------------------------
 STRT.F           32.0000:   START DEPTH
 STOP.F          571.0000:   STOP DEPTH
 STEP.F            0.5000:   STEP LENGTH
 NULL.          -999.2500:   NO VALUE
 COMP. FENIX & SCISSON INCORP.:   COMPANY
 WELL.      NPR-3 #21-S-3:   WELL
 FLD .             TEAPOT:   FIELD
 LOC .       S3 T38N R78W:   LOCATION
 CNTY.            NATRONA:   COUNTY
 STAT.            WYOMING:   STATE
 CTRY. UNITED STATES OF AMERICA:   COUNTRY
 SRVC.           BIRDWELL:   SERVICE COMPANY
 DATE.        25-JUL-1978:   LOGDATE
 API .       490251067100:   API NUMBER
~CURVE INFORMATION
#MNEM.UNIT       API CODE    CURVE DESCRIPTION
#----------   ------------   ------------------------------
 DEPT.F                  :   
 CALD.IN     45 280 60 00:   CALIPER FROM DENSITY LOG
 CORR.G/C3   45 356 01 00:   DENSITY CORRECTION
 DPHI.DEC    45 890 10 00:   DENSITY POROSITY LIMESTONE
 GRD .GAPI   45 310 01 00:   GAMMA RAY FROM DENSITY LOG
 RHOB.G/C3   45 350 01 00:   BULK DENSITY
 ILD .OHMM   05 120 46 00:   INDUCTION LOG DEEP
 SN  .OHMM   05 040 16 00:   SHORT NORMAL 16"
 SPR .MV     05 010 01 00:   SPONTANEOUS POTENTIAL FROM RES.
 NPHI.DEC    42 890 01 00:   NEUTRON POROSITY LIMESTONE
~PARAMETER INFORMATION
#MNEM.UNIT          VALUE    DESCRIPTION
#----------   ------------   ------------------------------
 PD  .                 GL:   PERMANENT DATUM
 EPD .F              5203:   ELEVATION PERMANENT DATUM
 LMF .                 KB:   LOG MEASURED FROM
 DAPD.F                 4:   FEET ABOVE PERMANENT DATUM
 DMF .                 KB:   DRILLING MEASURED FROM
 EKB .F              5207:   KELLING BUSHING
 EGL .F              5203:   GROUND LEVEL
 DATE.        25-JUL-1978:   RUN DATE
 RUN .                  1:   RUN NUMBER
 DD  .F               565:   DEPTH DRILLER
 DL  .F               573:   DEPTH LOGGER
 BLI .F               566:   BOTTOM LOG INTERVAL
 TLI .F                46:   TOP LOG INTERVAL
 CS  .IN            8.625:   CASING SIZE
 CBD .F                40:   CASING BOTTOM DRILLER
 CBL .F                48:   CASING BOTTOM LOGGER
 BS  .IN            7.875:   BIT SIZE
 BSD .F               565:   BIT SIZE AT DEPTH
 DFT .                KCL:   DRILLING FLUID TYPE
 DFD .                8.6:   DRILLING FLUID DENSITY
 DFV .                 30:   DRILLING FLUID VISCOSITY
 DFPH.                  9:   DRILLING FLUID PH
 MSS .           FLOWLINE:   MUD SAMPLE SOURCE
 LUN .               2958:   LOGGING UNIT NUMBER
 LUL .               CASP:   LOGGING UNIT LOCATION
 WITN.           MCGINLEY:   WITNESSED BY
 CLNT.            A2DTECH:   CLIENT CODE
 ORIG.           5" PRINT:   ORIGIN OF DATA
 UWI .       490251067100:   UNIQUE WELL ID
 DICO. A2D Technologies, Inc.:   DIGITIZING COMPANY
~OTHER INFORMATION
~A   DEPT     CALD       CORR       DPHI         GRD      RHOB        ILD         SN        SPR       NPHI   
   32.0000  -999.2500  -999.2500  -999.2500    78.9805  -999.2500  -999.2500  -999.2500  -999.2500  -999.2500
   32.5000  -999.2500  -999.2500  -999.2500    79.2887  -999.2500  -999.2500  -999.2500  -999.2500  -999.2500
   33.0000  -999.2500  -999.2500  -999.2500    79.4469  -999.2500  -999.2500  -999.2500  -999.2500  -999.2500
   33.5000  -999.2500  -999.2500  -999.2500    79.4553  -999.2500  -999.2500  -999.2500  -999.2500  -999.2500
   34.0000  -999.2500  -999.2500  -999.2500    79.4636  -999.2500  -999.2500  -999.2500  -999.2500  -999.2500
   34.5000  -999.2500  -999.2500  -999.2500    79.4717  -999.2500  -999.2500  -999.2500  -999.2500  -999.2500
   35.0000  -999.2500  -999.2500  -999.2500    79.3301  -999.2500  -999.2500  -999.2500  -999.2500  -999.2500
   35.5000  -999.2500  -999.2500  -999.2500    78.8306  -999.2500  -999.2500  -999.2500  -999.2500  -999.2500
   36.0000  -999.2500  -999.2500  -999.2500    75.7877  -999.2500  -999.2500  -999.2500  -999.2500  -999.2500
   36.5000  -999.2500  -999.2500  -999.2500    74.2575  -999.2500  -999.2500  -999.2500  -999.2500  -999.2500
   37.0000  -999.2500  -999.2500  -999.2500    74.5938  -999.2500  -999.2500  -999.2500  -999.2500  -999.2500
   37.5000  -999.2500  -999.2500  -999.2500    75.4756  -999.2500  -999.2500  -999.2500  -999.2500  -999.2500
   38.0000  -999.2500  -999.2500  -999.2500    76.0836  -999.2500  -999.2500  -999.2500  -999.2500  -999.2500
   38.5000  -999.2500  -999.2500  -999.2500    74.8925  -999.2500  -999.2500  -999.2500  -999.2500  -999.2500
   39.0000  -999.2500  -999.2500  -999.2500    72.9517  -999.2500  -999.2500  -999.2500  -999.2500  -999.2500
   39.5000  -999.2500  -999.2500  -999.2500    72.3582  -999.2500  -999.2500  -999.2500  -999.2500  -999.2500
   40.0000  -999.2500  -999.2500  -999.2500    75.8169  -999.2500  -999.2500  -999.2500  -999.2500  -999.2500
   40.5000  -999.2500  -999.2500  -999.2500    78.6737  -999.2500  -999.2500  -999.2500  -999.2500  -999.2500
   41.0000  -999.2500  -999.2500  -999.2500    79.4317  -999.2500  -999.2500  -999.2500  -999.2500  -999.2500
   41.5000  -999.2500  -999.2500  -999.2500    79.5899  -999.2500  -999.2500  -999.2500  -999.2500  -999.2500
   42.0000  -999.2500  -999.2500  -999.2500    79.1484  -999.2500  -999.2500  -999.2500  -999.2500  -999.2500
   42.5000  -999.2500  -999.2500  -999.2500    78.5570  -999.2500  -999.2500  -999.2500  -999.2500  -999.2500
   43.0000  -999.2500  -999.2500  -999.2500    74.3674  -999.2500  -999.2500  -999.2500  -999.2500  -999.2500
   43.5000  -999.2500  -999.2500  -999.2500    66.7295  -999.2500  -999.2500  -999.2500  -999.2500  -999.2500
   44.0000  -999.2500  -999.2500  -999.2500    62.6898  -999.2500  -999.2500  -999.2500  -999.2500  -999.2500
   44.5000  -999.2500  -999.2500  -999.2500    62.0963  -999.2500  -999.2500  -999.2500  -999.2500  -999.2500
   45.0000  -999.2500  -999.2500  -999.2500    62.4065  -999.2500  -999.2500  -999.2500  -999.2500  -999.2500
   45.5000  -999.2500  -999.2500  -999.2500    62.8646  -999.2500  -999.2500  -999.2500  -999.2500  -999.2500
   46.0000  -999.2500     0.0378     0.2442    63.7724     1.9506  -999.2500  -999.2500  -999.2500  -999.2500
   46.5000     7.1805     0.0528     0.2412    70.0776     2.3523  -999.2500  -999.2500  -999.2500  -999.2500
   47.0000     7.2406     0.0527     0.1908    77.2823     2.4377  -999.2500  -999.2500  -999.2500  -999.2500
   47.5000     7.3308     0.0512     0.1320    85.6864     2.4661  -999.2500  -999.2500  -999.2500  -999.2500
   48.0000     7.3910     0.0481     0.1171    96.6392     2.4833     2.6253     6.7169    -4.9807  -999.2500
   48.5000     7.4361     0.0403     0.1144   100.0958     2.4945     3.0166     7.2494    -4.9577  -999.2500
   49.0000     7.4511     0.0346     0.1141   101.4534     2.5019    59.8775     7.4556    -4.9391  -999.2500
   49.5000     7.4511     0.0346     0.1141   101.0119     2.5019     7.7015     7.6149    -4.9205  -999.2500
   50.0000     7.4511     0.0345     0.1330    99.3710     2.4959     7.1410     7.7777    -4.6047  -999.2500
   50.5000     7.4511     0.0330     0.1393    97.9614     2.4737     6.9967     7.8353    -4.4375  -999.2500
   51.0000     7.4662     0.0315     0.1471    96.4628     2.4598     6.9032     7.8397    -4.2703  -999.2500
   51.5000     7.4962     0.0344     0.1513    96.9162     2.4433     6.8106     7.8433    -4.2511  -999.2500
   52.0000     7.5263     0.0359     0.1531   100.8230     2.4373     6.8124     7.8470    -4.2284  -999.2500
   52.5000     7.5564     0.0390     0.1543   101.8770     2.4335     6.7674     8.0147    -4.2098  -999.2500
   53.0000     7.5865     0.0481     0.1546   102.0301     2.4320     6.7693     8.0184    -4.1912  -999.2500
   53.5000     7.6015     0.0583     0.1555   101.2738     2.4297     6.8183     8.0222    -4.1726  -999.2500
   54.0000     7.6175     0.0748     0.1663   100.6846     2.4244     6.8201     8.0823    -4.1540  -999.2500
   54.5000     7.6212     0.0928     0.1711   101.2888     2.4154     6.8219     8.0861    -4.1352  -999.2500
   55.0000     7.5899     0.1078     0.1720   101.1416     2.4078     6.8237     8.1458    -4.1122  -999.2500
   55.5000     7.5002     0.1123     0.1721   100.3938     2.4025     6.7786     8.2060    -4.0936  -999.2500
   56.0000     7.3989     0.1092     0.1543    99.9239     2.4048     6.8274     8.3238    -4.2236  -999.2500
   56.5000     7.2949     0.1002     0.1501    99.3479     2.4190     7.0201     8.5605    -4.0610  -999.2500
   57.0000     7.0712     0.0747     0.1490   100.1023     2.4377     7.2185     8.7524    -4.0378  -999.2500
   57.5000     6.9672     0.0536     0.1520   102.2073     2.4414     7.3206     8.8700    -4.1679  -999.2500
   58.0000     6.8930     0.0371     0.1616   104.3123     2.4309     7.4242     8.8741    -4.1486  -999.2500
   58.5000     6.7292     0.0310     0.1670   105.0796     2.4241     7.4775     8.9386    -4.2791  -999.2500
   59.0000     6.7148     0.0295     0.1724   105.2198     2.4128     7.4795     8.8203    -4.4091  -999.2500
   59.5000     6.7606     0.0326     0.1709   104.1717     2.4045     7.4301     8.8254    -4.5391  -999.2500
   60.0000     6.8396     0.0369     0.1529   102.5230     2.4174     7.4321     8.7689    -4.5158  -999.2500
   60.5000     6.9858     0.0354     0.1517   102.8262     2.4344     7.3328     8.6538    -4.4972  -999.2500
   61.0000     7.1059     0.0414     0.1595   103.5799     2.4329     7.2339     8.4806    -4.6272  -999.2500
   61.5000     7.2560     0.0759     0.1619   103.7329     2.4246     7.0883     8.2538    -4.9012  -999.2500
   62.0000     7.3313     0.1314     0.1631   103.4348     2.4193     7.0411     8.0330    -4.8825  -999.2500
   62.5000     7.3169     0.1554     0.1628   104.0391     2.4185     6.8520     7.8722    -5.0172  -999.2500
   63.0000     7.2278     0.1644     0.1532   105.0961     2.4193     6.7136     7.6617    -4.9939  -999.2500
   63.5000     7.1387     0.1598     0.1352   105.8654     2.4153     6.6693     7.5531    -4.9753  -999.2500
   64.0000     7.0795     0.1403     0.1212   106.4510     2.4649     6.6712     7.5118    -4.9567  -999.2500
   64.5000     7.0488     0.0967     0.1203   106.4539     2.4829     6.7194     7.4637    -4.9376  -999.2500
   65.0000     7.0209     0.0517     0.1260   106.6070     2.4843     6.8616     7.3658    -4.9149  -999.2500
   65.5000     7.0216     0.0230     0.1560   106.6099     2.4580     6.9109     7.3177    -4.8963  -999.2500
   66.0000     7.0370     0.0156     0.1559   106.6129     2.4325     7.0570     7.4236    -4.8777  -999.2500
   66.5000     6.9927     0.0155     0.1536   105.7149     2.4295     7.1077     7.4785    -5.0123  -999.2500
   67.0000     6.9784     0.0170     0.1503   104.3665     2.4332     7.2082     7.5346    -4.8405  -999.2500
   67.5000     6.9640     0.0170     0.1437   103.7688     2.4391     7.2601     7.5902    -4.8217  -999.2500
   68.0000     6.9797     0.0184     0.1425   104.4044     2.4496     7.2624     7.6992    -4.7986  -999.2500
