~VERSION INFORMATION
 VERS.                2.0:   CWLS LOG ASCII STANDARD - VERSION 2.0
 WRAP.                 NO:   ONE LINE PER DEPTH STEP
~WELL INFORMATION
#MNEM.UNIT      DATA TYPE    INFORMATION
#----------   ------------   ------------------------------
 STRT.F           32.5000:   START DEPTH
 STOP.F          654.0000:   STOP DEPTH
 STEP.F            0.5000:   STEP LENGTH
 NULL.          -999.2500:   NO VALUE
 COMP. FENIX & SCISSON INC:   COMPANY
 WELL.          NPR #13-2:   WELL
 FLD .             TEAPOT:   FIELD
 LOC .       S2 T38N R78W:   LOCATION
 CNTY.            NATRONA:   COUNTY
 STAT.            WYOMING:   STATE
 CTRY. UNITED STATES OF AMERICA:   COUNTRY
 SRVC.           BIRDWELL:   SERVICE COMPANY
 DATE.        16-JAN-1978:   LOGDATE
 API .       490251055100:   API NUMBER
~CURVE INFORMATION
#MNEM.UNIT       API CODE    CURVE DESCRIPTION
#----------   ------------   ------------------------------
 DEPT.F                  :   
 ILD .OHMM   05 120 46 00:   INDUCTION LOG DEEP
 SN  .OHMM   05 040 16 00:   SHORT NORMAL 16"
 SPR .MV     05 010 01 00:   SPONTANEOUS POTENTIAL FROM RES.
 CALD.IN     45 280 60 00:   CALIPER FROM DENSITY LOG
 CORR.G/C3   45 356 01 00:   DENSITY CORRECTION
 DPHI.DEC    45 890 12 00:   DENSITY POROSITY SANDSTONE
 GRD .GAPI   45 310 01 00:   GAMMA RAY FROM DENSITY LOG
 RHOB.G/C3   45 350 01 00:   BULK DENSITY
~PARAMETER INFORMATION
#MNEM.UNIT          VALUE    DESCRIPTION
#----------   ------------   ------------------------------
 PD  .                 GL:   PERMANENT DATUM
 EPD .F              5091:   ELEVATION PERMANENT DATUM
 LMF .                 KB:   LOG MEASURED FROM
 DAPD.F                 4:   FEET ABOVE PERMANENT DATUM
 DMF .                 KB:   DRILLING MEASURED FROM
 EKB .F              5095:   KELLING BUSHING
 EGL .F              5091:   GROUND LEVEL
 DATE.        16-JAN-1978:   RUN DATE
 RUN .                  1:   RUN NUMBER
 DD  .F               652:   DEPTH DRILLER
 DL  .F               654:   DEPTH LOGGER
 BLI .F               649:   BOTTOM LOG INTERVAL
 TLI .F                30:   TOP LOG INTERVAL
 CS  .IN            8.625:   CASING SIZE
 CBD .F                20:   CASING BOTTOM DRILLER
 CBL .F                34:   CASING BOTTOM LOGGER
 BS  .IN            7.875:   BIT SIZE
 BSD .F               652:   BIT SIZE AT DEPTH
 DFT .                KCL:   DRILLING FLUID TYPE
 DFD .                8.7:   DRILLING FLUID DENSITY
 DFV .                 34:   DRILLING FLUID VISCOSITY
 DFPH.                 10:   DRILLING FLUID PH
 MSS .           FLOWLINE:   MUD SAMPLE SOURCE
 RMS .OHMM            0.3:   RESISTIVITY MUD SAMPLE
 MST .F                62:   MUD SAMPLE TEMPERATURE
 RMF .OHMM           0.26:   RESISTIVITY MUD FILTRATE SAMPLE
 MFST.F                66:   MUD FILTRATE SAMPLE TEMPERATURE
 RMC .OHMM           0.48:   RESISTIVITY MUD CAKE
 MCST.F                66:   MUD CAKE SAMPLE TEMPERATURE
 MFSS.               MEAS:   MUD FILTRATE SAMPLE SOURCE
 MCSS.               MEAS:   MUD CAKE SAMPLE SOURCE
 RMB .OHMM           0.26:   RESISTIVITY MUD AT BHT
 BHT .F                72:   BOTTOM HOLE TEMPERATURE
 TCS .HRS               3:   TIME CURCULATED STOPPED
 MRT .F                72:   MAXIMUM RECORDED TEMPERATURE
 LUN .               3027:   LOGGING UNIT NUMBER
 LUL .                GJT:   LOGGING UNIT LOCATION
 ENGI.           MARTINEZ:   RECORDING ENGINEER
 WITN.         HARRINGTON:   WITNESSED BY
 CLNT.            A2DTECH:   CLIENT CODE
 ORIG.           5" PRINT:   ORIGIN OF DATA
 UWI .       490251055100:   UNIQUE WELL ID
 DICO. A2D Technologies, Inc.:   DIGITIZING COMPANY
~OTHER INFORMATION
~A   DEPT      ILD         SN        SPR       CALD       CORR       DPHI         GRD      RHOB   
# ...
  518.5000    21.2842    20.1711   -20.1973     8.6189     0.0670     0.2250    70.5556     2.2848
  519.0000    23.2861    21.8618   -19.5909     8.6041     0.0865     0.2106    62.3460     2.2880
  519.5000    25.8310    23.1058   -19.5850     8.6045     0.1090     0.1882    54.4402     2.3005
  520.0000    30.4939    24.7604   -19.5791     8.5898     0.1375     0.1574    52.7655     2.3351
  520.5000    32.2283    25.9892   -19.8735     8.5752     0.1721     0.1344    52.9152     2.3952
  521.0000    31.7857    26.7193   -20.0180     8.5755     0.1856     0.1125    53.0635     2.4553
  521.5000    31.3491    27.2807   -20.0119     8.5758     0.1836     0.1179    53.5164     2.4973
  522.0000    31.3491    27.4717   -19.8559     8.5760     0.1379     0.1383    54.1221     2.4921
  522.5000    31.3491    27.2844   -19.8499     8.5763     0.1013     0.1719    52.4466     2.4440
  523.0000    31.5666    27.2863   -19.6937     8.5767     0.0669     0.1914    52.1396     2.3960
  523.5000    32.2283    27.0903   -19.5364     8.5770     0.0609     0.1974    52.2888     2.3510
  524.0000    32.2283    26.5192   -19.3804     8.5773     0.0623     0.2031    52.8935     2.3322
  524.5000    31.5666    26.0032   -19.3745     8.5776     0.0698     0.1977    55.7781     2.3269
  525.0000    31.1331    25.6481   -19.2185     8.5929     0.0728     0.1900    59.7264     2.3330
  525.5000    31.1331    25.1240   -19.2126     8.5931     0.0878     0.1855    60.1794     2.3472
  526.0000    31.1331    24.6103   -19.2067     8.5934     0.0998     0.1831    60.1763     2.3547
  526.5000    30.9186    24.4420   -19.0507     8.5937     0.1073     0.1813    60.1733     2.3563
  527.0000    30.7055    24.2754   -19.0448     8.6090     0.1118     0.1831    58.9538     2.3555
  527.5000    30.4939    24.1098   -19.0389     8.6093     0.1058     0.1873    56.7934     2.3532
  528.0000    30.0751    23.7809   -19.0330     8.6096     0.1028     0.1972    55.4524     2.3420
  528.5000    29.4577    23.6188   -19.1773     8.5949     0.1027     0.2002    56.5132     2.3353
  529.0000    28.4513    23.6204   -19.3216     8.5802     0.1057     0.1930    59.2458     2.3315
  529.5000    27.6587    23.6221   -19.0139     8.5806     0.1133     0.1810    59.5475     2.3323
  530.0000    27.3002    23.6240   -19.1596     8.5658     0.1211     0.1819    60.4556     2.3496
  530.5000    27.3002    23.4625   -19.4541     8.5812     0.1327     0.1792    64.7080     2.3586
  531.0000    27.3002    23.4645   -19.4467     8.5815     0.1237     0.1768    63.9451     2.3616
  531.5000    27.3002    23.4661   -19.5925     8.5818     0.1132     0.1834    57.6013     2.3616
  532.0000    26.5554    23.3057   -19.7367     8.5821     0.1101     0.1819    53.4529     2.3616
  532.5000    25.8310    23.1468   -20.0311     8.5524     0.0966     0.1799    55.5769     2.3616
  533.0000    25.4762    22.9893   -20.6244     8.5527     0.0966     0.1748    57.3976     2.3616
  533.5000    25.4762    22.9909   -21.0689     8.5380     0.1026     0.1666    57.2427     2.3691
  534.0000    25.6530    22.8341   -21.2132     8.5383     0.1026     0.1567    57.2397     2.3917
  534.5000    25.8310    22.9940   -21.2072     8.5386     0.0996     0.1413    57.3894     2.4083
  535.0000    26.1907    22.9959   -21.5017     8.5539     0.0935     0.1313    57.8416     2.4190
  535.5000    26.1907    22.6819   -21.9448     8.5558     0.0845     0.1277    59.5103     2.4296
  536.0000    26.0102    22.3721   -22.0906     8.5845     0.0770     0.1385    61.1791     2.4397
  536.5000    25.8310    22.0662   -22.5351     8.6147     0.0680     0.1469    61.3288     2.4442
  537.0000    25.3007    21.7648   -22.9782     8.6150     0.0514     0.1499    61.1731     2.4255
  537.5000    24.7812    21.6164   -22.5219     8.6171     0.0345     0.1550    62.0819     2.4157
  538.0000    24.4409    21.4690   -22.0656     8.6204     0.0446     0.1643    64.2066     2.4067
  538.5000    24.1052    21.1762   -21.9110     8.6237     0.0514     0.1655    66.0273     2.3857
  539.0000    23.9391    20.8869   -22.2040     8.6270     0.0394     0.1697    66.3283     2.3820
  539.5000    23.7742    20.6017   -22.6486     8.6304     0.0303     0.1823    65.3576     2.3827
  540.0000    23.7742    20.6031   -22.7928     8.6337     0.0243     0.1901    61.6110     2.3595
  540.5000    23.7709    20.4467   -22.7743     8.6370     0.0213     0.1937    62.5199     2.3452
  541.0000    23.7742    20.1835   -22.6306     8.6403     0.0243     0.1875    61.6043     2.3422
  541.5000    23.6103    20.1848   -22.6235     8.6437     0.0303     0.1783    59.4737     2.3452
  542.0000    23.6103    20.0469   -22.7693     8.6470     0.0333     0.1767    60.3825     2.3617
  542.5000    23.2861    19.7734   -23.0622     8.6482     0.0273     0.1785    63.2671     2.3678
  543.0000    22.8080    19.5034   -23.3566     8.6485     0.0227     0.1782    68.2793     2.3678
  543.5000    22.0329    19.2370   -23.9513     8.6488     0.0212     0.1743    71.4678     2.3679
  544.0000    21.2842    18.9743   -24.9965     8.6491     0.0272     0.1701    71.3128     2.3730
  544.5000    20.7036    18.7151   -25.5927     8.6494     0.0287     0.1686    70.2460     2.3805
  545.0000    20.1388    18.5875   -26.0360     8.6497     0.0287     0.1626    67.8113     2.3828
  545.5000    19.5894    18.4405   -26.1801     8.6500     0.0302     0.1566    65.0728     2.3873
  546.0000    18.9237    17.9591   -26.1742     8.6503     0.0347     0.1545    62.4862     2.3993
  546.5000    18.1472    17.6925   -26.1682     8.6506     0.0331     0.1512    61.2674     2.4069
  547.0000    17.5377    17.4719   -26.3126     8.6509     0.0301     0.1476    61.5684     2.4099
  547.5000    16.9417    17.3524   -26.6070     8.6512     0.0286     0.1506    61.5653     2.4136
  548.0000    16.2532    16.9979   -26.5996     8.6515     0.0286     0.1533    61.8947     2.4106
  548.5000    15.9196    16.6503   -26.5937     8.6518     0.0301     0.1505    63.9316     2.4069
  549.0000    15.8099    16.3098   -26.2876     8.6521     0.0331     0.1483    66.2669     2.4084
  549.5000    15.8099    16.1986   -25.9814     8.6524     0.0345     0.1459    65.9599     2.4129
  550.0000    15.9197    16.1997   -25.8552     8.6527     0.0405     0.1423    63.3734     2.4167
  550.5000    15.9207    16.0892   -26.2888     8.6533     0.0451     0.1363    62.4650     2.4205
  551.0000    15.9218    16.0906   -27.0139     8.6539     0.0511     0.1303    62.1155     2.4298
  551.5000    16.0333    15.9806   -27.3098     8.6545     0.0541     0.1270    60.0401     2.4430
  552.0000    15.9239    15.8716   -27.9032     8.6551     0.0571     0.1291    60.4990     2.4482
  552.5000    15.9253    15.8730   -28.3478     8.6557     0.0571     0.1285    62.4776     2.4490
  553.0000    15.9263    15.8740   -29.0927     8.6563     0.0541     0.1261    64.0004     2.4505
  553.5000    15.9274    15.8751   -29.2372     8.6569     0.0527     0.1246    64.4593     2.4520
  554.0000    15.9285    15.8762   -29.0811     8.6575     0.0512     0.1249    64.3103     2.4505
  554.5000    15.9295    15.7679   -29.0751     8.6581     0.0512     0.1273    63.0975     2.4505
  555.0000    15.9306    15.6604   -29.0680     8.6587     0.0514     0.1279    62.6438     2.4498
  555.5000    15.8219    15.7701   -29.5140     8.6593     0.0572     0.1249    64.4712     2.4535
  556.0000    15.8230    15.7714   -29.9572     8.6599     0.0602     0.1212    66.6019     2.4603
  556.5000    15.8241    15.7724   -30.1030     8.6605     0.0633     0.1166    66.3802     2.4693
  557.0000    15.8254    15.8829   -30.6963     8.6611     0.0648     0.1118    62.3525     2.4776
  557.5000    15.8264    15.8839   -30.9910     8.6617     0.0648     0.1082    64.0280     2.4851
  558.0000    15.8275    15.8850   -30.9849     8.6624     0.0648     0.1055    64.0309     2.4889
  558.5000    15.7192    15.7767   -30.9790     8.6330     0.0648     0.1031    64.9458     2.4927
