~VERSION INFORMATION
 VERS.                2.0:   CWLS LOG ASCII STANDARD - VERSION 2.0
 WRAP.                 NO:   ONE LINE PER DEPTH STEP
~WELL INFORMATION
#MNEM.UNIT      DATA TYPE    INFORMATION
#----------   ------------   ------------------------------
 STRT.F            4.0000:   START DEPTH
 STOP.F          530.0000:   STOP DEPTH
 STEP.F            0.5000:   STEP LENGTH
 NULL.          -999.2500:   NO VALUE
 COMP. LAWRENCE-ALLISON &ASSOC:   COMPANY
 WELL.  NPR 3 #77-22STX10:   WELL
 FLD .             TEAPOT:   FIELD
 LOC .      S10 T38N R78W:   LOCATION
 CNTY.            NATRONA:   COUNTY
 STAT.            WYOMING:   STATE
 CTRY. UNITED STATES OF AMERICA:   COUNTRY
 SRVC.           Gearhart:   SERVICE COMPANY
 DATE.        27-JUN-1986:   LOGDATE
 API .       490251108100:   API NUMBER
~CURVE INFORMATION
#MNEM.UNIT       API CODE    CURVE DESCRIPTION
#----------   ------------   ------------------------------
 DEPT.F                  :   
 GRR .GAPI   07 310 01 00:   GAMMA RAY FROM RES. LOG.
 SPR .MV     07 010 01 00:   SPONTANEOUS POTENTIAL
 ILM .OHMM   07 120 44 00:   INDUCTION LOG MEDIUM
 ILD .OHMM   07 120 46 00:   INDUCTION LOG DEEP
 RLLA.OHMM   07 220 00 00:   LATEROLOG RESISTIVITY
~PARAMETER INFORMATION
#MNEM.UNIT          VALUE    DESCRIPTION
#----------   ------------   ------------------------------
 PD  .                 GL:   PERMANENT DATUM
 EPD .F              5188:   ELEVATION PERMANENT DATUM
 LMF .                 KB:   LOG MEASURED FROM
 DAPD.F                 5:   FEET ABOVE PERMANENT DATUM
 DMF .                 KB:   DRILLING MEASURED FROM
 EKB .F              5193:   KELLING BUSHING
 EGL .F              5188:   GROUND LEVEL
 DATE.            6-27-86:   RUN DATE
 RUN .                  1:   RUN NUMBER
 DD  .F               555:   DEPTH DRILLER
 DL  .F               534:   DEPTH LOGGER
 BLI .F               530:   BOTTOM LOG INTERVAL
 TLI .F                44:   TOP LOG INTERVAL
 CS  .IN            8.625:   CASING SIZE
 CBD .F                42:   CASING BOTTOM DRILLER
 CBL .F                44:   CASING BOTTOM LOGGER
 BS  .IN            7.875:   BIT SIZE
 BSD .F               555:   BIT SIZE AT DEPTH
 DFT .                AIR:   DRILLING FLUID TYPE
 MSS .           FLOWLINE:   MUD SAMPLE SOURCE
 RMS .OHMM            1.5:   RESISTIVITY MUD SAMPLE
 MST .F                68:   MUD SAMPLE TEMPERATURE
 RMF .OHMM            1.2:   RESISTIVITY MUD FILTRATE SAMPLE
 MFST.F                66:   MUD FILTRATE SAMPLE TEMPERATURE
 RMC .OHMM            1.7:   RESISTIVITY MUD CAKE
 MCST.F                66:   MUD CAKE SAMPLE TEMPERATURE
 MFSS.                  M:   MUD FILTRATE SAMPLE SOURCE
 MCSS.                  M:   MUD CAKE SAMPLE SOURCE
 RMB .OHMM            1.5:   RESISTIVITY MUD AT BHT
 BHT .F                65:   BOTTOM HOLE TEMPERATURE
 TCS .HRS            0600:   TIME CURCULATED STOPPED
 TLAB.HRS            0055:   TIME LOGGER AT BOTTOM
 MRT .F                61:   MAXIMUM RECORDED TEMPERATURE
 LUN .               7609:   LOGGING UNIT NUMBER
 LUL .           GILLETTE:   LOGGING UNIT LOCATION
 ENGI.            WANGLER:   RECORDING ENGINEER
 WITN.              FIVAS:   WITNESSED BY
 CLNT.            A2DTECH:   CLIENT CODE
 ORIG.       2", 5" PRINT:   ORIGIN OF DATA
 UWI .       490251108100:   UNIQUE WELL ID
 DICO. A2D Technologies, Inc.:   DIGITIZING COMPANY
~OTHER INFORMATION
~A    DEPT      GRR       SPR        ILM        ILD       RLLA   
# ...
  431.0000    77.0558   -68.3143    10.4074    10.9961    11.6734
  431.5000    79.5066   -68.2422    10.4074    10.6035    11.4616
  432.0000    81.6953   -68.0851    10.5195    10.8032    11.0345
  432.5000    83.2770   -68.3697    10.6658    11.0350    10.6233
  433.0000    84.3350   -68.6408    10.8032    11.2733    10.4019
  433.5000    84.6494   -68.4758    11.4253    11.5371    10.5264
  434.0000    83.0644   -67.8761    11.2051    11.4288    10.6060
  434.5000    80.1038   -66.8415    10.4383    10.3679    10.6035
  435.0000    77.7575   -68.2185     9.7239     9.2322     9.9911
  435.5000    79.8624   -67.7284     9.0277     8.5553     9.6587
  436.0000    84.5759   -67.3372     8.2955     8.0518     9.8686
  436.5000    88.1583   -66.9589     7.6226     7.6015    10.0022
  437.0000    90.0276   -66.9706     7.0043     7.1765    10.1191
  437.5000    92.0199   -66.9608     6.5269     6.7751     8.9639
  438.0000    94.0747   -66.6595     6.2189     6.4036     8.0078
  438.5000    97.3349   -66.3809     5.9255     6.3467     7.2325
  439.0000    99.6245   -65.5659     5.7813     6.3467     8.1130
  439.5000    98.0021   -64.5267     5.9805     6.5709     8.8813
  440.0000    92.9550   -65.8088     6.2071     6.8963     9.3049
  440.5000    87.5916   -65.9378     6.6213     7.4018    11.3344
  441.0000    83.3381   -65.9511     7.3577     7.9925    11.0765
  441.5000    83.4054   -67.0374     8.0867     8.6302    10.5097
  442.0000    84.8835   -68.5408     8.6377     9.2045    10.6039
  442.5000    86.2667   -66.2752     9.1328     9.6994    10.7029
  443.0000    85.7219   -65.2963     9.5672    10.1423    10.4074
  443.5000    85.1479   -65.3602     9.8120    10.2607    10.6218
  444.0000    84.7573   -65.3526     9.9640    10.3804    10.8032
  444.5000    87.1805   -65.3757    10.1186    10.5015    10.6035
  445.0000    89.5723   -65.4682    10.2750    10.6241    10.6035
  445.5000    91.1144   -65.5679    10.4075    10.7987    11.1651
  446.0000    90.1057   -64.9164    10.6987    11.1945    11.6777
  446.5000    87.5155   -64.1464    11.0813    11.6062    12.0833
  447.0000    86.9563   -63.8988    11.2538    11.7661    12.2141
  447.5000    87.4945   -63.8205    11.3998    11.8261    12.2376
  448.0000    88.1527   -64.1125    11.5477    11.8864    12.2658
  448.5000    87.5556   -64.2837    11.6841    11.9471    12.2943
  449.0000    86.6069   -63.8744    11.9239    12.1774    12.4483
  449.5000    85.6534   -63.8166    12.1583    12.5257    12.7871
  450.0000    84.6999   -64.0117    12.4130    12.8017    12.9374
  450.5000    83.9928   -64.8260    12.6095    12.8800    12.9945
  451.0000    83.4927   -63.0153    12.7791    12.9580    13.0661
  451.5000    82.9896   -62.3937    12.8809    13.0366    13.1935
  452.0000    82.2307   -62.7941    12.9855    13.1159    13.3102
  452.5000    80.5549   -62.9247    13.0909    13.1880    13.4125
  453.0000    80.5983   -63.0141    13.1570    13.2843    13.5157
  453.5000    80.6185   -63.6303    13.1860    13.3814    13.6196
  454.0000    79.1484   -63.5737    13.2152    13.4791    13.7193
  454.5000    76.8480   -63.3207    13.2443    13.5359    13.8183
  455.0000    77.4644   -63.8605    13.2660    13.5687    13.9180
  455.5000    80.5901   -64.1398    13.3122    13.6017    14.0184
  456.0000    83.7217   -64.1834    13.3552    13.6426    14.1606
  456.5000    84.2260   -63.3476    13.3893    13.6190    14.0731
  457.0000    82.8960   -62.3735    13.3237    13.5644    13.9275
  457.5000    79.9813   -63.6750    13.2657    13.5098    13.7696
  458.0000    77.1024   -64.9422    13.2296    13.4552    13.6659
  458.5000    74.8972   -63.7151    13.1807    13.3882    13.4684
  459.0000    75.2423   -62.9722    13.1421    13.4304    13.3895
  459.5000    75.7130   -62.7465    13.1786    13.5306    13.7010
  460.0000    76.3718   -63.0385    13.2091    13.7696    14.1585
  460.5000    78.3391   -62.7489    13.2497    13.7311    14.1075
  461.0000    80.2909   -62.5505    13.2731    13.6573    13.9967
  461.5000    80.9494   -62.7216    13.0199    13.5839    13.8899
  462.0000    81.4215   -62.8742    13.0199    13.5150    13.7838
  462.5000    84.3014   -63.6898    12.6899    13.1024    13.2034
  463.0000    87.3995   -63.9862    12.3224    12.7203    12.5780
  463.5000    85.4730   -63.5979    11.9631    12.3506    12.1966
  464.0000    82.2018   -63.3286    11.6149    11.9922    12.0626
  464.5000    78.8759   -63.3244    11.3520    11.6441    11.9655
  465.0000    76.7004   -64.4379    11.1880    11.4662    11.8691
  465.5000    75.2823   -65.0589    11.0263    11.3684    11.7735
  466.0000    75.8380   -64.9017    10.8669    11.2715    11.6406
  466.5000    76.2728   -64.2723    10.7685    11.1168    11.7801
  467.0000    78.6760   -64.0955    10.7106    10.8797    12.0178
  467.5000    82.1159   -63.8912    10.6533    10.6475    12.2603
  468.0000    87.6034   -63.5902    10.6043    10.4074    12.4263
  468.5000    93.1211   -63.9616    10.8693    10.3107    11.7607
  469.0000    97.7356   -64.2891    11.0067    10.1201    11.2036
  469.5000    97.8139   -64.4283    10.5181    10.1097    10.6729
  470.0000    93.3113   -63.4743    10.2150    10.0993    10.2150
  470.5000    88.8061   -62.8532    10.1201    10.0892    10.2150
  471.0000    85.4111   -63.6360    10.0836    10.0791    10.9775
  471.5000    87.2497   -63.8908    10.0186    10.0689    11.6967
  472.0000    90.9479   -64.0683     9.9540    10.0587    12.0833
  472.5000    94.3466   -63.6781     9.8898    10.0486    11.5324
  473.0000    91.9820   -62.9769     9.8264    10.0384    11.5589
  473.5000    88.1464   -63.8263     9.7626    10.0282    11.6100
  474.0000    85.7887   -64.9085     9.6727     9.9212    11.6406
  474.5000    89.2466   -64.9143     9.5455     9.7896    10.9045
  475.0000    92.6894   -64.7874     9.4200     9.6599    10.9045
  475.5000    95.9110   -63.1180     9.2962     9.5318    10.3396
  476.0000    94.7436   -63.6804     9.1740     9.4054    10.0340
  476.5000    93.1161   -63.2190     9.0534     9.2808     9.8814
  477.0000    93.3696   -62.7408     8.9343     9.1578     9.7311
  477.5000    93.5068   -62.8638     8.8169     9.0480     9.5690
  478.0000    92.4816   -62.9521     8.7165     8.9062     9.9252
  478.5000    91.9548   -63.0578     8.5056     8.7520    10.0261
  479.0000    92.1116   -63.0506     8.2873     8.6004     9.6587
  479.5000    92.2614   -62.7646     8.0746     8.4527     9.8629
  480.0000    92.3209   -63.3069     7.8675     8.3173    10.1205
  480.5000    92.3320   -63.2704     7.6656     8.0779     9.9567
  481.0000    92.7975   -62.2247     7.5483     7.8621     9.4463
  481.5000    93.7802   -61.4946     7.3793     7.6529     8.8783
  482.0000    94.6910   -62.0172     7.2141     7.5779     8.9347
  482.5000    93.1303   -62.7780     7.0970     7.5779     9.0227
  483.0000    89.0791   -63.3277     7.0985     7.7409     9.1107
  483.5000    87.8483   -63.3397     7.4297     7.8661     9.7157
  484.0000    89.9259   -63.8300     7.8025     8.1520    10.7029
  484.5000    91.0584   -63.9397     8.0982     8.4541    10.6091
  485.0000    89.6598   -63.9437     8.4627     8.7675    10.4630
  485.5000    86.2563   -63.9294     8.8372     9.0924    10.3107
  486.0000    84.5214   -63.8074     9.2289     9.4294    10.7931
  486.5000    86.8247   -63.0282     9.5395     9.7688    11.2141
  487.0000    90.7344   -61.8803     9.7921    10.1133    11.4005
  487.5000    93.9230   -62.3303    10.0261    10.5050    11.5864
  488.0000    91.7454   -62.7305    10.0706    10.5975    11.8599
  488.5000    89.8541   -62.9039    10.1114    10.7009    11.7925
  489.0000    89.5813   -63.0666    10.1297    10.8032    11.6726
  489.5000    89.1912   -63.1306    10.1420    10.6882    11.5540
  490.0000    87.6929   -63.1320    10.1544    10.6652    11.4253
  490.5000    87.5948   -63.1377    10.1667    10.6422    11.3372
  491.0000    87.7434   -62.7897    10.1790    10.6193    11.2406
  491.5000    87.8295   -62.3074    10.1914    10.5964    11.1447
