~VERSION INFORMATION
 VERS.                2.0:   CWLS LOG ASCII STANDARD - VERSION 2.0
 WRAP.                 NO:   ONE LINE PER DEPTH STEP
~WELL INFORMATION
#MNEM.UNIT      DATA TYPE    INFORMATION
#----------   ------------   ------------------------------
 STRT.F            3.0000:   START DEPTH
 STOP.F          462.0000:   STOP DEPTH
 STEP.F            0.5000:   STEP LENGTH
 NULL.          -999.2500:   NO VALUE
 COMP. LAWRENCE/ALLISON INC:   COMPANY
 WELL.    67-15-1 SX #3-3:   WELL
 FLD .             TEAPOT:   FIELD
 LOC .       S3 T38N R78W:   LOCATION
 CNTY.            NATRONA:   COUNTY
 STAT.            WYOMING:   STATE
 CTRY. UNITED STATES OF AMERICA:   COUNTRY
 SRVC.           Gearhart:   SERVICE COMPANY
 DATE.        11-JUN-1988:   LOGDATE
 API .       490251121800:   API NUMBER
~CURVE INFORMATION
#MNEM.UNIT       API CODE    CURVE DESCRIPTION
#----------   ------------   ------------------------------
 DEPT.F                  :   
 GRR .GAPI   07 310 01 00:   GAMMA RAY
 RILD.OHMM   07 120 46 00:   INDUCTION LOG DEEP RESISTIVITY
 RILM.OHMM   07 120 44 00:   INDUCTION LOG MEDIUM RESISTIVITY
~PARAMETER INFORMATION
#MNEM.UNIT          VALUE    DESCRIPTION
#----------   ------------   ------------------------------
 PD  .                 GL:   PERMANENT DATUM
 EPD .F              5175:   ELEVATION PERMANENT DATUM
 LMF .                 KB:   LOG MEASURED FROM
 DAPD.F                 5:   FEET ABOVE PERMANENT DATUM
 DMF .                 KB:   DRILLING MEASURED FROM
 EKB .F              5180:   KELLING BUSHING
 EGL .F              5175:   GROUND LEVEL
 DATE.        11-JUN-1988:   RUN DATE
 RUN .                  1:   RUN NUMBER
 DD  .F               470:   DEPTH DRILLER
 DL  .F             470.5:   DEPTH LOGGER
 BLI .F             461.5:   BOTTOM LOG INTERVAL
 TLI .F                41:   TOP LOG INTERVAL
 CS  .IN            8.625:   CASING SIZE
 CBD .F                41:   CASING BOTTOM DRILLER
 CBL .F                41:   CASING BOTTOM LOGGER
 BS  .IN            7.875:   BIT SIZE
 BSD .F               470:   BIT SIZE AT DEPTH
 DFT .                AIR:   DRILLING FLUID TYPE
 TLAB.HRS            0318:   TIME LOGGER AT BOTTOM
 MRT .F                70:   MAXIMUM RECORDED TEMPERATURE
 LUN .               7597:   LOGGING UNIT NUMBER
 LUL .           GILLETTE:   LOGGING UNIT LOCATION
 ENGI.          HUCKFELDT:   RECORDING ENGINEER
 WITN.             STRONG:   WITNESSED BY
 CLNT.            A2DTECH:   CLIENT CODE
 ORIG.        2" 5" PRINT:   ORIGIN OF DATA
 UWI .       490251121800:   UNIQUE WELL ID
 DICO. A2D Technologies, Inc.:   DIGITIZING COMPANY
~OTHER INFORMATION
~A    DEPT      GRR      RILD       RILM   
# ...
  367.0000    76.2125    28.2007    27.8115
  367.5000    74.0693    28.3819    28.1954
  368.0000    72.8407    28.5672    28.5827
  368.5000    73.7462    28.9551    28.9776
  369.0000    74.9590    29.1443    29.1728
  369.5000    76.1671    28.5252    28.7594
  370.0000    77.0727    27.7118    27.7634
  370.5000    76.1490    26.7384    26.9901
  371.0000    74.6156    26.1905    26.6078
  371.5000    73.0821    25.4531    25.8665
  372.0000    75.2072    24.7390    25.3060
  372.5000    78.2469    24.2136    24.5941
  373.0000    80.0732    23.5343    23.7071
  373.5000    80.9727    22.8740    22.6215
  374.0000    80.9634    22.3882    22.1457
  374.5000    79.7348    22.0666    21.8321
  375.0000    79.4207    22.0559    21.8260
  375.5000    80.3244    22.0452    21.8200
  376.0000    81.8397    22.0345    21.8140
  376.5000    84.5746    22.0239    21.8079
  377.0000    86.0899    22.0132    21.8019
  377.5000    84.2516    22.0025    21.7958
  378.0000    80.8888    21.9919    21.7898
  378.5000    79.0505    21.5249    21.3315
  379.0000    78.1268    20.7752    20.7373
  379.5000    77.5080    20.0516    20.1597
  380.0000    79.0233    19.0843    19.5981
  380.5000    78.7094    18.5489    18.9194
  381.0000    76.2613    18.1524    18.3924
  381.5000    74.7279    17.7615    18.0056
  382.0000    75.6334    17.3789    17.5040
  382.5000    78.3683    17.0225    17.0164
  383.0000    80.4933    16.6593    16.7754
  383.5000    80.4843    16.3055    16.5364
  384.0000    79.8655    16.0712    16.2975
  384.5000    79.8564    15.7299    15.9606
  385.0000    80.4573    15.5040    15.8302
  385.5000    80.7530    15.2812    15.6016
  386.0000    81.3537    15.1674    15.3984
  386.5000    81.3445    14.9495    15.1803
  387.0000    81.6404    14.7347    15.0704
  387.5000    81.6311    14.7275    14.9612
  388.0000    81.2437    14.6178    14.8528
  388.5000    80.3456    14.5089    14.8487
  389.0000    79.7726    14.4008    14.7411
  389.5000    80.9830    14.2936    14.7370
  390.0000    81.8908    14.2866    14.7330
  390.5000    82.7964    14.4808    14.9374
  391.0000    83.6997    14.6779    15.0380
  391.5000    84.3027    14.8772    15.1394
  392.0000    83.3767    15.0795    15.2404
  392.5000    82.1481    15.0722    15.4507
  393.0000    81.8342    15.0648    15.4465
  393.5000    84.2642    14.9524    15.4422
  394.0000    87.9136    14.8410    15.2235
  394.5000    89.1264    14.7304    15.0079
  395.0000    88.8101    14.6192    14.7953
  395.5000    88.4962    14.5103    14.5858
  396.0000    87.8774    14.3018    14.4788
  396.5000    87.5634    14.1953    14.2697
  397.0000    87.2495    14.0895    14.1623
  397.5000    86.6307    13.9845    13.9578
  398.0000    86.3167    13.9778    13.7729
  398.5000    85.6979    13.8736    13.6723
  399.0000    85.3840    13.8669    13.6686
  399.5000    85.3749    13.7636    13.5695
  400.0000    88.4146    13.6472    13.5750
  400.5000    91.4686    13.5598    13.6577
  401.0000    92.6829    13.3659    13.5566
  401.5000    94.5425    13.3603    13.6470
  402.0000    95.7317    13.3547    13.6423
  402.5000    95.0964    13.3492    13.5425
  403.0000    93.8720    13.3436    13.6330
  403.5000    92.0022    13.3380    13.5331
  404.0000    89.8171    13.3324    13.5284
  404.5000    87.8049    13.3269    13.5237
  405.0000    88.2627    13.3213    13.4248
  405.5000    90.6604    13.2230    13.4201
  406.0000    92.3781    13.1253    13.3220
  406.5000    91.1585    12.9376    13.2245
  407.0000    90.2439    12.9322    13.1198
  407.5000    89.9390    12.7473    12.9303
  408.0000    89.6341    12.6532    12.8331
  408.5000    89.6341    12.5597    12.5596
  409.0000    90.2439    12.4670    12.3952
  409.5000    91.1585    12.2887    12.3046
  410.0000    92.3781    12.1980    12.1295
  410.5000    92.6829    11.9397    11.9569
  411.0000    92.9878    11.7690    11.7867
  411.5000    93.9024    11.5198    11.6189
  412.0000    95.1219    11.2759    11.4536
  412.5000    95.4268    11.1147    11.1338
  413.0000    95.4268    10.9557    10.8988
  413.5000    96.0366    10.6491    10.5945
  414.0000    98.1707    10.3510    10.2269
  414.5000   100.3049     9.9911     9.9413
  415.0000    97.2561     9.7114     9.5964
  415.5000    94.8171     9.1152     9.1347
  416.0000    94.2073     8.4960     8.3965
  416.5000    98.7805     7.9744     7.7721
  417.0000   103.0488     7.4828     7.2955
  417.5000   107.0122     7.0220     6.9445
  418.0000   109.7561     6.5432     6.5186
  418.5000   111.2805     5.9734     6.1189
  419.0000   108.5366     6.0237     5.9480
  419.5000   104.8781     6.3695     6.1575
  420.0000   102.4390     6.9262     6.6943
  420.5000   101.8293     7.3317     7.4842
  421.0000   101.2195     7.8627     8.1366
  421.5000   100.3049     8.6716     8.6018
  422.0000    99.0854     9.5866     9.0936
  422.5000    98.1707     9.9236     9.6169
  423.0000    97.8659    10.2008    10.0957
  423.5000    99.3902    10.4127    10.2364
  424.0000   101.2195    10.6291    10.4520
  424.5000   102.1341    10.8499    10.6721
  425.0000   100.6098    11.0765    10.8969
  425.5000    99.0854    11.3847    11.1102
  426.0000    98.6992    11.6213    11.3418
  426.5000   100.6098    11.8627    11.6595
  427.0000   102.1341    12.0260    12.0703
  427.5000   101.8293    12.2746    12.4084
  428.0000   101.2195    12.5296    12.8455
  428.5000   100.9146    12.7899    13.1133
  429.0000   100.0000    12.9660    13.3867
  429.5000    99.0854    13.2340    13.5705
  430.0000   100.3049    13.4162    13.7581
  430.5000   101.8345    13.4092    13.9470
  431.0000   103.0488    13.4977    14.1373
  431.5000   102.0886    13.6821    14.1324
  432.0000    98.3740    13.7738    14.2279
  432.5000    92.6574    13.9620    14.3228
  433.0000    90.1521    14.0541    14.4183
  433.5000    88.7195    14.1468    14.4120
  434.0000    90.3658    14.1394    14.4070
  434.5000    92.4239    14.2342    14.4020
  435.0000    93.5976    14.2268    14.3970
  435.5000    94.2073    14.2208    14.2917
  436.0000    94.2073    14.2149    14.1872
  436.5000    93.9024    14.2090    14.1823
  437.0000    93.5976    14.2030    14.1774
  437.5000    93.2927    14.1971    14.1724
  438.0000    97.2561    14.0923    14.1675
  438.5000    99.3902    14.0864    14.1626
  439.0000    99.6951    14.0805    14.0590
  439.5000    97.5610    14.0746    13.9562
  440.0000    95.7317    13.8733    13.9513
  440.5000    95.1219    13.7709    13.9464
  441.0000    95.1219    13.7652    13.8443
  441.5000    95.4268    13.7594    13.7281
  442.0000    97.5610    13.6578    13.5298
  442.5000    99.6951    13.3687    13.1682
  443.0000   100.0000    12.9896    12.9808
  443.5000   100.3049    12.6242    12.7961
  444.0000   100.9146    12.2691    12.7025
  444.5000   101.8293    12.0171    12.5217
  445.0000   102.7439    11.8452    12.3435
  445.5000   104.2683    11.7577    12.1678
  446.0000   104.5732    11.7386    11.9111
  446.5000   101.5244    11.5847    11.6597
  447.0000   100.0000    11.3385    11.4938
  447.5000  -999.2500    11.0985    11.1729
  448.0000  -999.2500    10.8635    10.9371
  448.5000  -999.2500    10.7833    10.6317
  449.0000  -999.2500    10.6291    10.4074
  449.5000  -999.2500    10.5506    10.2592
  450.0000  -999.2500    10.5473    10.3370
  450.5000  -999.2500    10.5470    10.6163
  451.0000  -999.2500    10.5469    10.5355
  451.5000  -999.2500    10.5469    10.5301
  452.0000  -999.2500    10.4734    10.5246
  452.5000  -999.2500    10.4734    10.5191
  453.0000  -999.2500    10.4734    10.5137
  453.5000  -999.2500    10.4004    10.5082
  454.0000  -999.2500    10.4004    10.4296
  454.5000  -999.2500    10.3279    10.3484
  455.0000  -999.2500    10.2560    10.2023
  455.5000  -999.2500    10.1135    10.1171
  456.0000  -999.2500     9.9731     9.9105
  456.5000  -999.2500     9.8345     9.6986
  457.0000  -999.2500     9.6979     9.4923
  457.5000  -999.2500     9.4856     9.3556
