~VERSION INFORMATION
 VERS.                2.0:   CWLS LOG ASCII STANDARD - VERSION 2.0
 WRAP.                 NO:   ONE LINE PER DEPTH STEP
~WELL INFORMATION
#MNEM.UNIT      DATA TYPE    INFORMATION
#----------   ------------   ------------------------------
 STRT.F           15.0000:   START DEPTH
 STOP.F          620.0000:   STOP DEPTH
 STEP.F            0.5000:   STEP LENGTH
 NULL.          -999.2500:   NO VALUE
 COMP.       F D SERV INC:   COMPANY
 WELL. NAVAL PETROLEUM RESERVE 3 SX-1 #87-1-10:   WELL
 FLD .             TEAPOT:   FIELD
 LOC .      S10 T38N R78W:   LOCATION
 CNTY.            NATRONA:   COUNTY
 STAT.            WYOMING:   STATE
 CTRY. UNITED STATES OF AMERICA:   COUNTRY
 SRVC.     Atlas Wireline:   SERVICE COMPANY
 DATE.        02-JAN-1991:   LOGDATE
 API .       490252247100:   API NUMBER
~CURVE INFORMATION
#MNEM.UNIT       API CODE    CURVE DESCRIPTION
#----------   ------------   ------------------------------
 DEPT.F                  :   
 GRR .GAPI   07 310 01 00:   GAMMA RAY
 RILD.OHMM   07 120 46 00:   INDUCTION LOG DEEP RESISTIVITY
 RILM.OHMM   07 120 44 00:   INDUCTION LOG MEDIUM RESISTIVITY
~PARAMETER INFORMATION
#MNEM.UNIT          VALUE    DESCRIPTION
#----------   ------------   ------------------------------
 PD  .                 GL:   PERMANENT DATUM
 EPD .F              5239:   ELEVATION PERMANENT DATUM
 LMF .                 KB:   LOG MEASURED FROM
 DAPD.F                10:   FEET ABOVE PERMANENT DATUM
 DMF .                 KB:   DRILLING MEASURED FROM
 EKB .F              5249:   KELLING BUSHING
 EDF .F              5248:   DRILLING FLOOR
 EGL .F              5239:   GROUND LEVEL
 DATE.        02-JAN-1991:   RUN DATE
 RUN .                  1:   RUN NUMBER
 DD  .F               630:   DEPTH DRILLER
 DL  .F               630:   DEPTH LOGGER
 BLI .F               628:   BOTTOM LOG INTERVAL
 CS  .IN            9.625:   CASING SIZE
 CBD .F                40:   CASING BOTTOM DRILLER
 CBL .F                50:   CASING BOTTOM LOGGER
 BS  .IN            8.625:   BIT SIZE
 BSD .F               630:   BIT SIZE AT DEPTH
 DFT .                AIR:   DRILLING FLUID TYPE
 LUN .            HL 6274:   LOGGING UNIT NUMBER
 LUL .             CASPER:   LOGGING UNIT LOCATION
 ENGI.       P. RASMUSSEN:   RECORDING ENGINEER
 WITN.          G. STRONG:   WITNESSED BY
 CLNT.            A2DTECH:   CLIENT CODE
 ORIG.           5" PRINT:   ORIGIN OF DATA
 UWI .       490252247100:   UNIQUE WELL ID
 DICO. A2D Technologies, Inc.:   DIGITIZING COMPANY
~OTHER INFORMATION
~A   DEPT       GRR      RILD       RILM   
   15.0000    53.1689  -999.2500  -999.2500
   15.5000    49.1750  -999.2500  -999.2500
   16.0000    48.2988  -999.2500  -999.2500
   16.5000    53.6917  -999.2500  -999.2500
   17.0000    57.3713  -999.2500  -999.2500
   17.5000    61.4826  -999.2500  -999.2500
   18.0000    64.4795  -999.2500  -999.2500
   18.5000    66.8776  -999.2500  -999.2500
   19.0000    68.6769  -999.2500  -999.2500
   19.5000    69.8774  -999.2500  -999.2500
   20.0000    69.2815  -999.2500  -999.2500
   20.5000    68.0649  -999.2500  -999.2500
   21.0000    66.8928  -999.2500  -999.2500
   21.5000    66.2962  -999.2500  -999.2500
   22.0000    65.4008  -999.2500  -999.2500
   22.5000    66.3027  -999.2500  -999.2500
   23.0000    67.5032  -999.2500  -999.2500
   23.5000    68.4043  -999.2500  -999.2500
   24.0000    66.8782  -999.2500  -999.2500
   24.5000    66.6136  -999.2500  -999.2500
   25.0000    68.1143  -999.2500  -999.2500
   25.5000    68.7160  -999.2500  -999.2500
   26.0000    68.7188  -999.2500  -999.2500
   26.5000    68.4216  -999.2500  -999.2500
   27.0000    67.2276  -999.2500  -999.2500
   27.5000    65.7136  -999.2500  -999.2500
   28.0000    65.1376  -999.2500  -999.2500
   28.5000    68.1352  -999.2500  -999.2500
   29.0000    70.5333  -999.2500  -999.2500
   29.5000    71.7338  -999.2500  -999.2500
   30.0000    71.7367  -999.2500  -999.2500
   30.5000    72.0390  -999.2500  -999.2500
   31.0000    71.7425  -999.2500  -999.2500
   31.5000    71.7455  -999.2500  -999.2500
   32.0000    72.3478  -999.2500  -999.2500
   32.5000    73.5483  -999.2500  -999.2500
   33.0000    75.0482  -999.2500  -999.2500
   33.5000    77.1469  -999.2500  -999.2500
   34.0000    78.3474  -999.2500  -999.2500
   34.5000    79.5479  -999.2500  -999.2500
   35.0000    79.8503  -999.2500  -999.2500
   35.5000    81.0514  -999.2500  -999.2500
   36.0000    81.9525  -999.2500  -999.2500
   36.5000    81.3559  -999.2500  -999.2500
   37.0000    81.0594  -999.2500  -999.2500
   37.5000    81.0630  -999.2500  -999.2500
   38.0000    81.6647  -999.2500  -999.2500
   38.5000    81.6337  -999.2500  -999.2500
   39.0000    79.5754  -999.2500  -999.2500
   39.5000    77.7819  -999.2500  -999.2500
   40.0000    76.5872  -999.2500  -999.2500
   40.5000    75.0930  -999.2500  -999.2500
   41.0000    74.7958  -999.2500  -999.2500
   41.5000    77.1946  -999.2500  -999.2500
   42.0000    79.5928  -999.2500  -999.2500
   42.5000    78.3988  -999.2500  -999.2500
   43.0000    77.2033  -999.2500  -999.2500
   43.5000    76.6074  -999.2500  -999.2500
   44.0000    78.4074  -999.2500  -999.2500
   44.5000    79.6079  -999.2500  -999.2500
   45.0000    79.6108  -999.2500  -999.2500
   45.5000    79.6138  -999.2500  -999.2500
   46.0000    79.6173  -999.2500  -999.2500
   46.5000    79.3201  -999.2500  -999.2500
   47.0000    79.6231  -999.2500  -999.2500
   47.5000    79.6260  -999.2500  -999.2500
   48.0000    80.5271  -999.2500  -999.2500
   48.5000    82.6258  -999.2500  -999.2500
   49.0000    86.8842  -999.2500  -999.2500
   49.5000    92.8120  -999.2500  -999.2500
   50.0000    99.7011  9929.3721  1972.5044
   50.5000   117.3686  1667.5013  1206.3529
   51.0000   126.9334     6.1783     5.4983
   51.5000   126.6281     2.4922     3.1598
   52.0000   126.3228     1.6558     2.7505
   52.5000   127.5146     1.5450     3.3374
   53.0000   126.9099     3.0895     6.3059
   53.5000   125.7064     7.1462    10.6659
   54.0000   125.0779    18.5213    18.2920
   54.5000   128.7684    15.3243    11.0852
   55.0000   133.2535     6.9992    10.1866
   55.5000   134.3656     6.5306     9.2740
   56.0000   132.8612     6.1783     8.8325
   56.5000   131.3584     6.0512     8.6488
   57.0000   129.2567     6.0094     9.1380
   57.5000   126.5562     6.1783     8.7023
   58.0000   125.0548     7.3982     8.2880
   58.5000   127.4427     8.6167     8.0590
   59.0000   129.8320     8.3220     7.8363
   59.5000   129.5267     7.1959     7.7260
   60.0000   128.3233     7.0479     7.5125
   60.5000   127.4152     6.9992     7.4068
   61.0000   126.8144     7.1462     7.5074
   61.5000   126.8084     7.4497     7.6617
   62.0000   127.1022     7.5536     7.6063
   62.5000   128.2924     7.6591     7.4992
   63.0000   130.3824     7.5652     7.3936
   63.5000   133.3705     7.3709     7.2895
   64.0000   135.7599     7.1959     7.2368
   64.5000   136.9530     7.1462     7.1349
   65.0000   130.9577     7.0969     7.0344
   65.5000   122.5686     6.9992     6.9836
   66.0000   122.4990     6.9029     6.8852
   66.5000   125.2515     6.8043     6.8315
   67.0000   128.5549     6.7141     6.7314
   67.5000   130.0699     6.6678     6.6438
   68.0000   133.3162     6.5760     6.5957
   68.5000   133.0109     6.5306     6.5480
   69.0000   132.1069     6.4855     6.5007
   69.5000   130.9034     6.4407     6.4985
   70.0000   129.9993     6.3962     6.4515
   70.5000   127.8976     6.3520     6.4048
   71.0000   125.7960     6.3520     6.4471
   71.5000   123.9951     6.4032     6.4897
   72.0000   125.7842     6.4855     6.5779
   72.5000   127.2753     6.5760     6.6711
   73.0000   128.4671     6.7141     6.8126
   73.5000   127.4232     7.0969     6.9928
   74.0000   121.9601     7.5536     7.1371
   74.5000   112.8791     7.7123     7.2341
   75.0000   108.0829     7.6062     7.2317
   75.5000   109.8734     7.5536     7.2292
   76.0000   115.2567     7.5015     7.3281
   76.5000   122.7359     7.5015     7.3765
   77.0000   128.4186     7.4497     7.3225
   77.5000   131.1089     7.3471     7.2696
   78.0000   129.0057     7.2460     7.2170
   78.5000   126.9040     7.1462     7.1153
   79.0000   126.8902     7.0969     7.0151
   79.5000   127.8224     6.9992     6.9639
   80.0000   127.4451     6.9029     6.8658
   80.5000   124.7833     6.8027     6.8162
   81.0000   122.9810     6.7141     6.7669
   81.5000   123.5754     6.7141     6.7179
   82.0000   125.3645     6.7141     6.7629
   82.5000   127.1550     6.7608     6.8075
   83.0000   128.0488     6.8078     6.9474
   83.5000   127.7421     6.9029     7.0418
   84.0000   126.5386     6.9509     7.1871
   84.5000   124.4369     7.0969     7.3395
   85.0000   120.5388     7.2502     7.4436
   85.5000   117.2276     7.4546     7.5878
   86.0000   115.1379     7.6062     7.5852
   86.5000   116.9800     7.7123     7.6890
   87.0000   118.7175     7.7660     7.7397
   87.5000   120.2086     7.8200     7.7365
   88.0000   121.4003     7.8200     7.6805
   88.5000   122.5921     7.8200     7.6779
   89.0000   123.4859     7.8200     7.5698
   89.5000   124.3767     7.7123     7.5151
   90.0000   124.6717     7.5974     7.3582
   90.5000   125.5626     7.3471     7.2004
   91.0000   124.6585     7.0969     7.0379
   91.5000   123.4550     6.9029     6.8114
   92.0000   122.2515     6.7141     6.7155
   92.5000   121.0479     6.6217     6.6209
   93.0000   122.2384     6.6678     6.6187
   93.5000   124.0289     6.6678     6.6164
   94.0000   125.8194     6.7157     6.6607
   94.5000   128.2088     6.8145     6.7041
   95.0000   130.5981     6.9029     6.8424
   95.5000   131.7913     7.0479     6.9355
   96.0000   129.9876     7.1462     7.0297
   96.5000   128.1853     7.2964     7.1293
   97.0000   126.9818     7.4497     7.2221
   97.5000   127.5747     7.5015     7.3202
   98.0000   128.1716     7.5015     7.3679
   98.5000   129.3872     7.5015     7.4172
   99.0000   130.6028     7.5075     7.4662
   99.5000   132.0408     7.6062     7.4630
  100.0000   133.5320     7.6591     7.4605
  100.5000   135.0299     7.6367     7.4962
  101.0000   132.6347     7.6139     7.5501
  101.5000   130.5389     7.5077     7.6041
  102.0000   128.4431     7.4545     7.5332
  102.5000   128.7425     7.3505     7.4284
  103.0000   129.3413     7.2983     7.3251
  103.5000   128.7425     7.2465     7.2232
  104.0000   127.5449     7.1948     7.1721
  104.5000   129.3653     7.0945     7.1215
  105.0000   133.0140     7.0930     7.1202
  105.5000   134.1317     7.0427     7.0697
