~VERSION INFORMATION
 VERS.                2.0:   CWLS LOG ASCII STANDARD - VERSION 2.0
 WRAP.                 NO:   ONE LINE PER DEPTH STEP
~WELL INFORMATION
#MNEM.UNIT      DATA TYPE    INFORMATION
#----------   ------------   ------------------------------
 STRT.F          100.0000:   START DEPTH
 STOP.F          812.0000:   STOP DEPTH
 STEP.F            0.5000:   STEP LENGTH
 NULL.          -999.2500:   NO VALUE
 COMP.               NAVY:   COMPANY
 WELL. RES 3 TEAPOT DOM #42S-11:   WELL
 FLD .             TEAPOT:   FIELD
 LOC .      S11 T38N R78W:   LOCATION
 CNTY.            NATRONA:   COUNTY
 STAT.            WYOMING:   STATE
 CTRY. UNITED STATES OF AMERICA:   COUNTRY
 SRVC.       Schlumberger:   SERVICE COMPANY
 DATE.        02-AUG-1961:   LOGDATE
 API .       490250636700:   API NUMBER
~CURVE INFORMATION
#MNEM.UNIT       API CODE    CURVE DESCRIPTION
#----------   ------------   ------------------------------
 DEPT.F                  :   
 SPR .MV     05 010 01 00:   SPONTANEOUS POTENTIAL FROM RES.
 ILD .OHMM   05 120 46 00:   INDUCTION LOG DEEP
 ASN .OHMM   05 041 16 00:   AMPLIFIED SHORT NORMAL 16"
 CILD.MMHO   05 110 46 00:   CONDUCTIVITY INDUCTION LOG DEEP
 GR  .GAPI   30 310 01 00:   GAMMA RAY
~PARAMETER INFORMATION
#MNEM.UNIT          VALUE    DESCRIPTION
#----------   ------------   ------------------------------
 PD  .                 GL:   PERMANENT DATUM
 EPD .F              5172:   ELEVATION PERMANENT DATUM
 LMF .                 KB:   LOG MEASURED FROM
 DAPD.F                 5:   FEET ABOVE PERMANENT DATUM
 DMF .                 KB:   DRILLING MEASURED FROM
 EKB .F              5177:   KELLING BUSHING
 EGL .F              5172:   GROUND LEVEL
 DATE.             8-2-61:   RUN DATE
 RUN .                  1:   RUN NUMBER
 DD  .F               810:   DEPTH DRILLER
 DL  .F               813:   DEPTH LOGGER
 BLI .F               812:   BOTTOM LOG INTERVAL
 TLI .F               100:   TOP LOG INTERVAL
 BS  .IN             6.75:   BIT SIZE
 BSD .F               810:   BIT SIZE AT DEPTH
 DFT .       OIL EMULSION:   DRILLING FLUID TYPE
 DFD .                9.2:   DRILLING FLUID DENSITY
 DFV .                 56:   DRILLING FLUID VISCOSITY
 MFSS.                  M:   MUD FILTRATE SAMPLE SOURCE
 MCSS.                  M:   MUD CAKE SAMPLE SOURCE
 RMB .OHMM            .70:   RESISTIVITY MUD AT BHT
 BHT .F                80:   BOTTOM HOLE TEMPERATURE
 TCS .HRS               1:   TIME CURCULATED STOPPED
 MRT .F                80:   MAXIMUM RECORDED TEMPERATURE
 LUN .               2552:   LOGGING UNIT NUMBER
 LUL .                RIV:   LOGGING UNIT LOCATION
 ENGI.             RANDLE:   RECORDING ENGINEER
 WITN.          VORGENSON:   WITNESSED BY
 CLNT.            A2DTECH:   CLIENT CODE
 ORIG.       2", 5" PRINT:   ORIGIN OF DATA
 UWI .       490250636700:   UNIQUE WELL ID
 DICO. A2D Technologies, Inc.:   DIGITIZING COMPANY
~OTHER INFORMATION
~A   DEPT      SPR        ILD        ASN        CILD        GR   
# ...
  588.0000   -33.9813     6.1295     6.3496   175.3769  -999.2500
  588.5000   -34.2556     5.7509     6.4517   182.2469  -999.2500
  589.0000   -34.4984     5.4175     6.4389   191.5779  -999.2500
  589.5000   -34.7809     5.0600     6.1891   202.4054  -999.2500
  590.0000   -34.9681     4.7866     5.8857   213.2328  -999.2500
  590.5000   -34.8543     4.6894     5.6385   224.0603  -999.2500
  591.0000   -34.5931     4.5521     5.5027   234.8878  -999.2500
  591.5000   -34.2751     4.3645     5.3403   245.7994  -999.2500
  592.0000   -33.9318     4.3622     5.2106   253.8250  -999.2500
  592.5000   -33.7234     4.4517     5.1731   254.7683  -999.2500
  593.0000   -33.7957     4.4970     5.2645   251.6855  -999.2500
  593.5000   -33.9062     4.5646     5.4304   248.6285  -999.2500
  594.0000   -34.0285     4.7490     5.5585   234.6006  -999.2500
  594.5000   -34.1507     4.9704     5.7883   222.6088  -999.2500
  595.0000   -34.2042     5.2561     6.0846   210.6156  -999.2500
  595.5000   -34.2303     5.5500     6.3751   198.8161  -999.2500
  596.0000   -34.2792     5.8386     6.7068   189.4472  -999.2500
  596.5000   -34.3211     6.1359     7.0262   178.8514  -999.2500
  597.0000   -34.3657     6.4180     7.3745   170.1508  -999.2500
  597.5000   -34.4086     6.7495     7.6606   163.0653  -999.2500
  598.0000   -34.4306     6.8824     7.8693   157.9899  -999.2500
  598.5000   -34.4779     7.0433     7.9268   152.9146  -999.2500
  599.0000   -34.5311     7.2590     7.9189   148.9861  -999.2500
  599.5000   -34.5826     7.1750     7.9080   148.9920  -999.2500
  600.0000   -34.6323     7.0070     7.8505   150.7589    64.6293
  600.5000   -34.6631     6.8522     7.7310   153.3151    65.4095
  601.0000   -34.7717     6.6653     7.6102   157.3100    66.4719
  601.5000   -34.8837     6.5420     7.4851   161.8954    67.5343
  602.0000   -34.9940     6.4483     7.3697   166.4917    67.9507
  602.5000   -35.1048     6.2920     7.2103   171.1057    65.2251
  603.0000   -35.2156     6.2162     7.0280   175.6624    62.5783
  603.5000   -35.3218     5.9122     6.8719   180.4020    62.2604
  604.0000   -35.3146     5.6051     6.6896   190.6960    62.8458
  604.5000   -35.1181     5.3036     6.4788   203.3032    64.0229
  605.0000   -34.8984     4.9989     6.2824   219.0620    66.8014
  605.5000   -34.6786     4.6958     6.0815   234.8208    69.8343
  606.0000   -34.4566     4.3844     5.7474   253.7688    72.8547
  606.5000   -34.4001     4.3495     5.4342   255.7789    74.8256
  607.0000   -34.3221     4.4052     5.1309   252.5158    72.4910
  607.5000   -34.1523     4.4580     5.1909   249.9867    68.7424
  608.0000   -33.9536     4.5075     5.3063   247.4627    64.9191
  608.5000   -33.9800     4.5839     5.5040   238.0766    64.4434
  609.0000   -33.9659     4.9166     6.0969   231.1006    67.4474
  609.5000   -33.9754     5.2891     6.6192   212.2133    70.7419
  610.0000   -33.9673     5.6264     6.9693   193.4173    74.0676
  610.5000   -33.9934     6.0352     7.1699   177.0181    75.4576
  611.0000   -34.1960     6.2764     7.3212   167.5779    74.0160
  611.5000   -34.3963     6.2766     7.4602   161.0955    70.5518
  612.0000   -34.5972     6.3476     7.5593   158.5628    67.0302
  612.5000   -34.6560     6.3857     7.6694   157.2864    63.5143
  613.0000   -34.6522     6.4409     7.7894   157.2864    61.0171
  613.5000   -34.6368     6.4868     7.9016   156.6757    61.7490
  614.0000   -34.4922     6.5372     7.9746   154.7275    67.0845
  614.5000   -34.3574     6.5857     8.0129   152.7793    69.4604
  615.0000   -34.2200     6.6350     8.0473   152.7261    68.6173
  615.5000   -34.0843     6.6633     8.0927   153.3593    70.3732
  616.0000   -33.9484     6.6187     8.0998   153.9925    72.7672
  616.5000   -33.8117     6.5372     8.0992   155.0271    75.1784
  617.0000   -33.6773     6.4626     8.0933   156.3779    76.7958
  617.5000   -33.5318     6.3847     8.0436   157.7286    68.5571
  618.0000   -33.5528     6.3094     7.9979   159.2965    68.5100
  618.5000   -33.9315     6.2310     7.9580   158.2915    72.5054
  619.0000   -33.9558     6.1629     7.9211   158.2915    76.3771
  619.5000   -33.8607     6.1556     7.8879   158.2915    77.2151
  620.0000   -33.7845     6.1858     7.8493   158.2915    74.2619
  620.5000   -33.6914     6.2143     7.8478   157.5980    73.5025
  621.0000   -33.6194     6.2611     7.8706   156.7538    75.9626
  621.5000   -33.5141     6.1856     7.9003   155.9095    79.8423
  622.0000   -33.7021     6.0500     7.8659   156.8593    81.9188
  622.5000   -33.9341     5.8202     7.8124   163.1909    77.9360
  623.0000   -33.9164     5.5287     7.6878   169.5226    73.7078
  623.5000   -33.7508     5.2498     7.4705   175.8543    71.7512
  624.0000   -33.5918     5.1237     7.2380   180.8561    69.9147
  624.5000   -33.4220     5.0891     6.8829   182.4678    68.0730
  625.0000   -33.3012     5.0349     6.7452   184.0795    66.1690
  625.5000   -33.2957     4.9930     6.6482   185.6912    65.6593
  626.0000   -33.2963     4.9397     6.5388   187.4372    67.3402
  626.5000   -33.2889     4.9025     6.5115   193.0754    71.3032
  627.0000   -33.2174     4.7691     6.7433   199.2261    72.1395
  627.5000   -33.1402     4.5255     6.7693   204.5226    64.4282
  628.0000   -33.0661     4.2966     6.6793   217.6336    56.8445
  628.5000   -32.9867     4.0487     6.4276   229.6482    50.1661
  629.0000   -32.9162     3.9404     6.0516   232.6633    50.8421
  629.5000   -32.8368     3.9626     5.6790   230.5217    54.5724
  630.0000   -32.9324     4.0055     5.5546   228.6432    57.0157
  630.5000   -33.1252     4.0665     5.6755   227.5399    54.8533
  631.0000   -33.3037     4.1011     5.6818   226.6332    52.3826
  631.5000   -33.1708     4.2605     5.9501   221.0804    53.8418
  632.0000   -33.1040     4.6657     6.4323   209.1618    55.8407
  632.5000   -33.3812     5.0746     6.8498   193.6281    56.7168
  633.0000   -33.4827     5.4835     7.0316   178.0945    55.7677
  633.5000   -33.6266     5.9134     7.1138   169.1658    54.1314
  634.0000   -33.7276     5.9519     7.1776   164.4269    52.9517
  634.5000   -33.6557     5.7474     7.2389   167.4422    53.2159
  635.0000   -33.5493     5.3484     7.2162   177.1127    53.5346
  635.5000   -33.4551     4.9477     7.1116   187.6753    53.2912
  636.0000   -33.3482     4.5009     6.8927   204.6361    55.1699
  636.5000   -33.2814     4.2294     6.5639   216.7670    58.3017
  637.0000   -33.2090     4.2583     6.1177   222.0235    61.7302
  637.5000   -33.1363     4.1929     5.8028   224.3105    63.0188
  638.0000   -33.0629     4.1527     5.7119   226.8280    64.9395
  638.5000   -32.9978     4.1018     5.6751   226.7951    66.7903
  639.0000   -32.9121     4.0512     6.0251   225.4305    66.2139
  639.5000   -32.8988     4.1110     6.4304   218.3572    60.5759
  640.0000   -33.1547     4.4449     6.8230   202.1806    60.6340
  640.5000   -33.2894     4.8604     7.1646   185.9659    64.3317
  641.0000   -33.4600     5.2926     7.5654   169.7930    62.1973
  641.5000   -33.5134     5.7325     7.8706   159.5079    58.0067
  642.0000   -33.3669     6.1729     8.0639   149.3950    53.7989
  642.5000   -33.2407     6.1679     8.2276   146.5321    51.3826
  643.0000   -33.0837     6.1331     8.3328   144.6091    53.1600
  643.5000   -33.1068     6.0505     8.4429   144.1016    56.2512
  644.0000   -33.1909     6.0616     8.5615   143.5242    55.3400
  644.5000   -33.2670     6.0538     8.6254   142.8857    51.8641
  645.0000   -33.2905     6.0596     8.6172   142.2210    47.9254
  645.5000   -33.1724     6.0513     8.6219   141.5401    46.9776
  646.0000   -33.0503     6.0960     8.6756   140.8556    43.6958
  646.5000   -32.9257     6.1748     8.7422   140.2010    42.8639
  647.0000   -32.8035     6.2467     8.8078   140.4413    44.8643
  647.5000   -32.6786     6.2569     8.8419   140.6715    48.3223
  648.0000   -32.5572     6.2565     8.8279   140.9018    51.7803
  648.5000   -32.4324     6.2532     8.8146   141.1320    55.2354
