~VERSION INFORMATION
 VERS.                2.0:   CWLS LOG ASCII STANDARD - VERSION 2.0
 WRAP.                 NO:   ONE LINE PER DEPTH STEP
~WELL INFORMATION
#MNEM.UNIT      DATA TYPE    INFORMATION
#----------   ------------   ------------------------------
 STRT.F           94.0000:   START DEPTH
 STOP.F          939.0000:   STOP DEPTH
 STEP.F            0.5000:   STEP LENGTH
 NULL.          -999.2500:   NO VALUE
 COMP. U S NAVY/INTEX OIL CO:   COMPANY
 WELL.    NPR #3 #88-S-27:   WELL
 FLD .             TEAPOT:   FIELD
 LOC .      S27 T39N R78W:   LOCATION
 CNTY.            NATRONA:   COUNTY
 STAT.            WYOMING:   STATE
 CTRY. UNITED STATES OF AMERICA:   COUNTRY
 SRVC.       Schlumberger:   SERVICE COMPANY
 DATE.        30-JUL-1963:   LOGDATE
 API .       490250658100:   API NUMBER
~CURVE INFORMATION
#MNEM.UNIT       API CODE    CURVE DESCRIPTION
#----------   ------------   ------------------------------
 DEPT.F                  :   
 SPR .MV     05 010 01 00:   SPONTANEOUS POTENTIAL FROM RES.
 CILD.MMHO   05 110 46 00:   CONDUCTIVITY INDUCTION LOG DEEP
 ASN .OHMM   05 041 16 00:   AMPLIFIED SHORT NORMAL 16"
 ILD .OHMM   05 120 46 00:   INDUCTION LOG DEEP
 GR  .GAPI   30 310 01 00:   GAMMA RAY
~PARAMETER INFORMATION
#MNEM.UNIT          VALUE    DESCRIPTION
#----------   ------------   ------------------------------
 PD  .                 GL:   PERMANENT DATUM
 EPD .F              5069:   ELEVATION PERMANENT DATUM
 LMF .                 KB:   LOG MEASURED FROM
 DAPD.F                 5:   FEET ABOVE PERMANENT DATUM
 DMF .                 KB:   DRILLING MEASURED FROM
 EKB .F              5074:   KELLING BUSHING
 EGL .F              5069:   GROUND LEVEL
 DATE.          7-30-1969:   RUN DATE
 RUN .                  1:   RUN NUMBER
 DD  .F               940:   DEPTH DRILLER
 DL  .F               940:   DEPTH LOGGER
 BLI .F               939:   BOTTOM LOG INTERVAL
 TLI .F                94:   TOP LOG INTERVAL
 CS  .IN            8.625:   CASING SIZE
 CBD .F                10:   CASING BOTTOM DRILLER
 BS  .IN             6.75:   BIT SIZE
 BSD .F               940:   BIT SIZE AT DEPTH
 DFT .            GEL/OIL:   DRILLING FLUID TYPE
 DFD .                9.6:   DRILLING FLUID DENSITY
 DFV .                 40:   DRILLING FLUID VISCOSITY
 DFPH.                  9:   DRILLING FLUID PH
 DFL .                  6:   DRILLING FLUID LOSS
 MSS .          FLOW LINE:   MUD SAMPLE SOURCE
 RMS .OHMM           2.94:   RESISTIVITY MUD SAMPLE
 MST .F                89:   MUD SAMPLE TEMPERATURE
 RMF .OHMM           2.19:   RESISTIVITY MUD FILTRATE SAMPLE
 MFST.F                87:   MUD FILTRATE SAMPLE TEMPERATURE
 MFSS.           MEASURED:   MUD FILTRATE SAMPLE SOURCE
 TCS .HRS               1:   TIME CURCULATED STOPPED
 LUN .               4507:   LOGGING UNIT NUMBER
 LUL .               CSPR:   LOGGING UNIT LOCATION
 ENGI.            WINKLER:   RECORDING ENGINEER
 WITN.          JORGENSEN:   WITNESSED BY
 CLNT.            A2DTECH:   CLIENT CODE
 ORIG.           5" PRINT:   ORIGIN OF DATA
 UWI .       490250658100:   UNIQUE WELL ID
 DICO. A2D Technologies, Inc.:   DIGITIZING COMPANY
~OTHER INFORMATION
~A   DEPT      SPR        CILD         ASN        ILD       GR   
# ...
  765.0000   -36.4596   167.1975     7.4059     6.1455    89.5956
  765.5000   -36.2346   170.3085     7.2878     6.0738    86.4838
  766.0000   -36.2465   173.4194     7.2977     6.0011    78.9091
  766.5000   -36.1256   174.3719     6.8611     5.9802    74.2611
  767.0000   -35.5207   172.4560     6.7179     5.9799    76.9593
  767.5000   -34.9295   169.6813     7.1964     5.9823    73.8680
  768.0000   -34.7438   168.3019     7.4120     5.8595    78.3492
  768.5000   -34.6412   176.7904     7.3941     5.6917    75.1261
  769.0000   -34.6283   186.0089     7.2688     5.5229    70.3261
  769.5000   -35.0663   195.2273     7.0492     5.3542    74.9648
  770.0000   -35.5294   198.5355     6.6220     5.1876    73.9105
  770.5000   -36.0015   196.5057     6.1861     5.0734    80.1461
  771.0000   -36.4296   194.4905     6.3173     5.0760    77.2989
  771.5000   -36.6633   194.5264     6.4106     5.0763    79.5841
  772.0000   -35.9322   193.4030     6.2603     5.1905    76.1409
  772.5000   -35.1131   186.3699     6.6484     5.5485    74.8909
  773.0000   -34.2945   173.6683     7.2591     5.9342    73.2562
  773.5000   -33.8412   162.0502     7.4844     6.3229    69.8287
  774.0000   -34.1643   155.0506     7.6594     6.6047    75.7627
  774.5000   -34.4350   148.0510     7.7276     6.8160    74.0425
  775.0000   -34.3441   145.2261     7.7288     6.9914    75.4979
  775.5000   -33.9245   151.8899     7.7290     6.8145    71.7645
  776.0000   -33.6855   158.5537     7.7291     6.5353    76.1212
  776.5000   -33.6296   165.2175     7.7083     6.2545    73.2182
  777.0000   -33.6328   171.8812     7.5478     5.9618    77.0165
  777.5000   -33.6298   175.3769     7.2111     5.8793    82.3311
  778.0000   -33.8806   172.8563     6.8575     5.9858    75.7808
  778.5000   -34.2246   169.8231     6.9810     6.0807    61.6839
  779.0000   -34.0318   169.3594     7.1040     6.0806    65.0970
  779.5000   -33.8335   169.3298     7.0255     6.0774    64.1582
  780.0000   -33.8378   167.3928     7.2709     6.2711    70.9445
  780.5000   -33.8526   159.1865     7.6645     6.5545    69.1260
  781.0000   -32.9902   151.4922     8.0625     6.8411    70.8257
  781.5000   -31.8770   143.7994     8.3987     7.1280    66.8737
  782.0000   -31.9070   136.1066     8.5723     7.4153    60.8841
  782.5000   -32.1750   132.1608     8.7450     7.6979    54.7844
  783.0000   -32.2310   131.1558     8.9146     7.8951    53.7221
  783.5000   -32.2203   131.1558     8.9895     7.8890    54.4632
  784.0000   -31.8252   131.1558     9.0500     7.8893    58.4543
  784.5000   -31.4003   131.1558     9.1112     7.8892    62.7571
  785.0000   -31.2243   131.1558     9.1407     7.8990    63.6386
  785.5000   -31.3570   129.0276     9.1579     7.9786    62.5017
  786.0000   -31.4244   126.0787     9.1744     8.0588    63.8400
  786.5000   -31.4294   124.1206     9.2112     8.1371    63.8817
  787.0000   -31.2626   125.3166     9.2589     8.1582    62.2925
  787.5000   -31.2214   127.5283     9.3072     8.0561    64.4880
  788.0000   -31.0907   129.7399     9.3551     7.9888    66.2082
  788.5000   -30.9554   131.1558     9.3592     7.9900    64.3171
  789.0000   -30.8263   131.1558     9.2683     8.0029    64.1605
  789.5000   -30.8181   127.5493     9.1525     8.0899    68.2348
  790.0000   -30.9876   123.8244     9.0402     8.2063    65.1899
  790.5000   -31.1890   120.0994     9.0299     8.3252    62.6001
  791.0000   -31.3911   117.0854     9.2612     8.4469    61.3963
  791.5000   -31.5929   120.2854     9.5231     8.5068    58.0169
  792.0000   -31.7951   131.4298     9.7845     7.8983    55.3044
  792.5000   -31.9992   147.1277     9.9768     7.1564    65.2642
  793.0000   -32.0362   162.8563     9.7575     6.4129    62.4972
  793.5000   -31.7451   178.5168     9.2278     5.8158    69.4716
  794.0000   -31.4080   184.4901     8.1294     5.6786    66.5025
  794.5000   -31.0697   181.8373     7.0873     5.8088    63.1071
  795.0000   -31.0238   180.4237     7.0803     5.8775    60.8761
  795.5000   -31.0670   180.3947     7.3127     5.8768    60.6459
  796.0000   -31.2663   180.4809     7.1245     5.8810    57.9111
  796.5000   -31.4584   166.2549     7.8221     6.0937    61.2072
  797.0000   -31.6488   145.8549     9.1438     7.0905    57.6950
  797.5000   -31.8414   127.1392    10.0423     8.0578    53.9424
  798.0000   -32.1750   111.9196    10.3969     9.0265    50.1569
  798.5000   -32.5007   103.9560    10.7060     9.9886    49.8452
  799.0000   -32.8245    98.9950    10.8858    10.0934    47.7474
  799.5000   -33.1484   101.3515    11.0541     9.8980    52.2851
  800.0000   -33.4766   104.1036    11.2224     9.7045    49.7056
  800.5000   -33.8603   106.0302    11.3962     9.5187    51.9805
  801.0000   -34.3141   106.0302    11.5754     9.5976    54.4677
  801.5000   -34.7653   102.7445    11.7504    10.1144    54.8994
  802.0000   -35.2176    96.1732    12.1155    10.8181    51.5789
  802.5000   -35.6674    89.6019    12.6238    11.4986    45.7453
  803.0000   -36.1181    83.0305    13.7098    12.4126    34.0010
  803.5000   -36.7015    76.4592    14.8150    13.4139    26.3220
  804.0000   -38.1206    69.8879    17.0876    14.4247    17.6588
  804.5000   -40.9174    63.3166    19.4909    15.9684     7.5534
  805.0000   -43.6373    56.7453    21.8971    17.5797     8.8937
  805.5000   -45.1578    52.7638    24.3028    19.1834    11.5585
  806.0000   -45.7012    49.8923    25.9857    20.2116    14.5164
  806.5000   -45.1962    47.0208    25.2787    21.1584    16.4851
  807.0000   -44.6484    46.7311    26.1825    21.4092    21.3478
  807.5000   -45.8905    46.7325    26.6840    21.5732    20.3235
  808.0000   -47.6465    46.5970    25.6563    21.7451    19.0586
  808.5000   -49.2676    45.2008    26.3015    22.4755    20.4011
  809.0000   -49.2826    43.8028    27.7137    23.2737    14.9686
  809.5000   -49.4459    42.4058    29.1747    24.0725     9.5155
  810.0000   -52.6812    41.2060    31.4238    24.4740     4.6402
  810.5000   -55.7369    40.2010    34.8297    24.6978     0.1491
  811.0000   -57.0561    39.1960    36.5327    24.9503     3.2838
  811.5000   -58.1977    38.6935    35.5193    25.0839     9.8837
  812.0000   -58.2276    38.8191    33.6181    24.6328    10.2240
  812.5000   -55.7163    40.0754    31.6080    24.0389    13.7989
  813.0000   -53.3003    41.3317    30.2986    23.3281    19.4065
  813.5000   -51.8094    42.5879    29.2924    22.2750    17.1782
  814.0000   -52.0095    43.8442    28.5893    22.1505    17.3397
  814.5000   -53.5037    44.7236    28.9503    22.1577    23.2897
  815.0000   -53.9905    44.6518    29.0056    22.2959    20.3729
  815.5000   -54.4366    43.9340    29.8850    22.5663    15.3963
  816.0000   -54.6022    43.2161    29.2920    22.8377    17.4779
  816.5000   -56.7464    42.4982    29.8257    23.1936    18.3777
  817.0000   -57.3685    41.7803    30.4978    23.5660    14.4409
  817.5000   -56.6473    41.7085    30.0537    23.6647    12.7835
  818.0000   -56.7968    41.8268    29.6032    23.1642    13.6620
  818.5000   -57.4561    43.0092    29.6933    22.6002    22.6868
  819.0000   -56.5530    44.1916    29.0083    22.0362    20.9470
  819.5000   -56.4180    45.3739    28.0201    21.4727    20.0164
  820.0000   -56.8490    46.5563    27.0351    20.9113    21.7241
  820.5000   -56.6302    47.7387    26.0492    20.4863    19.4107
  821.0000   -55.8934    48.9211    25.0637    20.0782    19.5942
  821.5000   -54.8586    50.1035    24.3047    19.6702    22.0641
  822.0000   -52.4601    51.2858    24.1002    19.2617    21.9785
  822.5000   -50.0930    52.4682    23.8904    18.8536    24.2760
  823.0000   -47.7105    53.6506    22.9338    18.4450    26.8237
  823.5000   -47.9425    53.7688    21.8952    18.1993    29.3827
  824.0000   -49.6179    53.9886    20.7505    18.1375    29.9765
  824.5000   -48.9510    54.3005    21.2999    18.2816    31.2146
  825.0000   -47.4202    54.6142    21.9949    18.4846    29.8532
  825.5000   -46.5366    55.6114    21.2788    18.0408    30.9666
