~VERSION INFORMATION
 VERS.                2.0:   CWLS LOG ASCII STANDARD - VERSION 2.0
 WRAP.                 NO:   ONE LINE PER DEPTH STEP
~WELL INFORMATION
#MNEM.UNIT      DATA TYPE    INFORMATION
#----------   ------------   ------------------------------
 STRT.F            8.5000:   START DEPTH
 STOP.F          509.0000:   STOP DEPTH
 STEP.F            0.5000:   STEP LENGTH
 NULL.          -999.2500:   NO VALUE
 COMP. LAWRENCE-ALLISON &AS:   COMPANY
 WELL. NPR 3 #68-26SX3LP2:   WELL
 FLD .             TEAPOT:   FIELD
 LOC .       S3 T38N R78W:   LOCATION
 CNTY.            NATRONA:   COUNTY
 STAT.            WYOMING:   STATE
 CTRY. UNITED STATES OF AMERICA:   COUNTRY
 SRVC.      Dresser Atlas:   SERVICE COMPANY
 DATE.        12-DEC-1984:   LOGDATE
 API .       490251099600:   API NUMBER
~CURVE INFORMATION
#MNEM.UNIT       API CODE    CURVE DESCRIPTION
#----------   ------------   ------------------------------
 DEPT.F                  :   
 CNC .DEC    42 890 03 00:   NEUTRON POROSITY SANDSTONE
 CALD.IN     45 280 60 00:   CALIPER FROM DENSITY LOG
 CORR.G/C3   45 356 01 00:   DENSITY CORRECTION
 GRD .GAPI   45 310 01 00:   GAMMA RAY FROM DENSITY LOG
 PORD.DEC    45 890 12 00:   POROSITY DENSITY SANDSTONE
 RHOB.G/C3   45 350 01 00:   BULK DENSITY
 DT  .US/F   60 520 00 00:   INTERVAL TRANSIT TIME
 SPR .MV     11 010 01 00:   SPONTANEOUS POTENTIAL FROM RES.
 RS  .OHMM   11 220 09 00:   RESISTIVITY SHALLOW
 RD  .OHMM   11 220 10 00:   RESISTIVITY DEEP
~PARAMETER INFORMATION
#MNEM.UNIT          VALUE    DESCRIPTION
#----------   ------------   ------------------------------
 PD  .                 GL:   PERMANENT DATUM
 EPD .F              5158:   ELEVATION PERMANENT DATUM
 LMF .                 GL:   LOG MEASURED FROM
 DMF .                 GL:   DRILLING MEASURED FROM
 EGL .F              5158:   GROUND LEVEL
 DATE.        12-DEC-1984:   RUN DATE
 RUN .                  1:   RUN NUMBER
 DD  .F               510:   DEPTH DRILLER
 DL  .F               510:   DEPTH LOGGER
 BLI .F               501:   BOTTOM LOG INTERVAL
 TLI .F                20:   TOP LOG INTERVAL
 CS  .IN            8.625:   CASING SIZE
 CBD .F                20:   CASING BOTTOM DRILLER
 CBL .F                20:   CASING BOTTOM LOGGER
 BS  .IN            7.875:   BIT SIZE
 BSD .F               510:   BIT SIZE AT DEPTH
 DFT .          KCL/WATER:   DRILLING FLUID TYPE
 MSS .            MUDTANK:   MUD SAMPLE SOURCE
 RMS .OHMM           0.21:   RESISTIVITY MUD SAMPLE
 MST .F                70:   MUD SAMPLE TEMPERATURE
 RMF .OHMM           0.16:   RESISTIVITY MUD FILTRATE SAMPLE
 MFST.F                70:   MUD FILTRATE SAMPLE TEMPERATURE
 RMC .OHMM           0.26:   RESISTIVITY MUD CAKE
 MCST.F                70:   MUD CAKE SAMPLE TEMPERATURE
 MFSS.               CALC:   MUD FILTRATE SAMPLE SOURCE
 MCSS.               CALC:   MUD CAKE SAMPLE SOURCE
 RMB .OHMM           0.17:   RESISTIVITY MUD AT BHT
 BHT .F                85:   BOTTOM HOLE TEMPERATURE
 TCS .HRS               6:   TIME CURCULATED STOPPED
 MRT .F               100:   MAXIMUM RECORDED TEMPERATURE
 LUN .               6270:   LOGGING UNIT NUMBER
 LUL .                 FM:   LOGGING UNIT LOCATION
 ENGI.           E.GOVETT:   RECORDING ENGINEER
 WITN.              LUERS:   WITNESSED BY
 CLNT.            A2DTECH:   CLIENT CODE
 ORIG.           5" PRINT:   ORIGIN OF DATA
 UWI .       490251099600:   UNIQUE WELL ID
 DICO. A2D Technologies, Inc.:   DIGITIZING COMPANY
~OTHER INFORMATION
~A    DEPT     CNC       CALD       CORR        GRD       PORD       RHOB          DT       SPR         RS         RD   
# ...
  310.0000     0.2816     7.8338     0.0203    75.2917     0.1692     2.3964    95.7754   -30.3413    19.4663    20.8194
  310.5000     0.2731     7.8201     0.0265    77.3892     0.1713     2.3927    95.3864   -30.3281    19.4796    20.5457
  311.0000     0.2625     7.8064     0.0357    78.7070     0.1703     2.3959    95.0726   -30.4636    18.8265    20.2786
  311.5000     0.2428     7.8079     0.0478    74.8684     0.1666     2.4013    94.6836   -30.5990    18.1952    19.8738
  312.0000     0.2395     7.8091     0.0600    73.9924     0.1616     2.4090    94.2196   -30.5854    17.5852    19.4771
  312.5000     0.2458     7.8251     0.0677    77.2802     0.1584     2.4148    93.8306   -30.7454    17.2304    19.2180
  313.0000     0.2448     7.8267     0.0695    80.4149     0.1566     2.4179    93.5168   -31.0052    17.3621    19.2328
  313.5000     0.2436     7.8319     0.0289    80.6076     0.1548     2.4202    93.2029   -31.4345    17.3716    19.2445
  314.0000     0.2499     7.8371     0.0094    79.4142     0.1554     2.4218    92.8891   -31.4213    17.3811    19.1205
  314.5000     0.2541     7.8427     0.0096    74.0919     0.1584     2.4083    92.4250   -31.7053    17.3906    18.7417
  315.0000     0.2532     7.8443     0.0128    73.9578     0.1659     2.4024    92.8625   -31.8407    17.2775    18.6209
  315.5000     0.2540     7.8307     0.0100    76.6521     0.1689     2.3942    93.0794   -31.6790    17.0514    18.3784
  316.0000     0.2611     7.8327     0.0071    78.7482     0.1649     2.3982    92.8154   -31.3686    16.9424    18.1372
  316.5000     0.2679     7.8195     0.0042    79.8057     0.1585     2.4207    92.2934   -31.5073    16.8348    18.0230
  317.0000     0.2682     7.8211     0.0269    79.8249     0.1449     2.4365    91.9795   -31.6395    16.7279    17.9096
  317.5000     0.2648     7.8079     0.0587    79.8442     0.1362     2.4523    92.1165   -31.7749    16.7371    18.0601
  318.0000     0.2584     7.8095     0.0828    79.8674     0.1310     2.4577    92.6291   -31.7617    16.7510    18.5662
  318.5000     0.2469     7.7814     0.0710    80.0347     0.1340     2.4570    93.0666   -32.0461    17.1307    18.8367
  319.0000     0.2424     7.7660     0.0651    79.9053     0.1364     2.4533    93.5041   -32.3297    18.5125    19.2439
  319.5000     0.2408     7.7401     0.0648    79.1824     0.1360     2.4519    93.8698   -32.4651    20.2280    20.2121
  320.0000     0.2390     7.7269     0.0744    78.3111     0.1363     2.4527    94.0067   -32.4517    21.9942    23.7165
  320.5000     0.2226     7.6844     0.0746    76.5497     0.1402     2.4483    92.6377   -32.4383    22.9405    24.7378
  321.0000     0.2141     7.5376     0.0747    71.5241     0.1429     2.4378    89.1684   -32.5742    23.1127    25.0982
  321.5000     0.2123     7.5092     0.0781    70.6481     0.1441     2.4387    84.6472   -32.7096    22.6495    22.9515
  322.0000     0.2228     7.6299     0.0841    73.3425     0.1409     2.4456    82.0794   -32.6931    21.2916    21.1342
  322.5000     0.2346     7.7650     0.0842    76.9222     0.1365     2.4523    82.0661   -32.6799    18.9356    20.1465
  323.0000     0.2340     7.8556     0.0453    77.7162     0.1391     2.4427    84.1163   -32.5980    18.0488    18.9408
  323.5000     0.2327     7.9018     0.0139    75.7923     0.1458     2.4307    90.6491   -32.6569    17.3232    18.1811
  324.0000     0.2393     7.9178    -0.0056    74.0149     0.1539     2.4210    94.6450   -32.6404    16.9760    17.8182
  324.5000     0.2571     7.8749     0.0051    73.2920     0.1502     2.4271    94.9355   -32.6272    16.7515    17.5838
  325.0000     0.2595     7.8472     0.0173    74.0528     0.1448     2.4384    94.7686   -32.6141    16.6445    17.3332
  325.5000     0.2561     7.8489     0.0235    76.1489     0.1372     2.4528    94.6802   -32.6009    16.4245    16.7749
  326.0000     0.2506     7.8356     0.0296    78.3934     0.1308     2.4596    94.6669   -32.5877    16.2075    16.5518
  326.5000     0.2573     7.8372     0.0448    79.7477     0.1368     2.4529    94.7320   -32.5745    16.2164    16.4476
  327.0000     0.2618     7.8240     0.0540    79.9150     0.1398     2.4470    94.7154   -32.5614    16.2252    16.3466
  327.5000     0.2606     7.8257     0.0435    81.1209     0.1395     2.4463    94.6270   -32.5482    16.1220    16.3566
  328.0000     0.2590     7.8273     0.0271    84.2556     0.1395     2.4419    94.5386   -32.5349    16.3563    16.3666
  328.5000     0.2566     7.8140     0.0244    83.9778     0.1424     2.4367    94.4501   -32.6704    16.7110    16.2612
  329.0000     0.2505     7.8309     0.0336    83.7000     0.1478     2.4290    94.5875   -32.6572    16.9535    16.5006
  329.5000     0.2441     7.8172     0.0427    84.1840     0.1538     2.4219    94.6491   -33.0865    17.3191    16.9744
  330.0000     0.2390     7.8341     0.0474    84.3314     0.1535     2.4212    94.7859   -32.9248    18.5721    17.7054
  330.5000     0.2565     7.8355     0.0400    83.3165     0.1547     2.4190    95.0028   -32.6144    20.3341    18.8556
  331.0000     0.2712     7.8373     0.0056    80.5165     0.1571     2.4116    95.4650   -32.3041    21.9569    20.0862
  331.5000     0.2779     7.8389    -0.0123    77.2713     0.1667     2.3854    97.3722   -31.6965    25.4105    23.7902
  332.0000     0.2878     7.8255    -0.0212    67.0529     0.1947     2.3201   101.0404   -31.0890    30.0252    28.8806
  332.5000     0.2977     7.8273    -0.0210    62.3241     0.2206     2.2767   104.1075   -30.3329    35.9731    35.5022
  333.0000     0.2940     7.8136    -0.0104    61.8932     0.2468     2.2640   108.7523   -29.5768    38.5756    37.5475
  333.5000     0.2891     7.8157     0.0183    63.5489     0.2504     2.2573   110.3919   -29.2664    40.5152    37.8258
  334.0000     0.2873     7.8173     0.0305    65.9418     0.2482     2.2596   111.1332   -28.8075    41.1032    36.8206
  334.5000     0.2861     7.8337     0.0337    70.2634     0.2440     2.2649   109.9897   -28.0514    40.8416    36.5833
  335.0000     0.2840     7.8353     0.0353    72.6563     0.2385     2.2764   108.7743   -27.1467    40.5817    36.6113
  335.5000     0.2923     7.8369     0.0265    72.5268     0.2330     2.2855   107.4086   -25.9448    40.3235    36.6337
  336.0000     0.2957     7.8386     0.0131    71.6498     0.2312     2.2892   106.7191   -24.8915    40.0452    36.6562
  336.5000     0.2848     7.8402     0.0057    70.7685     0.2315     2.2908   105.9545   -23.9728    39.8120    36.6786
  337.0000     0.2669     7.8422     0.0209    70.3582     0.2308     2.2931   105.5655   -23.2144    39.8392    36.9562
  337.5000     0.2609     7.8438     0.0346    70.5303     0.2194     2.3044   105.3268   -22.5978    39.8610    36.9788
  338.0000     0.2708     7.8454     0.0453    69.2139     0.2136     2.3173   105.0078   -22.0123    39.8828    36.7460
  338.5000     0.2717     7.8470     0.0484    66.2655     0.2151     2.3196   104.8289   -21.5534    39.6236    35.9989
  339.0000     0.2741     7.8189     0.0486    64.2073     0.2202     2.3137   104.3069   -21.0944    39.3714    34.9899
  339.5000     0.2838     7.8053     0.0457    63.7764     0.2211     2.3085   104.0682   -20.9327    39.1262    33.6495
  340.0000     0.2882     7.7921     0.0429    64.0969     0.2198     2.3071   103.7544   -20.6223    38.0773    32.0768
  340.5000     0.2729     7.7792     0.0430    65.3027     0.2154     2.3191   103.4405   -20.4606    36.8006    31.6502
  341.0000     0.2582     7.7656     0.0432    67.3989     0.2106     2.3260   103.2018   -20.1502    35.8140    31.2387
  341.5000     0.2652     7.7380     0.0380    69.1982     0.2095     2.3245   102.8129   -19.9884    34.8539    30.8232
  342.0000     0.2796     7.7396     0.0144    69.6623     0.2143     2.3141   102.1985   -19.6781    33.9195    30.2126
  342.5000     0.2811     7.7263     0.0075    69.8296     0.2227     2.3044   103.6879   -19.6649    33.0102    29.8153
  343.0000     0.2720     7.7131     0.0077    70.0000     0.2287     2.2970   104.4259   -19.6517    32.5736    29.4187
