~VERSION INFORMATION
 VERS.                2.0:   CWLS LOG ASCII STANDARD - VERSION 2.0
 WRAP.                 NO:   ONE LINE PER DEPTH STEP
~WELL INFORMATION
#MNEM.UNIT      DATA TYPE    INFORMATION
#----------   ------------   ------------------------------
 STRT.F           20.0000:   START DEPTH
 STOP.F          500.0000:   STOP DEPTH
 STEP.F            0.5000:   STEP LENGTH
 NULL.          -999.2500:   NO VALUE
 COMP.    FENIX & SCISSON:   COMPANY
 WELL. RES 3 TEAPOT DOM #81SX10-10:   WELL
 FLD .             TEAPOT:   FIELD
 LOC .      S10 T38N R78W:   LOCATION
 CNTY.            NATRONA:   COUNTY
 STAT.            WYOMING:   STATE
 CTRY. UNITED STATES OF AMERICA:   COUNTRY
 SRVC.           BIRDWELL:   SERVICE COMPANY
 DATE.        22-NOV-1978:   LOGDATE
 API .       490251075100:   API NUMBER
~CURVE INFORMATION
#MNEM.UNIT       API CODE    CURVE DESCRIPTION
#----------   ------------   ------------------------------
 DEPT.F                  :   
 ILD .OHMM   05 120 46 00:   INDUCTION LOG DEEP
 SN  .OHMM   05 040 16 00:   SHORT NORMAL 16"
 SPR .MV     05 010 01 00:   SPONTANEOUS POTENTIAL FROM RES.
 CALD.IN     45 280 60 00:   CALIPER FROM DENSITY LOG
 CORR.G/C3   45 356 01 00:   DENSITY CORRECTION
 DPHI.DEC    45 890 10 00:   DENSITY POROSITY LIMESTONE
 GRD .GAPI   45 310 01 00:   GAMMA RAY FROM DENSITY LOG
 RHOB.G/C3   45 350 01 00:   BULK DENSITY
~PARAMETER INFORMATION
#MNEM.UNIT          VALUE    DESCRIPTION
#----------   ------------   ------------------------------
 PD  .                 GL:   PERMANENT DATUM
 EPD .F              5129:   ELEVATION PERMANENT DATUM
 LMF .                 KB:   LOG MEASURED FROM
 DAPD.F                 4:   FEET ABOVE PERMANENT DATUM
 DMF .                 KB:   DRILLING MEASURED FROM
 EKB .F              5133:   KELLING BUSHING
 EGL .F              5129:   GROUND LEVEL
 DATE.        22-NOV-1978:   RUN DATE
 RUN .                  1:   RUN NUMBER
 DD  .F               500:   DEPTH DRILLER
 DL  .F               500:   DEPTH LOGGER
 BLI .F               500:   BOTTOM LOG INTERVAL
 TLI .F                20:   TOP LOG INTERVAL
 CS  .IN            8.625:   CASING SIZE
 CBD .F                40:   CASING BOTTOM DRILLER
 CBL .F                40:   CASING BOTTOM LOGGER
 BS  .IN            7.875:   BIT SIZE
 BSD .F               500:   BIT SIZE AT DEPTH
 DFT .                KCL:   DRILLING FLUID TYPE
 DFD .                8.7:   DRILLING FLUID DENSITY
 DFV .                 36:   DRILLING FLUID VISCOSITY
 DFPH.               11.2:   DRILLING FLUID PH
 DFL .                 94:   DRILLING FLUID LOSS
 MSS .            MUD PIT:   MUD SAMPLE SOURCE
 RMS .OHMM           0.28:   RESISTIVITY MUD SAMPLE
 MST .F                62:   MUD SAMPLE TEMPERATURE
 RMF .OHMM           0.24:   RESISTIVITY MUD FILTRATE SAMPLE
 MFST.F                66:   MUD FILTRATE SAMPLE TEMPERATURE
 RMC .OHMM           0.31:   RESISTIVITY MUD CAKE
 MCST.F                66:   MUD CAKE SAMPLE TEMPERATURE
 MFSS.               MEAS:   MUD FILTRATE SAMPLE SOURCE
 MCSS.               MEAS:   MUD CAKE SAMPLE SOURCE
 RMB .OHMM            0.3:   RESISTIVITY MUD AT BHT
 BHT .F                58:   BOTTOM HOLE TEMPERATURE
 TCS .HRS               1:   TIME CURCULATED STOPPED
 MRT .F                58:   MAXIMUM RECORDED TEMPERATURE
 LUN .               3029:   LOGGING UNIT NUMBER
 LUL .               CASP:   LOGGING UNIT LOCATION
 ENGI.           REYNOLDS:   RECORDING ENGINEER
 WITN.              AMEND:   WITNESSED BY
 CLNT.            A2DTECH:   CLIENT CODE
 ORIG.           5" PRINT:   ORIGIN OF DATA
 UWI .       490251075100:   UNIQUE WELL ID
 DICO. A2D Technologies, Inc.:   DIGITIZING COMPANY
~OTHER INFORMATION
~A   DEPT      ILD         SN        SPR       CALD       CORR       DPHI         GRD      RHOB   
# ...
  465.5000     5.7996     8.1709   -42.9819     7.6630     0.0314     0.1271    90.6281     2.4642
  466.0000     5.8810     9.0059   -42.4708     7.6629     0.0314     0.1139    89.8671     2.4830
  466.5000     6.0049     9.5879   -42.1582     7.6627     0.0314     0.1091    92.5368     2.4951
  467.0000     6.3478    10.0043   -42.1567     7.6626     0.0284     0.1121    96.1707     2.5033
  467.5000     6.8040    10.2811   -42.3764     7.6624     0.0237     0.1129    98.4181     2.4928
  468.0000     7.4982    10.3547   -42.5247     7.6623     0.0165     0.1132    99.3166     2.4913
  468.5000     8.0930    10.5015   -42.5232     7.6621     0.0165     0.1126    97.3533     2.4920
  469.0000     8.4547    10.6503   -42.5217     7.6620     0.0210     0.1120    94.6654     2.4943
  469.5000     8.9191    10.8764   -42.3701     7.6618     0.0225     0.1114    94.3645     2.4913
  470.0000     9.1131    10.9924   -42.0990     7.6617     0.0210     0.1159    97.8110     2.4823
  470.5000     9.4289    11.1869   -41.7474     7.6615     0.0195     0.1252   100.2084     2.4763
  471.0000     9.6276    11.3459   -41.2439     7.6614     0.0180     0.1216    98.9024     2.4823
  471.5000     9.6951    11.5868   -40.7350     7.6612     0.0195     0.1174    96.3071     2.4891
  472.0000     9.8310    11.7510   -40.2189     7.6611     0.0210     0.1153    97.8049     2.4921
  472.5000     9.8315    11.9175   -39.5125     7.6609     0.0225     0.1138   100.3522     2.4921
  473.0000     9.8320    12.1705   -39.2339     7.6608     0.0254     0.1138   102.8995     2.4913
  473.5000     9.8556    12.2620   -38.9075     7.6606     0.0254     0.1150   104.5473     2.4906
  474.0000     9.9014    12.5185   -38.6815     7.6605     0.0254     0.1156   100.7974     2.4914
  474.5000    10.0493    12.6082   -38.6644     7.6603     0.0225     0.1147    95.0988     2.4921
  475.0000    10.1105    12.6985   -38.9054     7.6452     0.0195     0.1090    94.1978     2.4944
  475.5000    10.1111    12.7894   -38.9039     7.6301     0.0150     0.1099    94.2039     2.4974
  476.0000    10.2528    12.7920   -39.0528     7.6299     0.0150     0.1102    94.4945     2.4974
  476.5000    10.3965    12.8836   -39.0510     7.6298     0.0180     0.1096    98.9908     2.4982
  477.0000    10.4789    12.8862   -38.8996     7.6296     0.0210     0.1042   100.3387     2.5012
  477.5000    10.6901    12.8894   -38.8978     7.6295     0.0195     0.1030   102.1364     2.5019
  478.0000    10.7650    12.9817   -38.7464     7.6443     0.0162     0.1066    97.0075     2.5019
  478.5000    10.9918    12.9843   -38.5950     7.6442     0.0165     0.1108    90.7389     2.5012
  479.0000    11.0690    12.9869   -38.7435     7.6440     0.0165     0.1099    86.3896     2.4981
  479.5000    11.2241    13.0799   -38.8921     7.6439     0.0210     0.1180    84.4392     2.4907
  480.0000    11.3027    13.1736   -38.8906     7.6587     0.0254     0.1189    83.5382     2.4877
  480.5000    11.3033    13.3604   -38.7279     7.6585     0.0303     0.1087    95.9802     2.4922
  481.0000    11.3038    13.4566   -38.5877     7.6584     0.0359     0.1048   104.8244     2.4975
  481.5000    11.3044    13.4593   -38.5860     7.6582     0.0419     0.1039   106.1723     2.5021
  482.0000    11.3050    13.5557   -38.6147     7.6581     0.0464     0.1126   104.8215     2.5072
  482.5000    11.3055    13.5585   -38.8830     7.6579     0.0374     0.1195   100.6721     2.4810
  483.0000    11.3060    13.5611   -39.1664     7.6578     0.0328     0.1231    94.3236     2.4765
  483.5000    11.3066    13.5639   -39.5604     7.6576     0.0269     0.1270    92.3731     2.4727
  484.0000    11.2290    13.5673   -40.0780     7.6575     0.0180     0.1285    93.7210     2.4712
  484.5000    11.2296    13.4758   -40.5260     7.6573     0.0105     0.1227    94.7691     2.4787
  485.0000    11.2301    13.3851   -40.7496     7.6572     0.0090     0.1164    94.7673     2.4893
  485.5000    11.2307    13.3885   -41.0217     7.6570     0.0181     0.1116    95.0658     2.5005
  486.0000    11.3095    13.2985   -40.9714     7.6569     0.0389     0.1092    94.4646     2.5073
  486.5000    11.2317    13.1180   -41.1199     7.6567     0.0449     0.1089    91.3148     2.5096
  487.0000    11.0776    13.1207   -41.2009     7.6566     0.0449     0.1074    87.0906     2.5051
  487.5000    11.0016    13.0326   -41.6042     7.6564     0.0389     0.1086    83.9653     2.5036
  488.0000    10.9262    13.0355   -42.1949     7.6563     0.0344     0.1125    86.3626     2.4991
  488.5000    10.7762    12.9484   -42.6130     7.6561     0.0329     0.1113    94.1573     2.4946
  489.0000    10.7021    12.7725   -43.0614     7.6410     0.0284     0.1120    99.5532     2.4886
  489.5000    10.5553    12.6867   -43.7553     7.6259     0.0269     0.1224   101.5008     2.4863
  490.0000    10.4104    12.6017   -44.2579     7.6108     0.0254     0.1233   101.9491     2.4871
  490.5000    10.3390    12.4242   -44.8786     7.5957     0.0269     0.1185   103.2967     2.4916
  491.0000    10.1970    12.3471   -45.4540     7.5949     0.0329     0.1131   105.0944     2.4939
  491.5000    10.1270    12.1795   -46.0523     7.5654     0.0374     0.1075   105.5427     2.4991
  492.0000     9.9881    12.0141   -46.6505     7.5803     0.0494     0.1005   105.8412     2.5089
  492.5000     9.9195    11.9858   -47.0992     7.5801     0.0569     0.0981    96.3941     2.5179
  493.0000     9.8514    11.9364   -47.1124     7.5799     0.0629     0.1005    95.3432     2.5194
  493.5000     9.8519    12.0220   -43.6252     7.1951     0.0582     0.1059    95.7915     2.5141
  494.0000     9.8524    12.0250   -41.2471     6.9359     0.0494     0.1053    96.8596     2.5097
  494.5000     9.8530    12.0274   -40.0462     6.8909     0.0479     0.0975    98.3371     2.5074
  495.0000     9.8534    12.1132   -39.4453     6.8907     0.0479     0.0897    99.0853     2.5194
  495.5000  -999.2500  -999.2500  -999.2500     6.9055     0.0494     0.0861    99.5340     2.5397
  496.0000  -999.2500  -999.2500  -999.2500     6.9054     0.0492     0.0858    74.8814     2.5344
  496.5000  -999.2500  -999.2500  -999.2500     6.8903     0.0374     0.0861  -999.2500     2.5307
  497.0000  -999.2500  -999.2500  -999.2500     6.8751     0.0284     0.0864  -999.2500     2.5307
  497.5000  -999.2500  -999.2500  -999.2500     6.8451     0.0225     0.0852  -999.2500     2.5360
  498.0000  -999.2500  -999.2500  -999.2500     6.8299     0.0120     0.0885  -999.2500     2.5338
  498.5000  -999.2500  -999.2500  -999.2500     6.8448     0.0075     0.0924  -999.2500     2.5224
  499.0000  -999.2500  -999.2500  -999.2500     6.8596     0.0150     0.0894  -999.2500     2.5150
  499.5000  -999.2500  -999.2500  -999.2500     6.8744     0.0210     0.0878  -999.2500     2.5225
  500.0000  -999.2500  -999.2500  -999.2500     6.8743     0.0245     0.0878  -999.2500     2.5328
