~VERSION INFORMATION
 VERS.                2.0:   CWLS LOG ASCII STANDARD - VERSION 2.0
 WRAP.                 NO:   ONE LINE PER DEPTH STEP
~WELL INFORMATION
#MNEM.UNIT      DATA TYPE    INFORMATION
#----------   ------------   ------------------------------
 STRT.F           28.5000:   START DEPTH
 STOP.F          781.0000:   STOP DEPTH
 STEP.F            0.5000:   STEP LENGTH
 NULL.          -999.2500:   NO VALUE
 COMP. FENIX & SCISSON INC:   COMPANY
 WELL. NPR 3 23 SX 14 #23-14:   WELL
 FLD .        TEAPOT DOME:   FIELD
 LOC .      S14 T38N R78W:   LOCATION
 CNTY.            NATRONA:   COUNTY
 STAT.            WYOMING:   STATE
 CTRY. UNITED STATES OF AMERICA:   COUNTRY
 SRVC.            Unknown:   SERVICE COMPANY
 DATE.        13-MAY-1978:   LOGDATE
 API .       490251063400:   API NUMBER
~CURVE INFORMATION
#MNEM.UNIT       API CODE    CURVE DESCRIPTION
#----------   ------------   ------------------------------
 DEPT.F                  :   
 RHOB.G/C3   45 350 01 00:   BULK DENSITY
 DPHI.DEC    45 890 12 00:   DENSITY POROSITY SANDSTONE
 GRD .GAPI   45 310 01 00:   GAMMA RAY FROM DENSITY LOG
 CALD.IN     45 280 60 00:   CALIPER FROM DENSITY LOG
 CORR.G/C3   45 356 01 00:   DENSITY CORRECTION
 SN  .OHMM   05 040 16 00:   SHORT NORMAL 16"
 SPR .MV     05 010 01 00:   SPONTANEOUS POTENTIAL FROM RES.
 ILD .OHMM   05 120 46 00:   INDUCTION LOG DEEP
~PARAMETER INFORMATION
#MNEM.UNIT          VALUE    DESCRIPTION
#----------   ------------   ------------------------------
 PD  .                 GL:   PERMANENT DATUM
 EPD .F              5202:   ELEVATION PERMANENT DATUM
 LMF .                 KB:   LOG MEASURED FROM
 DMF .                 KB:   DRILLING MEASURED FROM
 EKB .F              5206:   KELLING BUSHING
 EGL .F              5202:   GROUND LEVEL
 DATE.          5-13-1978:   RUN DATE
 RUN .                  1:   RUN NUMBER
 DD  .F               785:   DEPTH DRILLER
 DL  .F               776:   DEPTH LOGGER
 BLI .F               770:   BOTTOM LOG INTERVAL
 TLI .F                50:   TOP LOG INTERVAL
 CS  .IN            8.625:   CASING SIZE
 CBD .F                40:   CASING BOTTOM DRILLER
 CBL .F                40:   CASING BOTTOM LOGGER
 BS  .IN            7.875:   BIT SIZE
 BSD .F               785:   BIT SIZE AT DEPTH
 DFT .                KCL:   DRILLING FLUID TYPE
 DFD .                8.6:   DRILLING FLUID DENSITY
 DFV .                 30:   DRILLING FLUID VISCOSITY
 DFPH.                 10:   DRILLING FLUID PH
 DFL .                 14:   DRILLING FLUID LOSS
 MSS .           FLOWLINE:   MUD SAMPLE SOURCE
 RMS .OHMM             .4:   RESISTIVITY MUD SAMPLE
 MST .F                69:   MUD SAMPLE TEMPERATURE
 RMF .OHMM            .36:   RESISTIVITY MUD FILTRATE SAMPLE
 MFST.F                72:   MUD FILTRATE SAMPLE TEMPERATURE
 RMC .OHMM            .56:   RESISTIVITY MUD CAKE
 MCST.F                73:   MUD CAKE SAMPLE TEMPERATURE
 MFSS.               MEAS:   MUD FILTRATE SAMPLE SOURCE
 RMB .OHMM            .35:   RESISTIVITY MUD AT BHT
 BHT .F                79:   BOTTOM HOLE TEMPERATURE
 TCS .HRS               2:   TIME CURCULATED STOPPED
 MRT .F                79:   MAXIMUM RECORDED TEMPERATURE
 LUN .               3006:   LOGGING UNIT NUMBER
 LUL .              CASP.:   LOGGING UNIT LOCATION
 ENGI.             MILLER:   RECORDING ENGINEER
 WITN.           MCGINLEY:   WITNESSED BY
 CLNT.            A2DTECH:   CLIENT CODE
 ORIG.           5" PRINT:   ORIGIN OF DATA
 UWI .       490251063400:   UNIQUE WELL ID
 DICO. A2D Technologies, Inc.:   DIGITIZING COMPANY
~OTHER INFORMATION
~A   DEPT     RHOB       DPHI         GRD      CALD       CORR         SN        SPR        ILD   
# ...
   69.0000     2.1906     0.2703    84.6727     7.5265     0.0672     2.6321   -66.2080     2.2455
   69.5000     2.2693     0.2362    82.7014     7.8216     0.0937     2.7505   -66.0285     2.3071
   70.0000     2.3590     0.1843    80.6943     8.1166     0.1165     2.8827   -65.8489     2.3698
   70.5000     2.3951     0.1455    78.7486     8.2081     0.0928     3.0213   -65.6692     2.4247
   71.0000     2.4123     0.1444    74.3427     8.1586     0.0691     3.3869   -65.4886     2.5938
   71.5000     2.4158     0.1429    69.4577     8.0534     0.0640     3.8588   -65.3135     3.0078
   72.0000     2.4158     0.1413    68.7713     7.9489     0.0635     4.3963   -65.3002     3.4858
   72.5000     2.4166     0.1399    69.1397     7.8442     0.0630     4.8632   -65.2943     3.9436
   73.0000     2.4173     0.1423    69.5512     7.7396     0.0626     4.9940   -65.2876     4.2133
   73.5000     2.4141     0.1456    69.5310     7.6350     0.0622     5.1283   -65.2807     4.3256
   74.0000     2.4091     0.1490    69.2653     7.5303     0.0609     5.2662   -65.2739     4.3229
   74.5000     2.4056     0.1493    68.9923     7.4259     0.0594     5.4078   -65.2670     4.3628
   75.0000     2.4073     0.1491    68.6907     7.3211     0.0580     5.6531   -65.2601     4.5373
   75.5000     2.4106     0.1432    69.8751     7.2467     0.0565     5.9388   -65.2533     4.7228
   76.0000     2.4182     0.1375    71.5247     7.1984     0.0526     6.2389   -65.2464     4.9159
   76.5000     2.4245     0.1379    72.9391     7.1508     0.0478     6.5542   -65.2395     5.1170
   77.0000     2.4244     0.1385    72.8973     7.1125     0.0429     6.7479   -65.2327     5.3262
   77.5000     2.4244     0.1391    72.3975     7.0743     0.0419     6.9262   -65.2258     5.5440
   78.0000     2.4243     0.1382    71.1428     7.0370     0.0417     7.1092   -65.2189     5.7707
   78.5000     2.4249     0.1373    69.8890     6.9826     0.0415     7.2315   -65.2121     6.0134
   79.0000     2.4256     0.1364    69.2774     6.9244     0.0413     7.2139   -65.2052     6.1361
   79.5000     2.4264     0.1355    69.8027     6.8022     0.0411     7.2009   -65.1983     6.1904
   80.0000     2.4272     0.1363    72.1606     6.6827     0.0409     7.1879   -65.1914     6.1640
   80.5000     2.4268     0.1373    73.6454     6.6253     0.0407     7.1749   -65.1846     6.1422
   81.0000     2.4265     0.1367    73.0336     6.6133     0.0405     7.1620   -65.1777     6.1206
   81.5000     2.4272     0.1324    71.7870     6.6717     0.0403     7.1491   -65.1708     6.0990
   82.0000     2.4262     0.1400    70.5231     6.7730     0.0401     7.1362   -65.1640     6.0774
   82.5000     2.4246     0.1361    70.2298     6.8703     0.0410     7.1233   -65.1571     6.0560
   83.0000     2.4258     0.1316    71.8222     7.0994     0.0433     7.1104   -65.1502     6.0346
   83.5000     2.4364     0.1271    73.2758     7.3428     0.0483     7.0976   -65.1433     6.0134
   84.0000     2.4470     0.1226    74.1191     7.5933     0.0533     7.0848   -65.1365     5.9921
   84.5000     2.4524     0.1203    73.5347     7.7260     0.0582     7.0720   -65.1296     5.9710
   85.0000     2.4565     0.1187    72.5336     7.7874     0.0632     7.0593   -65.1227     5.9499
   85.5000     2.4604     0.1174    72.2809     7.8182     0.0643     7.0465   -65.1154     5.9289
   86.0000     2.4589     0.1194    71.6411     7.8109     0.0597     7.0349   -65.1116     5.9080
   86.5000     2.4500     0.1284    70.9569     7.7647     0.0542     7.0348   -65.1633     5.8872
   87.0000     2.4386     0.1337    71.5881     7.7188     0.0488     7.0349   -65.2155     5.8664
   87.5000     2.4295     0.1370    73.7659     7.6727     0.0481     7.0348   -65.2674     5.8457
   88.0000     2.4275     0.1403    75.8778     7.5659     0.0481     7.0349   -65.3192     5.8251
   88.5000     2.4215     0.1436    77.2431     7.4004     0.0481     7.0356   -65.3710     5.8046
   89.0000     2.4152     0.1449    76.2366     7.2301     0.0499     7.0339   -65.4231     5.8004
   89.5000     2.4102     0.1451    74.7010     6.9688     0.0531     7.1278   -65.4747     5.8840
   90.0000     2.4115     0.1435    73.7516     6.6992     0.0563     7.2054   -65.5054     5.9675
   90.5000     2.4127     0.1419    73.2525     6.4315     0.0581     7.2839   -65.3783     6.0521
   91.0000     2.4123     0.1432    73.0903     6.2710     0.0581     7.3633   -65.0366     6.1380
   91.5000     2.4099     0.1460    72.9464     6.2570     0.0581     7.4437   -64.8838     6.2250
   92.0000     2.4065     0.1505    71.9873     6.2484     0.0581     7.5254   -64.8359     6.3133
   92.5000     2.4002     0.1549    70.9633     6.3029     0.0581     7.6413   -64.7907     6.4029
   93.0000     2.3941     0.1595    69.9294     6.4018     0.0589     7.5714   -64.7443     6.4765
   93.5000     2.3936     0.1595    69.5139     6.5517     0.0686     7.5714   -64.6646     6.3963
   94.0000     2.4141     0.1428    69.9489     6.7150     0.0830     7.5356   -64.4671     6.2970
   94.5000     2.4342     0.1306    71.1056     6.9448     0.0924     7.4785   -64.2767     6.1992
   95.0000     2.4456     0.1291    71.4936     7.1230     0.0844     7.4218   -64.0975     6.1029
   95.5000     2.4410     0.1309    71.5128     7.2398     0.0805     7.3655   -64.6949     6.0082
   96.0000     2.4353     0.1357    72.1050     7.3568     0.0765     7.3097   -65.4695     5.9080
   96.5000     2.4268     0.1400    73.3251     7.4730     0.0726     7.2543   -66.1502     5.9687
   97.0000     2.4190     0.1407    74.5315     7.5816     0.0686     7.2003   -66.3178     6.0350
   97.5000     2.4177     0.1564    75.3705     7.6717     0.0619     7.0591   -66.4960     6.1021
   98.0000     2.4058     0.1721    73.0841     7.7627     0.0502     6.7883   -66.6755     6.1292
   98.5000     2.3758     0.1878    69.1051     7.8481     0.0386     6.5363   -66.8551     5.6876
   99.0000     2.3460     0.2029    64.9499     7.8506     0.0270     6.0531   -67.0347     5.1505
   99.5000     2.3124     0.2309    61.7445     7.8501     0.0153     5.6194   -67.2145     4.4747
  100.0000     2.2658     0.2578    61.6301     7.8500     0.0176     4.8413   -67.3945     3.8832
  100.5000     2.2198     0.2845    63.9815     7.8501     0.0219     4.0301   -67.5714     3.3706
  101.0000     2.1738     0.3130    68.0177     7.8331     0.0306     3.3926   -67.6561     2.9258
  101.5000     2.1268     0.3186    75.8000     7.8013     0.0400     3.0782   -67.5287     2.5397
  102.0000     2.0984     0.3449    83.7009     7.7694     0.0448     2.7907   -67.1882     2.2045
  102.5000     2.0691     0.3530    86.8532     7.7375     0.0463     2.6890   -66.7839     1.9083
  103.0000     2.0614     0.3555    85.6782     7.7055     0.0476     2.6558   -66.3794     1.8908
  103.5000     2.0589     0.3565    84.4750     7.6737     0.0489     2.6964   -65.9839     2.1031
  104.0000     2.0563     0.3579    82.6005     7.6489     0.0518     2.7821   -65.3232     2.3573
  104.5000     2.0515     0.3036    79.4021     7.6676     0.0654     3.1120   -64.6251     2.2932
  105.0000     2.0476     0.2263    76.2368     7.6882     0.1397     3.4763   -64.0856     3.0633
  105.5000     2.3021     0.1541    70.7658     7.7096     0.1650     4.0201   -64.0127     3.6563
  106.0000     2.3664     0.1423    65.5356     7.6272     0.0701     5.1108   -63.9332     4.3649
  106.5000     2.4173     0.1425    61.6084     7.4305     0.0367     6.4973   -63.8537     5.2107
  107.0000     2.4173     0.1428    60.7729     7.3550     0.0360     7.6697   -63.7738     6.2205
  107.5000     2.4174     0.1425    60.1584     7.3086     0.0360     8.4447   -63.6939     7.4259
  108.0000     2.4187     0.1387    59.5635     7.2634     0.0361     9.2981   -63.6136     9.2675
  108.5000     2.4224     0.1399    58.9658     7.2210     0.0332     9.9744   -63.5304     9.1827
  109.0000     2.4188     0.1430    58.3652     7.0610     0.0285    10.0664   -63.5008     9.2675
