~VERSION INFORMATION
 VERS.                2.0:   CWLS LOG ASCII STANDARD - VERSION 2.0
 WRAP.                 NO:   ONE LINE PER DEPTH STEP
~WELL INFORMATION
#MNEM.UNIT      DATA TYPE    INFORMATION
#----------   ------------   ------------------------------
 STRT.F           94.0000:   START DEPTH
 STOP.F          939.0000:   STOP DEPTH
 STEP.F            0.5000:   STEP LENGTH
 NULL.          -999.2500:   NO VALUE
 COMP. U S NAVY/INTEX OIL CO:   COMPANY
 WELL.    NPR #3 #88-S-27:   WELL
 FLD .             TEAPOT:   FIELD
 LOC .      S27 T39N R78W:   LOCATION
 CNTY.            NATRONA:   COUNTY
 STAT.            WYOMING:   STATE
 CTRY. UNITED STATES OF AMERICA:   COUNTRY
 SRVC.       Schlumberger:   SERVICE COMPANY
 DATE.        30-JUL-1963:   LOGDATE
 API .       490250658100:   API NUMBER
~CURVE INFORMATION
#MNEM.UNIT       API CODE    CURVE DESCRIPTION
#----------   ------------   ------------------------------
 DEPT.F                  :   
 SPR .MV     05 010 01 00:   SPONTANEOUS POTENTIAL FROM RES.
 CILD.MMHO   05 110 46 00:   CONDUCTIVITY INDUCTION LOG DEEP
 ASN .OHMM   05 041 16 00:   AMPLIFIED SHORT NORMAL 16"
 ILD .OHMM   05 120 46 00:   INDUCTION LOG DEEP
 GR  .GAPI   30 310 01 00:   GAMMA RAY
~PARAMETER INFORMATION
#MNEM.UNIT          VALUE    DESCRIPTION
#----------   ------------   ------------------------------
 PD  .                 GL:   PERMANENT DATUM
 EPD .F              5069:   ELEVATION PERMANENT DATUM
 LMF .                 KB:   LOG MEASURED FROM
 DAPD.F                 5:   FEET ABOVE PERMANENT DATUM
 DMF .                 KB:   DRILLING MEASURED FROM
 EKB .F              5074:   KELLING BUSHING
 EGL .F              5069:   GROUND LEVEL
 DATE.          7-30-1969:   RUN DATE
 RUN .                  1:   RUN NUMBER
 DD  .F               940:   DEPTH DRILLER
 DL  .F               940:   DEPTH LOGGER
 BLI .F               939:   BOTTOM LOG INTERVAL
 TLI .F                94:   TOP LOG INTERVAL
 CS  .IN            8.625:   CASING SIZE
 CBD .F                10:   CASING BOTTOM DRILLER
 BS  .IN             6.75:   BIT SIZE
 BSD .F               940:   BIT SIZE AT DEPTH
 DFT .            GEL/OIL:   DRILLING FLUID TYPE
 DFD .                9.6:   DRILLING FLUID DENSITY
 DFV .                 40:   DRILLING FLUID VISCOSITY
 DFPH.                  9:   DRILLING FLUID PH
 DFL .                  6:   DRILLING FLUID LOSS
 MSS .          FLOW LINE:   MUD SAMPLE SOURCE
 RMS .OHMM           2.94:   RESISTIVITY MUD SAMPLE
 MST .F                89:   MUD SAMPLE TEMPERATURE
 RMF .OHMM           2.19:   RESISTIVITY MUD FILTRATE SAMPLE
 MFST.F                87:   MUD FILTRATE SAMPLE TEMPERATURE
 MFSS.           MEASURED:   MUD FILTRATE SAMPLE SOURCE
 TCS .HRS               1:   TIME CURCULATED STOPPED
 LUN .               4507:   LOGGING UNIT NUMBER
 LUL .               CSPR:   LOGGING UNIT LOCATION
 ENGI.            WINKLER:   RECORDING ENGINEER
 WITN.          JORGENSEN:   WITNESSED BY
 CLNT.            A2DTECH:   CLIENT CODE
 ORIG.           5" PRINT:   ORIGIN OF DATA
 UWI .       490250658100:   UNIQUE WELL ID
 DICO. A2D Technologies, Inc.:   DIGITIZING COMPANY
~OTHER INFORMATION
~A   DEPT      SPR        CILD         ASN        ILD       GR   
# ...
  704.0000   -35.1639   144.7798     8.0534     7.1201    63.5525
  704.5000   -35.4678   142.6879     8.1499     7.1938    64.8807
  705.0000   -35.7712   140.5961     8.2543     7.2346    66.0008
  705.5000   -36.0758   138.5043     8.3938     7.2766    64.5965
  706.0000   -36.3945   137.1859     8.5341     7.3188    59.6122
  706.5000   -36.0530   137.1859     8.6756     7.3609    60.7253
  707.0000   -35.5401   136.8643     8.7327     7.4031    64.2068
  707.5000   -35.4849   136.0218     8.7337     7.4454    67.4263
  708.0000   -35.7439   135.1792     8.7340     7.4861    67.4465
  708.5000   -35.6503   134.3367     8.7328     7.4877    60.6627
  709.0000   -35.3389   134.0845     8.8051     7.4875    60.0183
  709.5000   -35.0278   133.9769     8.8756     7.4874    59.1678
  710.0000   -34.9946   133.8694     8.9023     7.4876    56.5787
  710.5000   -35.3822   133.7618     8.9588     7.4950    58.1996
  711.0000   -35.4418   133.6542     8.8562     7.5132    56.8933
  711.5000   -35.4429   133.5467     8.7363     7.5312    58.8286
  712.0000   -35.4409   133.4391     8.6985     7.5493    52.4868
  712.5000   -35.4486   133.3300     8.5310     7.5674    50.3988
  713.0000   -35.0117   133.2013     8.3409     7.5845    50.3285
  713.5000   -34.3635   134.4290     8.2354     7.5337    54.7093
  714.0000   -33.6933   137.1386     8.1229     7.4147    57.4825
  714.5000   -34.5091   139.8083     7.9152     7.2984    56.2577
  715.0000   -35.5322   144.6164     7.7146     7.1657    62.0350
  715.5000   -35.8266   149.6784     7.5109     6.7214    68.3494
  716.0000   -35.5717   157.2175     7.1358     6.2853    71.6192
  716.5000   -35.4346   169.6393     6.7709     5.8508    63.3432
  717.0000   -35.7011   190.8319     6.4081     5.3958    61.6344
  717.5000   -35.9895   218.5925     6.0360     4.7187    60.9761
  718.0000   -36.2531   252.1872     5.5396     3.9929    62.4051
  718.5000   -36.2469   291.2553     4.9806     3.2418    60.8930
  719.0000   -36.2056   343.4280     4.4301     2.8712    61.8122
  719.5000   -35.8901   392.6844     4.0545     2.5987    60.7642
  720.0000   -35.5713   424.5327     3.6562     2.3222    63.6374
  720.5000   -35.2549   454.5100     3.4993     2.2147    53.5578
  721.0000   -35.2390   471.1299     3.4049     2.1587    51.0536
  721.5000   -35.2117   483.9196     3.3127     2.1601    50.3649
  722.0000   -35.0154   490.9548     3.2195     2.1588    57.1401
  722.5000   -34.8194   460.8040     3.1229     2.1686    61.3618
  723.0000   -34.6238   416.1729     3.0942     2.5001    60.6560
  723.5000   -34.4280   370.1716     3.5781     2.8530    62.0739
  724.0000   -34.2304   324.0875     4.1957     3.2051    58.6958
  724.5000   -34.0330   277.9501     4.3161     3.5585    65.1119
  725.0000   -34.4062   248.8066     4.6132     4.0103    66.1560
  725.5000   -34.8716   219.6627     5.3737     4.6246    61.6167
  726.0000   -35.2834   194.7933     5.9428     5.2357    56.4911
  726.5000   -35.4575   176.3819     6.2920     5.8523    63.8556
  727.0000   -35.6359   168.4294     6.4857     6.1479    59.4974
  727.5000   -35.8145   160.6167     6.5835     6.2643    61.6816
  728.0000   -35.8504   159.3072     6.6480     6.2819    64.3452
  728.5000   -35.3824   160.8910     6.6836     6.2817    63.0075
  729.0000   -34.6749   162.4625     6.6761     6.2814    58.5640
  729.5000   -33.9641   163.3166     6.6428     6.2815    62.3518
  730.0000   -33.4214   163.8973     6.7056     6.2808    63.7972
  730.5000   -33.4286   166.1440     6.7988     6.2854    59.6362
  731.0000   -33.5784   170.7715     6.8934     6.0482    57.9899
  731.5000   -33.7473   178.1347     6.8634     5.7085    59.6641
  732.0000   -33.8427   189.5513     6.8509     5.3645    62.1861
  732.5000   -34.2177   203.2663     6.6317     5.0199    60.5398
  733.0000   -35.0149   215.5779     6.4018     4.6747    71.4514
  733.5000   -35.3100   226.4125     5.8893     4.4371    77.5344
  734.0000   -35.4179   236.3033     5.4924     4.2456    79.7159
  734.5000   -35.4418   246.1940     5.4543     4.0538    72.8512
  735.0000   -35.4428   256.0848     5.2964     3.8601    62.0952
  735.5000   -35.4460   260.8040     4.9889     3.7691    57.5324
  736.0000   -35.4313   254.7848     5.0076     3.7722    52.8692
  736.5000   -34.6693   246.5126     5.2750     4.0189    58.9592
  737.0000   -33.8366   235.9513     5.4582     4.2897    63.8893
  737.5000   -33.0004   223.4568     5.4786     4.5673    65.7213
  738.0000   -32.6308   210.9591     5.6351     4.8935    70.9542
  738.5000   -33.4070   198.3811     6.1018     5.2300    68.5901
  739.0000   -34.7840   187.3576     6.4697     5.5671    68.1237
  739.5000   -36.1709   176.6474     6.7867     5.9044    65.3995
  740.0000   -37.5705   165.9975     7.1188     6.2424    65.8095
  740.5000   -38.0647   156.1440     7.4521     6.5766    69.2965
  741.0000   -38.0521   149.9654     7.7052     6.7625    65.2621
  741.5000   -38.2529   145.1200     7.8655     6.9418    69.9163
  742.0000   -38.2645   142.3116     7.9552     7.0894    72.5117
  742.5000   -37.1742   141.2060     7.9896     7.0888    66.8896
  743.0000   -36.1054   143.9397     7.9898     6.9737    69.4049
  743.5000   -35.0269   147.3049     7.9914     6.8361    64.4876
  744.0000   -34.6705   150.6765     7.8854     6.6979    64.5887
  744.5000   -35.2217   154.0280     7.7214     6.5594    73.4733
  745.0000   -35.1603   157.2864     7.5559     6.4083    69.9285
  745.5000   -34.7712   163.2936     7.3903     6.2422    73.5201
  746.0000   -34.9394   171.3333     7.2252     5.9261    78.7702
  746.5000   -36.3497   183.2864     7.0613     5.5403    80.4698
  747.0000   -37.7210   198.4523     6.8908     5.1511    81.5975
  747.5000   -38.4647   213.6181     6.5325     4.7622    77.9619
  748.0000   -38.7958   227.9353     6.1787     4.3738    79.3249
  748.5000   -39.4537   240.3781     5.8266     4.1697    66.8489
  749.0000   -39.4609   239.8435     5.4762     4.1690    68.3869
  749.5000   -39.4586   236.1801     5.3021     4.1840    65.1964
  750.0000   -39.4611   229.3467     5.5417     4.4449    68.3278
  750.5000   -39.2888   222.2693     5.6815     4.6997    70.0161
  751.0000   -39.0498   214.5729     5.6774     4.9523    69.0623
  751.5000   -38.8102   200.0053     6.1390     5.2352    70.1852
  752.0000   -38.5695   184.0413     6.9029     5.6773    71.5530
  752.5000   -38.4567   168.0772     7.3071     6.1261    70.7428
  753.0000   -38.4515   153.5921     7.4531     6.5777    76.4278
  753.5000   -38.2632   149.8654     7.5840     6.8350    81.9767
  754.0000   -37.6516   145.9800     7.7165     6.9396    85.9230
  754.5000   -37.0468   144.2211     7.8486     7.0409    84.1981
  755.0000   -36.4418   144.2211     7.9604     7.1416    80.1482
  755.5000   -35.8365   144.2211     8.0769     7.2430    77.4454
  756.0000   -35.2314   142.3216     8.1963     7.3220    78.1654
  756.5000   -34.6328   140.3557     8.3016     7.3857    75.4488
  757.0000   -34.2310   138.3897     8.3805     7.4481    74.8717
  757.5000   -34.2376   137.1859     8.4604     7.4712    69.4855
  758.0000   -34.2378   137.1859     8.5140     7.4263    70.2875
  758.5000   -34.1094   138.3848     8.5509     7.3825    66.8335
  759.0000   -33.8859   139.5884     8.5728     7.3384    71.4131
  759.5000   -33.6611   140.7921     8.5486     7.2938    74.7325
  760.0000   -33.4405   141.9957     8.4885     7.2864    71.7313
  760.5000   -33.6013   142.2111     8.4287     7.2865    69.8630
  761.0000   -33.8401   142.2111     8.3687     7.2865    72.0282
  761.5000   -33.8320   141.2060     8.3128     7.2849    69.8563
  762.0000   -33.8558   141.1564     8.3114     7.1964    68.4600
  762.5000   -34.5002   145.4907     8.3124     6.9892    73.3951
  763.0000   -35.0562   150.5257     8.3066     6.7837    75.5503
  763.5000   -35.2590   155.5879     8.1863     6.5774    76.2443
  764.0000   -35.8056   160.6432     8.0570     6.3709    73.9258
  764.5000   -36.3531   165.6985     7.7303     6.1826    82.3943
