~VERSION INFORMATION
 VERS.                2.0:   CWLS LOG ASCII STANDARD - VERSION 2.0
 WRAP.                 NO:   ONE LINE PER DEPTH STEP
~WELL INFORMATION
#MNEM.UNIT      DATA TYPE    INFORMATION
#----------   ------------   ------------------------------
 STRT.F            6.0000:   START DEPTH
 STOP.F         1351.5000:   STOP DEPTH
 STEP.F            0.5000:   STEP LENGTH
 NULL.          -999.2500:   NO VALUE
 COMP. BROWN JOHN E&C INC:   COMPANY
 WELL. NAVAL PETROLEUM RESERVE 3 STX- #71-10:   WELL
 FLD .             TEAPOT:   FIELD
 LOC .      S10 T38N R78W:   LOCATION
 CNTY.            NATRONA:   COUNTY
 STAT.            WYOMING:   STATE
 CTRY. UNITED STATES OF AMERICA:   COUNTRY
 SRVC.           BIRDWELL:   SERVICE COMPANY
 DATE.        02-MAR-1978:   LOGDATE
 API .       490251058900:   API NUMBER
~CURVE INFORMATION
#MNEM.UNIT       API CODE    CURVE DESCRIPTION
#----------   ------------   ------------------------------
 DEPT.F                  :   
 GRD .GAPI   45 310 01 00:   GAMMA RAY FROM DENSITY LOG
 CALD.IN     45 280 60 00:   CALIPER
 RHOB.G/C3   45 350 01 00:   BULK DENSITY
 DPOR.DEC    45 890 12 00:   DENSITY POROSITY SANDSTONE
 CORR.G/C3   45 356 01 00:   DENSITY CORRECTION
~PARAMETER INFORMATION
#MNEM.UNIT          VALUE    DESCRIPTION
#----------   ------------   ------------------------------
 PD  .                 GL:   PERMANENT DATUM
 EPD .F              5162:   ELEVATION PERMANENT DATUM
 LMF .                 KB:   LOG MEASURED FROM
 DAPD.F                10:   FEET ABOVE PERMANENT DATUM
 DMF .                 KB:   DRILLING MEASURED FROM
 EKB .F              5172:   KELLING BUSHING
 EGL .F              5162:   GROUND LEVEL
 DATE.           3-2-1978:   RUN DATE
 RUN .                  1:   RUN NUMBER
 DD  .F              1357:   DEPTH DRILLER
 DL  .F              1352:   DEPTH LOGGER
 BLI .F              1350:   BOTTOM LOG INTERVAL
 TLI .F                20:   TOP LOG INTERVAL
 CS  .IN                7:   CASING SIZE
 CBD .F              1140:   CASING BOTTOM DRILLER
 CBL .F              1140:   CASING BOTTOM LOGGER
 BS  .IN             6.25:   BIT SIZE
 BSD .F              1357:   BIT SIZE AT DEPTH
 DFT .           AIR MIST:   DRILLING FLUID TYPE
 TCS .HRS              12:   TIME CURCULATED STOPPED
 MRT .F                75:   MAXIMUM RECORDED TEMPERATURE
 LUN .               2958:   LOGGING UNIT NUMBER
 LUL .               CASP:   LOGGING UNIT LOCATION
 ENGI.             MILLER:   RECORDING ENGINEER
 WITN.           MCGINLEY:   WITNESSED BY
 CLNT.            A2DTECH:   CLIENT CODE
 ORIG.       2", 5" PRINT:   ORIGIN OF DATA
 UWI .       490251058900:   UNIQUE WELL ID
 DICO. A2D Technologies, Inc.:   DIGITIZING COMPANY
~OTHER INFORMATION
~A    DEPT      GRD      CALD       RHOB       DPOR       CORR   
# ...
 1226.0000   104.1385     6.3096     2.5375     0.0576     0.0542
 1226.5000    99.7715     6.3099     2.5461     0.0598     0.0537
 1227.0000    95.2811     6.3100     2.5480     0.0612     0.0496
 1227.5000    93.2471     6.3100     2.5446     0.0650     0.0425
 1228.0000   101.9857     6.3100     2.5405     0.0722     0.0388
 1228.5000   104.7852     6.3100     2.5217     0.0738     0.0376
 1229.0000   105.2421     6.3100     2.5218     0.0712     0.0408
 1229.5000   105.6760     6.3100     2.5273     0.0733     0.0441
 1230.0000   106.1090     6.3100     2.5217     0.0717     0.0475
 1230.5000   105.1875     6.3100     2.5249     0.0640     0.0486
 1231.0000   104.4971     6.3100     2.5339     0.0624     0.0465
 1231.5000   103.9904     6.3100     2.5398     0.0640     0.0444
 1232.0000   103.1101     6.3100     2.5377     0.0700     0.0423
 1232.5000   103.4443     6.3100     2.5336     0.0643     0.0402
 1233.0000   102.8240     6.3100     2.5354     0.0564     0.0381
 1233.5000   101.9422     6.3100     2.5442     0.0611     0.0377
 1234.0000   102.3716     6.3100     2.5490     0.0662     0.0380
 1234.5000   103.5205     6.3100     2.5357     0.0718     0.0383
 1235.0000   104.6598     6.3100     2.5284     0.0691     0.0387
 1235.5000   106.8712     6.3100     2.5244     0.0728     0.0390
 1236.0000   109.3501     6.3100     2.5269     0.0679     0.0393
 1236.5000   107.2348     6.3100     2.5261     0.0612     0.0361
 1237.0000   105.4127     6.3100     2.5342     0.0734     0.0316
 1237.5000   108.0075     6.3100     2.5374     0.0876     0.0336
 1238.0000   109.3278     6.3100     2.5101     0.0777     0.0397
 1238.5000   104.4452     6.3100     2.5161     0.0696     0.0460
 1239.0000   103.4796     6.3100     2.5237     0.0662     0.0523
 1239.5000   104.3094     6.3100     2.5304     0.0656     0.0586
 1240.0000   105.1990     6.3103     2.5358     0.0607     0.0595
 1240.5000   106.9245     6.3112     2.5413     0.0549     0.0595
 1241.0000   112.3925     6.3121     2.5491     0.0512     0.0581
 1241.5000   112.9666     6.3130     2.5560     0.0583     0.0510
 1242.0000   111.0200     6.3139     2.5559     0.0679     0.0392
 1242.5000   108.0670     6.3147     2.5407     0.0746     0.0414
 1243.0000   106.9115     6.3156     2.5237     0.0758     0.0493
 1243.5000   106.0083     6.3165     2.5205     0.0711     0.0577
 1244.0000   102.9960     6.3174     2.5221     0.0516     0.0586
 1244.5000   102.8973     6.3183     2.5435     0.0581     0.0436
 1245.0000   104.4023     6.3191     2.5593     0.0606     0.0361
 1245.5000   106.9343     6.3200     2.5461     0.0612     0.0335
 1246.0000   110.0803     6.3209     2.5395     0.0619     0.0320
 1246.5000   108.5881     6.3218     2.5380     0.0651     0.0355
 1247.0000   107.3897     6.3227     2.5361     0.0672     0.0389
 1247.5000   110.6605     6.3236     2.5339     0.0689     0.0423
 1248.0000   111.9499     6.3245     2.5318     0.0674     0.0427
 1248.5000   108.5161     6.3253     2.5317     0.0608     0.0414
 1249.0000   108.0238     6.3262     2.5399     0.0658     0.0489
 1249.5000   107.9517     6.3271     2.5371     0.0676     0.0521
 1250.0000   108.6554     6.3280     2.5354     0.0568     0.0464
 1250.5000   110.2257     6.3289     2.5433     0.0671     0.0414
 1251.0000   110.0102     6.3298     2.5374     0.0661     0.0421
 1251.5000   109.8364     6.3304     2.5323     0.0704     0.0427
 1252.0000   116.5701     6.3309     2.5283     0.0731     0.0432
 1252.5000   113.3454     6.3314     2.5246     0.0739     0.0459
 1253.0000   107.1456     6.3319     2.5231     0.0658     0.0436
 1253.5000   104.7792     6.3324     2.5342     0.0604     0.0364
 1254.0000   104.8740     6.3330     2.5389     0.0724     0.0314
 1254.5000   106.1757     6.3335     2.5223     0.0820     0.0335
 1255.0000   107.4388     6.3340     2.5159     0.0815     0.0373
 1255.5000   107.5320     6.3345     2.5094     0.0759     0.0375
 1256.0000   108.0546     6.3351     2.5157     0.0727     0.0391
 1256.5000   110.5790     6.3356     2.5161     0.0796     0.0421
 1257.0000   113.7633     6.3361     2.5172     0.0806     0.0442
 1257.5000   114.6920     6.3366     2.5181     0.0810     0.0458
 1258.0000   112.2451     6.3371     2.5108     0.0836     0.0481
 1258.5000   105.6130     6.3376     2.5108     0.0878     0.0522
 1259.0000   103.8823     6.3382     2.5032     0.0892     0.0595
 1259.5000   105.5636     6.3387     2.4960     0.0812     0.0614
 1260.0000   108.3488     6.3392     2.4982     0.0752     0.0347
 1260.5000   104.5450     6.3397     2.4999     0.0925     0.0287
 1261.0000   103.5522     6.3403     2.4983     0.0964     0.0310
 1261.5000   106.0635     6.3408     2.4972     0.0826     0.0331
 1262.0000   107.8762     6.3413     2.5066     0.0806     0.0352
 1262.5000   106.2947     6.3418     2.5163     0.0747     0.0372
 1263.0000   106.1380     6.3423     2.5241     0.0732     0.0393
 1263.5000   107.3728     6.3429     2.5219     0.0746     0.0413
 1264.0000   109.7624     6.3434     2.5198     0.0742     0.0434
 1264.5000   111.8533     6.3439     2.5216     0.0692     0.0454
 1265.0000   108.8002     6.3444     2.5256     0.0729     0.0476
 1265.5000   113.6330     6.3449     2.5262     0.0768     0.0548
 1266.0000   116.1699     6.3454     2.5165     0.0737     0.0619
 1266.5000   110.7479     6.3460     2.5193     0.0710     0.0655
 1267.0000   111.2189     6.3465     2.5273     0.0693     0.0551
 1267.5000   111.5529     6.3470     2.5299     0.0820     0.0471
 1268.0000   108.2117     6.3475     2.5117     0.0874     0.0463
 1268.5000   107.8216     6.3481     2.4967     0.0794     0.0456
 1269.0000   107.9903     6.3486     2.4979     0.0901     0.0487
 1269.5000   107.8033     6.3491     2.4955     0.0916     0.0636
 1270.0000   106.4186     6.3496     2.4897     0.0881     0.0815
 1270.5000   105.0764     6.3502     2.4951     0.0848     0.0877
 1271.0000   104.0432     6.3556     2.5040     0.0880     0.0650
 1271.5000   104.8583     6.3609     2.5082     0.0947     0.0600
 1272.0000   108.6687     6.3662     2.4891     0.0956     0.0701
 1272.5000   108.1347     6.3715     2.4813     0.0933     0.0764
 1273.0000   107.4437     6.3768     2.4845     0.0929     0.0648
 1273.5000   106.7596     6.3822     2.4873     0.0951     0.0320
 1274.0000   107.4033     6.3878     2.4841     0.1008     0.0351
 1274.5000   107.9963     6.3859     2.4823     0.0869     0.0448
 1275.0000   106.3918     6.3408     2.4902     0.0768     0.0342
 1275.5000   106.3085     6.3065     2.5096     0.0928     0.0373
 1276.0000   108.1835     6.2899     2.4958     0.0869     0.0416
 1276.5000   109.4888     6.2888     2.5007     0.0798     0.0454
 1277.0000   106.6177     6.2880     2.5099     0.0720     0.0438
 1277.5000   107.1871     6.2873     2.5241     0.0760     0.0459
 1278.0000   109.0943     6.2865     2.5158     0.0807     0.0492
 1278.5000   105.3481     6.2857     2.5111     0.0801     0.0464
 1279.0000   104.3774     6.2849     2.5110     0.0800     0.0437
 1279.5000   104.1449     6.2842     2.5087     0.0824     0.0459
 1280.0000   104.4934     6.2834     2.5058     0.0790     0.0460
 1280.5000   103.5002     6.2826     2.5129     0.0785     0.0413
 1281.0000   102.3068     6.2818     2.5157     0.0815     0.0376
 1281.5000   104.9992     6.2811     2.5138     0.0831     0.0395
 1282.0000   106.8427     6.2803     2.5025     0.0828     0.0414
 1282.5000   105.6742     6.2795     2.5032     0.0852     0.0432
 1283.0000   106.0194     6.2787     2.5041     0.0848     0.0452
 1283.5000   106.3590     6.2780     2.4983     0.0793     0.0427
 1284.0000   106.1202     6.2772     2.5022     0.0848     0.0259
 1284.5000   105.5987     6.2764     2.5122     0.0869     0.0175
 1285.0000   106.2720     6.2757     2.4988     0.0797     0.0251
 1285.5000   106.8790     6.2749     2.4958     0.0713     0.0282
 1286.0000   105.5101     6.2741     2.5265     0.0664     0.0200
 1286.5000   106.1404     6.2733     2.5316     0.0754     0.0282
