~VERSION INFORMATION
 VERS.                2.0:   CWLS LOG ASCII STANDARD - VERSION 2.0
 WRAP.                 NO:   ONE LINE PER DEPTH STEP
~WELL INFORMATION
#MNEM.UNIT      DATA TYPE    INFORMATION
#----------   ------------   ------------------------------
 STRT.F           50.0000:   START DEPTH
 STOP.F         1561.5000:   STOP DEPTH
 STEP.F            0.5000:   STEP LENGTH
 NULL.          -999.2500:   NO VALUE
 COMP. FENIX & SCISSON INC:   COMPANY
 WELL.  72 SH 3 STX #72-3:   WELL
 FLD .             TEAPOT:   FIELD
 LOC .       S3 T38N R78W:   LOCATION
 CNTY.            NATRONA:   COUNTY
 STAT.            WYOMING:   STATE
 CTRY. UNITED STATES OF AMERICA:   COUNTRY
 SRVC.           BIRDWELL:   SERVICE COMPANY
 DATE.        31-JUL-1979:   LOGDATE
 API .       490251078600:   API NUMBER
~CURVE INFORMATION
#MNEM.UNIT       API CODE    CURVE DESCRIPTION
#----------   ------------   ------------------------------
 DEPT.F                  :   
 CALD.IN     45 280 60 00:   CALIPER FROM DENSITY LOG
 GRD .GAPI   45 310 01 00:   GAMMA RAY FROM DENSITY LOG
 RHOB.G/C3   45 350 01 00:   BULK DENSITY
 CORR.G/C3   45 356 01 00:   DENSITY CORRECTION
 DPHI.DEC    45 890 12 00:   DENSITY POROSITY SANDSTONE
 GR  .GAPI   81 310 01 00:   GAMMA RAY
~PARAMETER INFORMATION
#MNEM.UNIT          VALUE    DESCRIPTION
#----------   ------------   ------------------------------
 PD  .                 GL:   PERMANENT DATUM
 EPD .F              5165:   ELEVATION PERMANENT DATUM
 LMF .                 KB:   LOG MEASURED FROM
 DAPD.F                10:   FEET ABOVE PERMANENT DATUM
 DMF .                 KB:   DRILLING MEASURED FROM
 EKB .F              5175:   KELLING BUSHING
 EGL .F              5165:   GROUND LEVEL
 DATE.            7-31-79:   RUN DATE
 RUN .                  1:   RUN NUMBER
 DD  .F              1564:   DEPTH DRILLER
 DL  .F              1560:   DEPTH LOGGER
 BLI .F              1560:   BOTTOM LOG INTERVAL
 TLI .F               700:   TOP LOG INTERVAL
 CS  .IN            9.625:   CASING SIZE
 CBD .F               691:   CASING BOTTOM DRILLER
 CBL .F               680:   CASING BOTTOM LOGGER
 BS  .IN            7.875:   BIT SIZE
 BSD .F              1564:   BIT SIZE AT DEPTH
 DFT .                OIL:   DRILLING FLUID TYPE
 BHT .F                92:   BOTTOM HOLE TEMPERATURE
 TCS .HRS               2:   TIME CURCULATED STOPPED
 MRT .F                92:   MAXIMUM RECORDED TEMPERATURE
 LUN .               3029:   LOGGING UNIT NUMBER
 LUL .                CPR:   LOGGING UNIT LOCATION
 ENGI.             MILLER:   RECORDING ENGINEER
 WITN.           DINSMORE:   WITNESSED BY
 CLNT.            A2DTECH:   CLIENT CODE
 ORIG.       2", 5" PRINT:   ORIGIN OF DATA
 UWI .       490251078600:   UNIQUE WELL ID
 DICO. A2D Technologies, Inc.:   DIGITIZING COMPANY
~OTHER INFORMATION
~A   DEPT     CALD        GRD       RHOB       CORR       DPHI          GR  
# ...
 1402.0000     8.8033    93.3538     2.5251    -0.0011     0.0124    89.4122
 1402.5000     8.8026    91.3006     2.5344    -0.0084     0.0064    87.0371
 1403.0000     8.8019    92.7294     2.5351    -0.0019     0.0054    88.6183
 1403.5000     8.8012    95.1018     2.5306     0.0047     0.0086    91.1171
 1404.0000     8.8005    96.1985     2.5297     0.0038     0.0076    93.4454
 1404.5000     8.7998    92.7067     2.5370     0.0015     0.0050    93.7250
 1405.0000     8.7991    89.4790     2.5379    -0.0009     0.0050    93.4427
 1405.5000     8.7984    88.8691     2.5371     0.0012     0.0050    92.1822
 1406.0000     8.7975    92.4111     2.5391     0.0063     0.0037    90.9400
 1406.5000     8.7905    94.6999     2.5470     0.0120     0.0019    90.2889
 1407.0000     8.7829    93.6395     2.5536     0.0178     0.0001    90.3189
 1407.5000     8.7753    92.6390     2.5500     0.0190    -0.0014    90.9970
 1408.0000     8.7678    91.6793     2.5513     0.0189    -0.0014    91.6942
 1408.5000     8.7603    98.8836     2.5624     0.0233    -0.0016    92.0452
 1409.0000     8.7527    98.2952     2.5624     0.0289    -0.0026    90.1986
 1409.5000     8.7451    96.5890     2.5496     0.0344    -0.0022    88.3204
 1410.0000     8.7376    95.1171     2.5342     0.0339     0.0049    87.2653
 1410.5000     8.7330    97.9613     2.5184     0.0011     0.0121    92.4785
 1411.0000     8.7284   100.9095     2.5157    -0.0037     0.0139    95.8012
 1411.5000     8.7239    99.8883     2.5216    -0.0017     0.0109    94.6158
 1412.0000     8.7191    98.7007     2.5280     0.0005     0.0080    92.7254
 1412.5000     8.7301    98.9432     2.5344     0.0027     0.0050    90.8320
 1413.0000     8.7509   101.7207     2.5341     0.0049     0.0064    88.9545
 1413.5000     8.7719   103.2089     2.5319     0.0069     0.0082    88.0044
 1414.0000     8.7929    97.3845     2.5343     0.0062     0.0061    89.7285
 1414.5000     8.8142    93.2686     2.5388     0.0053     0.0036    91.9595
 1415.0000     8.8147    92.2673     2.5419     0.0050     0.0032    92.9177
 1415.5000     8.8111    93.8441     2.5441     0.0028     0.0040    91.8279
 1416.0000     8.8074    95.4859     2.5462    -0.0008     0.0031    90.1148
 1416.5000     8.8038    96.3561     2.5454    -0.0043     0.0018    88.3352
 1417.0000     8.8001    94.6574     2.5403    -0.0059     0.0042    87.1007
 1417.5000     8.7965    94.1023     2.5379     0.0001     0.0040    87.2846
 1418.0000     8.7928    98.0487     2.5453     0.0058     0.0018    88.4781
 1418.5000     8.7892    96.4124     2.5525     0.0067    -0.0004    88.6971
 1419.0000     8.7856    94.4346     2.5500    -0.0046    -0.0027    86.9446
 1419.5000     8.7819    92.6099     2.5443    -0.0158    -0.0011    85.2562
 1420.0000     8.7783    93.6614     2.5454    -0.0079     0.0006    83.5722
 1420.5000     8.7747    94.7233     2.5543     0.0027    -0.0067    81.8574
 1421.0000     8.7710    93.3621     2.5629     0.0136    -0.0092    81.7330
 1421.5000     8.7674    91.9892     2.5661     0.0155    -0.0070    89.1971
 1422.0000     8.7638    92.4451     2.5599     0.0124    -0.0054    95.7068
 1422.5000     8.7601    93.8221     2.5573     0.0092    -0.0083    98.6265
 1423.0000     8.7514    95.1950     2.5658     0.0060    -0.0117    96.9416
 1423.5000     8.7251    95.5483     2.5739     0.0047    -0.0150    95.6817
 1424.0000     8.6998    92.9170     2.5831     0.0043    -0.0162    97.7207
 1424.5000     8.7085    88.8792     2.5663     0.0039    -0.0122    99.0927
 1425.0000     8.7211    89.1784     2.5551     0.0035    -0.0078    96.4871
 1425.5000     8.7338    92.6203     2.5506     0.0031    -0.0086    89.3011
 1426.0000     8.7464    96.0295     2.5528     0.0034    -0.0101    84.7008
 1426.5000     8.7589    95.3321     2.5610     0.0043    -0.0116    80.6257
 1427.0000     8.7715    94.2951     2.5691     0.0051    -0.0132    81.5319
 1427.5000     8.7709    94.9317     2.5656     0.0059    -0.0142    82.7355
 1428.0000     8.7585    97.0596     2.5612     0.0068    -0.0100    86.3574
 1428.5000     8.7460    99.2175     2.5568     0.0076    -0.0055    90.3205
 1429.0000     8.7355    99.6568     2.5524     0.0084    -0.0034    97.2731
 1429.5000     8.7301    97.4204     2.5480     0.0073    -0.0046    96.8727
 1430.0000     8.7244    96.2535     2.5439     0.0028    -0.0059    94.4187
 1430.5000     8.7183   100.3962     2.5563     0.0028    -0.0072    92.4199
 1431.0000     8.7337   102.5043     2.5622    -0.0010    -0.0061    90.3941
 1431.5000     8.7555   100.3922     2.5548    -0.0049    -0.0012    89.5928
 1432.0000     8.7717    96.4313     2.5468    -0.0064     0.0038    89.3165
 1432.5000     8.7564    93.9185     2.5414    -0.0078     0.0024    88.5273
 1433.0000     8.7530    97.1291     2.5428    -0.0091     0.0005    85.3094
 1433.5000     8.7506    99.8046     2.5452    -0.0066    -0.0014    83.6936
 1434.0000     8.7481   101.4994     2.5382    -0.0034     0.0022    86.1932
 1434.5000     8.7456    99.8348     2.5305    -0.0002     0.0081    90.8979
 1435.0000     8.7430    99.6356     2.5373     0.0030     0.0041    93.6882
 1435.5000     8.7405   103.1674     2.5444     0.0043     0.0008    94.4765
 1436.0000     8.7380   104.0398     2.5512     0.0022    -0.0008    95.2780
 1436.5000     8.7355    99.2650     2.5485     0.0002    -0.0013    96.1240
 1437.0000     8.7330    95.8135     2.5457    -0.0018    -0.0019    98.6401
 1437.5000     8.7305    92.4982     2.5482    -0.0028    -0.0026    99.6708
 1438.0000     8.7280    92.6746     2.5504    -0.0015    -0.0006    97.0411
 1438.5000     8.7254    95.4470     2.5499    -0.0002    -0.0020    91.3880
 1439.0000     8.7229    98.2109     2.5512     0.0010    -0.0042    90.8689
 1439.5000     8.7204    98.8321     2.5553     0.0022    -0.0065    92.9562
 1440.0000     8.7178    95.5045     2.5577     0.0031    -0.0077    95.4427
 1440.5000     8.7174    93.1745     2.5529     0.0060    -0.0055    97.9390
 1441.0000     8.7175    92.8303     2.5481     0.0089    -0.0034   100.4235
 1441.5000     8.7178    93.5568     2.5491     0.0120    -0.0038   103.2036
 1442.0000     8.7049    94.3145     2.5532     0.0088    -0.0042   103.0235
 1442.5000     8.6898    94.9319     2.5547     0.0024    -0.0027    97.9455
 1443.0000     8.6746    93.4549     2.5505    -0.0041    -0.0012    94.2242
 1443.5000     8.6594    91.9564     2.5465    -0.0092    -0.0010    93.0053
 1444.0000     8.6588    93.5025     2.5438    -0.0028    -0.0032    92.8177
 1444.5000     8.6612    98.1776     2.5518     0.0066    -0.0068    91.4736
 1445.0000     8.6636   101.3847     2.5598     0.0159    -0.0102    90.1527
 1445.5000     8.6659    99.6098     2.5677     0.0209    -0.0137    88.8248
 1446.0000     8.6683    97.7853     2.5736     0.0104    -0.0149    87.8913
 1446.5000     8.6707   100.0931     2.5700     0.0027    -0.0130    89.4173
 1447.0000     8.6730   103.6994     2.5624     0.0091    -0.0100    89.6197
 1447.5000     8.6754   105.7425     2.5549     0.0160    -0.0070    90.3610
 1448.0000     8.6777   102.4669     2.5546     0.0213    -0.0062    94.5256
 1448.5000     8.6801    97.6854     2.5584     0.0144    -0.0050    92.9658
 1449.0000     8.6825    95.6695     2.5572     0.0068    -0.0036    91.0399
 1449.5000     8.6848    96.9042     2.5515     0.0024    -0.0066    89.1303
 1450.0000     8.6872    98.8055     2.5474     0.0012    -0.0090    87.2490
 1450.5000     8.6896   100.7219     2.5478     0.0025    -0.0030    85.9237
 1451.0000     8.6919   102.6200     2.5485     0.0056    -0.0024    86.5493
 1451.5000     8.6943   102.1904     2.5492     0.0087    -0.0014    89.1158
 1452.0000     8.6967   101.3235     2.5499     0.0059     0.0002    96.4682
 1452.5000     8.6960   100.4552     2.5501     0.0025     0.0018    99.5616
 1453.0000     8.6941    99.8241     2.5420    -0.0010     0.0034   100.5065
 1453.5000     8.6922   102.0852     2.5394    -0.0045     0.0015   100.9667
