~VERSION INFORMATION
 VERS.                2.0:   CWLS LOG ASCII STANDARD - VERSION 2.0
 WRAP.                 NO:   ONE LINE PER DEPTH STEP
~WELL INFORMATION
#MNEM.UNIT      DATA TYPE    INFORMATION
#----------   ------------   ------------------------------
 STRT.F           30.0000:   START DEPTH
 STOP.F          759.0000:   STOP DEPTH
 STEP.F            0.5000:   STEP LENGTH
 NULL.          -999.2500:   NO VALUE
 COMP. FENIX & SCISSON INC:   COMPANY
 WELL.    NPR ##3 15-S-14:   WELL
 FLD .             TEAPOT:   FIELD
 LOC .      S14 T38N R78W:   LOCATION
 CNTY.            NATRONA:   COUNTY
 STAT.            WYOMING:   STATE
 CTRY. UNITED STATES OF AMERICA:   COUNTRY
 SRVC.              Welex:   SERVICE COMPANY
 DATE.        23-FEB-1977:   LOGDATE
 API .       490251027600:   API NUMBER
~CURVE INFORMATION
#MNEM.UNIT       API CODE    CURVE DESCRIPTION
#----------   ------------   ------------------------------
 DEPT.F                  :   
 GURD.OHMM   07 220 05 00:   SHALLOW SHORT GUARD RESISTIVITY
 ILD .OHMM   07 120 46 00:   INDUCTION LOG DEEP
 ILM .OHMM   07 120 44 00:   INDUCTION LOG MEDIUM
 SPR .MV     07 010 01 00:   SPONTANEOUS POTENTIAL
 CALD.IN     45 280 60 00:   CALIPER FROM DENSITY LOG
 CORR.G/C3   45 356 01 00:   DENSITY CORRECTION
 DPHI.DEC    45 890 12 00:   DENSITY POROSITY SANDSTONE
 GRD .GAPI   45 310 01 00:   GAMMA RAY FROM DENSITY LOG
 RHOB.G/C3   45 350 01 00:   BULK DENSITY
~PARAMETER INFORMATION
#MNEM.UNIT          VALUE    DESCRIPTION
#----------   ------------   ------------------------------
 PD  .                 GL:   PERMANENT DATUM
 EPD .F            5229.2:   ELEVATION PERMANENT DATUM
 LMF .                 GL:   LOG MEASURED FROM
 DMF .                 GL:   DRILLING MEASURED FROM
 EGL .F            5229.2:   GROUND LEVEL
 DATE.        23-FEB-1977:   RUN DATE
 RUN .                  1:   RUN NUMBER
 DD  .F               764:   DEPTH DRILLER
 DL  .F               762:   DEPTH LOGGER
 BLI .F               760:   BOTTOM LOG INTERVAL
 TLI .F                40:   TOP LOG INTERVAL
 CS  .IN            8.625:   CASING SIZE
 CBD .F                40:   CASING BOTTOM DRILLER
 CBL .F                40:   CASING BOTTOM LOGGER
 BS  .IN            7.875:   BIT SIZE
 BSD .F               764:   BIT SIZE AT DEPTH
 DFT .           CHEM/GEL:   DRILLING FLUID TYPE
 DFD .                9.4:   DRILLING FLUID DENSITY
 DFV .                 50:   DRILLING FLUID VISCOSITY
 DFPH.               11.0:   DRILLING FLUID PH
 DFL .               12.2:   DRILLING FLUID LOSS
 MSS .           FLOWLINE:   MUD SAMPLE SOURCE
 RMS .OHMM           0.23:   RESISTIVITY MUD SAMPLE
 MST .F                38:   MUD SAMPLE TEMPERATURE
 RMF .OHMM           0.15:   RESISTIVITY MUD FILTRATE SAMPLE
 MFST.F                38:   MUD FILTRATE SAMPLE TEMPERATURE
 RMC .OHMM           0.54:   RESISTIVITY MUD CAKE
 MCST.F                38:   MUD CAKE SAMPLE TEMPERATURE
 MFSS.               MEAS:   MUD FILTRATE SAMPLE SOURCE
 MCSS.               MEAS:   MUD CAKE SAMPLE SOURCE
 RMB .OHMM           .148:   RESISTIVITY MUD AT BHT
 BHT .F                59:   BOTTOM HOLE TEMPERATURE
 TCS .HRS               2:   TIME CURCULATED STOPPED
 MRT .F                59:   MAXIMUM RECORDED TEMPERATURE
 LUN .               8611:   LOGGING UNIT NUMBER
 LUL .           GILLETTE:   LOGGING UNIT LOCATION
 ENGI.             C.DOAK:   RECORDING ENGINEER
 WITN.         STUEBINGER:   WITNESSED BY
 CLNT.            A2DTECH:   CLIENT CODE
 ORIG.           5" PRINT:   ORIGIN OF DATA
 UWI .       490251027600:   UNIQUE WELL ID
 DICO. A2D Technologies, Inc.:   DIGITIZING COMPANY
~OTHER INFORMATION
~A   DEPT     GURD        ILD        ILM        SPR         CALD      CORR      DPHI         GRD        RHOB 
# ...
  614.0000    16.8854    10.9028    13.9861   -33.9647     8.1187     0.1163     0.1060    88.8205     2.4650
  614.5000    17.3586    10.8293    12.8080   -33.8176     8.1028     0.1148     0.1078    85.7501     2.4717
  615.0000    16.1997    10.9061    12.4589   -33.8213     8.0868     0.1133     0.1087    87.8883     2.4702
  615.5000    15.2230    10.8322    13.0763   -33.8242     8.0859     0.1118     0.1070    90.8779     2.4657
  616.0000    14.8080    10.7592    12.6322   -33.8271     8.0700     0.1103     0.1058    93.1190     2.4724
  616.5000    14.7061    10.6866    11.7077   -33.6806     8.0691     0.1103     0.1064    94.1624     2.4844
  617.0000    14.7061    10.6146    12.6322   -33.6836     8.0835     0.1103     0.1100    94.4585     2.4784
  617.5000    14.7061    10.4708    12.8377   -33.5373     8.0524     0.1103     0.1130    94.7534     2.4709
  618.0000    14.7061    10.4003    12.9862   -33.5403     8.0365     0.1102     0.1148    95.4964     2.4634
  618.5000    14.6048    10.3302    13.6298   -33.3938     8.0208     0.1102     0.1163    97.4380     2.4529
  619.0000    14.5042    10.2605    13.2461   -33.2475     8.0349     0.1117     0.1136    96.5354     2.4469
  619.5000    14.6048    10.1914    12.7198   -32.9526     8.0338     0.1132     0.1109    95.0339     2.4701
  620.0000    14.6048    10.1931    12.4589   -32.6563     8.0029     0.1147     0.1094    97.2750     2.4739
  620.5000    14.7061    10.2650    12.7198   -32.0629     7.9720     0.1177     0.1085    98.3185     2.4679
  621.0000    14.7061    10.4281    12.8080   -31.4688     7.9411     0.1221     0.1073    96.8170     2.4669
  621.5000    14.9107    10.7018    12.8968   -30.7254     7.9403     0.1266     0.1053    95.6150     2.4798
  622.0000    15.3286    10.9270    12.9862   -29.8249     7.9094     0.1311     0.1041    97.1075     2.4799
  622.5000    16.6537    11.2343    13.0763   -28.7512     7.8785     0.1326     0.1077    98.6001     2.4708
  623.0000    17.8450    11.6301    13.4427   -27.1528     7.8928     0.1340     0.1152    98.7694     2.4625
  623.5000    18.3451    12.2975    13.9184   -25.6632     7.9366     0.1325     0.1209    95.4475     2.4557
  624.0000    16.6127    13.0152    14.4311   -24.3228     7.9509     0.1310     0.1338    89.6047     2.4412
  624.5000    15.7581    13.8255    15.0141   -23.1317     7.8748     0.1306     0.1449    86.0074     2.4134
  625.0000    16.0882    14.1166    15.4348   -22.0898     7.6940     0.1286     0.1551    84.6557     2.3792
  625.5000    17.1204    14.2162    15.9774   -21.1972     7.6633     0.1280     0.1707    83.7530     2.3569
  626.0000    17.8450    14.1199    16.4251   -20.7522     7.8123     0.1265     0.1830    84.8203     2.3427
  626.5000    18.3451    14.1223    16.8854   -20.4567     7.9163     0.1250     0.1875    85.7081     2.3322
  627.0000    18.9900    14.0266    17.3586   -20.3104     7.9606     0.1234     0.1908    85.6856     2.3284
  627.5000    18.9900    14.0289    18.0934   -20.3140     7.9594     0.1219     0.1872    86.2791     2.3329
  628.0000    17.3586    14.0308    17.9688   -20.4662     7.9435     0.1204     0.1842    84.9273     2.3434
  628.5000    14.4725    14.0327    17.4750   -20.7676     7.9276     0.1189     0.1815    83.1264     2.3479
  629.0000    13.7243    14.0347    16.9713   -21.0690     7.9267     0.1174     0.1797    81.4753     2.3509
  629.5000    14.8080    14.0370    16.3120   -21.5197     7.9410     0.1159     0.1803    80.2732     2.3471
  630.0000    15.7581    14.0389    15.7581   -21.8756     7.9550     0.1141     0.1846    81.0173     2.3396
  630.5000    16.4251    14.0408    15.3286   -22.4210     7.9693     0.1129     0.1870    82.0608     2.3374
  631.0000    16.8854    13.9456    15.0141   -22.8717     7.9682     0.1098     0.1816    82.8048     2.3493
  631.5000    16.8854    13.8516    14.9107   -23.1811     7.9824     0.1083     0.1758    83.6986     2.3636
  632.0000    16.6537    13.6641    14.6048   -23.1760     7.9813     0.1068     0.1720    85.4905     2.3561
  632.5000    15.6496    13.4786    14.4044   -23.0100     7.9804     0.1068     0.1739    86.2350     2.3523
  633.0000    14.5002    13.2043    14.2067   -22.7348     7.9947     0.1068     0.1756    84.4337     2.3658
  633.5000    14.3052    13.1123    14.0117   -22.5877     7.9936     0.1068     0.1709    83.5311     2.3680
  634.0000    15.5419    13.0269    13.9152   -22.4413     7.9927     0.1074     0.1685    82.7781     2.3688
  634.5000    17.6001    13.3936    14.0117   -22.4450     8.0067     0.1082     0.1667    85.0192     2.3770
  635.0000    18.6004    14.3522    14.1089   -22.5972     8.0060     0.1089     0.1601    85.9141     2.3860
  635.5000    16.5390    14.6544    14.3052   -22.8986     8.0051     0.1097     0.1538    85.9327     2.3927
  636.0000    17.1204    14.4555    14.6048   -23.2000     8.0042     0.1097     0.1500    85.6047     2.3987
  636.5000    17.4789    13.8712    14.8080   -23.3523     8.0032     0.1097     0.1494    86.0493     2.4002
  637.0000    14.8080    12.5958    15.0141   -23.5050     7.9873     0.1097     0.1512    88.2904     2.3987
  637.5000    15.9774    14.0677    14.9107   -23.5323     7.9714     0.1097     0.1503    90.5314     2.3956
  638.0000    17.0025    14.4633    14.7061   -23.6601     7.9705     0.1096     0.1491    89.7426     2.3942
  638.5000    15.6496    14.4652    14.5042   -23.6630     7.9847     0.1096     0.1488    87.2171     2.4017
  639.0000    16.8854    14.1579    14.3052   -23.5164     7.9988     0.1111     0.1494    86.9072     2.4002
  639.5000    13.3502    13.8829    14.1089   -23.2203     8.0129     0.1126     0.1518    86.3998     2.3942
  640.0000    17.0025    13.6003    13.8194   -23.0746     8.0120     0.1141     0.1581    81.3764     2.3852
  640.5000    16.6537    13.4158    13.5359   -22.9284     7.9961     0.1171     0.1626    77.7791     2.3769
  641.0000    14.6048    13.3251    13.1669   -22.9313     7.9801     0.1185     0.1639    76.8776     2.3694
  641.5000    13.5359    13.0541    12.7198   -23.0842     7.9792     0.1185     0.1615    78.9678     2.3754
  642.0000    13.2582    12.8769    12.2033   -23.2363     7.9935     0.1185     0.1627    81.0592     2.3799
  642.5000    13.4552    12.7022    11.7077   -23.3885     7.9774     0.1185     0.1648    82.8511     2.3754
  643.0000    15.3156    12.5298    11.3886   -23.5406     7.9916     0.1170     0.1651    84.7928     2.3709
  643.5000    16.4251    12.2748    11.3886   -23.6928     7.9905     0.1140     0.1623    86.1357     2.3746
  644.0000    16.1997    12.1082    11.4781   -24.4420     7.9898     0.1095     0.1567    86.8797     2.3829
  644.5000    15.3286    12.0266    11.7889   -25.3404     7.9739     0.1065     0.1478    87.3244     2.3933
  645.0000    14.2067    12.0286    11.9529   -25.9403     7.9730     0.1047     0.1427    87.3199     2.4023
  645.5000    17.1204    12.1135    12.2033   -26.5463     7.9721     0.1034     0.1415    86.1179     2.4091
  646.0000    20.4896    12.4541    12.3731   -27.1622     7.9711     0.1034     0.1388    82.2212     2.4173
  646.5000    19.3877    12.7163    12.4589   -27.7408     7.9854     0.1049     0.1302    78.6251     2.4308
  647.0000    17.8351    12.8947    12.6322   -28.0423     7.9843     0.1079     0.1236    81.0147     2.4420
  647.5000    16.7385    12.9857    12.7198   -28.4929     7.9684     0.1094     0.1182    81.9085     2.4600
  648.0000    15.9774    12.9875    12.7198   -28.7943     7.9525     0.1138     0.1134    82.3531     2.4712
  648.5000    15.6496    12.8970    12.6322   -28.9465     7.9517     0.1153     0.1161    81.8996     2.4720
  649.0000    15.5419    12.5391    12.6322   -28.9494     7.9660     0.1153     0.1215    81.2963     2.4609
  649.5000    15.7581    12.2105    12.6322   -28.8031     7.9799     0.1153     0.1257    80.6931     2.4455
  650.0000    16.0882    12.2378    12.6327   -28.6567     7.9789     0.1138     0.1284    80.3892     2.4300
