~VERSION INFORMATION
 VERS.                2.0:   CWLS LOG ASCII STANDARD - VERSION 2.0
 WRAP.                 NO:   ONE LINE PER DEPTH STEP
~WELL INFORMATION
#MNEM.UNIT      DATA TYPE    INFORMATION
#----------   ------------   ------------------------------
 STRT.F          690.5000:   START DEPTH
 STOP.F         2366.0000:   STOP DEPTH
 STEP.F            0.5000:   STEP LENGTH
 NULL.          -999.2500:   NO VALUE
 COMP. LAWRENCE/ALLISON INC:   COMPANY
 WELL.  NPR 3 #26SHX10-10:   WELL
 FLD .             TEAPOT:   FIELD
 LOC .      S10 T38N R78W:   LOCATION
 CNTY.            NATRONA:   COUNTY
 STAT.            WYOMING:   STATE
 CTRY. UNITED STATES OF AMERICA:   COUNTRY
 SRVC.            Unknown:   SERVICE COMPANY
 DATE.        30-DEC-1992:   LOGDATE
 API .       490251113600:   API NUMBER
~CURVE INFORMATION
#MNEM.UNIT       API CODE    CURVE DESCRIPTION
#----------   ------------   ------------------------------
 DEPT.F                  :   
 ROP .MIN/FT 91 810 01 00:   RATE OF DRILLING PENETRATION
 TGAS.UNITS  91 830 01 00:   TOTAL GAS FROM HOTWIRE
~PARAMETER INFORMATION
#MNEM.UNIT          VALUE    DESCRIPTION
#----------   ------------   ------------------------------
 EKB .F              5235:   KELLING BUSHING
 EGL .F              5225:   GROUND LEVEL
 DATE.           12-30-92:   RUN DATE
 DD  .F              2365:   DEPTH DRILLER
 BLI .F              2360:   BOTTOM LOG INTERVAL
 TLI .F              2160:   TOP LOG INTERVAL
 CS  .IN            8.625:   CASING SIZE
 CBD .F               675:   CASING BOTTOM DRILLER
 TCS .HRS            0200:   TIME CURCULATED STOPPED
 TLAB.HRS            1700:   TIME LOGGER AT BOTTOM
 ENGI.               HUSK:   RECORDING ENGINEER
 WITN.              TOWER:   WITNESSED BY
 CLNT.            A2DTECH:   CLIENT CODE
 ORIG.           5" PRINT:   ORIGIN OF DATA
 UWI .       490251113600:   UNIQUE WELL ID
 DICO. A2D Technologies, Inc.:   DIGITIZING COMPANY
~OTHER INFORMATION
~A   DEPT      ROP         TGAS 
# ...
  812.0000     0.7511     0.8972
  812.5000     0.7410     0.8812
  813.0000     0.7310     0.8652
  813.5000     0.7316     0.8493
  814.0000     0.7322     0.8333
  814.5000     0.7327     0.8173
  815.0000     0.7437     0.8014
  815.5000     0.7548     0.7854
  816.0000     0.7659     0.7694
  816.5000     0.8086     0.7535
  817.0000     0.8935     0.7375
  817.5000     0.9678     0.7215
  818.0000     1.0105     0.7056
  818.5000     0.9440     0.6896
  819.0000     0.8324     0.6737
  819.5000     0.7802     0.6577
  820.0000     0.8018     0.6417
  820.5000     0.8339     0.6258
  821.0000     0.8872     0.6098
  821.5000     0.9510     0.5938
  822.0000     0.9937     0.5779
  822.5000     1.0153     0.5619
  823.0000     0.9209     0.5459
  823.5000     0.8154     0.5300
  824.0000     0.8059     0.5140
  824.5000     0.8171     0.4980
  825.0000     0.8703     0.4821
  825.5000     0.9447     0.4661
  826.0000     1.0296     0.4501
  826.5000     1.1145     0.4342
  827.0000     1.1994     0.4182
  827.5000     1.2527     0.4023
  828.0000     1.2532     0.3863
  828.5000     1.1588     0.3703
  829.0000     1.0521     0.3544
  829.5000     1.0209     0.3384
  830.0000     1.0021     0.3224
  830.5000     0.9922     0.3065
  831.0000     0.9927     0.2905
  831.5000     0.9932     0.2745
  832.0000     0.9937     0.2586
  832.5000     0.9942     0.2426
  833.0000     0.9947     0.2266
  833.5000     1.0058     0.2107
  834.0000     0.9958     0.1947
  834.5000     0.9202     0.1787
  835.0000     0.7543     0.1628
  835.5000     0.7548     0.1468
  836.0000     0.7765     0.1309
  836.5000     0.7875     0.1149
  837.0000     0.8197     0.0989
  837.5000     0.8729     0.0830
  838.0000     0.9262     0.0670
  838.5000     1.0111     0.0510
  839.0000     1.1276     0.0351
  839.5000     1.2999     0.0191
  840.0000     1.5035     0.0000
  840.5000     1.8150     0.0000
  841.0000     2.3957     0.0000
  841.5000     2.7443     0.0000
  842.0000     2.9980     0.0000
  842.5000     2.7875     0.0000
  843.0000     2.6931     0.0000
  843.5000     2.5881     0.0000
  844.0000     2.4515     0.0000
  844.5000     2.2410     0.0000
  845.0000     1.9153     0.0000
  845.5000     1.1387     0.0000
  846.0000     0.9662     0.0000
  846.5000     1.2095     0.0000
  847.0000     1.3682     0.0000
  847.5000     1.5059     0.0000
  848.0000     1.5697     0.0000
  848.5000     1.5595     0.0000
  849.0000     1.5707     0.0000
  849.5000     1.5712     0.0000
  850.0000     1.5473     0.0000
  850.5000     1.4558     0.0624
  851.0000     1.4032     0.1248
  851.5000     1.3294     0.1872
  852.0000     1.2759     0.2496
  852.5000     1.2017     0.3120
  853.0000     1.1082     0.3744
  853.5000     1.0240     0.4368
  854.0000     0.9502     0.4992
  854.5000     0.8976     0.5616
  855.0000     0.8238     0.6240
  855.5000     0.7890     0.6864
  856.0000     0.7819     0.7488
  856.5000     0.7925     0.8112
  857.0000     0.7926     0.8736
  857.5000     0.7927     0.9360
  858.0000     0.7823     0.9984
  858.5000     0.7718     1.0608
  859.0000     0.7719     1.1232
  859.5000     0.7615     1.1856
  860.0000     0.7616     1.2480
  860.5000     0.8145     1.3104
  861.0000     0.9006     0.9340
  861.5000     0.9850     0.9764
  862.0000     1.0258     1.0189
  862.5000     1.0259     1.0691
  863.0000     1.0260     1.1105
  863.5000     1.0261     1.1518
  864.0000     1.0262     1.1932
  864.5000     1.0263     1.2346
  865.0000     1.0264     0.8411
  865.5000     1.0370     0.4670
  866.0000     1.0266     0.5097
  866.5000     0.9714     0.1266
  867.0000     0.8667     0.1783
  867.5000     0.8054     0.2197
  868.0000     0.8055     0.2611
  868.5000     0.7950     0.2972
  869.0000     0.8057     0.3473
  869.5000     0.8058     1.6622
  870.0000     0.8059     4.2508
  870.5000     0.8060     6.4148
  871.0000     0.8061     7.3053
  871.5000     0.8168     7.3466
  872.0000     0.7841     7.3880
  872.5000     0.6482     7.4294
  873.0000     0.5007     7.4717
  873.5000     0.4796     7.5225
  874.0000     0.5009     7.5639
  874.5000     0.6064     7.6053
  875.0000     0.7331     7.6467
  875.5000     0.8071     7.6881
  876.0000     0.8087     7.7329
  876.5000     0.8073     7.7708
  877.0000     0.7968     7.8122
  877.5000     0.7969     7.8538
  878.0000     0.8076     7.8962
  878.5000     0.8710     7.9467
  879.0000     0.9766     7.9881
  879.5000     1.0822     8.0295
  880.0000     1.2722     8.0709
  880.5000     1.5254     7.6774
  881.0000     1.6732     7.3046
  881.5000     1.8421     6.9214
  882.0000     2.0426     6.9628
  882.5000     2.1827     6.5797
  883.0000     2.3344     6.6226
  883.5000     2.5071     6.6728
  884.0000     2.6338     6.7142
  884.5000     2.7605     6.7556
  885.0000     2.8766     6.3724
  885.5000     2.9189     6.4138
  886.0000     2.7924     6.0203
  886.5000     2.6976     5.6475
  887.0000     2.6660     5.7114
  887.5000     2.6239     5.7852
  888.0000     2.3736     5.8589
  888.5000     1.8225     5.9326
  889.0000     1.3268     6.0064
  889.5000     1.0210     6.0801
  890.0000     1.0000     6.1539
  890.5000     1.0001     6.2276
  891.0000     1.0002     6.3014
  891.5000     1.0003     6.3751
  892.0000     1.0532     6.4489
  892.5000     1.1166     6.5226
  893.0000     1.2013     6.5964
  893.5000     1.3130     6.6701
  894.0000     1.8026     6.7438
  894.5000     2.2984     6.8176
  895.0000     2.4884     6.8913
  895.5000     2.6573     6.9651
  896.0000     2.8051     7.0388
  896.5000     2.9634     7.1126
  897.0000     3.1112     7.1863
  897.5000     3.3223     7.2601
  898.0000     3.6072     7.3338
  898.5000     3.9915     7.4076
  899.0000     4.3265     7.4813
  899.5000     4.7046     7.5551
  900.0000     5.1160     7.6288
  900.5000     4.7474     7.5717
  901.0000     4.1994     7.4252
  901.5000     3.8307     7.2571
  902.0000     3.5359     7.2694
  902.5000     3.2938     6.8541
  903.0000     2.9568     6.8695
  903.5000     2.5948     6.8798
  904.0000     2.0260     6.8340
  904.5000     1.6926     6.7938
  905.0000     1.2501     6.7536
  905.5000     0.9974     6.7133
  906.0000     0.7869     6.6731
  906.5000     0.7242     6.6329
  907.0000     0.6720     6.5927
  907.5000     0.5776     6.5525
  908.0000     0.5464     6.5123
  908.5000     0.6007     6.4720
  909.0000     0.6966     6.4318
  909.5000     0.7802     6.3916
  910.0000     0.8018     6.3514
  910.5000     0.7916     6.3112
  911.0000     0.7817     6.2710
  911.5000     0.7822     6.2307
  912.0000     0.7933     6.1905
  912.5000     0.8254     6.1503
  913.0000     0.8892     6.1101
  913.5000     0.9640     6.0699
  914.0000     1.0063     6.0297
  914.5000     1.0070     5.9895
  915.0000     1.0180     5.9492
  915.5000     1.0079     5.9126
  916.0000     0.9769     5.9280
  916.5000     0.9246     5.9403
  917.0000     0.8091     6.3772
  917.5000     0.7780     6.3895
  918.0000     0.7574     6.4019
  918.5000     0.7579     6.4756
  919.0000     0.7584     6.8541
  919.5000     0.7696     7.2910
  920.0000     0.7701     7.3033
  920.5000     0.7812     7.3157
  921.0000     0.7923     7.7525
  921.5000     0.7928     7.7649
  922.0000     0.7933     7.7774
  922.5000     0.7200     8.2171
  923.0000     0.6150     8.2295
  923.5000     0.5733     8.2418
  924.0000     0.5752     8.2541
  924.5000     0.6061     8.2665
  925.0000     0.6910     8.7033
  925.5000     0.7232     8.2910
  926.0000     0.7237     8.3038
  926.5000     0.7242     8.3189
  927.0000     0.7247     8.3312
  927.5000     0.7358     8.3436
  928.0000     0.7574     7.9283
  928.5000     0.7903     7.9437
  929.0000     0.8681     7.9561
  929.5000     0.9911     7.9684
  930.0000     1.0022     7.9811
  930.5000     0.9816     7.9961
  931.0000     0.9188     8.0085
  931.5000     0.8350     8.0208
  932.0000     0.7616     8.0331
  932.5000     0.7305     8.0455
  933.0000     0.7310     8.0578
