~VERSION INFORMATION
 VERS.                2.0:   CWLS LOG ASCII STANDARD - VERSION 2.0
 WRAP.                 NO:   ONE LINE PER DEPTH STEP
~WELL INFORMATION
#MNEM.UNIT      DATA TYPE    INFORMATION
#----------   ------------   ------------------------------
 STRT.F           28.5000:   START DEPTH
 STOP.F          625.0000:   STOP DEPTH
 STEP.F            0.5000:   STEP LENGTH
 NULL.          -999.2500:   NO VALUE
 COMP. FENIX & SCISSON INC:   COMPANY
 WELL.    NPR ##3 13-SX-3:   WELL
 FLD .             TEAPOT:   FIELD
 LOC .       S3 T38N R78W:   LOCATION
 CNTY.            NATRONA:   COUNTY
 STAT.            WYOMING:   STATE
 CTRY. UNITED STATES OF AMERICA:   COUNTRY
 SRVC.       Schlumberger:   SERVICE COMPANY
 DATE.        25-FEB-1977:   LOGDATE
 API .       490251028400:   API NUMBER
~CURVE INFORMATION
#MNEM.UNIT       API CODE    CURVE DESCRIPTION
#----------   ------------   ------------------------------
 DEPT.F                  :   
 SPR .MV     07 010 01 00:   SPONTANEOUS POTENTIAL
 ILD .OHMM   07 120 46 00:   INDUCTION LOG DEEP
 LL8 .OHMM   07 220 08 00:   LATEROLOG-8 RES.
 ILM .OHMM   07 120 44 00:   INDUCTION LOG MEDIUM
 GRD .GAPI   45 310 01 00:   GAMMA RAY FROM DENSITY LOG
 CALD.IN     45 280 60 00:   CALIPER
 RHOB.G/C3   45 350 01 00:   BULK DENSITY
 CORR.G/C3   45 356 01 00:   DENSITY CORRECTION
 DPOR.DEC    45 890 12 00:   DENSITY POROSITY SANDSTONE
~PARAMETER INFORMATION
#MNEM.UNIT          VALUE    DESCRIPTION
#----------   ------------   ------------------------------
 PD  .                 GL:   PERMANENT DATUM
 EPD .F              5227:   ELEVATION PERMANENT DATUM
 LMF .                 GL:   LOG MEASURED FROM
 DMF .                 GL:   DRILLING MEASURED FROM
 EKB .F              5232:   KELLING BUSHING
 EGL .F              5227:   GROUND LEVEL
 DATE.          2-25-1977:   RUN DATE
 RUN .                  1:   RUN NUMBER
 DD  .F               629:   DEPTH DRILLER
 DL  .F               626:   DEPTH LOGGER
 BLI .F               620:   BOTTOM LOG INTERVAL
 TLI .F                40:   TOP LOG INTERVAL
 CS  .IN            8.625:   CASING SIZE
 CBD .F                40:   CASING BOTTOM DRILLER
 CBL .F                40:   CASING BOTTOM LOGGER
 BS  .IN            7.875:   BIT SIZE
 BSD .F               629:   BIT SIZE AT DEPTH
 DFT .                KCL:   DRILLING FLUID TYPE
 DFD .                8.8:   DRILLING FLUID DENSITY
 DFV .                 45:   DRILLING FLUID VISCOSITY
 DFPH.                  8:   DRILLING FLUID PH
 DFL .                8.2:   DRILLING FLUID LOSS
 MSS .                PIT:   MUD SAMPLE SOURCE
 RMS .OHMM           .508:   RESISTIVITY MUD SAMPLE
 MST .F                60:   MUD SAMPLE TEMPERATURE
 RMF .OHMM           .419:   RESISTIVITY MUD FILTRATE SAMPLE
 MFST.F                58:   MUD FILTRATE SAMPLE TEMPERATURE
 MFSS.                  M:   MUD FILTRATE SAMPLE SOURCE
 RMB .OHMM            .41:   RESISTIVITY MUD AT BHT
 BHT .F                75:   BOTTOM HOLE TEMPERATURE
 TCS .HRS            1700:   TIME CURCULATED STOPPED
 TLAB.HRS            2130:   TIME LOGGER AT BOTTOM
 MRT .F                75:   MAXIMUM RECORDED TEMPERATURE
 LUN .               5642:   LOGGING UNIT NUMBER
 LUL .               CSPR:   LOGGING UNIT LOCATION
 ENGI.             MARTIN:   RECORDING ENGINEER
 CLNT.            A2DTECH:   CLIENT CODE
 ORIG.       2", 5" PRINT:   ORIGIN OF DATA
 UWI .       490251028400:   UNIQUE WELL ID
 DICO. A2D Technologies, Inc.:   DIGITIZING COMPANY
~OTHER INFORMATION
~A   DEPT      SPR        ILD        LL8        ILM         GRD      CALD         RHOB     CORR       DPOR   
# ...
  284.0000   -41.3675     8.7139     7.5296     8.0371   104.0537     8.2460     2.4391     0.0005     0.1336
  284.5000   -43.4841     8.3394     7.3763     7.7517   105.2304     8.2434     2.4275     0.0001     0.1382
  285.0000   -44.6311     7.9810     7.1348     7.4758   106.3952     8.2417     2.4232     0.0036     0.1380
  285.5000   -44.6046     7.6094     6.8667     7.2086   107.5533     8.2400     2.4179     0.0024     0.1413
  286.0000   -44.0368     7.5047     6.6086     6.9387   108.7058     8.2383     2.4377     0.0089     0.1433
  286.5000   -43.9817     7.4007     6.4426     7.0500   109.4891     8.2367     2.4537     0.0212     0.1253
  287.0000   -44.2099     7.3331     6.7650     7.1762   109.7538     8.2350     2.4536     0.0168     0.1221
  287.5000   -44.4667     7.5289     7.0168     7.3037   110.0188     8.2333     2.4603     0.0107     0.1214
  288.0000   -43.9868     7.7420     7.2309     7.4331   109.9907     8.2317     2.4722     0.0162     0.1181
  288.5000   -44.7599     7.9695     7.4125     7.5647   109.4669     8.2300     2.4750     0.0200     0.1148
  289.0000   -44.4314     8.0721     7.5987     7.6986   109.9597     8.2283     2.4774     0.0124     0.1126
  289.5000   -43.8211     8.1801     7.7063     7.8349   110.6841     8.2267     2.4706     0.0048     0.1164
  290.0000   -43.2093     8.2698     7.7524     7.9737   111.4215     8.2250     2.4629     0.0030     0.1193
  290.5000   -42.8176     8.3517     7.7987     8.1149   110.7866     8.2233     2.4576     0.0069     0.1222
  291.0000   -43.5373     8.4942     7.8454     8.2586   108.9900     8.2216     2.4622     0.0110     0.1223
  291.5000   -44.0669     8.5814     7.8923     8.3466   107.9426     8.2200     2.4634     0.0067     0.1193
  292.0000   -43.7638     8.7416     7.9396     8.3466   109.2153     8.2183     2.4618    -0.0009     0.1179
  292.5000   -43.4791     8.6486     7.9870     8.2698   110.8791     8.2166     2.4585     0.0012     0.1205
  293.0000   -43.4316     8.4973     8.0435     8.1937   111.6077     8.2149     2.4493     0.0049     0.1248
  293.5000   -43.7484     8.3488     7.9364     8.0242   109.0515     8.2133     2.4403     0.0087     0.1290
  294.0000   -44.0808     8.2027     7.8071     7.8215   105.6084     8.2116     2.4312     0.0068     0.1332
  294.5000   -43.1256     8.0593     7.6800     7.6240   103.8139     8.2100     2.4280     0.0019     0.1369
  295.0000   -41.9299     7.9228     7.6094     7.4314   106.2254     8.2083     2.4253    -0.0028     0.1381
  295.5000   -41.6214     7.4389     7.8681     6.9955   107.6340     8.2064     2.4213    -0.0008     0.1413
  296.0000   -41.2258     6.9330     8.0532     6.5420   106.3543     8.1781     2.4152     0.0015     0.1447
  296.5000   -40.1212     6.4593     8.2427     6.1178   104.9219     8.1079     2.4082     0.0038     0.1477
  297.0000   -39.2225     6.0184     8.5024     5.7211   104.8347     8.0376     2.4005     0.0061     0.1509
  297.5000   -40.9873     5.6076     8.1795     5.3502   104.1765     7.9692     2.3927     0.0134     0.1564
  298.0000   -42.6931     5.5054     5.9191     5.0033   103.3772     8.0126     2.3848     0.0225     0.1618
  298.5000   -43.2701     5.4547     4.1181     4.7045   104.5416     8.0625     2.3774     0.0157     0.1681
  299.0000   -43.6716     5.7025     3.9102     4.7045   107.3144     8.1127     2.4012     0.0092     0.1588
  299.5000   -43.3982     6.0156     5.0191     5.2707   109.8430     8.1632     2.4295     0.0104     0.1460
  300.0000   -43.0488     6.3460     5.5535     5.7526   110.5322     8.1230     2.4243     0.0126     0.1352
  300.5000   -42.6968     6.6944     6.0918     6.2786   111.2099     8.0749     2.4191     0.0147     0.1409
  301.0000   -42.3490     7.0620     6.4638     6.6670   111.6366     8.0271     2.4274     0.0167     0.1373
  301.5000   -42.3874     7.4501     6.8827     6.8830   108.4578     7.9801     2.4254     0.0076     0.1373
  302.0000   -42.4645     7.8246     7.3288     7.1060   105.3673     7.9535     2.4219     0.0007     0.1413
  302.5000   -42.2473     7.9037     7.8038     7.3362   103.4909     7.9868     2.4478     0.0185     0.1292
  303.0000   -41.1146     7.9773     8.3502     7.5745   102.8744     8.0183     2.4655     0.0300     0.1190
  303.5000   -40.1816     8.0522     8.3444     7.7747   103.4957     8.0496     2.4573     0.0129     0.1186
  304.0000   -41.1716     8.1278     8.4938     7.8608   104.2938     8.0812     2.4622     0.0100     0.1193
  304.5000   -42.1847     8.2041     8.7486     7.9471   105.0964     8.1125     2.4557     0.0081     0.1218
  305.0000   -42.5936     8.2811     8.7416     8.0347   106.1392     8.1440     2.4493     0.0061     0.1243
  305.5000   -42.7266     8.3589     8.8532     8.1233   107.2143     8.1772     2.4430     0.0041     0.1268
  306.0000   -42.0756     8.4373     8.9724     8.2128   107.9921     8.1572     2.4386     0.0135     0.1293
  306.5000   -41.3323     8.5166     9.0931     8.3034   108.4597     8.1162     2.4467     0.0243     0.1266
  307.0000   -40.9305     8.5965     9.2155     8.3949   108.5806     8.0746     2.4714     0.0349     0.1186
  307.5000   -41.3043     8.6772     9.3396     8.4875   106.6973     8.0331     2.5011     0.0454     0.1081
  308.0000   -41.6809     8.7587     9.4653     8.5766   104.4282     7.9916     2.4780     0.0505     0.1114
  308.5000   -42.0713     8.8408     9.5885     8.6941   104.3606     7.8999     2.4550     0.0198     0.1180
  309.0000   -41.5053     8.9048     9.6045     8.8132   105.1560     7.7949     2.4506     0.0237     0.1235
  309.5000   -40.8300     8.9048     9.6238     8.9340   105.9858     7.8440     2.4457     0.0241     0.1274
  310.0000   -40.8717     8.9048     9.6431     9.0564   106.8175     7.9575     2.4517     0.0182     0.1251
  310.5000   -41.6725     8.9046     9.6624     9.1804   107.5561     8.0646     2.4603     0.0146     0.1207
  311.0000   -42.4582     8.9063     9.7371     9.3063   107.0998     8.0849     2.4570     0.0279     0.1201
  311.5000   -43.2316     8.8968    10.0214     9.4337   106.6213     8.1021     2.4537     0.0263     0.1217
  312.0000   -43.4821     8.9960    10.1356     9.5885   106.2212     8.1206     2.4688     0.0291     0.1234
  312.5000   -42.9240     9.0431     9.9192     9.4960   106.9637     8.1138     2.4999     0.0521     0.1002
  313.0000   -42.8936     9.0710     9.7681     9.3820   107.7302     8.0959     2.5206     0.0454     0.1058
  313.5000   -42.8794     8.8997     9.6193     9.2693   107.8299     8.0618     2.4760     0.0314     0.1169
  314.0000   -41.5932     8.7792     9.4722     9.1580   107.5987     8.0072     2.4523     0.0225     0.1269
  314.5000   -40.3785     8.6601     9.3249     9.0481   107.4174     7.9527     2.4961     0.0753     0.1082
  315.0000   -40.8360     8.5427     9.3271     8.9394   108.2200     7.8978     2.4842     0.0609     0.1124
  315.5000   -41.3693     8.4270     9.2245     8.8321   109.0395     7.8494     2.4584     0.0477     0.1218
  316.0000   -41.4442     8.3127     9.1515     8.7261   109.8646     7.9132     2.4632     0.0355     0.1197
  316.5000   -40.6552     8.2001     9.0791     8.6213   109.6282     7.9792     2.4686     0.0264     0.1173
  317.0000   -40.9403     8.0890     9.0073     8.5179   109.2119     8.0446     2.4716     0.0249     0.1190
  317.5000   -42.7050     7.9793     8.9361     8.4158   108.7816     8.1100     2.4402     0.0134     0.1272
  318.0000   -43.6272     7.8712     8.7348     8.3149   108.4300     8.1749     2.4307     0.0022     0.1329
  318.5000   -44.3200     7.6751     8.4382     8.1027   109.7576     8.2273     2.4341     0.0040     0.1309
  319.0000   -44.9405     7.4146     8.1520     7.8096   110.2550     8.2264     2.4408     0.0059     0.1291
  319.5000   -45.0926     7.1629     7.8757     7.3648   109.5184     8.2269     2.4390     0.0076     0.1323
  320.0000   -45.2641     6.7651     7.6066     6.8207   108.9216     8.2276     2.4320     0.0059     0.1360
