~VERSION INFORMATION
 VERS.                2.0:   CWLS LOG ASCII STANDARD - VERSION 2.0
 WRAP.                 NO:   ONE LINE PER DEPTH STEP
~WELL INFORMATION
#MNEM.UNIT      DATA TYPE    INFORMATION
#----------   ------------   ------------------------------
 STRT.F            3.0000:   START DEPTH
 STOP.F         1011.0000:   STOP DEPTH
 STEP.F            0.5000:   STEP LENGTH
 NULL.          -999.2500:   NO VALUE
 COMP. BROWN JOHN E&C INC:   COMPANY
 WELL. NPR 3 SHX-38 #2-35:   WELL
 FLD .             TEAPOT:   FIELD
 LOC .      S35 T39N R78W:   LOCATION
 CNTY.            NATRONA:   COUNTY
 STAT.            WYOMING:   STATE
 CTRY. UNITED STATES OF AMERICA:   COUNTRY
 SRVC.     Atlas Wireline:   SERVICE COMPANY
 DATE.        15-NOV-1991:   LOGDATE
 API .       490252248100:   API NUMBER
~CURVE INFORMATION
#MNEM.UNIT       API CODE    CURVE DESCRIPTION
#----------   ------------   ------------------------------
 DEPT.F                  :   
 GRR .GAPI   07 310 01 00:   GAMMA RAY
 RILD.OHMM   07 120 46 00:   INDUCTION LOG DEEP RESISTIVITY
 RILM.OHMM   07 120 44 00:   INDUCTION LOG MEDIUM RESISTIVITY
~PARAMETER INFORMATION
#MNEM.UNIT          VALUE    DESCRIPTION
#----------   ------------   ------------------------------
 PD  .                 GL:   PERMANENT DATUM
 EPD .F              5119:   ELEVATION PERMANENT DATUM
 LMF .                 KB:   LOG MEASURED FROM
 DAPD.F                11:   FEET ABOVE PERMANENT DATUM
 DMF .                 KB:   DRILLING MEASURED FROM
 EKB .F              5120:   KELLING BUSHING
 EGL .F              5119:   GROUND LEVEL
 DATE.        15-NOV-1991:   RUN DATE
 RUN .                  1:   RUN NUMBER
 DD  .F              1015:   DEPTH DRILLER
 DL  .F              1017:   DEPTH LOGGER
 BLI .F              1015:   BOTTOM LOG INTERVAL
 CS  .IN            8.625:   CASING SIZE
 CBD .F                60:   CASING BOTTOM DRILLER
 CBL .F                60:   CASING BOTTOM LOGGER
 BS  .IN            7.875:   BIT SIZE
 BSD .F              1015:   BIT SIZE AT DEPTH
 DFT .                AIR:   DRILLING FLUID TYPE
 LUN .            HL-6272:   LOGGING UNIT NUMBER
 LUL .         CASPER, WY:   LOGGING UNIT LOCATION
 ENGI.             ZIFGER:   RECORDING ENGINEER
 WITN.         MR. STRONG:   WITNESSED BY
 CLNT.            A2DTECH:   CLIENT CODE
 ORIG.           5" PRINT:   ORIGIN OF DATA
 UWI .       490252248100:   UNIQUE WELL ID
 DICO. A2D Technologies, Inc.:   DIGITIZING COMPANY
~OTHER INFORMATION
~A    DEPT      GRR      RILD       RILM   
# ...
  731.0000   165.6960     4.7818     5.0934
  731.5000   166.0177     5.0952     5.3142
  732.0000   159.3713     5.5440     5.5833
  732.5000   152.4154     5.9073     5.8253
  733.0000   151.2197     6.2072     6.0778
  733.5000   153.0710     6.3870     6.2971
  734.0000   153.3988     6.5264     6.3968
  734.5000   153.1196     6.5762     6.4818
  735.0000   152.5370     6.5804     6.4854
  735.5000   152.2517     6.4480     6.4438
  736.0000   152.2821     6.4072     6.3546
  736.5000   152.6099     6.2774     6.2299
  737.0000   155.0622     6.1093     6.1459
  737.5000   160.2458     5.9864     5.9812
  738.0000   161.1745     5.7444     5.8198
  738.5000   158.4735     5.3603     5.5455
  739.0000   153.0350     5.0020     5.2474
  739.5000   153.9698     4.6351     4.8965
  740.0000   152.7802     4.2060     4.5057
  740.5000   151.2810     4.0360     3.9485
  741.0000   152.5253     3.9819     3.8959
  741.5000   154.9776     4.0411     3.9255
  742.0000   153.1810     4.0720     4.0108
  742.5000   152.2887     4.1319     4.1846
  743.0000   152.9261     4.1926     4.5210
  743.5000   153.8609     4.2841     4.7639
  744.0000   154.7957     4.7672     4.9558
  744.5000   155.7305     5.3395     5.2432
  745.0000   157.8792     5.6419     5.5473
  745.5000   160.0280     5.8925     5.8283
  746.0000   160.9628     6.0561     6.0386
  746.5000   160.6836     6.2257     6.1698
  747.0000   159.1905     6.3217     6.2600
  747.5000   155.5729     6.4101     6.3516
  748.0000   155.9007     6.4591     6.3996
  748.5000   152.5866     6.4632     6.4032
  749.0000   149.2726     6.4222     6.4517
  749.5000   147.4699     6.3808     6.4553
  750.0000   154.7840     6.2532     6.4131
  750.5000   156.9308     6.2136     6.3287
  751.0000   158.1639     6.1742     6.2002
  751.5000   159.7023     6.1782     6.1606
  752.0000   161.2408     6.1821     6.1649
  752.5000   161.8687     6.2293     6.1246
  753.0000   162.1932     6.2366     6.1711
  753.5000   160.3933     6.1975     6.1744
  754.0000   157.9811     6.2018     6.0923
  754.5000   159.5248     6.0774     6.0533
  755.0000   164.0982     5.9141     5.9701
  755.5000   165.1221     5.5967     5.8085
  756.0000   159.5878     4.9047     5.4972
  756.5000   157.7879     4.2387     4.3181
  757.0000   159.6298     4.0386     4.0865
  757.5000   160.5615     4.0132     4.0046
  758.0000   160.5827     4.0449     3.9519
  758.5000   159.9963     4.0477     3.9546
  759.0000   160.0182     4.1362     4.0410
  759.5000   161.5610     4.1973     4.2760
  760.0000   164.0099     4.2891     4.5246
  760.5000   164.3344     4.4136     4.7544
  761.0000   164.0519     4.4167     4.8245
  761.5000   158.9136     4.2980     4.6928
  762.0000   156.2032     4.0958     4.3768
  762.5000   157.4381     4.0136     4.0891
  763.0000   160.4940     4.1302     4.0635
  763.5000   163.2464     4.2206     4.0664
  764.0000   165.3919     4.2531     4.0977
  764.5000   166.0146     4.2859     4.1588
  765.0000   163.0060     4.3797     4.2795
  765.5000   158.7781     4.5395     4.5600
  766.0000   152.4258     4.8093     4.8929
  766.5000   148.1979     5.2370     5.4365
  767.0000   147.3080     5.6183     5.7929
  767.5000   147.9364     5.8997     5.9195
  768.0000   149.7785     5.9807     5.8814
  768.5000   149.1744     5.8608     5.5282
  769.0000   147.9676     5.4693     5.2684
  769.5000   148.0677     5.2120     5.1628
  770.0000   151.9921     5.0711     5.1296
  770.5000   155.9584     5.0042     5.0974
  771.0000   159.6213     5.0085     5.0655
  771.5000   164.1947     5.0471     5.0343
  772.0000   167.2506     5.0860     5.0022
  772.5000   168.4855     5.0895     5.0066
  773.0000   166.0786     5.2009     5.0100
  773.5000   156.6914     5.4272     5.3758
  774.0000   152.4583     5.9056     5.9731
  774.5000   151.5741     6.3371     6.4092
  775.0000   149.4706     6.6592     6.6878
  775.5000   147.6655     6.8525     6.8340
  776.0000   148.2987     7.0025     6.9349
  776.5000   148.3197     7.0564     6.9397
  777.0000   148.3407     7.0613     6.9467
  777.5000   151.0931     7.0662     6.9493
  778.0000   154.4525     7.0711     6.9541
  778.5000   151.7421     7.0760     6.9105
  779.0000   149.0317     7.0315     6.9154
  779.5000   148.7492     7.0365     6.9202
  780.0000   148.1234     7.0414     6.9251
  780.5000   145.5935     6.9972     6.9299
  781.0000   140.9267     7.0021     6.9833
  781.5000   140.3354     7.0561     7.0380
  782.0000   144.0036     7.0643     7.0922
  782.5000   143.4176     7.1737     7.0971
  783.0000   141.9211     7.2722     7.1518
  783.5000   141.6334     7.3796     7.1567
  784.0000   141.3509     7.4364     7.2119
  784.5000   141.0684     7.4416     7.1654
  785.0000   140.7859     7.3422     7.0722
  785.5000   139.2947     7.1462     6.9305
  786.0000   137.1913     6.7626     6.7445
  786.5000   135.9983     6.0519     6.2943
  787.0000   137.5368     5.3036     5.7124
  787.5000   146.3590     4.9149     4.8688
  788.0000   157.3056     4.8155     4.8375
  788.5000   170.6802     4.8535     4.9787
  789.0000   175.2536     5.0294     5.1952
  789.5000   175.5780     5.4728     5.6528
  790.0000   163.7024     6.0390     6.0233
  790.5000   148.3687     6.3017     6.4631
  791.0000   137.1013     7.1009     7.1812
  791.5000   135.5996     8.2858     8.0912
  792.0000   138.0538     8.8293     8.4430
  792.5000   140.1992     8.8974     8.6275
  793.0000   141.1307     8.7800     8.5734
  793.5000   140.8482     8.7861     8.5794
  794.0000   140.5604     8.8538     8.5854
  794.5000   140.2822     8.9220     8.6515
  795.0000   140.6077     8.9908     8.7792
  795.5000   144.2706     9.1918     9.0380
  796.0000   146.4160     9.6635     9.6451
  796.5000   143.3924    10.3024    10.3469
  797.0000   136.2326    10.9938    11.1191
  797.5000   120.2569    11.8054    12.0221
  798.0000   101.2197    13.2578    13.1238
  798.5000    86.4701    14.8352    14.5819
  799.0000    77.9550    16.6003    16.3155
  799.5000    73.7269    17.8132    17.3849
  800.0000    75.2655    18.4589    17.8894
  800.5000    77.4676    18.0887    17.6537
  801.0000    82.5628    17.9722    17.0602
  801.5000    88.0941    18.1138    16.9504
  802.0000    90.8528    18.3813    16.9651
  802.5000    89.6662    18.5995    17.2154
  803.0000    76.9469    18.8227    17.8390
  803.5000    75.4568    19.3439    18.3507
  804.0000    75.7876    19.9025    19.1639
  804.5000    74.6009    20.1965    19.7215
  805.0000    72.8073    20.4948    19.8748
  805.5000    74.0486    20.8029    19.7518
  806.0000    77.4143    21.1107    19.6295
  806.5000    83.5114    21.4231    19.6446
  807.0000    90.8225    21.7400    19.7973
  807.5000    93.5812    22.0617    20.0909
  808.0000    94.8225    22.3797    20.6754
  808.5000    88.7800    22.7193    21.2769
  809.0000    79.7026    23.0458    21.5925
  809.5000    78.8194    23.0619    21.3096
  810.0000    78.8467    23.0780    20.8842
  810.5000    79.4810    22.9331    20.7549
  811.0000    82.2398    22.7781    20.7708
  811.5000    86.5159    22.3326    20.9323
  812.0000    87.1502    22.0263    21.3915
  812.5000    84.1426    21.9002    21.7088
  813.0000    80.5281    22.0827    22.1850
  813.5000    81.7693    22.5665    22.2021
  814.0000    84.2246    23.0458    22.2191
  814.5000    82.1275    22.7267    22.0816
  815.0000    79.1199    21.9315    21.7923
  815.5000    78.5402    20.4506    21.2087
  816.0000    79.7815    19.0973    20.3548
  816.5000    84.0577    18.2614    19.2645
  817.0000    91.3687    16.7322    17.1228
  817.5000    96.8589    15.1017    15.5412
  818.0000    99.6176    14.2027    14.4040
  818.5000    98.1275    14.0270    14.0183
  819.0000    95.7269    13.8421    13.8347
  819.5000    95.1472    13.7554    13.7490
  820.0000    94.5675    13.7653    13.7596
  820.5000    97.0228    13.7749    13.7702
  821.0000    97.3536    13.8811    13.8772
  821.5000    95.5599    14.1004    13.9851
