~VERSION INFORMATION
 VERS.                2.0:   CWLS LOG ASCII STANDARD - VERSION 2.0
 WRAP.                 NO:   ONE LINE PER DEPTH STEP
~WELL INFORMATION
#MNEM.UNIT      DATA TYPE    INFORMATION
#----------   ------------   ------------------------------
 STRT.F          110.5000:   START DEPTH
 STOP.F         1944.0000:   STOP DEPTH
 STEP.F            0.5000:   STEP LENGTH
 NULL.          -999.2500:   NO VALUE
 COMP.    FENIX & SCISSON:   COMPANY
 WELL.   NPR 3 SHX #34-10:   WELL
 FLD .             TEAPOT:   FIELD
 LOC .      S10 T38N R78W:   LOCATION
 CNTY.            NATRONA:   COUNTY
 STAT.            WYOMING:   STATE
 CTRY. UNITED STATES OF AMERICA:   COUNTRY
 SRVC.            Unknown:   SERVICE COMPANY
 DATE.        14-APR-1978:   LOGDATE
 API .       490251061800:   API NUMBER
~CURVE INFORMATION
#MNEM.UNIT       API CODE    CURVE DESCRIPTION
#----------   ------------   ------------------------------
 DEPT.F                  :   
 ILD .OHMM   05 120 46 00:   INDUCTION LOG DEEP
 CILD.MMHO   05 110 00 00:   CONDUCTIVITY INDUCTION LOG
 NPHI.DEC    42 890 01 00:   NEUTRON POROSITY LIMESTONE
 GRD .GAPI   45 310 01 00:   GAMMA RAY FROM DENSITY LOG
~PARAMETER INFORMATION
#MNEM.UNIT          VALUE    DESCRIPTION
#----------   ------------   ------------------------------
 PD  .                 GL:   PERMANENT DATUM
 EPD .F              5244:   ELEVATION PERMANENT DATUM
 LMF .                 KB:   LOG MEASURED FROM
 DMF .                 KB:   DRILLING MEASURED FROM
 EKB .F              5252:   KELLING BUSHING
 EGL .F              5244:   GROUND LEVEL
 DATE.          4-14-1978:   RUN DATE
 RUN .                  1:   RUN NUMBER
 DD  .F              1953:   DEPTH DRILLER
 DL  .F              1950:   DEPTH LOGGER
 BLI .F              1944:   BOTTOM LOG INTERVAL
 TLI .F               715:   TOP LOG INTERVAL
 CS  .IN            9.625:   CASING SIZE
 CBD .F               708:   CASING BOTTOM DRILLER
 CBL .F               712:   CASING BOTTOM LOGGER
 BS  .IN             8.75:   BIT SIZE
 BSD .F              1953:   BIT SIZE AT DEPTH
 DFT .                OIL:   DRILLING FLUID TYPE
 TCS .HRS               5:   TIME CURCULATED STOPPED
 LUN .               2958:   LOGGING UNIT NUMBER
 LUL .               CASP:   LOGGING UNIT LOCATION
 ENGI.             MILLER:   RECORDING ENGINEER
 CLNT.            A2DTECH:   CLIENT CODE
 ORIG.           5" PRINT:   ORIGIN OF DATA
 UWI .       490251061800:   UNIQUE WELL ID
 DICO. A2D Technologies, Inc.:   DIGITIZING COMPANY
~OTHER INFORMATION
~A   DEPT      ILD       CILD       NPHI        GRD   
# ...
  986.5000    10.4813   105.8229  -999.2500  -999.2500
  987.0000    10.4629   105.9956  -999.2500  -999.2500
  987.5000    10.4442   106.1025  -999.2500  -999.2500
  988.0000    10.4255   106.2094  -999.2500  -999.2500
  988.5000    10.4068   106.3163  -999.2500  -999.2500
  989.0000    10.3881   106.4232  -999.2500  -999.2500
  989.5000    10.3694   106.5301  -999.2500  -999.2500
  990.0000    10.3508   106.6370  -999.2500  -999.2500
  990.5000    10.3321   106.7439  -999.2500  -999.2500
  991.0000    10.3135   106.8509  -999.2500  -999.2500
  991.5000    10.2953   106.9652  -999.2500  -999.2500
  992.0000    10.2291   108.3014  -999.2500  -999.2500
  992.5000    10.1468   109.7370  -999.2500  -999.2500
  993.0000    10.0641   110.9676  -999.2500  -999.2500
  993.5000     9.9816   111.1088  -999.2500  -999.2500
  994.0000     9.8990   111.2500  -999.2500  -999.2500
  994.5000     9.8165   111.3911  -999.2500  -999.2500
  995.0000     9.7336   111.5323  -999.2500  -999.2500
  995.5000     9.6500   111.6734  -999.2500  -999.2500
  996.0000     9.5822   111.8146  -999.2500  -999.2500
  996.5000     9.6107   111.9558  -999.2500  -999.2500
  997.0000     9.6148   112.0969  -999.2500  -999.2500
  997.5000     9.6170   112.2381  -999.2500  -999.2500
  998.0000     9.6192   112.3792  -999.2500  -999.2500
  998.5000     9.6215   112.5204  -999.2500  -999.2500
  999.0000     9.6238   112.6616  -999.2500  -999.2500
  999.5000     9.6261   112.8027  -999.2500  -999.2500
 1000.0000     9.6284   112.9439  -999.2500  -999.2500
 1000.5000     9.6307   113.0851  -999.2500  -999.2500
 1001.0000     9.6330   113.2262  -999.2500  -999.2500
 1001.5000     9.6353   113.3674  -999.2500  -999.2500
 1002.0000     9.6376   113.5085  -999.2500  -999.2500
 1002.5000     9.6399   113.6497  -999.2500  -999.2500
 1003.0000     9.6422   113.7908  -999.2500  -999.2500
 1003.5000     9.6446   113.9304  -999.2500  -999.2500
 1004.0000     9.6469   113.8938  -999.2500  -999.2500
 1004.5000     9.6484   113.8577  -999.2500  -999.2500
 1005.0000     9.6098   113.8216  -999.2500  -999.2500
 1005.5000     9.5191   113.7855  -999.2500  -999.2500
 1006.0000     9.4284   113.7494  -999.2500  -999.2500
 1006.5000     9.3351   113.7133  -999.2500  -999.2500
 1007.0000     9.3055   113.6772  -999.2500  -999.2500
 1007.5000     9.2791   113.6411  -999.2500  -999.2500
 1008.0000     9.2505   113.6050  -999.2500  -999.2500
 1008.5000     9.1781   113.5689  -999.2500  -999.2500
 1009.0000     9.1018   113.5328  -999.2500  -999.2500
 1009.5000     9.0255   113.4967  -999.2500  -999.2500
 1010.0000     8.9496   113.4605  -999.2500  -999.2500
 1010.5000     8.8895   113.4245  -999.2500  -999.2500
 1011.0000     8.8863   113.3883  -999.2500  -999.2500
 1011.5000     8.8819   113.3522  -999.2500  -999.2500
 1012.0000     8.8774   113.3161  -999.2500  -999.2500
 1012.5000     8.8729   113.2800  -999.2500  -999.2500
 1013.0000     8.8684   113.2439  -999.2500  -999.2500
 1013.5000     8.8639   113.2078  -999.2500  -999.2500
 1014.0000     8.8591   113.1717  -999.2500  -999.2500
 1014.5000     8.8547   113.1356  -999.2500  -999.2500
 1015.0000     8.8648   113.0995  -999.2500  -999.2500
 1015.5000     8.9508   113.0634  -999.2500  -999.2500
 1016.0000     9.0372   113.0273  -999.2500  -999.2500
 1016.5000     9.0337   112.9912  -999.2500  -999.2500
 1017.0000     9.0123   112.9551  -999.2500  -999.2500
 1017.5000     8.9902   112.6084  -999.2500  -999.2500
 1018.0000     8.9741   111.8863  -999.2500  -999.2500
 1018.5000     9.0368   111.1642  -999.2500  -999.2500
 1019.0000     9.0992   110.4421  -999.2500  -999.2500
 1019.5000     9.1609   109.7200  -999.2500  -999.2500
 1020.0000     9.2230   108.9552  -999.2500  -999.2500
 1020.5000     9.2502   109.1979  -999.2500  -999.2500
 1021.0000     9.2556   109.5240  -999.2500  -999.2500
 1021.5000     9.2619   109.8500  -999.2500  -999.2500
 1022.0000     9.2683   110.1768  -999.2500  -999.2500
 1022.5000     9.2745   110.5036  -999.2500  -999.2500
 1023.0000     9.2808   110.8369  -999.2500  -999.2500
 1023.5000     9.2884   110.4455  -999.2500  -999.2500
 1024.0000     9.3545   109.3223  -999.2500  -999.2500
 1024.5000     9.4943   108.1990  -999.2500  -999.2500
 1025.0000     9.6331   107.0771  -999.2500  -999.2500
 1025.5000     9.7724   105.9585  -999.2500  -999.2500
 1026.0000     9.9116   104.6279  -999.2500  -999.2500
 1026.5000    10.0508   101.9691  -999.2500  -999.2500
 1027.0000    10.1895    99.3087  -999.2500  -999.2500
 1027.5000    10.3822    96.6483  -999.2500  -999.2500
 1028.0000    10.6143    95.0014  -999.2500  -999.2500
 1028.5000    10.8463    94.9413  -999.2500  -999.2500
 1029.0000    11.0775    94.8811  -999.2500  -999.2500
 1029.5000    11.2161    94.8209  -999.2500  -999.2500
 1030.0000    11.2296    94.7607  -999.2500  -999.2500
 1030.5000    11.2443    94.7005  -999.2500  -999.2500
 1031.0000    11.2584    94.6404  -999.2500  -999.2500
 1031.5000    11.2722    94.5802  -999.2500  -999.2500
 1032.0000    11.2949    94.5200  -999.2500  -999.2500
 1032.5000    11.4763    94.4598  -999.2500  -999.2500
 1033.0000    11.6763    94.3997  -999.2500  -999.2500
 1033.5000    11.7811    94.3395  -999.2500  -999.2500
 1034.0000    11.8209    94.2793  -999.2500  -999.2500
 1034.5000    11.8793    94.2191  -999.2500  -999.2500
 1035.0000    11.8477    94.1579  -999.2500  -999.2500
 1035.5000    11.8108    94.0988  -999.2500  -999.2500
 1036.0000    11.6920    94.0386  -999.2500  -999.2500
 1036.5000    11.5532    95.4358  -999.2500  -999.2500
 1037.0000    11.4148    97.0816  -999.2500  -999.2500
 1037.5000    11.2808    98.7273  -999.2500  -999.2500
 1038.0000    11.1124   100.3730  -999.2500  -999.2500
 1038.5000    10.9501   102.0187  -999.2500  -999.2500
 1039.0000    10.7887   103.6645  -999.2500  -999.2500
 1039.5000    10.6274   105.3102  -999.2500  -999.2500
 1040.0000    10.4660   106.9559  -999.2500  -999.2500
 1040.5000    10.3046   107.9221  -999.2500  -999.2500
 1041.0000    10.1438   107.8245  -999.2500  -999.2500
 1041.5000    10.0350   107.7269  -999.2500  -999.2500
 1042.0000    10.0019   107.6293  -999.2500  -999.2500
 1042.5000     9.9679   107.5317  -999.2500  -999.2500
 1043.0000     9.9342   107.4340  -999.2500  -999.2500
 1043.5000     9.9004   107.3364  -999.2500  -999.2500
 1044.0000     9.8665   107.2388  -999.2500  -999.2500
 1044.5000     9.8327   107.1412  -999.2500  -999.2500
 1045.0000     9.7989   107.0435  -999.2500  -999.2500
 1045.5000     9.7650   106.9459  -999.2500  -999.2500
 1046.0000     9.7312   106.8483  -999.2500  -999.2500
 1046.5000     9.6974   106.7507  -999.2500  -999.2500
 1047.0000     9.6633   106.6531  -999.2500  -999.2500
 1047.5000     9.6470   106.5554  -999.2500  -999.2500
 1048.0000     9.6410   106.4578  -999.2500  -999.2500
 1048.5000     9.6352   106.3602  -999.2500  -999.2500
 1049.0000     9.6295   106.2626  -999.2500  -999.2500
 1049.5000     9.6237   106.1649  -999.2500  -999.2500
 1050.0000     9.6179   106.0673  -999.2500  -999.2500
 1050.5000     9.6122   105.9697  -999.2500  -999.2500
 1051.0000     9.6064   105.8721  -999.2500  -999.2500
 1051.5000     9.6006   105.7745  -999.2500  -999.2500
 1052.0000     9.5948   105.6768  -999.2500  -999.2500
 1052.5000     9.5890   105.5792  -999.2500  -999.2500
 1053.0000     9.5832   105.4816  -999.2500  -999.2500
 1053.5000     9.5775   105.3840  -999.2500  -999.2500
 1054.0000     9.5711   105.2863  -999.2500  -999.2500
 1054.5000     9.6114   105.1887  -999.2500  -999.2500
 1055.0000     9.6806   105.0911  -999.2500  -999.2500
 1055.5000     9.7502   104.9935  -999.2500  -999.2500
 1056.0000     9.8198   104.2952  -999.2500  -999.2500
 1056.5000     9.8894   103.4577  -999.2500  -999.2500
 1057.0000     9.9590   102.6202  -999.2500  -999.2500
 1057.5000    10.0286   101.7828  -999.2500  -999.2500
 1058.0000    10.0982   100.9453  -999.2500  -999.2500
 1058.5000    10.1678   100.1078  -999.2500  -999.2500
 1059.0000    10.2375    99.6352  -999.2500  -999.2500
