~VERSION INFORMATION
 VERS.                2.0:   CWLS LOG ASCII STANDARD - VERSION 2.0
 WRAP.                 NO:   ONE LINE PER DEPTH STEP
~WELL INFORMATION
#MNEM.UNIT      DATA TYPE    INFORMATION
#----------   ------------   ------------------------------
 STRT.F           70.0000:   START DEPTH
 STOP.F         1072.0000:   STOP DEPTH
 STEP.F            0.5000:   STEP LENGTH
 NULL.          -999.2500:   NO VALUE
 COMP. LAWRENCE/ALLISON INC:   COMPANY
 WELL.    67-66 SX #11-11:   WELL
 FLD .             TEAPOT:   FIELD
 LOC .      S11 T38N R78W:   LOCATION
 CNTY.            NATRONA:   COUNTY
 STAT.            WYOMING:   STATE
 CTRY. UNITED STATES OF AMERICA:   COUNTRY
 SRVC.      Dresser Atlas:   SERVICE COMPANY
 DATE.        03-FEB-1986:   LOGDATE
 API .       490251105700:   API NUMBER
~CURVE INFORMATION
#MNEM.UNIT       API CODE    CURVE DESCRIPTION
#----------   ------------   ------------------------------
 DEPT.F                  :   
 RILD.OHMM   07 120 46 00:   RESISTIVITY INDUCTION LOG DEEP
 RILM.OHMM   07 120 44 00:   RESISTIVITY INDUCTION LOG MEDIUM
 GRD .GAPI   45 310 01 00:   GAMMA RAY FROM DENSITY LOG
 CALD.IN     45 280 60 00:   CALIPER FROM DENSITY LOG
 CORR.G/C3   45 356 01 00:   DENSITY CORRECTION
 PORD.DEC    45 890 12 00:   POROSITY DENSITY SANDSTONE
 DEN .G/C3   45 350 01 00:   COMPENSATED BULK DENSTIY
~PARAMETER INFORMATION
#MNEM.UNIT          VALUE    DESCRIPTION
#----------   ------------   ------------------------------
 PD  .                 GL:   PERMANENT DATUM
 EPD .F              5245:   ELEVATION PERMANENT DATUM
 LMF .                 GL:   LOG MEASURED FROM
 DMF .                 GL:   DRILLING MEASURED FROM
 EGL .F              5245:   GROUND LEVEL
 DATE.        03-FEB-1986:   RUN DATE
 RUN .                  1:   RUN NUMBER
 DD  .F              1120:   DEPTH DRILLER
 DL  .F              1074:   DEPTH LOGGER
 BLI .F              1068:   BOTTOM LOG INTERVAL
 TLI .F                86:   TOP LOG INTERVAL
 CS  .IN            8.625:   CASING SIZE
 CBD .F                86:   CASING BOTTOM DRILLER
 CBL .F                86:   CASING BOTTOM LOGGER
 BS  .IN             6.25:   BIT SIZE
 BSD .F              1120:   BIT SIZE AT DEPTH
 DFT .                AIR:   DRILLING FLUID TYPE
 TCS .HRS               2:   TIME CURCULATED STOPPED
 LUN .               6274:   LOGGING UNIT NUMBER
 LUL .           GILLETTE:   LOGGING UNIT LOCATION
 ENGI.             MILLER:   RECORDING ENGINEER
 WITN.           JENNINGS:   WITNESSED BY
 CLNT.            A2DTECH:   CLIENT CODE
 ORIG.           5" PRINT:   ORIGIN OF DATA
 UWI .       490251105700:   UNIQUE WELL ID
 DICO. A2D Technologies, Inc.:   DIGITIZING COMPANY
~OTHER INFORMATION
~A   DEPT     RILD       RILM        GRD       CALD       CORR       PORD        DEN   
# ...
  843.5000     6.8125     6.5219   139.1410     8.3703     0.0552     0.1361     2.4525
  844.0000     6.8662     6.6201   141.8777     8.4019     0.0569     0.1315     2.4623
  844.5000     6.8724     6.6735   142.8042     8.3737     0.0676     0.1274     2.4677
  845.0000     6.9266     6.7273   141.9132     8.3600     0.0798     0.1281     2.4648
  845.5000     6.9329     6.8286   140.8550     8.3322     0.0876     0.1271     2.4634
  846.0000     6.9379     6.8362   142.0191     8.3488     0.0907     0.1229     2.4710
  846.5000     6.9925     6.9391   148.0351     8.3655     0.0442     0.1175     2.4786
  847.0000     7.0476     6.9935   149.8565     8.3668     0.0550     0.1132     2.4885
  847.5000     7.0539     7.0498   148.2708     8.3685     0.0838     0.1058     2.5063
  848.0000     7.0603     7.0576   145.3192     8.3701     0.0975     0.0955     2.5181
  848.5000     7.0667     7.0698   144.2860     8.3568     0.0922     0.0949     2.5204
  849.0000     7.0730     7.1223   146.4166     8.3585     0.0841     0.1003     2.5055
  849.5000     7.0794     7.1302   146.7524     8.3602     0.0815     0.1083     2.5018
  850.0000     7.0858     7.1381   138.7173     8.3764     0.0831     0.1065     2.5053
  850.5000     7.0834     7.1314   139.9464     8.3730     0.0803     0.1034     2.5072
  851.0000     7.0809     7.1246   142.6704     8.3702     0.0700     0.1049     2.5043
  851.5000     7.0785     7.1179   143.8912     8.3673     0.0653     0.1070     2.5022
  852.0000     7.0761     7.1224   141.5413     8.3659     0.0809     0.1054     2.5068
  852.5000     7.0760     7.1308   141.2673     8.3528     0.0961     0.1000     2.5144
  853.0000     7.0348     7.0899   142.5049     8.3540     0.1053     0.0990     2.5160
  853.5000     6.9942     7.0495   144.0330     8.3851     0.1070     0.1023     2.5116
  854.0000     6.9536     6.9607   145.5611     8.3863     0.0951     0.1080     2.4921
  854.5000     6.9129     6.8260   146.5782     8.4174     0.0818     0.1188     2.4824
  855.0000     6.7783     6.6937   148.3407     8.3885     0.0729     0.1163     2.4870
  855.5000     6.5982     6.4739   149.5396     8.3747     0.0731     0.1072     2.4954
  856.0000     6.3379     6.3047   149.5726     8.3613     0.0733     0.1018     2.5069
  856.5000     6.1286     6.0974   149.9049     8.3625     0.0735     0.0987     2.5183
  857.0000     5.8852     5.8164   149.3393     8.3637     0.0688     0.0981     2.5205
  857.5000     5.5735     5.5866   147.8790     8.3799     0.0482     0.0996     2.5160
  858.0000     5.0631     5.1835   146.4175     8.3809     0.0213     0.1064     2.5078
  858.5000     4.5676     4.7764   145.8447     8.3821     0.0245     0.1139     2.4966
  859.0000     3.6115     4.1357   147.0822     8.3683     0.0413     0.1190     2.4870
  859.5000     3.2355     3.0756   146.8166     8.3546     0.0580     0.1244     2.4788
  860.0000     2.7998     2.6815   144.7573     8.3558     0.0823     0.1271     2.4668
  860.5000     2.3239     2.3870   141.8011     8.3869     0.1035     0.1421     2.4383
  861.0000     2.0533     2.2612   142.4323     8.3881     0.0901     0.1544     2.4286
  861.5000     2.0408     2.2638   144.2594     8.3741     0.0708     0.1609     2.4159
  862.0000     2.1905     2.3462   144.5917     8.3604     0.0589     0.1735     2.4025
  862.5000     2.3021     2.5172   143.1303     8.3619     0.0606     0.1886     2.3785
  863.0000     2.4194     2.9140   142.2023     8.3781     0.0638     0.1993     2.3440
  863.5000     2.5783     3.2813   140.3766     8.3640     0.0676     0.2252     2.3142
  864.0000     2.7667     3.6950   132.4365     8.3655     0.0781     0.2590     2.2531
  864.5000     3.0951     4.1321   133.4039     8.3515     0.0915     0.2730     2.2223
  865.0000     3.9505     4.5261   136.4128     8.3548     0.0901     0.2531     2.2540
  865.5000     4.8033     4.8224   140.9305     8.3689     0.0541     0.2028     2.3075
  866.0000     5.2628     5.0675   143.3555     8.3552     0.0363     0.1756     2.3686
  866.5000     5.4170     5.2884   147.2752     8.3564     0.0425     0.1392     2.4319
  867.0000     5.4592     5.4431   152.3908     8.3426     0.0517     0.1295     2.4568
  867.5000     5.2439     5.4120   161.0938     8.3439     0.0669     0.1250     2.4667
  868.0000     5.0008     4.9869   162.3230     8.3600     0.0806     0.1192     2.4773
  868.5000     4.7360     4.6271   158.4700     8.3911     0.0838     0.1207     2.4796
  869.0000     4.5164     4.5062   153.4211     8.4070     0.0780     0.1245     2.4745
  869.5000     4.3672     4.4189   153.1472     8.3634     0.0661     0.1272     2.4701
  870.0000     4.2162     4.3333   155.2815     8.3497     0.0603     0.1288     2.4656
  870.5000     4.0824     4.2200   158.9023     8.3661     0.0530     0.1305     2.4589
  871.0000     4.0306     4.0675   163.7189     8.3521     0.0405     0.1341     2.4535
  871.5000     4.0916     3.9736   164.3502     8.3534     0.0307     0.1406     2.4444
  872.0000     4.1604     4.1480   164.2731     8.3546     0.0388     0.1574     2.4175
  872.5000     4.2781     4.2694   157.6228     8.3558     0.0657     0.1556     2.4149
  873.0000     4.4053     4.3640   150.3557     8.3570     0.0809     0.1477     2.4300
  873.5000     4.5945     4.5859   150.4254     8.3432     0.0871     0.1392     2.4437
  874.0000     4.7945     4.8524   152.2516     8.3445     0.0903     0.1317     2.4603
  874.5000     4.9693     5.0990   154.6765     8.3457     0.0860     0.1310     2.4642
  875.0000     5.2211     5.3213   157.4005     8.3618     0.0862     0.1352     2.4545
  875.5000     5.4871     5.5533   161.0213     8.3631     0.0909     0.1355     2.4523
  876.0000     5.8069     5.7953   161.3536     8.3792     0.1031     0.1321     2.4577
  876.5000     6.1028     6.0063   156.3047     8.3655     0.1063     0.1243     2.4706
  877.0000     6.2816     6.1820   151.5549     8.3515     0.1049     0.1122     2.4902
  877.5000     6.4209     6.3190   149.4955     8.3231     0.0856     0.1072     2.5016
  878.0000     6.4729     6.4146   147.4362     8.3243     0.0542     0.1067     2.5032
  878.5000     6.3905     6.4667   146.8633     8.3253     0.0314     0.1094     2.5007
  879.0000     6.3094     6.4278   148.6987     8.3414     0.0334     0.1117     2.4957
  879.5000     6.1863     6.2598   152.0206     8.3426     0.0366     0.1144     2.4905
  880.0000     6.1081     6.0980   154.4456     8.3438     0.0383     0.1186     2.4817
  880.5000     6.0306     6.0632   153.8117     8.3450     0.0535     0.1239     2.4743
  881.0000     5.9130     5.9852   153.3081     8.3463     0.0507     0.1284     2.4669
  881.5000     5.8363     5.9509   153.9402     8.3325     0.0554     0.1314     2.4609
  882.0000     5.7623     5.7971   154.2721     8.3337     0.0616     0.1323     2.4557
  882.5000     5.6123     5.6848   154.0060     8.3350     0.0498     0.1343     2.4498
  883.0000     5.4648     5.6134   154.3384     8.3362     0.0198     0.1385     2.4469
  883.5000     5.2843     5.4290   155.5676     8.3374     0.0260     0.1397     2.4470
  884.0000     5.1097     5.1429   158.8895     8.3386     0.0322     0.1387     2.4501
  884.5000     4.8057     4.8049   160.1103     8.3398     0.0354     0.1371     2.4555
  885.0000     4.3960     4.4583   160.4509     8.3408     0.0416     0.1347     2.4578
  885.5000     4.0212     3.9140   161.6801     8.3420     0.0614     0.1332     2.4602
  886.0000     3.7557     3.6568   163.5072     8.3581     0.0772     0.1322     2.4602
  886.5000     3.6814     3.7121   165.6332     8.3593     0.0888     0.1319     2.4603
  887.0000     3.9242     3.9279   166.8624     8.3606     0.0629     0.1328     2.4589
  887.5000     4.1241     4.0428   170.7822     8.3468     0.0455     0.1360     2.4560
  888.0000     4.3645     4.1324   169.9186     8.3481     0.0517     0.1453     2.4433
  888.5000     4.5552     4.1949   164.8698     8.3493     0.0700     0.1874     2.3696
