~VERSION INFORMATION
 VERS.                2.0:   CWLS LOG ASCII STANDARD - VERSION 2.0
 WRAP.                 NO:   ONE LINE PER DEPTH STEP
~WELL INFORMATION
#MNEM.UNIT      DATA TYPE    INFORMATION
#----------   ------------   ------------------------------
 STRT.F           95.0000:   START DEPTH
 STOP.F          922.0000:   STOP DEPTH
 STEP.F            0.5000:   STEP LENGTH
 NULL.          -999.2500:   NO VALUE
 COMP.          U.S. NAVY:   COMPANY
 WELL. RES 3 TEAPOT DOM #57S-11:   WELL
 FLD .             TEAPOT:   FIELD
 LOC .      S11 T38N R78W:   LOCATION
 CNTY.            NATRONA:   COUNTY
 STAT.            WYOMING:   STATE
 CTRY. UNITED STATES OF AMERICA:   COUNTRY
 SRVC.       Schlumberger:   SERVICE COMPANY
 DATE.        02-AUG-1961:   LOGDATE
 API .       490250632800:   API NUMBER
~CURVE INFORMATION
#MNEM.UNIT       API CODE    CURVE DESCRIPTION
#----------   ------------   ------------------------------
 DEPT.F                  :   
 GR  .GAPI   30 310 01 00:   GAMMA RAY
 SPR .MV     05 010 01 00:   SPONTANEOUS POTENTIAL FROM RES.
 CILD.MMHO   05 110 46 00:   CONDUCTIVITY INDUCTION LOG DEEP
 ASN .OHMM   05 041 16 00:   AMPLIFIED SHORT NORMAL 16"
 ILD .OHMM   05 120 46 00:   INDUCTION LOG DEEP
~PARAMETER INFORMATION
#MNEM.UNIT          VALUE    DESCRIPTION
#----------   ------------   ------------------------------
 PD  .                 GL:   PERMANENT DATUM
 EPD .F              5213:   ELEVATION PERMANENT DATUM
 LMF .                 KB:   LOG MEASURED FROM
 DAPD.F                 6:   FEET ABOVE PERMANENT DATUM
 DMF .                 KB:   DRILLING MEASURED FROM
 EKB .F              5219:   KELLING BUSHING
 EGL .F              5213:   GROUND LEVEL
 DATE.             8-2-61:   RUN DATE
 RUN .                  1:   RUN NUMBER
 DD  .F               920:   DEPTH DRILLER
 DL  .F               921:   DEPTH LOGGER
 BLI .F               920:   BOTTOM LOG INTERVAL
 TLI .F               100:   TOP LOG INTERVAL
 BS  .IN             6.75:   BIT SIZE
 BSD .F               920:   BIT SIZE AT DEPTH
 DFT .       OIL EMULSION:   DRILLING FLUID TYPE
 DFD .                9.2:   DRILLING FLUID DENSITY
 DFV .                 55:   DRILLING FLUID VISCOSITY
 MFSS.                  M:   MUD FILTRATE SAMPLE SOURCE
 MCSS.                  M:   MUD CAKE SAMPLE SOURCE
 RMB .OHMM            .75:   RESISTIVITY MUD AT BHT
 BHT .F                80:   BOTTOM HOLE TEMPERATURE
 TCS .HRS               1:   TIME CURCULATED STOPPED
 MRT .F                80:   MAXIMUM RECORDED TEMPERATURE
 LUN .               2552:   LOGGING UNIT NUMBER
 LUL .                RIV:   LOGGING UNIT LOCATION
 ENGI.             RANDLE:   RECORDING ENGINEER
 WITN.          VORGENSEN:   WITNESSED BY
 CLNT.            A2DTECH:   CLIENT CODE
 ORIG.       2", 5" PRINT:   ORIGIN OF DATA
 UWI .       490250632800:   UNIQUE WELL ID
 DICO. A2D Technologies, Inc.:   DIGITIZING COMPANY
~OTHER INFORMATION
~A   DEPT       GR        SPR       CILD        ASN        ILD   
# ...
  522.0000  -999.2500   -47.2151   108.7174    10.8591     9.2404
  522.5000  -999.2500   -47.1878   108.7274    10.8430     9.2067
  523.0000  -999.2500   -47.2036   108.7233    10.8253     9.1651
  523.5000  -999.2500   -47.2644   108.7171    10.8107     9.1385
  524.0000  -999.2500   -47.3233   108.7132    10.7904     9.0821
  524.5000  -999.2500   -47.3851   108.7107    10.7795     9.1234
  525.0000  -999.2500   -47.4071   108.7092    10.7244     9.1031
  525.5000  -999.2500   -47.4238   108.7097    10.6538     8.9605
  526.0000  -999.2500   -47.4409   108.7118    10.5894     8.8592
  526.5000  -999.2500   -47.4575   109.2184    10.5214     8.7364
  527.0000  -999.2500   -47.4743   109.7194    10.4508     8.6284
  527.5000  -999.2500   -47.4909   113.7274    10.3213     8.5062
  528.0000  -999.2500   -47.5076   115.7315    10.2041     8.3937
  528.5000  -999.2500   -47.5243   116.7335    10.0743     8.3148
  529.0000  -999.2500   -47.5410   121.5158     9.9637     7.9373
  529.5000  -999.2500   -47.5578   125.3416     9.7475     7.5929
  530.0000  -999.2500   -47.5746   129.1674     9.4271     7.2162
  530.5000  -999.2500   -47.5929   132.9933     9.1402     7.1053
  531.0000  -999.2500   -47.5966   137.7755     8.9549     7.0314
  531.5000  -999.2500   -47.5946   138.7776     8.7114     6.9569
  532.0000  -999.2500   -47.5980   139.7796     8.5671     6.8694
  532.5000  -999.2500   -47.5929   139.7796     8.5630     6.8655
  533.0000  -999.2500   -47.6031   139.7796     8.5802     6.8496
  533.5000  -999.2500   -47.5225   139.7796     8.6413     7.0037
  534.0000  -999.2500   -47.3906   136.1184     8.8190     7.2571
  534.5000  -999.2500   -47.2800   133.1895     9.0675     7.4660
  535.0000  -999.2500   -47.1439   130.2605     9.3176     7.6928
  535.5000  -999.2500   -46.8698   127.3316     9.4874     7.9333
  536.0000  -999.2500   -46.5663   124.4026     9.4731     7.9890
  536.5000  -999.2500   -46.3663   120.7415     9.4947     8.0112
  537.0000  -999.2500   -46.4931   120.7415     9.4958     8.0336
  537.5000  -999.2500   -46.6468   120.7415     9.5121     8.0713
  538.0000  -999.2500   -46.7950   121.7435     9.4983     7.9854
  538.5000  -999.2500   -46.9345   123.5653     9.4087     7.8393
  539.0000  -999.2500   -47.0999   125.0228     9.3293     7.7160
  539.5000  -999.2500   -47.2056   126.4802     9.2472     7.5899
  540.0000  -999.2500   -47.1834   127.9377     9.1694     7.4479
  540.5000  -999.2500   -47.1306   129.7595     9.0814     7.3524
  541.0000  -999.2500   -47.0738   129.7595     9.0166     7.3826
  541.5000  -999.2500   -47.0219   129.2585     9.0885     7.4956
  542.0000  -999.2500   -46.9673   128.2565     9.1905     7.6054
  542.5000  -999.2500   -46.9143   127.7555     9.2791     7.7109
  543.0000  -999.2500   -46.8599   125.8767     9.3738     7.8199
  543.5000  -999.2500   -46.8025   124.3737     9.4636     7.9243
  544.0000  -999.2500   -46.7768   122.8707     9.5590     8.0366
  544.5000  -999.2500   -46.7519   121.3677     9.6459     8.1443
  545.0000  -999.2500   -46.7288   119.8647     9.7513     8.2226
  545.5000  -999.2500   -46.7048   118.7375     9.8163     8.2611
  546.0000  -999.2500   -46.6820   118.7375     9.8001     8.1642
  546.5000  -999.2500   -46.6572   119.6321     9.7785     8.0805
  547.0000  -999.2500   -46.6360   120.3478     9.6897     8.0588
  547.5000  -999.2500   -46.6072   121.0636     9.6087     8.0291
  548.0000  -999.2500   -46.5942   121.7793     9.5304     7.9957
  548.5000  -999.2500   -46.5657   122.4950     9.4373     7.9666
  549.0000  -999.2500   -46.5123   123.2107     9.4545     7.9334
  549.5000  -999.2500   -46.4733   123.7475     9.5082     7.9060
  550.0000  -999.2500   -46.4207   122.4592     9.5486     7.8656
  550.5000  -999.2500   -46.3901   120.7415     9.5946     7.9025
  551.0000  -999.2500   -46.5319   119.0238     9.6426     7.9662
  551.5000  -999.2500   -46.5641   117.7355     9.6590     8.0280
  552.0000  -999.2500   -46.5962   119.7370     9.6590     8.0704
  552.5000  -999.2500   -46.6283   119.4242     9.6716     8.0642
  553.0000  -999.2500   -46.6604   119.1114     9.6931     8.1879
  553.5000  -999.2500   -46.7620   119.1210     9.7229     8.1726
  554.0000  -999.2500   -46.6791   119.2601     9.7139     8.0935
  554.5000  -999.2500   -46.5939   119.8490     9.6818     8.0327
  555.0000  -999.2500   -46.5130   120.4378     9.6173     7.9688
  555.5000  -999.2500   -46.4283   121.3273     9.5741     7.9072
  556.0000  -999.2500   -46.3461   122.9957     9.5848     7.8426
  556.5000  -999.2500   -46.2618   124.6640     9.6129     7.7831
  557.0000  -999.2500   -46.1802   125.9357     9.6230     7.7125
  557.5000  -999.2500   -46.0942   126.1487     9.5893     7.6663
  558.0000  -999.2500   -46.0159   126.3616     9.5180     7.6442
  558.5000  -999.2500   -45.9240   126.5746     9.4219     7.6126
  559.0000  -999.2500   -45.9439   126.7876     9.3634     7.5856
  559.5000  -999.2500   -46.0442   127.0006     9.3357     7.5562
  560.0000  -999.2500   -46.1256   127.2136     9.3255     7.5281
  560.5000  -999.2500   -46.2151   127.4265     9.3666     7.4993
  561.0000  -999.2500   -46.3019   127.6395     9.3791     7.4707
  561.5000  -999.2500   -46.3867   127.8837     9.3749     7.4420
  562.0000  -999.2500   -46.4789   127.2730     9.3432     7.4133
  562.5000  -999.2500   -46.5555   127.8736     9.3096     7.3847
  563.0000  -999.2500   -46.6646   128.4742     9.2752     7.3559
  563.5000  -999.2500   -46.6119   129.0748     9.2254     7.3274
  564.0000  -999.2500   -46.3485   129.6754     9.1739     7.2979
  564.5000  -999.2500   -46.1063   130.2921     9.1238     7.2771
  565.0000  -999.2500   -45.8862   130.8927     9.1152     7.3529
  565.5000  -999.2500   -45.7379   128.8478     9.1817     7.4568
  566.0000  -999.2500   -45.5747   126.9260     9.2755     7.5554
  566.5000  -999.2500   -45.5176   125.3847     9.4011     7.6565
  567.0000  -999.2500   -45.6000   124.3337     9.5624     7.7563
  567.5000  -999.2500   -45.6667   123.2827     9.6898     7.8569
  568.0000  -999.2500   -45.7057   122.2309     9.7590     7.9633
  568.5000  -999.2500   -45.6863   121.1773     9.7885     8.0038
  569.0000  -999.2500   -45.5847   120.1202     9.8301     8.0350
  569.5000  -999.2500   -45.5014   118.8566     9.8196     8.0693
  570.0000  -999.2500   -45.5305   119.6346     9.7733     8.1025
  570.5000  -999.2500   -45.6420   120.5815     9.7373     8.1360
  571.0000  -999.2500   -45.7151   121.5284     9.6950     8.1676
  571.5000  -999.2500   -45.7382   122.4753     9.6510     8.0928
  572.0000  -999.2500   -45.7721   123.4222     9.5751     7.9825
  572.5000  -999.2500   -45.7996   124.3690     9.5070     7.8793
  573.0000  -999.2500   -45.8331   125.3159     9.4532     7.7725
  573.5000  -999.2500   -45.8590   126.4594     9.4129     7.6679
  574.0000  -999.2500   -45.8969   127.8894     9.3699     7.5615
  574.5000  -999.2500   -45.8480   129.3194     9.2983     7.4572
  575.0000  -999.2500   -45.7471   130.7494     9.1890     7.3572
  575.5000  -999.2500   -45.6641   131.8957     9.0687     7.2080
  576.0000  -999.2500   -45.5734   134.8947     8.9389     7.0710
  576.5000  -999.2500   -45.4862   137.3972     8.7906     6.9348
  577.0000  -999.2500   -45.3984   139.8997     8.6846     6.7873
  577.5000  -999.2500   -45.3027   142.9288     8.5785     6.7661
  578.0000  -999.2500   -45.2137   142.9288     8.5146     6.7705
  578.5000  -999.2500   -45.1046   143.9318     8.4598     6.7693
  579.0000  -999.2500   -45.1512   142.6981     8.4668     6.7681
  579.5000  -999.2500   -45.2851   141.4468     8.4914     6.7786
  580.0000  -999.2500   -45.4062   140.1956     8.5882     6.8568
  580.5000  -999.2500   -45.5315   138.9443     8.6936     6.9307
  581.0000  -999.2500   -45.6570   137.6931     8.7828     7.0039
  581.5000  -999.2500   -45.7049   136.2409     8.8622     7.0789
  582.0000  -999.2500   -45.6983   134.4534     8.9147     7.1500
  582.5000  -999.2500   -45.7016   132.6658     8.9565     7.2302
