~VERSION INFORMATION
 VERS.                2.0:   CWLS LOG ASCII STANDARD - VERSION 2.0
 WRAP.                 NO:   ONE LINE PER DEPTH STEP
~WELL INFORMATION
#MNEM.UNIT      DATA TYPE    INFORMATION
#----------   ------------   ------------------------------
 STRT.F           21.0000:   START DEPTH
 STOP.F          495.0000:   STOP DEPTH
 STEP.F            0.5000:   STEP LENGTH
 NULL.          -999.2500:   NO VALUE
 COMP. FENIX & SCISSON U.S. NAVY:   COMPANY
 WELL.        NPR #42-S-3:   WELL
 FLD .             TEAPOT:   FIELD
 LOC .       S3 T38N R78W:   LOCATION
 CNTY.            NATRONA:   COUNTY
 STAT.            WYOMING:   STATE
 CTRY. UNITED STATES OF AMERICA:   COUNTRY
 SRVC.              Welex:   SERVICE COMPANY
 DATE.        05-MAY-1977:   LOGDATE
 API .       490251034800:   API NUMBER
~CURVE INFORMATION
#MNEM.UNIT       API CODE    CURVE DESCRIPTION
#----------   ------------   ------------------------------
 DEPT.F                  :   
 SPR .MV     07 010 01 00:   SPONTANEOUS POTENTIAL
 SGRD.OHMM   07 221 05 00:   SHALLOW SHORT GUARD RESISTIVITY
 ILD .OHMM   07 120 46 00:   INDUCTION LOG DEEP
 ILM .OHMM   07 120 44 00:   INDUCTION LOG MEDIUM
 GRD .GAPI   45 310 01 00:   GAMMA RAY FROM DENSITY LOG
 CALD.IN     45 280 60 00:   CALIPER FROM DENSITY LOG
 CORR.G/C3   45 356 01 00:   DENSITY CORRECTION
 RHOB.G/C3   45 350 01 00:   BULK DENSITY
 DPHI.DEC    45 890 12 00:   DENSITY POROSITY SANDSTONE
~PARAMETER INFORMATION
#MNEM.UNIT          VALUE    DESCRIPTION
#----------   ------------   ------------------------------
 PD  .                 GL:   PERMANENT DATUM
 EPD .F              5120:   ELEVATION PERMANENT DATUM
 LMF .                 GL:   LOG MEASURED FROM
 DMF .                 GL:   DRILLING MEASURED FROM
 EGL .F              5120:   GROUND LEVEL
 DATE.        05-MAY-1977:   RUN DATE
 RUN .                  1:   RUN NUMBER
 DD  .F               490:   DEPTH DRILLER
 DL  .F               495:   DEPTH LOGGER
 BLI .F               493:   BOTTOM LOG INTERVAL
 TLI .F                20:   TOP LOG INTERVAL
 CS  .IN            8.625:   CASING SIZE
 CBD .F                25:   CASING BOTTOM DRILLER
 CBL .F                25:   CASING BOTTOM LOGGER
 BS  .IN            7.875:   BIT SIZE
 BSD .F               490:   BIT SIZE AT DEPTH
 DFT .            KCL MUD:   DRILLING FLUID TYPE
 DFD .                8.8:   DRILLING FLUID DENSITY
 DFV .                 34:   DRILLING FLUID VISCOSITY
 DFPH.                8.0:   DRILLING FLUID PH
 DFL .                8.4:   DRILLING FLUID LOSS
 MSS .           FLOWLINE:   MUD SAMPLE SOURCE
 RMS .OHMM           0.26:   RESISTIVITY MUD SAMPLE
 MST .F                60:   MUD SAMPLE TEMPERATURE
 RMF .OHMM           0.14:   RESISTIVITY MUD FILTRATE SAMPLE
 MFST.F                60:   MUD FILTRATE SAMPLE TEMPERATURE
 RMC .OHMM           0.41:   RESISTIVITY MUD CAKE
 MCST.F                60:   MUD CAKE SAMPLE TEMPERATURE
 MFSS.           FANN KIT:   MUD FILTRATE SAMPLE SOURCE
 MCSS.            FANNKIT:   MUD CAKE SAMPLE SOURCE
 RMB .OHMM           0.21:   RESISTIVITY MUD AT BHT
 BHT .F                71:   BOTTOM HOLE TEMPERATURE
 TCS .HRS            0130:   TIME CURCULATED STOPPED
 MRT .F                71:   MAXIMUM RECORDED TEMPERATURE
 LUN .               8611:   LOGGING UNIT NUMBER
 LUL .             CASPER:   LOGGING UNIT LOCATION
 ENGI.            C. DOAK:   RECORDING ENGINEER
 WITN.            R. LYON:   WITNESSED BY
 CLNT.            A2DTECH:   CLIENT CODE
 ORIG.           5" PRINT:   ORIGIN OF DATA
 UWI .       490251034800:   UNIQUE WELL ID
 DICO. A2D Technologies, Inc.:   DIGITIZING COMPANY
~OTHER INFORMATION
~A   DEPT      SPR       SGRD        ILD        ILM         GRD        CALD       CORR       RHOB       DPHI 
# ...
  349.5000   -37.6392    20.0052    14.3691    15.9349    90.4498     7.9310     0.0105     2.4236     0.1497
  350.0000   -37.7980    20.0000    14.0713    17.0866    87.4230     7.9311     0.0097     2.4207     0.1510
  350.5000   -37.9568    20.2736    13.9803    17.2991    83.9865     7.9316     0.0105     2.4216     0.1515
  351.0000   -37.9693    20.1293    13.8724    13.7733    83.8286     7.9321     0.0120     2.4237     0.1509
  351.5000   -38.2769    19.5778    13.9655    14.7514    85.0537     7.9325     0.0120     2.4269     0.1485
  352.0000   -38.7333    19.5739    13.8668    16.6961    86.3973     7.9330     0.0128     2.4349     0.1431
  352.5000   -39.1898    19.5700    13.5802    14.6402    86.6995     7.9334     0.0128     2.4387     0.1407
  353.0000   -39.3486    19.7024    13.2082    16.1371    85.4979     7.9339     0.0106     2.4395     0.1410
  353.5000   -39.6562    20.1090    13.2056    17.1443    84.1460     7.9343     0.0098     2.4342     0.1436
  354.0000   -39.8175    20.2441    13.2942    15.9955    83.2448     7.9347     0.0091     2.4223     0.1505
  354.5000   -39.9763    20.6630    13.3835    14.9249    84.2993     7.9353     0.0091     2.4258     0.1463
  355.0000   -40.2839    20.6586    13.2736    15.5500    87.6339     7.9357     0.0091     2.4320     0.1439
  355.5000   -40.4427    20.3708    12.7472    15.9808    90.8450     7.9361     0.0069     2.4246     0.1473
  356.0000   -40.4526    19.9498    12.3980    12.9896    93.3266     7.9366     0.0047     2.4126     0.1553
  356.5000   -40.4628    19.0061    12.7421    14.9049    95.1325     7.9370     0.0031     2.4141     0.1571
  357.0000   -40.4751    17.9827    12.9171    14.9138    95.8859     7.9374     0.0025     2.4201     0.1508
  357.5000   -40.6339    17.9791    12.4763    13.4316    93.6317     7.9379     0.0040     2.4263     0.1487
  358.0000   -40.6439    18.4780    12.3029    15.8418    90.4752     7.9384     0.0055     2.4344     0.1451
  358.5000   -40.6539    19.3877    12.1320    15.1948    90.6271     7.9388     0.0062     2.4381     0.1409
  359.0000   -40.6639    19.7889    12.1464    13.6985    93.4685     7.9393     0.0048     2.4352     0.1435
  359.5000   -40.6882    19.3790    12.5518    14.8738    97.2469     7.9397     0.0049     2.4299     0.1468
  360.0000   -40.8352    18.5900    12.7242    18.1594    97.0980     7.9401     0.0070     2.4269     0.1474
  360.5000   -40.6938    18.2058    12.4606    16.9440    94.5430     7.9406     0.0078     2.4336     0.1417
  361.0000   -40.7063    17.9529    12.3725    11.3558    93.9426     7.9260     0.0093     2.4509     0.1360
  361.5000   -40.7163    17.9493    12.2006    11.9188    95.8993     7.9265     0.0101     2.4562     0.1327
  362.0000   -40.8751    17.9457    12.0311    13.2558    98.3068     7.9270     0.0116     2.4539     0.1306
  362.5000   -41.0342    17.9421    12.1120    15.2577    99.3735     7.9124     0.0123     2.4600     0.1279
  363.0000   -41.0464    18.3175    12.4509    16.1187    97.4078     7.9129     0.0124     2.4630     0.1276
  363.5000   -41.2052    19.2548    12.5317    14.7308    94.5521     7.9134     0.0101     2.4542     0.1312
  364.0000   -41.2152    18.9470    12.2721    15.2423    91.3957     7.9138     0.0087     2.4435     0.1351
  364.5000   -41.2252    18.8131    12.1859    17.6108    90.4945     7.9142     0.0072     2.4383     0.1399
  365.0000   -41.2352    18.9404    12.4381    18.9919    92.9023     7.9147     0.0072     2.4376     0.1410
  365.5000   -41.2455    19.4650    12.6082    16.6547    93.8061     7.9152     0.0079     2.4383     0.1413
  366.0000   -41.2576    19.4611    12.6929    17.9773    91.9792     7.9156     0.0080     2.4406     0.1392
  366.5000   -41.2676    19.4572    12.5160    16.6422    92.9071     7.9161     0.0087     2.4429     0.1371
  367.0000   -41.2776    19.4533    12.3421    13.6219    94.7130     7.9165     0.0095     2.4421     0.1383
  367.5000   -41.2876    19.4493    12.4321    15.6305    95.3160     7.9169     0.0088     2.4369     0.1401
  368.0000   -41.2976    19.4445    12.5084    16.1733    94.2648     7.9024     0.0065     2.4332     0.1432
  368.5000   -41.1588    19.3070    12.1651    15.6200    90.9580     7.9028     0.0065     2.4339     0.1443
  369.0000   -41.0224    18.9080    11.9137    15.4010    89.3053     7.9034     0.0073     2.4392     0.1395
  369.5000   -40.8811    18.5173    11.5077    17.0731    89.9083     7.9038     0.0088     2.4478     0.1335
  370.0000   -40.8936    18.1346    11.2699    17.3044    91.1729     7.9042     0.0096     2.4572     0.1305
  370.5000   -40.7548    18.0073    11.2677    15.5990    92.7687     7.8896     0.0103     2.4602     0.1299
  371.0000   -40.7649    18.2528    11.3512    16.4767    93.3716     7.8901     0.0104     2.4602     0.1287
  371.5000   -40.6260    18.2469    11.1063    15.5874    93.9746     7.8906     0.0120     2.4685     0.1221
  372.0000   -40.1920    17.8718    10.2489    10.6649    94.5776     7.8910     0.0134     2.4812     0.1137
  372.5000   -40.0532    17.3814     9.9442    11.9870    91.7219     7.8915     0.0141     2.4872     0.1122
  373.0000   -39.6143    17.2585    10.5786    14.0419    92.1745     7.8920     0.0134     2.4752     0.1199
  373.5000   -39.0315    17.0188    10.7981    14.6312    94.1579     7.8924     0.0119     2.4775     0.1160
  374.0000   -38.5843    16.8993    10.9452    14.7263    91.8770     7.8929     0.0112     2.4813     0.1139
  374.5000   -38.0098    17.3675    11.2490    16.3479    92.4799     7.8933     0.0121     2.4738     0.1199
  375.0000   -37.4271    18.0973    11.8028    18.9274    95.3385     7.8937     0.0135     2.4671     0.1232
  375.5000   -36.9906    18.7282    12.7301    17.3571    95.7907     7.9091     0.0142     2.4656     0.1253
  376.0000   -36.2565    19.0107    13.1860    19.2416    93.0858     7.9096     0.0157     2.4454     0.1331
  376.5000   -35.5225    21.0474    14.8082    22.2316    88.2752     7.9251     0.0165     2.4274     0.1477
  377.0000   -35.0709    24.8294    15.8619    27.1426    84.3040     7.9255     0.0180     2.4087     0.1621
  377.5000   -34.3545    29.0899    16.6428    31.3603    77.9025     7.9409     0.0188     2.3871     0.1776
  378.0000   -34.0669    36.5138    17.8271    35.4917    76.3999     7.9414     0.0173     2.3556     0.1992
  378.5000   -33.7767    40.2055    19.4946    38.5398    77.0032     7.9418     0.0151     2.3377     0.2010
  379.0000   -33.3403    41.3234    20.1742    39.3320    77.7565     7.9273     0.0128     2.3414     0.1992
  379.5000   -33.0552    38.2960    22.6782    38.5108    78.0587     7.9268     0.0121     2.3444     0.1968
  380.0000   -32.6187    34.5268    24.7995    38.4979    78.9624     7.9132     0.0091     2.3385     0.2004
  380.5000   -32.6312    36.0590    25.3127    39.5643    79.5654     7.9137     0.0069     2.3370     0.2015
  381.0000   -32.4899    44.8491    25.3063    40.3776    79.0737     7.9141     0.0069     2.3400     0.1982
  381.5000   -32.5024    41.8509    26.7358    40.3607    77.6138     7.8995     0.0077     2.3440     0.1940
  382.0000   -32.5124    40.7044    27.1029    39.7947    77.4645     7.9000     0.0077     2.3513     0.1928
  382.5000   -32.3735    40.6962    25.4660    38.9671    77.9175     7.9005     0.0085     2.3550     0.1907
  383.0000   -32.5327    40.4085    25.1135    38.1565    78.8212     7.9009     0.0092     2.3535     0.1916
  383.5000   -32.5448    39.8471    26.3485    38.1830    80.0256     7.8864     0.0085     2.3528     0.1919
  384.0000   -32.5548    39.5654    25.2758    38.6572    81.8316     7.8869     0.0078     2.3521     0.1928
  384.5000   -32.7136    39.5574    22.7802    39.4552    82.1338     7.8873     0.0070     2.3505     0.1940
  385.0000   -32.7236    39.8231    22.9674    38.8986    80.4815     7.8878     0.0055     2.3469     0.1970
  385.5000   -32.7336    39.5396    22.6213    38.3531    80.7837     7.9032     0.0056     2.3424     0.1997
