~VERSION INFORMATION
 VERS.                2.0:   CWLS LOG ASCII STANDARD - VERSION 2.0
 WRAP.                 NO:   ONE LINE PER DEPTH STEP
~WELL INFORMATION
#MNEM.UNIT      DATA TYPE    INFORMATION
#----------   ------------   ------------------------------
 STRT.F           30.0000:   START DEPTH
 STOP.F          750.0000:   STOP DEPTH
 STEP.F            0.5000:   STEP LENGTH
 NULL.          -999.2500:   NO VALUE
 COMP. FENIX & SCISSON INC:   COMPANY
 WELL. TEAPOT DOME SX #38-11:   WELL
 FLD .             TEAPOT:   FIELD
 LOC .      S11 T38N R78W:   LOCATION
 CNTY.            NATRONA:   COUNTY
 STAT.            WYOMING:   STATE
 CTRY. UNITED STATES OF AMERICA:   COUNTRY
 SRVC.            Unknown:   SERVICE COMPANY
 DATE.        23-FEB-1978:   LOGDATE
 API .       490251058200:   API NUMBER
~CURVE INFORMATION
#MNEM.UNIT       API CODE    CURVE DESCRIPTION
#----------   ------------   ------------------------------
 DEPT.F                  :   
 CALD.IN     45 280 60 00:   CALIPER FROM DENSITY LOG
 GRD .GAPI   45 310 01 00:   GAMMA RAY FROM DENSITY LOG
 RHOB.G/C3   45 350 01 00:   BULK DENSITY
 DPHI.DEC    45 890 12 00:   DENSITY POROSITY SANDSTONE
 CORR.G/C3   45 356 01 00:   DENSITY CORRECTION
 SPR .MV     07 010 01 00:   SPONTANEOUS POTENTIAL FROM RES. LOG
 SN  .OHMM   07 040 16 00:   SHORT NORMAL 16'
 ILD .OHMM   07 120 46 00:   INDUCTION LOG DEEP
~PARAMETER INFORMATION
#MNEM.UNIT          VALUE    DESCRIPTION
#----------   ------------   ------------------------------
 PD  .                 GL:   PERMANENT DATUM
 EPD .F              5204:   ELEVATION PERMANENT DATUM
 LMF .                 KB:   LOG MEASURED FROM
 DAPD.F                 4:   FEET ABOVE PERMANENT DATUM
 DMF .                 KB:   DRILLING MEASURED FROM
 EKB .F              5208:   KELLING BUSHING
 EGL .F              5204:   GROUND LEVEL
 DATE.            2-23-78:   RUN DATE
 RUN .                  1:   RUN NUMBER
 DD  .F               755:   DEPTH DRILLER
 DL  .F               751:   DEPTH LOGGER
 BLI .F               745:   BOTTOM LOG INTERVAL
 TLI .F                45:   TOP LOG INTERVAL
 CS  .IN            8.625:   CASING SIZE
 CBD .F                40:   CASING BOTTOM DRILLER
 CBL .F                40:   CASING BOTTOM LOGGER
 BS  .IN            7.875:   BIT SIZE
 BSD .F               755:   BIT SIZE AT DEPTH
 DFT .         LIGNO SULF:   DRILLING FLUID TYPE
 DFD .                8.7:   DRILLING FLUID DENSITY
 DFV .                 33:   DRILLING FLUID VISCOSITY
 DFPH.                 10:   DRILLING FLUID PH
 DFL .                  4:   DRILLING FLUID LOSS
 MSS .          FLOW LINE:   MUD SAMPLE SOURCE
 RMS .OHMM              2:   RESISTIVITY MUD SAMPLE
 MST .F                60:   MUD SAMPLE TEMPERATURE
 RMF .OHMM            1.9:   RESISTIVITY MUD FILTRATE SAMPLE
 MFST.F                62:   MUD FILTRATE SAMPLE TEMPERATURE
 RMC .OHMM            3.5:   RESISTIVITY MUD CAKE
 MCST.F                60:   MUD CAKE SAMPLE TEMPERATURE
 MFSS.               MEAS:   MUD FILTRATE SAMPLE SOURCE
 MCSS.               MEAS:   MUD CAKE SAMPLE SOURCE
 RMB .OHMM           1.69:   RESISTIVITY MUD AT BHT
 BHT .F                71:   BOTTOM HOLE TEMPERATURE
 TCS .HRS               3:   TIME CURCULATED STOPPED
 MRT .F                71:   MAXIMUM RECORDED TEMPERATURE
 LUN .               2958:   LOGGING UNIT NUMBER
 LUL .               CASP:   LOGGING UNIT LOCATION
 ENGI.            POINTER:   RECORDING ENGINEER
 WITN.           MCGINLEY:   WITNESSED BY
 CLNT.            A2DTECH:   CLIENT CODE
 ORIG.       2", 5" PRINT:   ORIGIN OF DATA
 UWI .       490251058200:   UNIQUE WELL ID
 DICO. A2D Technologies, Inc.:   DIGITIZING COMPANY
~OTHER INFORMATION
~A   DEPT     CALD         GRD      RHOB       DPHI       CORR        SPR         SN        ILD   
# ...
  597.0000     8.1376    92.3642     2.3792     0.1682     0.0129   -45.8744    13.4505    11.9835
  597.5000     8.1059    98.0714     2.3739     0.1706     0.0108   -45.3200    13.4746    12.0107
  598.0000     8.0729    99.2769     2.3687     0.1730     0.0097   -44.8482    13.4987    12.0293
  598.5000     8.0690    92.2628     2.3656     0.1755     0.0152   -45.0953    13.5229    12.0479
  599.0000     8.0522    85.8601     2.3633     0.1741     0.0207   -45.4254    13.5471    12.0666
  599.5000     8.0519    84.4057     2.3603     0.1697     0.0262   -45.4221    13.5713    12.0852
  600.0000     8.0846    85.6009     2.3732     0.1675     0.0289   -45.2451    13.5956    12.0946
  600.5000     8.1211    86.2118     2.3769     0.1676     0.0289   -45.0752    13.6200    12.0611
  601.0000     8.1576    86.0593     2.3765     0.1678     0.0289   -44.9068    13.6443    12.0309
  601.5000     8.1905    85.8932     2.3759     0.1675     0.0274   -44.7332    13.6688    12.0006
  602.0000     8.1910    85.0518     2.3752     0.1623     0.0378   -44.4514    13.6931    11.9704
  602.5000     8.1909    83.9292     2.3761     0.1484     0.0533   -43.8041    13.7173    11.9403
  603.0000     8.1909    82.8029     2.4049     0.1344     0.0650   -43.1650    13.7423    11.9103
  603.5000     8.1909    82.9859     2.4331     0.1204     0.0639   -42.6461    13.8264    11.8723
  604.0000     8.1909    90.0626     2.4576     0.1021     0.0628   -43.4053    14.2107    11.9198
  604.5000     8.1909    88.5055     2.4820     0.0789     0.0658   -44.0629    14.6057    12.1528
  605.0000     8.1909    83.0462     2.5134     0.0571     0.0675   -43.8386    15.0116    13.0937
  605.5000     8.1909    77.6494     2.5494     0.0668     0.0336   -43.6132    16.0726    13.9804
  606.0000     8.1909    74.5548     2.5565     0.0948     0.0002   -42.6265    17.3825    14.4222
  606.5000     8.1909    76.7853     2.5162     0.1034    -0.0258   -41.6049    18.8025    14.8776
  607.0000     8.1909    81.2734     2.4787     0.1170    -0.0211   -40.5692    20.3430    15.2382
  607.5000     8.1909    85.7645     2.4594     0.1300    -0.0134   -40.5781    21.2365    15.2333
  608.0000     8.1909    90.0570     2.4441     0.1325    -0.0062   -41.1073    20.5299    14.7746
  608.5000     8.1909    89.8918     2.4221     0.1398     0.0010   -41.6474    19.4938    14.3505
  609.0000     8.1909    88.5168     2.4013     0.1470     0.0083   -42.0229    17.1980    13.9385
  609.5000     8.1909    87.1993     2.4053     0.1514     0.0099   -41.5690    15.0444    13.1209
  610.0000     8.1909    86.8235     2.4041     0.1543     0.0110   -41.7079    13.9692    12.2350
  610.5000     8.1909    86.7333     2.3984     0.1572     0.0160   -42.2626    13.0214    11.4089
  611.0000     8.1909    86.2297     2.3940     0.1574     0.0189   -42.8195    12.7179    11.0205
  611.5000     8.1909    85.8665     2.3960     0.1576     0.0188   -43.3755    12.3928    10.9545
  612.0000     8.1908    88.1257     2.3981     0.1558     0.0186   -43.7775    12.0761    10.8888
  612.5000     8.1909    90.2084     2.3946     0.1529     0.0183   -43.1121    11.8735    10.8235
  613.0000     8.1924    89.7054     2.4037     0.1500     0.0181   -42.4602    11.8735    10.7586
  613.5000     8.1975    89.2627     2.4028     0.1472     0.0178   -42.6063    11.8735    10.6939
  614.0000     8.2025    88.8221     2.4085     0.1448     0.0176   -42.8892    11.8515    10.6288
  614.5000     8.2074    88.6290     2.4102     0.1451     0.0173   -43.0115    11.7937    10.5911
  615.0000     8.2108    88.4421     2.4113     0.1452     0.0170   -42.0480    11.7358    10.5268
  615.5000     8.2107    88.2472     2.4118     0.1441     0.0185   -41.4360    11.6784    10.4632
  616.0000     8.2107    88.0569     2.4108     0.1426     0.0210   -41.7816    11.6213    10.4003
  616.5000     8.2107    88.8529     2.4142     0.1412     0.0236   -41.3475    11.5644    10.3385
  617.0000     8.2107    91.2671     2.4176     0.1398     0.0262   -41.4847    11.5078    10.2435
  617.5000     8.2107    93.3252     2.4180     0.1381     0.0288   -42.0299    11.4431    10.2618
  618.0000     8.2107    92.4965     2.4255     0.1335     0.0264   -41.9151    11.4629    10.2836
  618.5000     8.2107    91.6544     2.4360     0.1288     0.0237   -41.7670    11.4862    10.3054
  619.0000     8.2107    90.8569     2.4446     0.1245     0.0210   -41.6209    11.5095    10.3272
  619.5000     8.2107    91.1636     2.4449     0.1241     0.0183   -42.1553    11.5328    10.3491
  620.0000     8.2107    94.3820     2.4460     0.1229     0.0156   -41.4237    11.5492    10.3711
  620.5000     8.2107    97.4883     2.4466     0.1233     0.0168   -40.4197    11.5492    10.3931
  621.0000     8.2107    97.8650     2.4383     0.1264     0.0200   -40.4841    11.5492    10.4151
  621.5000     8.2107    94.5411     2.4269     0.1294     0.0233   -41.0202    11.5492    10.4372
  622.0000     8.2107    91.7712     2.4322     0.1323     0.0218   -41.5613    11.5492    10.4593
  622.5000     8.2107    90.8299     2.4396     0.1367     0.0162   -42.0913    11.5492    10.4815
  623.0000     8.2107    92.9467     2.4309     0.1411     0.0102   -42.3050    11.5492    10.5038
  623.5000     8.2107    95.3842     2.4227     0.1439     0.0108   -41.3783    11.5492    10.5312
  624.0000     8.2107    93.4613     2.4157     0.1453     0.0128   -40.7103    11.5492    10.5124
  624.5000     8.2107    91.5689     2.4087     0.1468     0.0130   -41.3786    11.5492    10.4797
  625.0000     8.2107    91.2815     2.4037     0.1464     0.0241   -42.0280    11.5492    10.4472
  625.5000     8.2107    93.7752     2.4085     0.1405     0.0365   -42.6742    11.5492    10.4148
  626.0000     8.2107    94.3057     2.4276     0.1334     0.0427   -42.9844    11.5492    10.3825
  626.5000     8.2107    93.8929     2.4466     0.1264     0.0428   -41.4743    11.5492    10.3503
  627.0000     8.2107    93.4708     2.4526     0.1205     0.0406   -41.6443    11.5492    10.3181
  627.5000     8.2107    93.5770     2.4542     0.1191     0.0352   -42.0194    11.5492    10.2861
  628.0000     8.2107    95.1220     2.4556     0.1214     0.0289   -41.2275    11.5492    10.2542
  628.5000     8.2107    96.1532     2.4567     0.1229     0.0225   -41.5783    11.5489    10.2224
  629.0000     8.2107    96.0290     2.4529     0.1225     0.0162   -41.0296    11.5612    10.1907
  629.5000     8.2107    93.6927     2.4445     0.1284     0.0098   -39.7650    11.5751    10.1591
  630.0000     8.2111    90.7377     2.4313     0.1351     0.0089   -39.6575    11.5889    10.1276
  630.5000     8.1978    91.7152     2.4179     0.1419     0.0086   -40.0068    11.6028    10.0962
  631.0000     8.1804    92.9425     2.4121     0.1487     0.0068   -40.6749    11.6167    10.0648
  631.5000     8.1631    93.7167     2.4177     0.1554     0.0051   -41.4018    11.6304    10.0335
  632.0000     8.1508    93.3944     2.4131     0.1620     0.0033   -41.2489    11.6445    10.0025
  632.5000     8.1511    93.1018     2.3877     0.1685     0.0017   -40.9902    11.6563     9.9638
  633.0000     8.1511    90.4250     2.3782     0.1749    -0.0028   -40.8383    12.0442    10.2678
  633.5000     8.1512    83.5769     2.3750     0.1838    -0.0088   -41.5218    12.5796    10.6863
  634.0000     8.1453    75.8973     2.3487     0.2007    -0.0148   -42.2435    13.1393    11.1307
  634.5000     8.1371    70.4722     2.3219     0.2175    -0.0164   -42.8934    14.0377    12.0882
  635.0000     8.1289    68.9768     2.2952     0.2344    -0.0154   -44.1514    15.2327    13.1499
  635.5000     8.1207    70.5900     2.2686     0.2513    -0.0081   -45.4846    16.5277    14.3050
  636.0000     8.1124    71.8211     2.2319     0.2548     0.0162   -46.8142    17.9338    15.5615
  636.5000     8.1042    72.3923     2.2397     0.2402     0.0405   -48.1399    19.4613    16.9283
  637.0000     8.0962    72.1696     2.2628     0.2282     0.0426   -49.0813    21.0414    18.4153
