~VERSION INFORMATION
 VERS.                2.0:   CWLS LOG ASCII STANDARD - VERSION 2.0
 WRAP.                 NO:   ONE LINE PER DEPTH STEP
~WELL INFORMATION
#MNEM.UNIT      DATA TYPE    INFORMATION
#----------   ------------   ------------------------------
 STRT.F           70.0000:   START DEPTH
 STOP.F          990.0000:   STOP DEPTH
 STEP.F            0.5000:   STEP LENGTH
 NULL.          -999.2500:   NO VALUE
 COMP. U S NAVY/INTEX OIL CO:   COMPANY
 WELL.      NPR 3 #55 S-2:   WELL
 FLD .            WILDCAT:   FIELD
 LOC .       S2 T38N R78W:   LOCATION
 CNTY.            NATRONA:   COUNTY
 STAT.            WYOMING:   STATE
 CTRY. UNITED STATES OF AMERICA:   COUNTRY
 SRVC.         Lane Wells:   SERVICE COMPANY
 DATE.        23-MAR-1960:   LOGDATE
 API .       490250968000:   API NUMBER
~CURVE INFORMATION
#MNEM.UNIT       API CODE    CURVE DESCRIPTION
#----------   ------------   ------------------------------
 DEPT.F                  :   
 SPR .MV     05 010 01 00:   SPONTANEOUS POTENTIAL FROM RES.
 ASN .OHMM   05 041 16 00:   AMPLIFIED SHORT NORMAL 16"
 ILD .OHMM   05 120 46 00:   INDUCTION LOG DEEP
 CILD.MMHO   05 110 46 00:   CONDUCTIVITY INDUCTION LOG DEEP
~PARAMETER INFORMATION
#MNEM.UNIT          VALUE    DESCRIPTION
#----------   ------------   ------------------------------
 PD  .                 GL:   PERMANENT DATUM
 EPD .F              5163:   ELEVATION PERMANENT DATUM
 LMF .                 KB:   LOG MEASURED FROM
 DAPD.F                 5:   FEET ABOVE PERMANENT DATUM
 DMF .                 KB:   DRILLING MEASURED FROM
 EKB .F              5168:   KELLING BUSHING
 EGL .F              5163:   GROUND LEVEL
 DATE.        23-MAR-1960:   RUN DATE
 RUN .                  1:   RUN NUMBER
 DD  .F              1010:   DEPTH DRILLER
 DL  .F               992:   DEPTH LOGGER
 BLI .F               990:   BOTTOM LOG INTERVAL
 TLI .F                70:   TOP LOG INTERVAL
 CS  .IN            8.625:   CASING SIZE
 CBD .F                12:   CASING BOTTOM DRILLER
 BS  .IN            7.875:   BIT SIZE
 BSD .F              1010:   BIT SIZE AT DEPTH
 DFT .   GEL-OIL EMULSION:   DRILLING FLUID TYPE
 DFD .                9.5:   DRILLING FLUID DENSITY
 DFV .                 40:   DRILLING FLUID VISCOSITY
 MSS .           FLOWLINE:   MUD SAMPLE SOURCE
 RMS .OHMM            2.8:   RESISTIVITY MUD SAMPLE
 MST .F                74:   MUD SAMPLE TEMPERATURE
 RMF .OHMM            2.0:   RESISTIVITY MUD FILTRATE SAMPLE
 MFST.F                74:   MUD FILTRATE SAMPLE TEMPERATURE
 RMC .OHMM            3.9:   RESISTIVITY MUD CAKE
 MCST.F                74:   MUD CAKE SAMPLE TEMPERATURE
 MFSS.          MUD PRESS:   MUD FILTRATE SAMPLE SOURCE
 MCSS.          MUD PRESS:   MUD CAKE SAMPLE SOURCE
 RMB .OHMM            2.8:   RESISTIVITY MUD AT BHT
 BHT .F                74:   BOTTOM HOLE TEMPERATURE
 MRT .F                74:   MAXIMUM RECORDED TEMPERATURE
 LUN .             L-4474:   LOGGING UNIT NUMBER
 LUL .             CASPER:   LOGGING UNIT LOCATION
 ENGI.             NELSON:   RECORDING ENGINEER
 WITN.          JORGENSEN:   WITNESSED BY
 CLNT.            A2DTECH:   CLIENT CODE
 ORIG.       2", 5" PRINT:   ORIGIN OF DATA
 UWI .       490250968000:   UNIQUE WELL ID
 DICO. A2D Technologies, Inc.:   DIGITIZING COMPANY
~OTHER INFORMATION
~A   DEPT      SPR          ASN        ILD      CILD  
# ...
  654.0000   -43.8414     8.0282     6.4463   155.0644
  654.5000   -43.8402     7.9487     6.3265   158.5912
  655.0000   -43.8251     7.8940     6.2948   160.5539
  655.5000   -43.7006     7.8334     6.2585   162.7589
  656.0000   -43.5628     7.7445     6.1905   164.9635
  656.5000   -43.5614     7.7036     6.1905   166.8074
  657.0000   -43.4864     7.6492     6.1224   168.1726
  657.5000   -43.4222     7.6144     6.0544   168.1662
  658.0000   -43.4206     7.6580     6.1324   168.1594
  658.5000   -43.4194     7.7715     6.2585   166.7776
  659.0000   -43.4180     7.8603     6.2585   165.9112
  659.5000   -43.5533     7.9347     6.3265   164.0176
  660.0000   -43.5792     8.0136     6.3946   161.1722
  660.5000   -43.8236     8.0821     6.4771   158.5096
  661.0000   -43.8224     8.1795     6.5306   157.1280
  661.5000   -43.8211     8.2377     6.5605   155.2496
  662.0000   -43.8197     8.3170     6.6667   154.3680
  662.5000   -43.6475     8.3914     6.7120   152.9876
  663.0000   -43.4070     8.4960     6.7347   151.6072
  663.5000   -43.2691     8.6419     6.8027   150.2258
  664.0000   -43.2568     8.7092     6.8027   149.6519
  664.5000   -43.1295     8.7371     6.8027   148.8069
  665.0000   -43.1694     8.7371     6.8027   147.4588
  665.5000   -43.4002     8.7152     6.8027   147.4519
  666.0000   -43.4699     8.6690     6.8027   147.4444
  666.5000   -43.6885     8.6205     6.8027   147.4382
  667.0000   -43.9424     8.5684     6.8027   147.5322
  667.5000   -44.0779     8.5056     6.8027   148.7981
  668.0000   -43.9399     8.4642     6.7746   150.1660
  668.5000   -43.7240     8.4103     6.7347   151.5312
  669.0000   -43.5027     8.3541     6.6912   151.5247
  669.5000   -43.2526     8.3126     6.6667   152.8920
  670.0000   -43.1967     8.2741     6.6667   150.1362
  670.5000   -43.1134     8.2605     6.6667   149.6589
  671.0000   -43.1120     8.2605     6.6794   147.3762
  671.5000   -43.2787     8.2771     6.8027   147.3695
  672.0000   -43.5190     8.3238     6.8925   145.9890
  672.5000   -43.5792     8.4100     7.0068   144.6076
  673.0000   -43.7978     8.5334     7.1120   144.6017
  673.5000   -44.0164     8.6730     7.2218   143.2169
  674.0000   -44.0983     8.8619     7.3469   141.8406
  674.5000   -44.1954     9.0510     7.4413   140.1533
  675.0000   -44.1940     9.3214     7.5510   136.3318
  675.5000   -44.1926     9.6919     7.6608   134.3430
  676.0000   -44.1910    10.8724     7.8385   130.7508
  676.5000   -44.1899    10.8975     8.0272   128.5327
  677.0000   -44.1885    11.0084     8.1261   126.3141
  677.5000   -44.1120    11.0483     8.3084   122.5614
  678.0000   -44.0492    11.0897     8.5034   120.5036
  678.5000   -44.0476    11.1443     8.6594   116.9116
  679.0000   -43.9946    11.2688     8.8435   114.2982
  679.5000   -43.7719    11.4214     8.9470   112.4748
  680.0000   -43.5519    11.7497     9.1247   108.7910
  680.5000   -43.4959    12.0100     9.2517   107.2916
  681.0000   -43.4944    12.2326     9.4123   104.4460
  681.5000   -43.4932    12.4313     9.5238   103.2750
  682.0000   -43.6284    12.5094     9.6998   101.3829
  682.5000   -43.8047    12.5726     9.7959    99.1414
  683.0000   -43.9344    12.5726     9.7959    98.3194
  683.5000   -44.0341    12.5045     9.7279    97.7541
  684.0000   -44.3006    12.4355     9.6572    97.7464
  684.5000   -44.5901    12.2925     9.5474    99.1140
  685.0000   -44.9861    12.1643     9.5057    99.1527
  685.5000   -45.1218    11.9827     9.3878   101.3576
  686.0000   -45.2568    11.7561     9.2861   103.5623
  686.5000   -45.4563    11.6504     9.2444   105.9540
  687.0000   -45.0983    11.4729     9.1837   107.9715
  687.5000   -44.7061    11.3478     9.1156   108.6886
  688.0000   -44.5191    11.1859     9.0476   110.0536
  688.5000   -44.1571    11.1436     9.0476   110.0481
  689.0000   -44.0765    11.1436     9.0476   110.0408
  689.5000   -43.9918    11.1436     9.0476   111.4080
  690.0000   -43.8796    11.2116     9.0476   111.4010
  690.5000   -43.7418    11.3766     8.9796   111.3932
  691.0000   -43.8771    11.4180     8.9796   111.8725
  691.5000   -43.8757    11.4397     8.8952   112.7542
  692.0000   -44.0111    11.3303     8.8435   112.7472
  692.5000   -44.0094    11.1434     8.7438   112.7404
  693.0000   -44.2705    11.0791     8.7021   114.1062
  693.5000   -44.5533    10.9337     8.5714   114.1003
  694.0000   -44.5516     9.5881     8.2278   141.3480
  694.5000   -44.9779     9.4668     8.1574   142.7092
  695.0000   -44.8474     9.3992     8.0869   142.7224
  695.5000   -44.5830     9.3450     8.0165   144.0836
  696.0000   -44.4525     9.3043     7.8789   145.4447
  696.5000   -44.4558     9.2636     7.8756   146.8059
  697.0000   -44.4584     9.2228     7.8052   148.1672
  697.5000   -44.3273     9.1687     7.7347   149.5283
  698.0000   -44.1974     9.1145     7.6643   150.8894
  698.5000   -44.0662     9.0335     7.5939   152.2532
  699.0000   -43.9357     8.9255     7.5905   152.2666
  699.5000   -43.9390     8.8176     7.5201   153.6276
  700.0000   -43.8078     8.8172     7.4497   153.6410
  700.5000   -43.9443     8.8840     7.3792   155.0022
  701.0000   -43.9469     8.7868     7.3087   156.3632
  701.5000   -44.0827     8.5835     7.2383   157.7242
  702.0000   -44.0853     8.4912     7.2242   159.0852
  702.5000   -43.9547     8.4523     7.1638   159.0986
  703.0000   -43.5580     8.4652     7.1604   160.4598
  703.5000   -43.4275     8.4917     7.1571   160.4730
  704.0000   -43.4301     8.5316     7.1538   161.8342
  704.5000   -43.4327     8.5985     7.1505   160.4998
  705.0000   -43.5685     8.6384     7.1472   160.5132
  705.5000   -43.5713     8.6515     7.1438   160.5264
  706.0000   -43.5739     8.6510     7.1405   161.8876
  706.5000   -43.5765     8.6372     7.0701   161.9010
  707.0000   -43.5797     8.6099     6.9996   164.6096
  707.5000   -43.5824     8.5557     6.9292   165.9708
  708.0000   -43.5850     8.2596     6.7916   170.0272
  708.5000   -43.7208     7.8560     6.5870   175.4314
  709.0000   -43.9897     7.6137     6.3152   180.8356
  709.5000   -43.9924     7.3848     6.1777   184.9326
  710.0000   -43.8619     7.1828     5.9730   187.6901
  710.5000   -43.4650     7.0883     5.9697   190.3100
  711.0000   -43.0682     7.0341     6.0336   191.6712
  711.5000   -42.8045     7.0337     6.1644   191.6846
  712.0000   -42.6734     7.1408     6.1610   191.7008
  712.5000   -42.6767     7.2480     6.2248   190.3630
  713.0000   -42.6793     7.3013     6.2886   187.6844
  713.5000   -42.8151     7.3547     6.2852   187.6976
  714.0000   -42.8177     7.4349     6.3491   186.3600
  714.5000   -42.9535     7.5017     6.3457   185.0256
  715.0000   -43.0893     7.5282     6.3416   183.6946
  715.5000   -43.4914     7.5144     6.3383   183.7080
  716.0000   -43.4940     7.5005     6.4029   182.3702
  716.5000   -43.3635     7.5136     6.3988   181.0392
  717.0000   -43.6325     7.5571     6.4626   181.0526
  717.5000   -43.7683     7.6651     6.5263   179.7150
  718.0000   -43.6377     7.7811     6.5910   178.3806
  718.5000   -43.5072     7.8882     6.6548   178.3972
  719.0000   -43.3520     7.9550     6.6506   177.0596
  719.5000   -43.1130     7.9951     6.6473   175.7286
  720.0000   -42.9825     7.9946     6.6440   175.7420
  720.5000   -42.8527     7.9807     6.6406   175.7552
  721.0000   -42.7221     7.9534     6.6373   175.7686
  721.5000   -42.7248     7.9127     6.5669   175.7820
  722.0000   -42.5936     7.8720     6.4964   175.7954
  722.5000   -42.5969     7.8178     6.4931   177.1564
  723.0000   -42.4657     7.7502     6.4227   177.1699
  723.5000   -42.4690     7.7229     6.4194   177.1834
  724.0000   -42.6048     7.7091     6.3489   178.5445
  724.5000   -42.8737     7.7356     6.3456   178.5580
  725.0000   -43.2759     7.8024     6.3423   178.5714
  725.5000   -43.6780     7.8692     6.3390   178.5876
  726.0000   -43.5474     7.8958     6.3355   179.9486
  726.5000   -43.4169     7.8818     6.3322   179.9620
