~VERSION INFORMATION
 VERS.                2.0:   CWLS LOG ASCII STANDARD - VERSION 2.0
 WRAP.                 NO:   ONE LINE PER DEPTH STEP
~WELL INFORMATION
#MNEM.UNIT      DATA TYPE    INFORMATION
#----------   ------------   ------------------------------
 STRT.F           90.0000:   START DEPTH
 STOP.F         1312.0000:   STOP DEPTH
 STEP.F            0.5000:   STEP LENGTH
 NULL.          -999.2500:   NO VALUE
 COMP. US NAVY/ INTEX OIL CO:   COMPANY
 WELL. RES 3 TEAPOT DOME NPR "S' #42-2:   WELL
 FLD .             TEAPOT:   FIELD
 LOC .       S2 T38N R78W:   LOCATION
 CNTY.            NATRONA:   COUNTY
 STAT.            WYOMING:   STATE
 CTRY. UNITED STATES OF AMERICA:   COUNTRY
 SRVC. Schlumberger Well Surveying Corp:   SERVICE COMPANY
 DATE.        17-JUL-1964:   LOGDATE
 API .       490250646400:   API NUMBER
~CURVE INFORMATION
#MNEM.UNIT       API CODE    CURVE DESCRIPTION
#----------   ------------   ------------------------------
 DEPT.F                  :   
 GR  .GAPI   30 310 01 00:   GAMMA RAY
 CALS.IN     60 280 50 00:   CALIPER FROM SONIC LOG
 DT  .US/F   60 520 32 00:   INTERVAL TRANSIT TIME
 SPR .MV     05 010 01 00:   SPONTANEOUS POTENTIAL FROM RES.
 CILD.MMHO   05 110 46 00:   CONDUCTIVITY INDUCTION LOG DEEP
 ILD .OHMM   05 120 46 00:   INDUCTION LOG DEEP
 ASN .OHMM   05 040 16 00:   AMPLIFIED SHORT NORMAL 16"
~PARAMETER INFORMATION
#MNEM.UNIT          VALUE    DESCRIPTION
#----------   ------------   ------------------------------
 PD  .                 GL:   PERMANENT DATUM
 EPD .F              5142:   ELEVATION PERMANENT DATUM
 LMF .                 KB:   LOG MEASURED FROM
 DAPD.F                 8:   FEET ABOVE PERMANENT DATUM
 DMF .                 KB:   DRILLING MEASURED FROM
 EKB .F              5150:   KELLING BUSHING
 EGL .F              5142:   GROUND LEVEL
 DATE.          7-17-1964:   RUN DATE
 RUN .                  1:   RUN NUMBER
 DD  .F              1300:   DEPTH DRILLER
 DL  .F              1310:   DEPTH LOGGER
 BLI .F              1309:   BOTTOM LOG INTERVAL
 TLI .F               107:   TOP LOG INTERVAL
 CS  .IN            12.25:   CASING SIZE
 CBD .F                10:   CASING BOTTOM DRILLER
 BS  .IN               11:   BIT SIZE
 BSD .F              1300:   BIT SIZE AT DEPTH
 DFT .            GEL-OIL:   DRILLING FLUID TYPE
 DFD .                9.6:   DRILLING FLUID DENSITY
 DFV .                 63:   DRILLING FLUID VISCOSITY
 DFPH.                  8:   DRILLING FLUID PH
 DFL .                9.6:   DRILLING FLUID LOSS
 MSS .           FLOWLINE:   MUD SAMPLE SOURCE
 RMS .OHMM           2.07:   RESISTIVITY MUD SAMPLE
 MST .F                92:   MUD SAMPLE TEMPERATURE
 RMF .OHMM           1.42:   RESISTIVITY MUD FILTRATE SAMPLE
 MFST.F                92:   MUD FILTRATE SAMPLE TEMPERATURE
 RMC .OHMM           2.33:   RESISTIVITY MUD CAKE
 MCST.F                92:   MUD CAKE SAMPLE TEMPERATURE
 MFSS.                 FP:   MUD FILTRATE SAMPLE SOURCE
 MCSS.                 FP:   MUD CAKE SAMPLE SOURCE
 TCS .HRS               1:   TIME CURCULATED STOPPED
 LUN .               4507:   LOGGING UNIT NUMBER
 LUL .              CSPR.:   LOGGING UNIT LOCATION
 ENGI.             DANNER:   RECORDING ENGINEER
 WITN.          JORGENSEN:   WITNESSED BY
 CLNT.            A2DTECH:   CLIENT CODE
 ORIG.        2" 5" PRINT:   ORIGIN OF DATA
 UWI .       490250646400:   UNIQUE WELL ID
 DICO. A2D Technologies, Inc.:   DIGITIZING COMPANY
~OTHER INFORMATION
~A   DEPT       GR       CALS         DT        SPR        CILD         ILD        ASN 
# ...
  818.0000    29.5887     6.4246    95.9603   -46.6995    92.6260    11.0324    11.7463
  818.5000    27.7356     6.2387    96.9378   -46.6537    93.7516    10.9650    11.6503
  819.0000    32.1537     6.2186    96.6968   -46.2380    94.8755    10.8981    11.5537
  819.5000    35.3469     6.2635    96.1898   -45.7267    95.9986    10.8310    11.4578
  820.0000    38.3880     6.2975    95.2560   -45.2459    96.7686    10.7639    11.3604
  820.5000    40.4391     6.4896    93.5724   -44.7304    97.1032    10.6969    11.2695
  821.0000    42.5209     6.8803    94.0161   -44.3017    97.4358    10.6294    11.2593
  821.5000    44.6091     7.3293    94.2602   -44.2754    97.5571    10.5639    11.2616
  822.0000    46.7080     7.4088    94.3273   -44.2714    97.4324    10.5274    11.2605
  822.5000    48.7438     7.4253    94.8996   -44.2853    97.3096    10.4947    11.2617
  823.0000    48.8690     8.5178    95.5321   -44.1710    97.1887    10.4607    11.2604
  823.5000    46.8049    11.0057    95.5321   -43.9104    97.0723    10.4277    11.2630
  824.0000    45.8648    11.2233    95.3309   -43.7004    96.9625    10.3932    11.2451
  824.5000    47.7541    11.2458    94.2718   -43.7199    96.8571    10.3635    11.2063
  825.0000    46.5499    11.2128    93.5957   -43.7776    96.7511    10.3535    11.1708
  825.5000    45.5522    11.1536    93.5087   -43.8267    96.6397    10.3394    11.1336
  826.0000    45.3549    11.0949    93.4296   -43.8623    97.8253    10.3257    11.0974
  826.5000    51.1788    11.0339    93.3492   -43.7107    98.1805    10.3117    11.0604
  827.0000    53.2118    11.0201    93.2679   -43.5615    98.5326    10.2979    11.0243
  827.5000    50.0374    11.0198    92.9593   -43.3072    98.8871    10.2840    10.9864
  828.0000    48.3407    11.0204    92.4222   -42.9616    99.2469    10.2702    10.9521
  828.5000    49.9561    11.0412    92.0419   -42.6215    99.6114    10.2563    10.9113
  829.0000    51.5891    11.1018    91.6617   -42.4046    99.9779    10.2424    10.8828
  829.5000    52.4816    11.1292    91.7135   -42.3216   100.3444    10.2283    10.7833
  830.0000    52.9737    11.0940    92.0515   -42.2077   100.7113    10.2146    10.7571
  830.5000    51.3736    11.1243    92.3896   -42.1228   101.0781    10.2003    10.7917
  831.0000    48.3436    11.1965    92.6606   -41.9604   101.4445    10.1870    10.8152
  831.5000    44.7691    11.2251    92.7874   -41.7587   101.7297    10.1715    10.8449
  832.0000    41.7731    11.1775    92.8626   -41.5242   101.9509    10.1659    10.8711
  832.5000    42.1479    11.0649    92.9217   -41.2395   102.1710    10.2180    10.8991
  833.0000    42.9407    11.1056    92.6245   -40.9792   102.3914    10.2735    10.9260
  833.5000    42.3565    10.9894    92.0941   -40.7004   102.5951    10.3282    10.9540
  834.0000    42.2996    10.9190    91.9492   -40.4434   101.8324    10.3834    10.9806
  834.5000    42.9469    11.0631    91.9643   -40.1536   101.1223    10.4385    11.0098
  835.0000    42.2960    11.1945    92.0240   -40.1186   100.4122    10.4934    11.0337
  835.5000    41.6195    11.2210    92.0836   -40.2812    99.7020    10.5494    11.0780
  836.0000    41.0278    11.2215    92.1185   -40.4034    98.9919    10.6028    11.2556
  836.5000    42.4612    11.2089    91.7169   -40.5456    98.2818    10.6611    11.4317
  837.0000    45.1777    11.1566    90.4987   -40.6766    97.5717    10.7101    11.6110
  837.5000    43.3695    11.1305    89.6264   -40.8145    96.8616    10.7692    11.7577
  838.0000    42.5590    11.1727    89.6988   -40.9473    96.5966    10.6753    11.7474
  838.5000    45.1399    11.1814    89.5217   -41.0855    98.2629    10.5220    11.5968
  839.0000    44.3290    11.1122    89.6486   -41.2155    99.7384    10.3250    11.4487
  839.5000    43.5231    11.0656    90.6452   -41.3609   101.2139    10.0547    11.3005
  840.0000    43.0900    11.1117    91.8494   -41.4375   102.6894     9.8695    11.1533
  840.5000    44.9551    11.1809    92.7160   -41.2244   104.1648     9.8242    11.0040
  841.0000    47.8464    11.2514    92.7209   -41.0110   105.6403     9.7983    10.8583
  841.5000    49.9638    11.2465    92.7022   -40.7977   107.1158     9.7683    10.7085
  842.0000    49.3554    11.1577    92.5574   -40.5852   107.8194     9.7401    10.6547
  842.5000    54.2042    11.1931    92.2202   -40.3713   108.1371     9.7112    10.6620
  843.0000    54.3253    11.0321    91.8104   -40.1602   108.4548     9.6825    10.6585
  843.5000    52.9230    10.8544    91.6284   -39.9438   108.7725     9.6542    10.6608
  844.0000    48.8807    10.8625    91.5101   -39.7368   109.0901     9.6249    10.6591
  844.5000    43.8599    10.9894    91.4123   -39.5170   109.4078     9.5972    10.6610
  845.0000    41.5346    11.1121    91.5895   -39.4950   109.7255     9.5668    10.6580
  845.5000    39.6445    11.2192    92.0181   -39.5900   110.0432     9.5633    10.6707
  846.0000    37.7944    11.2037    92.2229   -39.6578   110.3609     9.6111    10.7563
  846.5000    40.7662    11.1770    92.4257   -39.7366   110.6106     9.6517    10.8374
  847.0000    41.0395    11.1424    92.6220   -39.8117   109.9128     9.6968    10.9144
  847.5000    38.8359    11.1129    92.5198   -39.8829   109.3379     9.7348    11.0005
  848.0000    28.9604    11.0832    92.2956   -39.9659   108.7630     9.7847    11.0686
  848.5000    26.5104    11.1111    92.1516   -40.0207   106.7693     9.8112    11.1706
  849.0000    25.8428    11.1467    92.0248   -40.1636   104.2542     9.9192    11.2034
  849.5000    25.1926    11.1825    91.4558   -40.3235   101.0468    10.4565    11.6341
  850.0000    23.9350    11.2176    90.7646   -40.5433    97.5976    11.0035    12.2623
  850.5000    20.6884    11.2063    90.4717   -41.3665    94.1484    11.8094    12.8847
  851.0000    16.9882    11.1893    91.2433   -42.3676    89.7698    12.8482    13.7131
  851.5000    13.5407    11.1751    92.6554   -44.0233    82.7277    13.8668    14.5416
  852.0000    13.5478    11.1601    94.0262   -45.7292    75.6857    14.8798    15.3701
  852.5000    19.6644    11.0622    95.7122   -47.4921    68.6436    15.9239    16.1985
  853.0000    22.4511    10.9167    98.0209   -49.1198    61.6016    16.8980    17.0270
  853.5000    23.9470    10.8071    99.8494   -51.0718    54.5546    18.0440    17.8726
  854.0000    24.7664    10.7799   100.4234   -52.2100    53.7638    18.7613    18.7128
  854.5000    25.5763    10.7854    99.9177   -52.0985    52.5526    18.7455    19.3942
  855.0000    27.6926    10.7930   100.1122   -51.8962    52.8729    18.5325    19.2024
  855.5000    30.3455    10.8053   100.5525   -51.0498    53.2753    18.1698    18.9699
  856.0000    31.4447    10.8345   100.1687   -50.2624    54.1742    17.8538    18.7505
  856.5000    31.5882    10.8589    99.4947   -49.4508    56.1862    17.5140    18.5367
  857.0000    32.4423    10.8658    99.4694   -48.5766    58.1982    17.1865    18.2961
  857.5000    35.3599    10.8721    99.8204   -48.6488    60.2102    16.8510    18.2233
  858.0000    36.6450    10.8789   100.1506   -49.2112    62.2222    16.5087    18.1815
  858.5000    36.3293    10.8640    99.0763   -49.7625    63.5636    16.4541    18.1213
  859.0000    35.4119    10.8460    98.4438   -50.3012    63.5636    16.4794    18.0860
  859.5000    36.5595    10.8275    98.7991   -50.1551    63.5636    16.3700    17.9656
  860.0000    38.1481    10.7933    99.5315   -49.7236    63.5636    16.0865    17.6614
  860.5000    41.4131    10.7409    99.7490   -49.2975    64.0522    15.8082    17.3623
  861.0000    39.0695    10.7381    98.7032   -48.8647    65.4354    15.5239    17.0603
  861.5000    38.4072    10.7328    98.4276   -48.4355    66.8187    15.2440    16.7546
  862.0000    38.5822    10.6874    99.0079   -48.0024    68.2020    14.9596    16.4608
  862.5000    38.8964    10.7219    98.8642   -47.5722    69.5852    14.6811    16.1355
  863.0000    41.6752    10.7711    98.4639   -47.0992    70.9685    14.3924    15.8861
