~VERSION INFORMATION
 VERS.                2.0:   CWLS LOG ASCII STANDARD - VERSION 2.0
 WRAP.                 NO:   ONE LINE PER DEPTH STEP
~WELL INFORMATION
#MNEM.UNIT      DATA TYPE    INFORMATION
#----------   ------------   ------------------------------
 STRT.F          190.0000:   START DEPTH
 STOP.F         3246.0000:   STOP DEPTH
 STEP.F            0.5000:   STEP LENGTH
 NULL.          -999.2500:   NO VALUE
 COMP. BROWN JOHN E&C INC:   COMPANY
 WELL.      STX-15 #84-15:   WELL
 FLD .             TEAPOT:   FIELD
 LOC .      S15 T38N R78W:   LOCATION
 CNTY.            NATRONA:   COUNTY
 STAT.            WYOMING:   STATE
 CTRY. UNITED STATES OF AMERICA:   COUNTRY
 SRVC.           BIRDWELL:   SERVICE COMPANY
 DATE.        17-MAR-1978:   LOGDATE
 API .       490251111600:   API NUMBER
~CURVE INFORMATION
#MNEM.UNIT       API CODE    CURVE DESCRIPTION
#----------   ------------   ------------------------------
 DEPT.F                  :   
 ILD .OHMM   05 120 46 00:   INDUCTION LOG DEEP
 SN  .OHMM   05 040 16 00:   SHORT NORMAL 16"
 SPR .MV     05 010 01 00:   SPONTANEOUS POTENTIAL FROM RES.
 GRD .GAPI   45 310 01 00:   GAMMA RAY FROM DENSITY LOG
 CALD.IN     45 280 60 00:   CALIPER
 RHOB.G/C3   45 350 01 00:   BULK DENSITY
 CORR.G/C3   45 356 01 00:   DENSITY CORRECTION
 DPHI.DEC    45 890 12 00:   DENSITY POROSITY SANDSTONE
~PARAMETER INFORMATION
#MNEM.UNIT          VALUE    DESCRIPTION
#----------   ------------   ------------------------------
 PD  .                 GL:   PERMANENT DATUM
 EPD .F              5241:   ELEVATION PERMANENT DATUM
 LMF .                 KB:   LOG MEASURED FROM
 DAPD.F                10:   FEET ABOVE PERMANENT DATUM
 DMF .                 KB:   DRILLING MEASURED FROM
 EKB .F              5251:   KELLING BUSHING
 EGL .F              5241:   GROUND LEVEL
 DATE.            3-17-78:   RUN DATE
 RUN .                  1:   RUN NUMBER
 DD  .F              3250:   DEPTH DRILLER
 DL  .F              3250:   DEPTH LOGGER
 BLI .F              3244:   BOTTOM LOG INTERVAL
 TLI .F               224:   TOP LOG INTERVAL
 CS  .IN            8.625:   CASING SIZE
 CBL .F               224:   CASING BOTTOM LOGGER
 BS  .IN            7.875:   BIT SIZE
 BSD .F              3250:   BIT SIZE AT DEPTH
 DFD .                8.9:   DRILLING FLUID DENSITY
 DFV .                 31:   DRILLING FLUID VISCOSITY
 DFPH.               10.5:   DRILLING FLUID PH
 DFL .                  8:   DRILLING FLUID LOSS
 MSS .           FLOWLINE:   MUD SAMPLE SOURCE
 RMS .OHMM            1.3:   RESISTIVITY MUD SAMPLE
 MST .F                70:   MUD SAMPLE TEMPERATURE
 RMF .OHMM            1.1:   RESISTIVITY MUD FILTRATE SAMPLE
 MFST.F                70:   MUD FILTRATE SAMPLE TEMPERATURE
 RMC .OHMM            1.4:   RESISTIVITY MUD CAKE
 MCST.F                70:   MUD CAKE SAMPLE TEMPERATURE
 MFSS.               MEAS:   MUD FILTRATE SAMPLE SOURCE
 MCSS.               MEAS:   MUD CAKE SAMPLE SOURCE
 RMB .OHMM            .77:   RESISTIVITY MUD AT BHT
 BHT .F               118:   BOTTOM HOLE TEMPERATURE
 TCS .HRS               6:   TIME CURCULATED STOPPED
 MRT .F               118:   MAXIMUM RECORDED TEMPERATURE
 LUN .               2958:   LOGGING UNIT NUMBER
 LUL .               CASP:   LOGGING UNIT LOCATION
 ENGI.             MILLER:   RECORDING ENGINEER
 WITN.           MCGINLEY:   WITNESSED BY
 CLNT.            A2DTECH:   CLIENT CODE
 ORIG.     1", 2.5" PRINT:   ORIGIN OF DATA
 UWI .       490251111600:   UNIQUE WELL ID
 DICO. A2D Technologies, Inc.:   DIGITIZING COMPANY
~OTHER INFORMATION
~A   DEPT      ILD         SN        SPR         GRD      CALD       RHOB       CORR       DPHI   
# ...
  230.5000     7.2231     6.2726   -34.3316    72.2038    12.6410     2.3758     0.1137     0.1573
  231.0000     7.2639     6.2730   -35.1773    72.9531    12.6411     2.4444     0.0847     0.1492
  231.5000     7.2068     6.2730   -35.9682    72.7522    12.6410     2.4518     0.0544     0.1343
  232.0000     7.1907     6.2729   -34.4559    72.5548    12.6410     2.4590     0.0339     0.1240
  232.5000     7.1744     6.2729   -33.7218    72.2988    12.6410     2.4615     0.0354     0.1229
  233.0000     7.1583     6.2729   -34.0632    72.2573    12.6407     2.4653     0.0340     0.1217
  233.5000     7.1422     6.2729   -34.3342    72.4217    12.6439     2.4690     0.0329     0.1205
  234.0000     7.1261     6.2729   -34.5970    72.5975    12.6493     2.4707     0.0323     0.1195
  234.5000     7.1101     6.2729   -34.8741    72.7115    12.6543     2.4628     0.0311     0.1187
  235.0000     7.0940     6.2729   -34.9984    72.8600    12.6592     2.4545     0.0303     0.1228
  235.5000     7.0780     6.2729   -35.1256    74.1216    12.6643     2.4635     0.0295     0.1315
  236.0000     7.0621     6.2729   -35.2474    77.6548    12.6692     2.4625     0.0281     0.1292
  236.5000     7.0462     6.2730   -35.3712    77.0892    12.6740     2.4552     0.0320     0.1232
  237.0000     7.0301     6.2730   -35.4941    76.6166    12.6796     2.4659     0.0394     0.1203
  237.5000     7.0088     6.2727   -35.6167    75.9631    12.6763     2.4787     0.0476     0.1163
  238.0000     7.0139     6.2734   -35.7397    75.3824    12.6683     2.4774     0.0502     0.1123
  238.5000     7.0251     6.2746   -35.8625    74.8045    12.6611     2.4754     0.0514     0.1108
  239.0000     7.0364     6.2706   -35.9855    74.1733    12.6539     2.4755     0.0472     0.1108
  239.5000     7.0470     6.2406   -36.1085    73.5745    12.6466     2.4847     0.0433     0.1110
  240.0000     7.0581     6.2157   -36.2316    73.5057    12.6394     2.4885     0.0391     0.1112
  240.5000     7.0686     6.1888   -36.3543    73.8408    12.6322     2.4857     0.0362     0.1114
  241.0000     7.0798     6.1633   -36.4777    75.2693    12.6249     2.4834     0.0365     0.1116
  241.5000     7.0901     6.1368   -36.6006    76.7824    12.6177     2.4811     0.0367     0.1118
  242.0000     7.1002     6.1109   -36.7223    78.4088    12.6104     2.4788     0.0371     0.1120
  242.5000     7.1158     6.0850   -36.8491    79.9803    12.6032     2.4763     0.0374     0.1122
  243.0000     7.1257     6.0458   -36.8993    81.2230    12.5960     2.4750     0.0377     0.1124
  243.5000     7.1366     6.0833   -36.8950    79.0018    12.5887     2.4751     0.0380     0.1124
  244.0000     7.1401     6.1827   -36.8952    77.1883    12.5815     2.4751     0.0384     0.1124
  244.5000     7.5459     6.2838   -36.8959    75.1283    12.5742     2.4750     0.0387     0.1132
  245.0000     7.9747     6.3867   -36.8952    75.4823    12.5670     2.4755     0.0391     0.1124
  245.5000     8.0158     6.4910   -36.8954    76.0046    12.5597     2.4776     0.0394     0.1108
  246.0000     8.0688     6.5968   -36.8953    75.8801    12.5525     2.4834     0.0397     0.1085
  246.5000     8.1228     6.7043   -36.8952    75.1066    12.5453     2.4904     0.0401     0.1063
  247.0000     8.1784     6.8136   -36.8952    74.5482    12.5380     2.4976     0.0391     0.1041
  247.5000     8.2325     6.8902   -36.8952    73.7680    12.5309     2.5011     0.0367     0.1036
  248.0000     8.2870     6.9157   -36.8952    77.0376    12.5237     2.4969     0.0345     0.1050
  248.5000     8.3419     6.9413   -36.8952    81.8355    12.5219     2.4928     0.0322     0.1066
  249.0000     8.3971     6.9670   -36.8952    85.4617    12.5220     2.4886     0.0300     0.1081
  249.5000     8.4304     6.9928   -36.8952    85.6999    12.5220     2.4843     0.0277     0.1096
  250.0000     8.4304     7.0186   -36.8952    81.1728    12.5220     2.4802     0.0255     0.1111
  250.5000     8.4304     7.0446   -36.8952    80.1830    12.5220     2.4760     0.0233     0.1127
  251.0000     8.4304     7.0707   -36.8952    80.3325    12.5220     2.4713     0.0210     0.1142
  251.5000     8.4304     7.0969   -36.8952    80.7008    12.5220     2.4691     0.0188     0.1157
  252.0000     8.5158     7.1231   -36.8952    80.9738    12.5221     2.4675     0.0166     0.1163
  252.5000     8.6600     7.1610   -36.8954    81.2734    12.5220     2.4671     0.0177     0.1163
  253.0000     8.8067     7.2163   -36.8955    81.5763    12.5223     2.4670     0.0198     0.1160
  253.5000     8.9559     7.2721   -36.8955    81.8709    12.5221     2.4672     0.0219     0.1156
  254.0000     9.0770     7.3283   -36.8966    82.1782    12.5217     2.4672     0.0240     0.1152
  254.5000     9.1251     7.3848   -36.8950    82.4725    12.5238     2.4681     0.0261     0.1148
  255.0000     9.1653     7.4418   -36.8963    82.5923    12.5044     2.4688     0.0283     0.1145
  255.5000     9.2057     7.4991   -36.9006    81.4739    12.4673     2.4696     0.0303     0.1141
  256.0000     9.2463     7.5568   -36.8166    79.4846    12.4327     2.4704     0.0319     0.1139
  256.5000     9.2871     7.6151   -36.5037    77.5266    12.3981     2.4711     0.0295     0.1139
  257.0000     9.3280     7.6865   -36.1983    75.5087    12.3628     2.4720     0.0274     0.1139
  257.5000     9.3691     7.6783   -35.8808    74.9828    12.3285     2.4728     0.0251     0.1139
  258.0000     9.4176     7.6680   -35.5735    74.9875    12.2934     2.4729     0.0229     0.1139
  258.5000     9.4114     7.6578   -35.2927    75.7076    12.2835     2.4718     0.0206     0.1139
  259.0000     9.4045     7.6475   -35.3006    76.8012    12.2840     2.4698     0.0185     0.1140
  259.5000     9.3975     7.6373   -35.3230    77.3424    12.2842     2.4722     0.0164     0.1148
  260.0000     9.3902     7.6271   -35.3539    76.9537    12.2840     2.4751     0.0203     0.1156
  260.5000     9.3828     7.6169   -35.3790    76.6662    12.2841     2.4776     0.0247     0.1164
  261.0000     9.3753     7.6067   -35.4059    78.0710    12.2841     2.4750     0.0293     0.1172
  261.5000     9.3678     7.5965   -35.4331    79.3925    12.2841     2.4708     0.0342     0.1158
  262.0000     9.3604     7.5863   -35.4596    80.0612    12.2841     2.4682     0.0353     0.1137
  262.5000     9.3529     7.5762   -35.4865    80.3473    12.2841     2.4816     0.0327     0.1116
  263.0000     9.3455     7.5660   -35.5134    80.5545    12.2841     2.4864     0.0307     0.1116
  263.5000     9.3380     7.5559   -35.5404    80.1354    12.2841     2.4773     0.0286     0.1126
  264.0000     9.3306     7.5458   -35.5662    78.7065    12.2841     2.4755     0.0334     0.1132
  264.5000     9.3232     7.5357   -35.5947    79.7528    12.2841     2.4828     0.0396     0.1095
  265.0000     9.3158     7.5256   -35.6201    80.6161    12.2841     2.4896     0.0396     0.1042
  265.5000     9.3083     7.5156   -35.6445    81.7166    12.2841     2.4965     0.0329     0.0989
  266.0000     9.3009     7.5055   -35.6849    81.1793    12.2841     2.5032     0.0265     0.0940
  266.5000     9.2935     7.4955   -35.5762    80.4953    12.2841     2.4984     0.0189     0.0940
  267.0000     9.2861     7.4854   -35.3321    79.8222    12.2841     2.4911     0.0193     0.0966
  267.5000     9.2788     7.4755   -35.1036    78.9970    12.2841     2.4857     0.0248     0.1003
  268.0000     9.2712     7.4655   -34.8749    79.6688    12.2841     2.4808     0.0290     0.1041
  268.5000     9.2639     7.4555   -34.6431    81.4001    12.2841     2.4759     0.0323     0.1079
  269.0000     9.2569     7.4459   -34.4137    82.4286    12.2841     2.4709     0.0336     0.1100
  269.5000     9.2478     7.4356   -34.1823    82.3699    12.2841     2.4753     0.0348     0.1054
  270.0000     9.2565     7.4250   -33.9546    81.5452    12.2841     2.4829     0.0360     0.1011
  270.5000     9.2777     7.4076   -33.7245    80.6177    12.2840     2.4901     0.0372     0.0968
