~VERSION INFORMATION
 VERS.                2.0:   CWLS LOG ASCII STANDARD - VERSION 2.0
 WRAP.                 NO:   ONE LINE PER DEPTH STEP
~WELL INFORMATION
#MNEM.UNIT      DATA TYPE    INFORMATION
#----------   ------------   ------------------------------
 STRT.F            0.0000:   START DEPTH
 STOP.F          469.0000:   STOP DEPTH
 STEP.F            0.5000:   STEP LENGTH
 NULL.          -999.2500:   NO VALUE
 COMP. BROWN JOHN E&C INC:   COMPANY
 WELL. NPR 3 SX-10 4 #54-10:   WELL
 FLD .             TEAPOT:   FIELD
 LOC .      S10 T38N R78W:   LOCATION
 CNTY.            NATRONA:   COUNTY
 STAT.            WYOMING:   STATE
 CTRY. UNITED STATES OF AMERICA:   COUNTRY
 SRVC.     Atlas Wireline:   SERVICE COMPANY
 DATE.        25-APR-1991:   LOGDATE
 API .       490251133500:   API NUMBER
~CURVE INFORMATION
#MNEM.UNIT       API CODE    CURVE DESCRIPTION
#----------   ------------   ------------------------------
 DEPT.F                  :   
 RILD.OHMM   07 120 46 00:   INDUCTION LOG DEEP RESISTIVITY
 RILM.OHMM   07 120 44 00:   INDUCTION LOG MEDIUM RESISTIVITY
 GRD .GAPI   45 310 01 00:   GAMMA RAY FROM DENSITY LOG
 CALD.IN     45 280 60 00:   CALIPER FROM DENSITY LOG
 CORR.G/C3   45 356 01 00:   DENSITY CORRECTION
 PORD.DEC    45 890 12 00:   POROSITY DENSITY SANDSTONE
 DEN .G/C3   45 350 01 00:   COMPENSATED BULK DENSTIY
~PARAMETER INFORMATION
#MNEM.UNIT          VALUE    DESCRIPTION
#----------   ------------   ------------------------------
 PD  .                 GL:   PERMANENT DATUM
 EPD .F              5182:   ELEVATION PERMANENT DATUM
 LMF .                 KB:   LOG MEASURED FROM
 DAPD.F                10:   FEET ABOVE PERMANENT DATUM
 DMF .                 KB:   DRILLING MEASURED FROM
 EKB .F              5172:   KELLING BUSHING
 EGL .F              5182:   GROUND LEVEL
 DATE.        25-APR-1991:   RUN DATE
 RUN .                  1:   RUN NUMBER
 DD  .F               471:   DEPTH DRILLER
 DL  .F               471:   DEPTH LOGGER
 BLI .F               469:   BOTTOM LOG INTERVAL
 CS  .IN            8.625:   CASING SIZE
 CBD .F                44:   CASING BOTTOM DRILLER
 CBL .F                44:   CASING BOTTOM LOGGER
 BS  .IN            7.875:   BIT SIZE
 BSD .F               471:   BIT SIZE AT DEPTH
 DFT .                AIR:   DRILLING FLUID TYPE
 LUN .           HL- 6307:   LOGGING UNIT NUMBER
 LUL .             CASPER:   LOGGING UNIT LOCATION
 ENGI.    KINNETT/ ZIEGER:   RECORDING ENGINEER
 WITN.             STRONG:   WITNESSED BY
 CLNT.            A2DTECH:   CLIENT CODE
 ORIG.        2" 5" PRINT:   ORIGIN OF DATA
 UWI .       490251133500:   UNIQUE WELL ID
 DICO. A2D Technologies, Inc.:   DIGITIZING COMPANY
~OTHER INFORMATION
~A    DEPT    RILD       RILM         GRD      CALD       CORR       PORD        DEN   
# ...
  409.5000    13.0254    13.2218   117.6958     8.3263     0.0151     0.1123     2.4674
  410.0000    13.0246    13.0365   117.4699     8.3393     0.0150     0.1157     2.4607
  410.5000    13.0237    12.8537   117.8662     8.3392     0.0150     0.1169     2.4577
  411.0000    12.6657    12.5722   118.2875     8.3541     0.0150     0.1123     2.4615
  411.5000    12.4866    12.2381   118.1476     8.3389     0.0090     0.1093     2.4705
  412.0000    12.2312    11.9833   116.5663     8.3237     0.0029     0.1120     2.4739
  412.5000    12.1457    11.8974   117.4699     8.2957    -0.0031     0.1145     2.4675
  413.0000    11.8942    11.6496   118.3735     8.2784    -0.0016     0.1157     2.4607
  413.5000    11.6480    11.5662   122.2139     8.2782     0.0029     0.1160     2.4585
  414.0000    11.5665    11.4833   126.7408     8.2781     0.0074     0.1144     2.4592
  414.5000    11.3270    11.3223   128.4193     8.2779     0.0027     0.1084     2.4705
  415.0000    11.2478    11.2404   131.0241     8.2778     0.0028     0.1036     2.4818
  415.5000    11.2469    10.9304   131.0241     8.2776     0.0028     0.1012     2.4848
  416.0000    11.0909    10.7771   125.3765     8.2775     0.0088     0.1000     2.4855
  416.5000    10.9370    10.6261   124.4729     8.2773     0.0133     0.0997     2.4855
  417.0000    10.7106    10.4048   129.2169     8.2772     0.0163     0.0988     2.4878
  417.5000    10.5620    10.3302   136.4910     8.2770     0.0132     0.0972     2.4908
  418.0000    10.4881    10.3275   144.5783     8.2769     0.0072     0.0964     2.4915
  418.5000    10.4148    10.3240   142.7711     8.2767     0.0072     0.0952     2.4915
  419.0000    10.4139    10.3212   140.7379     8.2765     0.0102     0.0946     2.4915
  419.5000    10.4132    10.3185   139.1566     8.2764     0.0147     0.0943     2.4939
  420.0000    10.3404    10.3157   137.1235     8.3213     0.0207     0.0940     2.4968
  420.5000    10.3397    10.3130   134.8645     8.3362     0.0237     0.0940     2.4975
  421.0000    10.1962    10.3102   135.3163     8.3360     0.0267     0.0944     2.4945
  421.5000    10.1249    10.3074   135.5422     8.3359     0.0146     0.0964     2.4915
  422.0000    10.0541    10.2335   135.3163     8.3357     0.0146     0.0964     2.4915
  422.5000     9.9836    10.1595   134.1868     8.3205     0.0191     0.0964     2.4915
  423.0000     9.8451    10.0867   133.2831     8.3204     0.0206     0.0964     2.4914
  423.5000     9.8445    10.0144   132.6054     8.3203     0.0145     0.0973     2.4885
  424.0000     9.7756    10.0118   131.9277     8.3201     0.0085     0.0979     2.4922
  424.5000     9.7750     9.8033   131.9382     8.3200     0.0025     0.0997     2.4968
  425.0000     9.6394     9.7330   134.7514     8.3198     0.0024     0.1027     2.4952
  425.5000     9.5057     9.5303   135.9940     8.3197     0.0039     0.1042     2.4930
  426.0000     9.4390     9.4614   134.6385     8.3195     0.0069     0.1057     2.4793
  426.5000     9.3730     9.3288   133.0572     8.3193     0.0144     0.1048     2.4764
  427.0000     9.3075     9.2619   133.5090     8.2892     0.0204     0.1036     2.4764
  427.5000     9.3068     9.1955   133.7349     8.2890     0.0144     0.1045     2.4764
  428.0000     9.2417     9.0041   133.5090     8.2889     0.0083     0.1048     2.4764
  428.5000     9.0487     8.9395   133.8117     8.2887     0.0023     0.1048     2.4764
  429.0000     8.6800     8.7533   136.2199     8.2886     0.0008     0.1048     2.4764
  429.5000     8.5003     8.6301   137.3494     8.3185     0.0008     0.1051     2.4764
  430.0000     8.3243     8.4504   137.5753     8.3333     0.0023     0.1060     2.4756
  430.5000     8.3237     8.2744   136.2199     8.3332     0.0067     0.1069     2.4756
  431.0000     8.2655     8.2722   134.6385     8.4081     0.0082     0.1084     2.4734
  431.5000     8.2650     8.3275   135.3163     8.3329     0.0127     0.1101     2.4703
  432.0000     8.2644     8.4414   137.5753     8.3177     0.0142     0.1133     2.4643
  432.5000     8.4378     8.6222   139.1566     8.3026     0.0127     0.1130     2.4620
  433.0000     8.5554     8.9788   136.4458     8.3024     0.0067     0.1084     2.4736
  433.5000     8.7960     9.2285   134.1868     8.3023     0.0066     0.1042     2.4794
  434.0000     9.1065     9.6843   136.5548     8.3171     0.0081     0.1039     2.4771
  434.5000     9.4279    10.0228   140.9639     8.3170     0.0096     0.1048     2.4763
  435.0000     9.7607    10.3016   139.8343     8.3168     0.0126     0.1038     2.4793
  435.5000    10.0353    10.5150   138.2530     8.3167     0.0126     0.1027     2.4816
  436.0000    10.3173    10.6646   136.8976     8.3165     0.0126     0.1024     2.4801
  436.5000    10.4611    10.8046   132.8313     8.3163     0.0125     0.1000     2.4868
  437.0000    10.6070    10.8767   131.9277     8.3162     0.0095     0.0916     2.5064
  437.5000    10.6803    10.7981   131.9277     8.2860     0.0050     0.0858     2.5064
  438.0000    10.6794    10.7952   131.7018     8.2709     0.0065     0.0862     2.5034
  438.5000    10.6787    10.7923   129.4428     8.2707     0.0140     0.0991     2.4914
  439.0000    10.6779    10.7894   129.8946     8.2706     0.0140     0.1051     2.4808
  439.5000    10.6770    10.7865   132.8313     8.2704     0.0139     0.1084     2.4755
  440.0000    10.6763    10.7829   134.6385     8.2853     0.0129     0.1108     2.4702
  440.5000    10.6756    10.7800   135.3163     8.2851     0.0004     0.1133     2.4665
  441.0000    10.6749    10.7771   135.3163     8.2850     0.0019     0.1108     2.4702
  441.5000    10.6742    10.7743   134.8645     8.2998     0.0065     0.1050     2.4815
  442.0000    10.7479    10.7714   133.7349     8.2997     0.0124     0.1000     2.4853
  442.5000    10.7372    10.7685   130.7982     8.2845     0.0124     0.0991     2.4860
  443.0000    10.6719    10.7656   128.0874     8.2693     0.0079     0.0988     2.4853
  443.5000    10.6711    10.7620   126.2801     8.2692     0.0019     0.1015     2.4815
  444.0000    10.6704    10.7591   128.9910     8.2991     0.0004     0.1072     2.4762
  444.5000    10.5958    10.7563   133.9608     8.3290     0.0004     0.1099     2.4725
  445.0000    10.5951    10.6792   133.5090     8.3138     0.0034     0.1095     2.4732
  445.5000    10.5944    10.6763   132.1536     8.2836     0.0079     0.1063     2.4732
  446.0000    10.5819    10.5266   131.7018     8.2835     0.0094     0.1072     2.4732
  446.5000    10.2309    10.3762   134.6385     8.2683     0.0079     0.1084     2.4686
  447.0000     9.8124    10.1294   135.5422     8.2681     0.0079     0.1090     2.4702
  447.5000     9.2810     9.4144  -999.2500     8.2680     0.0019     0.1084     2.4724
  448.0000     8.8396     8.8432  -999.2500     8.2679     0.0004     0.1072     2.4717
  448.5000     8.2454     8.1358  -999.2500     8.2827     0.0004     0.1084     2.4717
  449.0000     7.6870     7.4851  -999.2500     8.2826     0.0004     0.1108     2.4694
  449.5000     7.1742     7.0309  -999.2500     8.2975    -0.0026     0.1145     2.4604
  450.0000     6.4634     6.5135  -999.2500     8.2823     0.0034     0.1172     2.4551
  450.5000     5.4699     5.4780  -999.2500     8.2671     0.0079     0.1184     2.4528
  451.0000     4.8262     4.6044  -999.2500     8.2670     0.0139     0.1229     2.4393
  451.5000     4.2288     4.1779  -999.2500     8.2518     0.0139     0.1337     2.4092
  452.0000     3.7054     3.8704  -999.2500     8.2516     0.0064     0.1610     2.3668
  452.5000     3.5538     3.7377  -999.2500     8.2665     0.0004     0.1917     2.3134
  453.0000     3.5044     3.7068  -999.2500     8.2663    -0.0026     0.2386     2.2480
  453.5000     3.5532     3.8406  -999.2500     8.2662     0.0314     0.2602     2.2262
  454.0000     3.5779     4.0968  -999.2500     8.2660     0.0440     0.2584     2.2352
  454.5000     3.7559     4.5638  -999.2500     8.2659     0.0260     0.2204     2.3008
