~VERSION INFORMATION
 VERS.                2.0:   CWLS LOG ASCII STANDARD - VERSION 2.0
 WRAP.                 NO:   ONE LINE PER DEPTH STEP
~WELL INFORMATION
#MNEM.UNIT      DATA TYPE    INFORMATION
#----------   ------------   ------------------------------
 STRT.F           30.0000:   START DEPTH
 STOP.F          655.5000:   STOP DEPTH
 STEP.F            0.5000:   STEP LENGTH
 NULL.          -999.2500:   NO VALUE
 COMP. FENIX & SCISSON INC:   COMPANY
 WELL.    NPR-3 SX #52-15:   WELL
 FLD .             TEAPOT:   FIELD
 LOC .      S15 T38N R78W:   LOCATION
 CNTY.            NATRONA:   COUNTY
 STAT.            WYOMING:   STATE
 CTRY. UNITED STATES OF AMERICA:   COUNTRY
 SRVC.            Unknown:   SERVICE COMPANY
 DATE.        27-MAY-1978:   LOGDATE
 API .       490251062200:   API NUMBER
~CURVE INFORMATION
#MNEM.UNIT       API CODE    CURVE DESCRIPTION
#----------   ------------   ------------------------------
 DEPT.F                  :   
 GRD .GAPI   45 310 01 00:   GAMMA RAY FROM DENSITY LOG
 CALD.IN     45 280 60 00:   CALIPER
 RHOB.G/C3   45 350 01 00:   BULK DENSITY
 DPHI.DEC    45 890 12 00:   DENSITY POROSITY SANDSTONE
 CORR.G/C3   45 356 01 00:   DENSITY CORRECTION
 SN  .OHMM   05 040 16 00:   SHORT NORMAL 16"
 IL  .OHMM   05 120 00 00:   INDUCTION LOG
 SPR .MV     05 010 01 00:   SPONTANEOUS POTENTIAL FROM RES.
~PARAMETER INFORMATION
#MNEM.UNIT          VALUE    DESCRIPTION
#----------   ------------   ------------------------------
 PD  .                 GL:   PERMANENT DATUM
 EPD .F              5240:   ELEVATION PERMANENT DATUM
 LMF .                 KB:   LOG MEASURED FROM
 DAPD.F                 4:   FEET ABOVE PERMANENT DATUM
 DMF .                 GL:   DRILLING MEASURED FROM
 EKB .F              5244:   KELLING BUSHING
 EGL .F              5240:   GROUND LEVEL
 DATE.          5-27-1978:   RUN DATE
 RUN .                  1:   RUN NUMBER
 DD  .F               645:   DEPTH DRILLER
 DL  .F               655:   DEPTH LOGGER
 BLI .F               650:   BOTTOM LOG INTERVAL
 TLI .F                50:   TOP LOG INTERVAL
 CS  .IN            8.625:   CASING SIZE
 CBD .F                40:   CASING BOTTOM DRILLER
 CBL .F                40:   CASING BOTTOM LOGGER
 BS  .IN            7.875:   BIT SIZE
 BSD .F               645:   BIT SIZE AT DEPTH
 DFT .                KCL:   DRILLING FLUID TYPE
 DFD .                8.6:   DRILLING FLUID DENSITY
 DFV .                 32:   DRILLING FLUID VISCOSITY
 DFPH.               10.5:   DRILLING FLUID PH
 DFL .                7.4:   DRILLING FLUID LOSS
 MSS .           FLOWLINE:   MUD SAMPLE SOURCE
 RMS .OHMM            .30:   RESISTIVITY MUD SAMPLE
 MST .F                66:   MUD SAMPLE TEMPERATURE
 RMF .OHMM            .32:   RESISTIVITY MUD FILTRATE SAMPLE
 MFST.F                64:   MUD FILTRATE SAMPLE TEMPERATURE
 RMC .OHMM            .50:   RESISTIVITY MUD CAKE
 MCST.F                64:   MUD CAKE SAMPLE TEMPERATURE
 MFSS.           MEASURED:   MUD FILTRATE SAMPLE SOURCE
 BHT .F                68:   BOTTOM HOLE TEMPERATURE
 TCS .HRS               2:   TIME CURCULATED STOPPED
 MRT .F                68:   MAXIMUM RECORDED TEMPERATURE
 LUN .               2958:   LOGGING UNIT NUMBER
 LUL .              CASP.:   LOGGING UNIT LOCATION
 ENGI.            POINTER:   RECORDING ENGINEER
 WITN.           MCGINLEY:   WITNESSED BY
 CLNT.            A2DTECH:   CLIENT CODE
 ORIG.      2" , 5" PRINT:   ORIGIN OF DATA
 UWI .       490251062200:   UNIQUE WELL ID
 DICO. A2D Technologies, Inc.:   DIGITIZING COMPANY
~OTHER INFORMATION
~A   DEPT       GRD      CALD       RHOB       DPHI       CORR         SN         IL        SPR   
# ...
  516.0000    63.9197     7.6466     2.5282     0.1302     0.0643    17.5365    21.6192   -15.1584
  516.5000    64.0129     7.6953     2.4924     0.1459     0.0632    16.4119    20.1739   -15.0452
  517.0000    64.6500     7.7429     2.4568     0.1428     0.0915    15.3594    18.8253   -14.6322
  517.5000    68.6780     7.7449     2.4433     0.1398     0.1220    14.3731    17.6616   -14.4137
  518.0000    73.8927     7.7446     2.4451     0.1371     0.1527    13.8169    16.9738   -14.3492
  518.5000    79.1781     7.7445     2.4491     0.1293     0.1827    13.5437    16.2273   -14.2890
  519.0000    80.0480     7.7444     2.4585     0.1267     0.1981    13.2769    15.5136   -14.2290
  519.5000    77.2898     7.7438     2.4690     0.1262     0.2060    13.0160    14.8262   -14.1686
  520.0000    75.4869     7.7703     2.4715     0.1234     0.2081    12.8765    14.8592   -14.1083
  520.5000    74.4437     7.8007     2.4742     0.1177     0.2070    12.8192    14.9001   -14.0479
  521.0000    74.8199     7.8005     2.4807     0.1217     0.2036    12.7610    14.9420   -13.9874
  521.5000    76.4902     7.7959     2.4857     0.1214     0.1957    12.7030    14.9631   -13.9274
  522.0000    77.7976     7.7912     2.4804     0.1179     0.1878    12.6453    14.8881   -13.8652
  522.5000    78.0935     7.7866     2.4788     0.1172     0.1853    12.5879    14.8304   -13.9356
  523.0000    78.1937     7.7689     2.4881     0.1203     0.1807    12.5307    14.7727   -14.0759
  523.5000    77.9352     7.7400     2.4888     0.1210     0.1721    12.4738    14.7154   -14.2182
  524.0000    77.6690     7.7111     2.4835     0.1202     0.1635    12.4172    14.6582   -14.3604
  524.5000    77.8883     7.6824     2.4855     0.1194     0.1549    12.3608    14.6013   -14.5025
  525.0000    78.2156     7.6705     2.4870     0.1138     0.1510    12.3263    14.5446   -14.6445
  525.5000    78.2483     7.6866     2.4885     0.1141     0.1492    12.3150    14.4881   -14.7865
  526.0000    77.9352     7.7029     2.4917     0.1167     0.1430    12.3035    14.4318   -14.9286
  526.5000    75.7309     7.6741     2.4974     0.1193     0.1328    12.2921    14.3758   -15.0706
  527.0000    73.8873     7.6373     2.4843     0.1218     0.1227    12.2807    14.3200   -15.2127
  527.5000    73.7045     7.6405     2.4815     0.1244     0.1152    12.2693    14.2643   -15.3549
  528.0000    73.8705     7.6747     2.4804     0.1271     0.1127    12.2579    14.2090   -15.4977
  528.5000    74.0866     7.6833     2.4746     0.1271     0.1103    12.2465    14.1592   -15.6338
  529.0000    75.1983     7.6611     2.4739     0.1237     0.1116    12.2351    14.1591   -15.6384
  529.5000    76.2812     7.6394     2.4734     0.1169     0.1130    12.2238    14.1590   -15.6376
  530.0000    77.4078     7.6245     2.4783     0.1158     0.1138    12.2124    14.1589   -15.6375
  530.5000    76.7198     7.6248     2.4864     0.1158     0.1042    12.2011    14.1589   -15.6375
  531.0000    75.5079     7.6248     2.4909     0.1163     0.0945    12.1898    14.1588   -15.6375
  531.5000    74.2468     7.6248     2.4915     0.1180     0.0846    12.1785    14.1582   -15.6375
  532.0000    74.2825     7.6218     2.4884     0.1201     0.0785    12.1672    14.1841   -15.6378
  532.5000    76.3721     7.6047     2.4856     0.1252     0.0734    12.1559    14.2134   -15.6393
  533.0000    78.5657     7.5876     2.4863     0.1303     0.0684    12.1446    14.2427   -15.6271
  533.5000    80.1699     7.5720     2.4768     0.1355     0.0604    12.1333    14.2721   -15.3991
  534.0000    78.2248     7.4785     2.4666     0.1406     0.0502    12.1221    14.3015   -15.1738
  534.5000    77.4701     7.3469     2.4563     0.1447     0.0403    12.1108    14.3310   -14.9514
  535.0000    77.5200     7.2274     2.4465     0.1416     0.0385    12.0996    14.3606   -14.7239
  535.5000    77.5903     7.2384     2.4428     0.1439     0.0370    12.0884    14.4030   -14.8539
  536.0000    77.1174     7.2792     2.4458     0.1463     0.0355    12.0772    14.4221   -15.1927
  536.5000    76.0669     7.3468     2.4447     0.1451     0.0342    12.0660    14.1465   -15.5357
  537.0000    75.8307     7.4142     2.4395     0.1420     0.0362    12.0548    14.1293   -15.8438
  537.5000    75.8431     7.4819     2.4406     0.1390     0.0384    12.0436    14.1122   -15.8181
  538.0000    75.0582     7.5493     2.4440     0.1353     0.0442    12.0324    14.0951   -15.7993
  538.5000    74.8951     7.6029     2.4528     0.1310     0.0499    12.0212    14.0780   -15.7815
  539.0000    76.0914     7.5812     2.4616     0.1286     0.0510    12.0101    14.0609   -15.7638
  539.5000    78.9927     7.5694     2.4682     0.1268     0.0520    11.9965    14.0440   -15.7462
  540.0000    79.3411     7.5973     2.4697     0.1250     0.0529    12.0136    14.0298   -15.7285
  540.5000    79.5080     7.6244     2.4709     0.1248     0.0539    12.0382    14.1502   -15.7108
  541.0000    79.9739     7.6423     2.4722     0.1250     0.0549    12.0628    14.2580   -15.6931
  541.5000    81.6480     7.6209     2.4734     0.1324     0.0559    12.0886    14.3664   -15.6755
  542.0000    83.3354     7.5250     2.4745     0.1418     0.0568    12.1634    14.4756   -15.6596
  542.5000    83.2951     7.4297     2.4650     0.1516     0.0578    12.4079    14.7010   -15.6550
  543.0000    81.6508     7.3401     2.4510     0.1615     0.0604    12.6550    15.2755   -15.1096
  543.5000    82.4959     7.3208     2.4333     0.1713     0.0635    12.9071    15.8639   -14.4733
  544.0000    82.9069     7.3371     2.4144     0.1763     0.0716    13.1643    16.4808   -14.3078
  544.5000    80.2467     7.4399     2.3948     0.1784     0.0800    13.4265    16.8645   -13.5909
  545.0000    77.6179     7.5438     2.3827     0.1764     0.0884    13.6940    16.7288   -12.4201
  545.5000    72.7120     7.5674     2.3823     0.1639     0.0921    13.9005    16.6264   -11.2432
  546.0000    66.1832     7.5709     2.3915     0.1643     0.0902    13.7730    16.5265   -10.7657
  546.5000    59.5725     7.5739     2.3997     0.1924     0.0843    13.5129    16.4273   -10.5694
  547.0000    57.5060     7.5772     2.3787     0.1980     0.0907    13.2752    16.3286   -10.4426
  547.5000    59.4173     7.5804     2.3527     0.1860     0.1124    13.0326    16.2305   -10.3149
  548.0000    61.7572     7.5837     2.3532     0.1663     0.1385    13.0157    16.1330   -10.1867
  548.5000    62.8655     7.5847     2.3832     0.1676     0.1586    12.9981    16.0359   -10.0595
  549.0000    61.9502     7.5854     2.4005     0.1757     0.1517    12.9806    15.9393    -9.9420
  549.5000    62.6658     7.5522     2.3950     0.1792     0.1379    12.9630    15.8141    -9.8254
  550.0000    64.7838     7.5052     2.3877     0.1775     0.1328    12.9456    15.8875    -9.7088
  550.5000    66.9413     7.4578     2.3812     0.1764     0.1338    12.9281    16.0000    -9.5921
  551.0000    67.4580     7.3959     2.3829     0.1764     0.1346    12.9143    16.1120    -9.4750
  551.5000    67.2701     7.3020     2.3842     0.1764     0.1353    12.9970    16.2248    -9.3585
  552.0000    66.5557     7.2052     2.3837     0.1783     0.1360    13.0711    16.3384    -9.2770
  552.5000    67.1733     7.2110     2.3832     0.1797     0.1366    13.1455    16.4528    -9.3843
  553.0000    68.8047     7.2442     2.3827     0.1791     0.1373    13.2204    16.5679    -9.4885
  553.5000    69.7231     7.2779     2.3822     0.1785     0.1379    13.2957    16.6839    -9.5922
  554.0000    70.4423     7.3301     2.3822     0.1689     0.1443    13.3715    16.8007    -9.6959
  554.5000    70.2931     7.3869     2.3823     0.1568     0.1544    13.4476    16.9183    -9.7996
  555.0000    69.2422     7.4441     2.4020     0.1447     0.1642    13.5242    17.0228    -9.9032
  555.5000    66.7865     7.4809     2.4236     0.1327     0.1665    13.6015    16.8742   -10.0070
  556.0000    64.3473     7.5043     2.4431     0.1303     0.1680    13.6787    16.7424   -10.1105
