~VERSION INFORMATION
 VERS.                2.0:   CWLS LOG ASCII STANDARD - VERSION 2.0
 WRAP.                 NO:   ONE LINE PER DEPTH STEP
~WELL INFORMATION
#MNEM.UNIT      DATA TYPE    INFORMATION
#----------   ------------   ------------------------------
 STRT.F          100.0000:   START DEPTH
 STOP.F         1196.0000:   STOP DEPTH
 STEP.F            0.5000:   STEP LENGTH
 NULL.          -999.2500:   NO VALUE
 COMP. DEPARTMENT OF ENERGY:   COMPANY
 WELL.     NRP ##3 77S-11:   WELL
 FLD .             TEAPOT:   FIELD
 LOC .      S11 T38N R78W:   LOCATION
 CNTY.            NATRONA:   COUNTY
 STAT.            WYOMING:   STATE
 CTRY. UNITED STATES OF AMERICA:   COUNTRY
 SRVC.       Schlumberger:   SERVICE COMPANY
 DATE.        18-AUG-1959:   LOGDATE
 API .       490250632900:   API NUMBER
~CURVE INFORMATION
#MNEM.UNIT       API CODE    CURVE DESCRIPTION
#----------   ------------   ------------------------------
 DEPT.F                  :   
 SPR .MV     05 010 01 00:   SPONTANEOUS POTENTIAL FROM RES.
 ASN .OHMM   05 041 16 00:   AMPLIFIED SHORT NORMAL 16"
 ILD .OHMM   05 120 46 00:   INDUCTION LOG DEEP
 CILD.MMHO   05 110 46 00:   CONDUCTIVITY INDUCTION LOG DEEP
~PARAMETER INFORMATION
#MNEM.UNIT          VALUE    DESCRIPTION
#----------   ------------   ------------------------------
 PD  .                 GL:   PERMANENT DATUM
 EPD .F              5258:   ELEVATION PERMANENT DATUM
 LMF .                 KB:   LOG MEASURED FROM
 DAPD.F                 4:   FEET ABOVE PERMANENT DATUM
 DMF .                 KB:   DRILLING MEASURED FROM
 EKB .F              5262:   KELLING BUSHING
 EGL .F              5258:   GROUND LEVEL
 DATE.            8-18-59:   RUN DATE
 RUN .                  1:   RUN NUMBER
 DD  .F              1200:   DEPTH DRILLER
 DL  .F              1201:   DEPTH LOGGER
 BLI .F              1196:   BOTTOM LOG INTERVAL
 TLI .F               100:   TOP LOG INTERVAL
 CBD .F                17:   CASING BOTTOM DRILLER
 BS  .IN             6.75:   BIT SIZE
 BSD .F              1200:   BIT SIZE AT DEPTH
 DFT . GEL-OIL-PHDS-CAUSTIC:   DRILLING FLUID TYPE
 DFD .               10.8:   DRILLING FLUID DENSITY
 DFV .                 60:   DRILLING FLUID VISCOSITY
 DFPH.                  9:   DRILLING FLUID PH
 DFL .                  4:   DRILLING FLUID LOSS
 RMS .OHMM            1.8:   RESISTIVITY MUD SAMPLE
 MST .F                90:   MUD SAMPLE TEMPERATURE
 RMF .OHMM            1.5:   RESISTIVITY MUD FILTRATE SAMPLE
 MFST.F                90:   MUD FILTRATE SAMPLE TEMPERATURE
 RMC .OHMM              2:   RESISTIVITY MUD CAKE
 MCST.F                90:   MUD CAKE SAMPLE TEMPERATURE
 TCS .HRS               1:   TIME CURCULATED STOPPED
 LUN .               2523:   LOGGING UNIT NUMBER
 LUL .               CSPR:   LOGGING UNIT LOCATION
 ENGI.             KNOBEL:   RECORDING ENGINEER
 WITN.             MARTIN:   WITNESSED BY
 CLNT.            A2DTECH:   CLIENT CODE
 ORIG.     1", 2.5" PRINT:   ORIGIN OF DATA
 UWI .       490250632900:   UNIQUE WELL ID
 DICO. A2D Technologies, Inc.:   DIGITIZING COMPANY
~OTHER INFORMATION
~A   DEPT      SPR          ASN        ILD      CILD  
# ...
  830.0000   -32.7642    10.5021     9.8343    97.3821
  830.5000   -32.5853    10.7535    10.0819    94.8915
  831.0000   -32.3544    11.1147    10.3354    92.4009
  831.5000   -32.2034    11.6808    10.5781    89.9103
  832.0000   -32.2423    12.1175    10.8082    87.4197
  832.5000   -32.4274    12.2934    11.0505    84.9291
  833.0000   -32.6254    12.4429    11.3178    82.4385
  833.5000   -32.7779    12.6121    11.5628    79.9479
  834.0000   -32.9268    12.6524    11.7200    77.4572
  834.5000   -33.0960    12.6189    11.8013    75.3546
  835.0000   -33.2576    12.6325    11.8713    76.0343
  835.5000   -33.4117    12.6187    11.9161    76.6223
  836.0000   -33.5906    12.5068    11.8433    77.0961
  836.5000   -33.7659    12.3663    11.6364    78.0860
  837.0000   -33.8363    12.2245    11.3983    78.9061
  837.5000   -33.7502    12.1020    11.1988    80.6057
  838.0000   -33.5735    11.9787    10.9936    82.1993
  838.5000   -33.4049    11.8465    10.7456    83.4113
  839.0000   -33.2700    11.7196    10.5153    84.8590
  839.5000   -33.1320    11.5959    10.3615    85.9260
  840.0000   -32.9733    11.4592    10.2425    86.0390
  840.5000   -32.8162    11.3250    10.0908    86.4276
  841.0000   -32.6782    11.2407     9.9260    86.9519
  841.5000   -32.5378    11.2280     9.8242    87.3277
  842.0000   -32.3716    11.2557     9.8138    87.8211
  842.5000   -32.2108    11.2836     9.8507    88.2229
  843.0000   -32.1265    11.3021     9.8814    88.6945
  843.5000   -32.1493    11.3186     9.8937    89.1246
  844.0000   -32.2329    11.3343     9.9093    89.5656
  844.5000   -32.3164    11.3539     9.9417    90.0067
  845.0000   -32.3863    11.3847     9.9722    90.4477
  845.5000   -32.4542    11.4061     9.9653    90.8887
  846.0000   -32.5205    11.3697     9.9079    91.3121
  846.5000   -32.5892    11.2514     9.8212    92.2296
  847.0000   -32.6762    11.0824     9.7353    93.1117
  847.5000   -32.7602    10.9116     9.6585    93.9938
  848.0000   -32.7677    10.7602     9.5816    94.8582
  848.5000   -32.6518    10.6163     9.5000    97.1077
  849.0000   -32.4553    10.4589     9.4182    99.3129
  849.5000   -32.2585    10.2852     9.3395   101.5182
  850.0000   -32.0899    10.1254     9.2605   103.7234
  850.5000   -31.9219    10.0176     9.1790   104.3649
  851.0000   -31.7350     9.9573     9.0983   105.0064
  851.5000   -31.5478     9.8981     9.0215   105.6480
  852.0000   -31.3790     9.8153     8.9450   106.2895
  852.5000   -31.2101     9.7281     8.8641   106.9310
  853.0000   -31.0145     9.6462     8.7835   107.5725
  853.5000   -30.8179     9.5504     8.7106   108.2141
  854.0000   -30.6946     9.4527     8.6370   108.8556
  854.5000   -30.6818     9.4137     8.5486   109.4971
  855.0000   -30.7351     9.4602     8.4603   110.1386
  855.5000   -30.7920     9.5262     8.4160   110.8156
  856.0000   -30.8393     9.5211     8.4380   110.3394
  856.5000   -30.8828     9.4296     8.4999   109.8354
  857.0000   -30.9136     9.3235     8.5664   109.3313
  857.5000   -30.9484     9.2909     8.6299   108.8272
  858.0000   -31.0465     9.3598     8.6892   108.3232
  858.5000   -31.2316     9.4715     8.7226   107.8192
  859.0000   -31.4578     9.5253     8.7072   107.2695
  859.5000   -31.6966     9.4566     8.6449   109.2753
  860.0000   -31.9677     9.2786     8.5483   111.4805
  860.5000   -32.2322     9.0510     8.4169   113.6857
  861.0000   -32.3547     8.8220     8.2460   116.1348
  861.5000   -32.2426     8.5949     8.0489   119.0489
  862.0000   -31.9487     8.3450     7.8573   122.3252
  862.5000   -31.5973     8.0755     7.7017   125.6016
  863.0000   -31.2872     7.8536     7.5942   128.8779
  863.5000   -31.0970     7.7598     7.5195   132.1543
  864.0000   -31.0762     7.8017     7.4431   135.4306
  864.5000   -31.1855     7.9058     7.3424   139.1844
  865.0000   -31.3200     7.9984     7.2377   139.1844
  865.5000   -31.4207     8.0621     7.1800   139.1844
  866.0000   -31.5083     8.1152     7.1986   137.3227
  866.5000   -31.6080     8.1721     7.2708   135.1175
  867.0000   -31.7146     8.2310     7.3488   132.9324
  867.5000   -31.8228     8.2772     7.4102   130.3754
  868.0000   -31.9279     8.2985     7.4683   130.2884
  868.5000   -32.0169     8.3047     7.5394   129.6088
  869.0000   -32.1054     8.3248     7.6154   128.5164
  869.5000   -32.2331     8.3733     7.6743   127.6763
  870.0000   -32.3707     8.4365     7.7061   126.5894
  870.5000   -32.3935     8.5006     7.7218   125.7305
  871.0000   -32.2251     8.5693     7.7381   124.6684
  871.5000   -31.9358     8.6414     7.7595   123.7910
  872.0000   -31.6278     8.6941     7.7805   122.7401
  872.5000   -31.3093     8.7088     7.7987   121.8597
  873.0000   -30.9784     8.6948     7.8181   120.8100
  873.5000   -30.7400     8.6701     7.8399   119.7106
  874.0000   -30.7087     8.6348     7.8597   120.2186
  874.5000   -30.8464     8.5833     7.8739   121.0638
  875.0000   -31.0061     8.5252     7.8847   121.8479
  875.5000   -31.1138     8.4728     7.8962   122.6320
  876.0000   -31.2105     8.4222     7.9096   123.4161
  876.5000   -31.3382     8.3709     7.9228   124.2002
  877.0000   -31.4731     8.3411     7.9347   124.9842
  877.5000   -31.5824     8.3629     7.9466   125.7683
  878.0000   -31.6857     8.4363     7.9599   126.7730
  878.5000   -31.8210     8.5266     7.9734   126.1392
  879.0000   -31.9685     8.5954     7.9849   125.2571
  879.5000   -32.0493     8.6302     7.9958   124.3750
  880.0000   -32.0069     8.6488     8.0104   123.4929
  880.5000   -31.8668     8.6779     8.0268   122.6108
  881.0000   -31.6978     8.7190     8.0336   121.7287
  881.5000   -31.5420     8.7393     8.0209   120.8466
  882.0000   -31.4060     8.7086     7.9920   119.6808
  882.5000   -31.2897     8.6410     7.9591   120.0399
  883.0000   -31.1910     8.5789     7.9302   120.5692
  883.5000   -31.0936     8.5463     7.9036   121.0984
  884.0000   -30.9829     8.5329     7.8745   121.6277
  884.5000   -30.8678     8.5200     7.8423   122.1569
  885.0000   -30.7655     8.4968     7.8123   122.6862
  885.5000   -30.6684     8.4570     7.7876   123.2154
  886.0000   -30.5522     8.3960     7.7592   123.7447
  886.5000   -30.4224     8.3116     7.7205   124.2739
  887.0000   -30.3284     8.2022     7.6874   125.0000
  887.5000   -30.3133     8.0765     7.6843   126.4775
  888.0000   -30.3628     7.9623     7.6979   128.8298
  888.5000   -30.4234     7.8853     7.6698   132.0922
  889.0000   -30.4637     7.8144     7.5528   135.6383
  889.5000   -30.4977     7.6532     7.3550   139.1844
  890.0000   -30.5475     7.3347     7.1204   144.5036
  890.5000   -30.6063     6.9326     6.8931   148.0497
  891.0000   -30.6448     6.6229     6.6944   153.3688
  891.5000   -30.6450     6.4978     6.5015   162.2340
  892.0000   -30.6172     6.4660     6.2641   164.5479
  892.5000   -30.5840     6.4067     5.9924   168.5173
  893.0000   -30.5571     6.3736     5.8060   172.4867
  893.5000   -30.5329     6.5323     5.8207   178.1915
  894.0000   -30.5056     6.8983     6.0005   178.1915
  894.5000   -30.4760     7.2663     6.2042   173.8617
  895.0000   -30.4476     7.4442     6.3667   166.0993
  895.5000   -30.4225     7.4585     6.5393   158.3369
  896.0000   -30.3971     7.4661     6.7494   150.5745
  896.5000   -30.3667     7.5421     6.9277   139.1844
  897.0000   -30.3333     7.6323     7.0097   138.7818
  897.5000   -30.3078     7.6763     7.0284   138.0260
  898.0000   -30.2971     7.6895     7.0650   137.2702
  898.5000   -30.2962     7.7106     7.1514   136.5144
  899.0000   -30.2987     7.7286     7.2537   135.7586
  899.5000   -30.3024     7.7066     7.3202   135.0028
  900.0000   -30.3026     7.6491     7.3201   133.8652
  900.5000   -30.2954     7.5964     7.2536   133.8652
  901.0000   -30.2929     7.5514     7.1525   133.8652
  901.5000   -30.3080     7.4708     7.0692   137.5142
  902.0000   -30.3148     7.3318     7.0320   139.9716
  902.5000   -30.2606     7.1669     7.0065   142.4291
