~VERSION INFORMATION
 VERS.                2.0:   CWLS LOG ASCII STANDARD - VERSION 2.0
 WRAP.                 NO:   ONE LINE PER DEPTH STEP
~WELL INFORMATION
#MNEM.UNIT      DATA TYPE    INFORMATION
#----------   ------------   ------------------------------
 STRT.F           67.0000:   START DEPTH
 STOP.F          812.0000:   STOP DEPTH
 STEP.F            0.5000:   STEP LENGTH
 NULL.          -999.2500:   NO VALUE
 COMP. U S NAVY-INTEX OIL:   COMPANY
 WELL.  N.P.R. #3 #48-S-2:   WELL
 FLD .             TEAPOT:   FIELD
 LOC .       S2 T38N R78W:   LOCATION
 CNTY.            NATRONA:   COUNTY
 STAT.            WYOMING:   STATE
 CTRY. UNITED STATES OF AMERICA:   COUNTRY
 SRVC.      NL McCullough:   SERVICE COMPANY
 DATE.        11-AUG-1961:   LOGDATE
 API .       490250639200:   API NUMBER
~CURVE INFORMATION
#MNEM.UNIT       API CODE    CURVE DESCRIPTION
#----------   ------------   ------------------------------
 DEPT.F                  :   
 GRN .MG/TON 35 310 01 00:   GAMMA RAY
 NEUT.CPS    35 330 30 00:   NEUTRON
~PARAMETER INFORMATION
#MNEM.UNIT          VALUE    DESCRIPTION
#----------   ------------   ------------------------------
 PD  .                 GL:   PERMANENT DATUM
 EPD .F              5168:   ELEVATION PERMANENT DATUM
 LMF .                 KB:   LOG MEASURED FROM
 DAPD.F                 6:   FEET ABOVE PERMANENT DATUM
 DMF .                 KB:   DRILLING MEASURED FROM
 EKB .F              5174:   KELLING BUSHING
 EGL .F              5168:   GROUND LEVEL
 DATE.          8-11-1961:   RUN DATE
 RUN .                  1:   RUN NUMBER
 DD  .F               810:   DEPTH DRILLER
 DL  .F            813.75:   DEPTH LOGGER
 BLI .F               812:   BOTTOM LOG INTERVAL
 TLI .F                80:   TOP LOG INTERVAL
 BSD .F               810:   BIT SIZE AT DEPTH
 DFT .       OIL EMULSION:   DRILLING FLUID TYPE
 TCS .HRS               1:   TIME CURCULATED STOPPED
 ENGI.            JACKSON:   RECORDING ENGINEER
 WITN.          JORGENSON:   WITNESSED BY
 CLNT.            A2DTECH:   CLIENT CODE
 ORIG.        2" 5" PRINT:   ORIGIN OF DATA
 UWI .       490250639200:   UNIQUE WELL ID
 DICO. A2D Technologies, Inc.:   DIGITIZING COMPANY
~OTHER INFORMATION
~A   DEPT        GRN     NEUT   
# ...
  553.0000     5.9433   432.9907
  553.5000     6.0014   427.6176
  554.0000     6.0580   431.7377
  554.5000     6.1303   444.5980
  555.0000     6.0970   457.4629
  555.5000     6.0540   469.9967
  556.0000     6.0096   463.3898
  556.5000     5.9668   457.0239
  557.0000     5.9111   456.9755
  557.5000     5.9124   460.6642
  558.0000     5.9349   463.9545
  558.5000     5.9681   443.5579
  559.0000     5.9904   440.6635
  559.5000     5.8135   438.0934
  560.0000     5.8738   419.1376
  560.5000     5.9580   401.2087
  561.0000     6.0598   383.1003
  561.5000     6.0165   366.2048
  562.0000     5.9410   359.7722
  562.5000     6.0013   354.2189
  563.0000     6.0802   358.9392
  563.5000     6.1598   363.5093
  564.0000     6.2192   367.9592
  564.5000     6.0765   372.1831
  565.0000     5.9912   375.9090
  565.5000     6.1098   379.4327
  566.0000     6.2690   382.9254
  566.5000     6.4668   386.1315
  567.0000     6.3998   392.8339
  567.5000     6.3090   398.9734
  568.0000     6.2194   405.1927
  568.5000     6.1287   411.2844
  569.0000     6.0391   417.5374
  569.5000     5.9809   423.0095
  570.0000     6.0379   412.1372
  570.5000     6.1001   412.8317
  571.0000     6.1625   420.9744
  571.5000     6.2094   428.8381
  572.0000     6.1299   436.9975
  572.5000     6.0508   443.9468
  573.0000     6.0708   438.7646
  573.5000     6.0875   433.7947
  574.0000     6.1033   434.6053
  574.5000     6.1200   438.4505
  575.0000     6.1397   442.6177
  575.5000     6.1039   445.9621
  576.0000     6.0548   428.7952
  576.5000     6.0069   425.9482
  577.0000     5.9579   430.7325
  577.5000     5.9220   435.3073
  578.0000     5.9960   435.1474
  578.5000     6.0558   432.0972
  579.0000     6.1151   429.1177
  579.5000     6.1747   426.1163
  580.0000     6.2342   419.8432
  580.5000     6.2936   411.8842
  581.0000     6.3533   405.0373
  581.5000     6.4272   405.1271
  582.0000     6.3942   414.6684
  582.5000     6.3490   423.1302
  583.0000     6.3050   429.9888
  583.5000     6.2485   406.3124
  584.0000     6.2493   385.7774
  584.5000     6.4095   376.4880
  585.0000     6.5072   372.3773
  585.5000     6.4021   368.4830
  586.0000     6.2991   365.0973
  586.5000     6.3450   356.0647
  587.0000     6.4083   348.2334
  587.5000     6.4697   340.5790
  588.0000     6.5174   332.7657
  588.5000     6.5165   325.0838
  589.0000     6.3191   317.2858
  589.5000     6.1596   309.5892
  590.0000     6.0018   303.3880
  590.5000     5.8820   297.8925
  591.0000     5.8828   293.4536
  591.5000     5.9757   292.2318
  592.0000     6.0512   309.2054
  592.5000     6.1258   323.1306
  593.0000     6.2197   334.2445
  593.5000     6.4634   343.8903
  594.0000     6.7887   353.8430
  594.5000     7.0328   363.4395
  595.0000     7.0722   371.2370
  595.5000     7.1123   397.9724
  596.0000     7.1614   391.6532
  596.5000     7.0826   386.0748
  597.0000     7.1676   382.2228
  597.5000     7.2367   396.8180
  598.0000     7.3046   423.8048
  598.5000     7.3737   423.8048
  599.0000     7.4587   423.8048
  599.5000     7.1728   398.9064
  600.0000     7.3212   394.9203
  600.5000     7.4615   377.5896
  601.0000     7.6401   350.0996
  601.5000     7.7033   339.1115
  602.0000     7.5800   346.4226
  602.5000     7.5306   373.0876
  603.0000     7.2721   399.1715
  603.5000     7.0555   383.3575
  604.0000     6.9275   369.0239
  604.5000     6.9626   368.0279
  605.0000     7.1749   367.9295
  605.5000     7.1354   375.0459
  606.0000     7.3798   383.1895
  606.5000     7.3732   395.0392
  607.0000     7.2742   417.5053
  607.5000     6.9077   439.7672
  608.0000     6.7406   451.7013
  608.5000     6.9496   472.7828
  609.0000     7.2503   463.6076
  609.5000     7.3406   449.4642
  610.0000     7.1557   430.7057
  610.5000     7.3720   428.8143
  611.0000     7.2249   440.7583
  611.5000     7.0423   449.0428
  612.0000     6.8889   453.5376
  612.5000     6.8808   446.9000
  613.0000     6.7403   445.6132
  613.5000     6.5519   404.9782
  614.0000     6.7221   413.7664
  614.5000     6.9471   430.8209
  615.0000     6.9384   432.6605
  615.5000     6.8645   404.8674
  616.0000     6.7902   406.7888
  616.5000     6.9865   385.7685
  617.0000     6.8199   364.9807
  617.5000     7.0106   354.1444
  618.0000     7.2481   339.0994
  618.5000     7.4144   338.2265
  619.0000     7.5114   339.5905
  619.5000     7.8177   344.1935
  620.0000     7.6101   403.3615
  620.5000     7.6843   448.7370
  621.0000     7.7001   420.7926
  621.5000     7.5995   392.9575
  622.0000     7.5362   382.9638
  622.5000     7.3021   387.9663
  623.0000     7.0959   426.2896
  623.5000     6.9863   444.7719
  624.0000     6.9875   467.3432
  624.5000     7.0305   471.8090
  625.0000     6.9411   459.0000
  625.5000     6.8559   448.6639
  626.0000     6.7661   423.8256
  626.5000     6.7219   437.2519
  627.0000     7.0848   453.7119
  627.5000     7.1455   458.0201
  628.0000     7.2822   454.9713
  628.5000     7.1764   438.6387
  629.0000     7.4305   445.8107
  629.5000     7.2987   452.0182
  630.0000     7.2790   407.9679
  630.5000     7.6103   402.7877
  631.0000     7.6299   401.9988
  631.5000     7.7386   400.8161
  632.0000     7.6016   414.4370
  632.5000     7.1952   435.6753
  633.0000     7.1348   419.8590
  633.5000     7.2386   418.1651
  634.0000     7.2572   416.8385
  634.5000     7.4915   409.4591
  635.0000     7.7078   402.8960
  635.5000     7.2249   388.9719
  636.0000     7.1941   387.0513
  636.5000     7.3237   388.9342
  637.0000     7.1143   395.9115
  637.5000     6.9780   394.9425
  638.0000     6.9272   410.5323
  638.5000     6.7914   408.8503
  639.0000     6.8188   407.8954
  639.5000     7.1560   386.6941
  640.0000     7.4014   351.8474
  640.5000     7.1410   310.9286
  641.0000     7.0852   310.3595
  641.5000     7.2094   327.7441
  642.0000     7.3965   332.3476
  642.5000     7.1460   404.7142
  643.0000     7.3421   395.1032
  643.5000     7.4020   392.7576
  644.0000     7.0757   412.4154
  644.5000     7.1598   428.6641
  645.0000     7.1926   412.1667
  645.5000     7.1006   407.7632
  646.0000     7.2242   407.9747
  646.5000     7.1747   395.4567
  647.0000     7.2860   387.1077
  647.5000     7.4997   383.9719
  648.0000     7.4711   359.1330
  648.5000     7.3050   359.7236
  649.0000     7.4033   364.9307
  649.5000     7.7872   370.9897
  650.0000     7.5441   392.3305
  650.5000     7.3032   420.8343
  651.0000     7.0169   446.5463
  651.5000     7.0070   463.6354
  652.0000     7.0746   456.3544
  652.5000     7.1523   441.1715
  653.0000     7.0494   433.7495
  653.5000     6.9181   445.5894
  654.0000     7.2242   450.6684
  654.5000     6.6414   450.7481
  655.0000     6.6784   470.5699
  655.5000     6.7797   462.2469
  656.0000     6.5229   479.1689
  656.5000     6.7252   498.0340
  657.0000     6.9289   499.4093
  657.5000     7.1451   500.5261
  658.0000     7.0871   486.4859
  658.5000     7.1216   470.6582
  659.0000     7.1257   472.8774
  659.5000     7.3623   471.1942
  660.0000     7.2640   480.7209
  660.5000     7.1591   498.5529
  661.0000     6.7666   505.5103
  661.5000     6.5895   525.7189
  662.0000     6.6414   556.2113
  662.5000     6.4582   551.6863
  663.0000     6.6668   543.1305
  663.5000     6.8752   534.4178
  664.0000     6.9665   534.2932
  664.5000     6.7993   500.4796
  665.0000     6.8896   464.8308
  665.5000     7.0124   429.4655
  666.0000     7.1650   397.8676
  666.5000     7.1352   415.9389
  667.0000     6.8692   445.1142
  667.5000     6.7696   484.6036
  668.0000     6.2461   564.2153
  668.5000     6.4092   569.2574
  669.0000     6.6163   566.3402
  669.5000     6.7796   564.2755
  670.0000     6.9279   569.2157
  670.5000     6.6215   569.2364
  671.0000     6.5435   557.5403
  671.5000     6.6830   545.6420
  672.0000     6.5902   545.3151
  672.5000     6.4753   553.4811
  673.0000     6.6611   546.3352
  673.5000     6.0839   574.4902
  674.0000     5.8594   603.1122
