~VERSION INFORMATION
 VERS.                2.0:   CWLS LOG ASCII STANDARD - VERSION 2.0
 WRAP.                 NO:   ONE LINE PER DEPTH STEP
~WELL INFORMATION
#MNEM.UNIT      DATA TYPE    INFORMATION
#----------   ------------   ------------------------------
 STRT.F            8.0000:   START DEPTH
 STOP.F          513.0000:   STOP DEPTH
 STEP.F            0.5000:   STEP LENGTH
 NULL.          -999.2500:   NO VALUE
 COMP. LAWRENCE-ALLISON &AS:   COMPANY
 WELL. NPR 3 #51-63SX10UP3:   WELL
 FLD .             TEAPOT:   FIELD
 LOC .      S10 T38N R78W:   LOCATION
 CNTY.            NATRONA:   COUNTY
 STAT.            WYOMING:   STATE
 CTRY. UNITED STATES OF AMERICA:   COUNTRY
 SRVC.      Dresser Atlas:   SERVICE COMPANY
 DATE.        09-DEC-1984:   LOGDATE
 API .       490251099400:   API NUMBER
~CURVE INFORMATION
#MNEM.UNIT       API CODE    CURVE DESCRIPTION
#----------   ------------   ------------------------------
 DEPT.F                  :   
 RFOC.OHMM   07 220 01 00:   RESISTIVITY FOCUSED LOG
 RILD.OHMM   07 120 46 00:   INDUCTION LOG DEEP RESISTIVITY
 RILM.OHMM   07 120 44 00:   RESITIVITY LONG MEDIUM
 SPR .MV     07 010 01 00:   SPONTANEOUS POTENTIAL
 CALD.IN     45 280 60 00:   CALIPER FROM DENSITY LOG
 CORR.none               :   
 DEN .G/C3   45 350 01 00:   COMPENSATED BULK DENSTIY
 GRD .GAPI   45 310 01 00:   GAMMA RAY FROM DENSITY LOG
 PORD.DEC    45 890 12 00:   POROSITY DENSITY SANDSTONE
 CNC .DEC    42 890 03 00:   NEUTRON POROSITY SANDSTONE
~PARAMETER INFORMATION
#MNEM.UNIT          VALUE    DESCRIPTION
#----------   ------------   ------------------------------
 PD  .                 GL:   PERMANENT DATUM
 EPD .F              5162:   ELEVATION PERMANENT DATUM
 LMF .                 GL:   LOG MEASURED FROM
 DMF .                 GL:   DRILLING MEASURED FROM
 EGL .F              5162:   GROUND LEVEL
 DATE.        09-DEC-1984:   RUN DATE
 RUN .                  1:   RUN NUMBER
 DD  .F               510:   DEPTH DRILLER
 DL  .F               515:   DEPTH LOGGER
 BLI .F               513:   BOTTOM LOG INTERVAL
 TLI .F                20:   TOP LOG INTERVAL
 CS  .IN            8.625:   CASING SIZE
 CBD .F                20:   CASING BOTTOM DRILLER
 CBL .F                20:   CASING BOTTOM LOGGER
 BS  .IN            7.875:   BIT SIZE
 BSD .F               510:   BIT SIZE AT DEPTH
 DFT .          KCL-WATER:   DRILLING FLUID TYPE
 MSS .            MUDTANK:   MUD SAMPLE SOURCE
 RMS .OHMM           0.41:   RESISTIVITY MUD SAMPLE
 MST .F                45:   MUD SAMPLE TEMPERATURE
 RMF .OHMM           0.31:   RESISTIVITY MUD FILTRATE SAMPLE
 MFST.F                45:   MUD FILTRATE SAMPLE TEMPERATURE
 RMC .OHMM           0.51:   RESISTIVITY MUD CAKE
 MCST.F                45:   MUD CAKE SAMPLE TEMPERATURE
 MFSS.               CALC:   MUD FILTRATE SAMPLE SOURCE
 MCSS.               CALC:   MUD CAKE SAMPLE SOURCE
 RMB .OHMM           0.22:   RESISTIVITY MUD AT BHT
 BHT .F                85:   BOTTOM HOLE TEMPERATURE
 TCS .HRS               2:   TIME CURCULATED STOPPED
 MRT .F               100:   MAXIMUM RECORDED TEMPERATURE
 LUN .               6270:   LOGGING UNIT NUMBER
 LUL .                 FM:   LOGGING UNIT LOCATION
 ENGI.          E. GOVETT:   RECORDING ENGINEER
 WITN.              LUERS:   WITNESSED BY
 CLNT.            A2DTECH:   CLIENT CODE
 ORIG.           5" PRINT:   ORIGIN OF DATA
 UWI .       490251099400:   UNIQUE WELL ID
 DICO. A2D Technologies, Inc.:   DIGITIZING COMPANY
~OTHER INFORMATION
~A    DEPT    RFOC       RILD       RILM        SPR       CALD       CORR        DEN        GRD       PORD          CNC 
# ...
  343.0000    26.6674    21.6141    14.9901   -34.3625     8.0545     0.0364     2.3620    76.0026     0.1881     0.2327
  343.5000    26.8680    21.3242    14.9805   -34.5047     8.0541     0.0302     2.3589    75.0959     0.1903     0.2479
  344.0000    26.3279    20.8944    14.9004   -34.6334     8.0536     0.0393     2.3596    74.0388     0.1909     0.2668
  344.5000    25.6199    20.4713    14.8060   -34.4684     8.0682     0.0574     2.3656    73.5833     0.1885     0.2816
  345.0000    25.4557    20.1946    14.5073   -34.3067     8.0678     0.0543     2.3724    73.7293     0.1852     0.2771
  345.5000    25.4701    19.7856    14.3121   -34.1449     8.0673     0.0311     2.3762    73.2737     0.1821     0.2674
  346.0000    25.6618    19.5223    14.4206   -34.2837     8.0777     0.0192     2.3777    72.3509     0.1800     0.2580
  346.5000    25.4979    19.2604    14.7314   -34.2673     8.0815     0.0313     2.3738    71.9114     0.1809     0.2531
  347.0000    25.3064    19.1344    15.3662   -34.1055     8.0838     0.0464     2.3715    74.4623     0.1828     0.2568
  347.5000    24.9989    18.8781    16.0282   -33.7952     8.0956     0.0402     2.3692    76.8639     0.1840     0.2650
  348.0000    24.8404    18.7549    16.8354   -33.3363     8.0951     0.0477     2.3676    79.2655     0.1849     0.2681
  348.5000    24.8562    18.7627    17.6912   -32.8774     8.0947     0.0629     2.3660    78.6595     0.1859     0.2677
  349.0000    24.8697    18.7706    18.1908   -31.8242     8.1033     0.0674     2.3644    76.5498     0.1871     0.2685
  349.5000    24.8833    18.7798    18.3261   -30.9195     8.1089     0.0521     2.3630    74.4401     0.1883     0.2733
  350.0000    25.0705    18.6554    17.7085   -30.1634     8.1167     0.0381     2.3622    73.5346     0.1886     0.2740
  350.5000    24.5665    18.2842    17.8449   -29.7896     8.1023     0.0333     2.3647    74.1116     0.1884     0.2765
  351.0000    24.0694    18.0433    17.3502   -29.3961     8.0880     0.0229     2.3670    74.7272     0.1874     0.2855
  351.5000    23.5888    17.9307    16.5567   -29.3844     8.0830     0.0227     2.3694    75.3243     0.1859     0.2963
  352.0000    23.1146    17.8188    16.1137   -29.2241     8.0910     0.0347     2.3719    75.6217     0.1847     0.2988
  352.5000    22.8079    17.8312    16.3505   -29.2124     8.1205     0.0513     2.3628    74.4132     0.1838     0.2885
  353.0000    22.8207    17.8436    16.7064   -29.2006     8.1349     0.0603     2.3574    73.0553     0.1905     0.2791
  353.5000    22.8583    17.8584    17.0701   -28.8915     8.1494     0.0663     2.3521    71.6975     0.1960     0.2703
  354.0000    23.0078    17.8706    17.4417   -28.7311     8.1665     0.0463     2.3483    70.6404     0.1987     0.2627
  354.5000    22.8578    17.8828    17.5754   -28.5683     8.1783     0.0341     2.3589    70.5859     0.1917     0.2603
  355.0000    22.5546    17.8950    17.4655   -28.5565     8.1475     0.0294     2.3786    73.7895     0.1820     0.2618
  355.5000    21.9511    18.0322    16.3038   -28.5448     8.1319     0.0277     2.4016    76.8325     0.1726     0.2621
  356.0000    21.2128    18.2973    14.9053   -28.5331     8.1260     0.0261     2.4074    79.5950     0.1632     0.2594
  356.5000    20.7836    18.8264    14.6075   -28.5214     8.1156     0.0168     2.3975    82.0457     0.1645     0.2560
  357.0000    20.2275    19.6422    14.4132   -28.5097     8.0958     0.0091     2.3929    81.4398     0.1714     0.2542
  357.5000    19.9591    20.2102    14.1184   -28.4980     8.0692     0.0185     2.3883    80.3827     0.1739     0.2561
  358.0000    19.6943    19.2628    13.5120   -28.4863     8.0536     0.0402     2.3822    79.6264     0.1761     0.2597
  358.5000    19.2984    17.7257    12.1431   -28.9233     8.0379     0.0543     2.3731    80.6746     0.1818     0.2621
  359.0000    18.9105    16.6431    11.5743   -29.3544     8.0313     0.0404     2.3677    81.5724     0.1857     0.2596
  359.5000    18.5303    14.9245    11.2646   -29.6428     8.0217     0.0312     2.3639    80.6657     0.1873     0.2531
  360.0000    18.1496    13.8345    11.3509   -30.0739     8.0211     0.0296     2.3608    78.8568     0.1882     0.2461
  360.5000    17.6532    13.1860    12.2613   -30.3596     8.0205     0.0506     2.3585    77.5001     0.1897     0.2515
  361.0000    17.3167    13.2871    13.5237   -30.6448     8.0509     0.0444     2.3623    77.7964     0.1900     0.2540
  361.5000    16.9686    13.5765    14.7102   -31.0789     8.1115     0.0322     2.3759    77.4901     0.1855     0.2540
  362.0000    16.7435    13.5858    15.7799   -31.2158     8.1481     0.0260     2.3964    77.3353     0.1794     0.2570
  362.5000    16.6366    13.5951    16.8101   -31.3526     8.1836     0.0395     2.4047    77.4812     0.1703     0.2610
  363.0000    16.6457    13.6993    16.2470   -31.6381     8.1529     0.0318     2.4039    77.7775     0.1655     0.2628
  363.5000    16.6548    13.7086    15.3787   -32.0692     8.1373     0.0240     2.4047    78.3945     0.1652     0.2631
  364.0000    16.8160    13.9102    13.7494   -32.6519     8.1367     0.0161     2.4061    79.2713     0.1643     0.2622
  364.5000    17.0244    14.1147    12.2112   -32.9403     8.1333     0.0084     2.3993    79.8684     0.1628     0.2595
  365.0000    17.1525    14.3224    11.5907   -33.0771     8.1205     0.0038     2.3947    78.2098     0.1669     0.2552
  365.5000    16.8077    14.4472    11.2024   -33.2140     8.1199     0.0098     2.3916    76.4008     0.1708     0.2519
  366.0000    16.7002    14.0479    11.0553   -33.3509     8.1193     0.0172     2.3923    74.8926     0.1725     0.2501
  366.5000    16.4788    13.6718    11.0628   -33.6334     8.1337     0.0217     2.4022    74.2867     0.1689     0.2501
  367.0000    16.3157    13.3985    11.1476   -33.7732     8.1331     0.0246     2.4143    76.6883     0.1616     0.2498
  367.5000    16.1564    13.2202    11.3114   -34.0558     8.1325     0.0305     2.4234    77.8868     0.1556     0.2459
  368.0000    15.9442    13.0486    11.3980   -34.3412     8.1319     0.0395     2.4272    78.7847     0.1531     0.2386
  368.5000    15.9371    12.9670    11.1704   -34.6270     8.1313     0.0485     2.4309    80.5847     0.1519     0.2322
  369.0000    15.7391    12.9759    10.8715   -34.6150     8.1307     0.0529     2.4400    82.8359     0.1492     0.2383
  369.5000    15.6386    12.8925    10.4346   -34.6033     8.1301     0.0512     2.4491    85.2375     0.1453     0.2450
  370.0000    15.5388    12.9035    10.1554   -34.7499     8.1143     0.0405     2.4468    83.2782     0.1398     0.2513
  370.5000    15.5494    12.8227     9.9526   -35.0441     8.1137     0.0327     2.4406    79.6044     0.1429     0.2556
  371.0000    15.5579    12.8315     9.8904   -35.3111     8.1133     0.0279     2.4352    77.1738     0.1459     0.2574
  371.5000    15.5664    12.7513    10.0359   -35.4480     8.1126     0.0231     2.4383    76.3476     0.1471     0.2562
  372.0000    15.5744    12.7622    10.3274   -35.5849     8.1271     0.0323     2.4413    78.7481     0.1450     0.2511
  372.5000    15.5834    12.7709    10.5523   -35.8703     8.1264     0.0474     2.4436    79.9466     0.1428     0.2447
  373.0000    15.5920    12.6910    10.8572   -36.0072     8.1258     0.0503     2.4443    80.6941     0.1414     0.2404
  373.5000    15.6005    12.6996    11.0167   -36.2927     8.1253     0.0501     2.4450    81.5919     0.1414     0.2468
  374.0000    15.6091    12.6181    11.2565   -36.7238     8.1247     0.0318     2.4450    82.7905     0.1414     0.2517
  374.5000    15.5584    12.6288    11.1087   -36.8636     8.1241     0.0149     2.4442    83.8387     0.1417     0.2545
  375.0000    15.5178    12.6374    10.9610   -37.0005     8.1084     0.0072     2.4442    84.4357     0.1417     0.2499
  375.5000    15.5285    12.4713    10.8170   -37.1373     8.1011     0.0055     2.4457    84.7320     0.1405     0.2440
  376.0000    15.4272    12.3930    10.6750   -37.2742     8.0922     0.0221     2.4494    84.8791     0.1387     0.2392
