~VERSION INFORMATION
 VERS.                2.0:   CWLS LOG ASCII STANDARD - VERSION 2.0
 WRAP.                 NO:   ONE LINE PER DEPTH STEP
~WELL INFORMATION
#MNEM.UNIT      DATA TYPE    INFORMATION
#----------   ------------   ------------------------------
 STRT.F           14.0000:   START DEPTH
 STOP.F          500.0000:   STOP DEPTH
 STEP.F            0.1000:   STEP LENGTH
 NULL.          -999.2500:   NO VALUE
 COMP. LAWRENCE/ALLISON INC:   COMPANY
 WELL.    72-46 SX #10-10:   WELL
 FLD .             TEAPOT:   FIELD
 LOC .      S10 T38N R78W:   LOCATION
 CNTY.            NATRONA:   COUNTY
 STAT.            WYOMING:   STATE
 CTRY. UNITED STATES OF AMERICA:   COUNTRY
 SRVC.           Gearhart:   SERVICE COMPANY
 DATE.        22-MAY-1988:   LOGDATE
 API .       490251122600:   API NUMBER
~CURVE INFORMATION
#MNEM.UNIT       API CODE    CURVE DESCRIPTION
#----------   ------------   ------------------------------
 DEPT.F                  :   
 GRR .GAPI   07 310 01 00:   GAMMA RAY
 RILD.OHMM   07 120 46 00:   INDUCTION LOG DEEP RESISTIVITY
 RILM.OHMM   07 120 44 00:   INDUCTION LOG MEDIUM RESISTIVITY
~PARAMETER INFORMATION
#MNEM.UNIT          VALUE    DESCRIPTION
#----------   ------------   ------------------------------
 PD  .                 GL:   PERMANENT DATUM
 EPD .F              5173:   ELEVATION PERMANENT DATUM
 LMF .                 KB:   LOG MEASURED FROM
 DAPD.F              10.2:   FEET ABOVE PERMANENT DATUM
 DMF .                 KB:   DRILLING MEASURED FROM
 EKB .F            5183.2:   KELLING BUSHING
 EGL .F              5173:   GROUND LEVEL
 DATE.        22-MAY-1988:   RUN DATE
 RUN .                  1:   RUN NUMBER
 DD  .F               505:   DEPTH DRILLER
 DL  .F               504:   DEPTH LOGGER
 BLI .F               500:   BOTTOM LOG INTERVAL
 TLI .F                50:   TOP LOG INTERVAL
 CS  .IN            9.625:   CASING SIZE
 CBD .F                52:   CASING BOTTOM DRILLER
 CBL .F                50:   CASING BOTTOM LOGGER
 BS  .IN             8.75:   BIT SIZE
 BSD .F               505:   BIT SIZE AT DEPTH
 DFT .                AIR:   DRILLING FLUID TYPE
 TLAB.HRS            1339:   TIME LOGGER AT BOTTOM
 LUN .               7597:   LOGGING UNIT NUMBER
 LUL .           GILLETTE:   LOGGING UNIT LOCATION
 ENGI.          HUCKFELDT:   RECORDING ENGINEER
 WITN.             STRONG:   WITNESSED BY
 CLNT.            A2DTECH:   CLIENT CODE
 ORIG.           5" PRINT:   ORIGIN OF DATA
 UWI .       490251122600:   UNIQUE WELL ID
 DICO. A2D Technologies, Inc.:   DIGITIZING COMPANY
~OTHER INFORMATION
~A   DEPT       GRR      RILD       RILM   
# ...
  396.2000    76.6198    19.1901    19.2668
  396.3000    76.6223    19.1899    19.2663
  396.4000    76.6246    19.1896    19.2658
  396.5000    76.6271    19.1894    19.2653
  396.6000    76.6296    19.1649    19.2434
  396.7000    76.6320    19.0554    19.1301
  396.8000    76.5953    19.0551    19.1296
  396.9000    76.3326    19.0549    19.1291
  397.0000    75.8559    19.0546    19.0656
  397.1000    75.3534    19.0117    18.9949
  397.2000    74.9866    18.9216    18.9944
  397.3000    74.6530    18.9213    18.9938
  397.4000    74.1822    18.9211    18.8892
  397.5000    73.9119    18.8375    18.8606
  397.6000    73.4497    18.7890    18.8017
  397.7000    73.1275    18.7509    18.7283
  397.8000    72.8776    18.6578    18.7278
  397.9000    72.6276    18.6575    18.7273
  398.0000    72.3776    18.5570    18.6278
  398.1000    72.1001    18.5273    18.5959
  398.2000    72.1023    18.4717    18.5414
  398.3000    71.9319    18.3979    18.4655
  398.4000    71.8027    18.3977    18.4554
  398.5000    71.8052    18.3974    18.3359
  398.6000    71.7906    18.3024    18.3355
  398.7000    71.5060    18.2690    18.2634
  398.8000    71.5081    18.2183    18.2069
  398.9000    71.5105    18.1414    18.1787
  399.0000    71.5129    18.1345    18.0792
  399.1000    71.5154    18.0148    18.0786
  399.2000    71.5276    18.0146    17.9896
  399.3000    71.8251    18.0143    17.9519
  399.4000    71.8271    17.9684    17.9514
  399.5000    71.9878    17.8885    17.9272
  399.6000    72.1363    17.8883    17.8255
  399.7000    72.1931    17.8880    17.8249
  399.8000    72.4481    17.8878    17.8245
  399.9000    72.7530    17.8875    17.8240
  400.0000    72.7961    17.9066    17.8313
  400.1000    72.8498    17.9543    17.8503
  400.2000    72.9034    18.0019    17.8693
  400.3000    72.9570    18.0496    17.8883
  400.4000    73.0106    18.0972    17.9073
  400.5000    73.0643    18.1387    17.9263
  400.6000    73.0813    18.0126    17.9468
  400.7000    73.0849    18.0126    17.9466
  400.8000    73.0886    17.9411    17.8744
  400.9000    73.0922    17.8873    17.8212
  401.0000    73.0964    17.8607    17.8209
  401.1000    73.0995    17.7629    17.8155
  401.2000    73.1032    17.7629    17.6964
  401.3000    73.1068    17.6792    17.6962
  401.4000    73.1666    17.6394    17.6959
  401.5000    73.4185    17.6001    17.6957
  401.6000    73.4222    17.5168    17.6768
  401.7000    73.4259    17.5168    17.5721
  401.8000    73.4295    17.5168    17.5719
  401.9000    73.5237    17.5168    17.5716
  402.0000    73.7778    17.4648    17.5176
  402.1000    74.0496    17.3950    17.4488
  402.2000    74.0530    17.3866    17.4486
  402.3000    74.0566    17.2740    17.4483
  402.4000    74.0602    17.2740    17.3597
  402.5000    73.9928    17.2740    17.3264
  402.6000    73.7461    17.2314    17.3262
  402.7000    73.4629    17.1539    17.3259
  402.8000    73.2526    17.1539    17.3257
  402.9000    72.8464    17.1539    17.3255
  403.0000    72.3491    17.0775    17.2457
  403.1000    71.9034    17.0346    17.2045
  403.2000    71.6542    17.0346    17.2042
  403.3000    71.1618    17.0222    17.2040
  403.4000    71.0527    16.9162    17.2037
  403.5000    70.9163    16.9162    17.2035
  403.6000    70.6695    16.8494    17.1324
  403.7000    70.4543    16.7986    17.0833
  403.8000    70.4588    16.7986    17.0550
  403.9000    70.4621    16.7948    16.9640
  404.0000    70.6403    16.6818    16.9637
  404.1000    71.1353    16.6818    16.8807
  404.2000    71.7573    16.6243    16.8452
  404.3000    72.0363    16.5658    16.8044
  404.4000    72.9163    16.5658    16.7276
  404.5000    73.3374    16.5658    16.7273
  404.6000    73.8420    16.5658    16.7271
  404.7000    74.1443    16.4964    16.6530
  404.8000    74.1951    16.4506    16.5575
  404.9000    74.4561    16.4225    16.4944
  405.0000    74.4596    16.3362    16.4828
  405.1000    74.4633    16.3362    16.3791
  405.2000    74.4670    16.3362    16.3790
  405.3000    74.4706    16.2759    16.3787
  405.4000    74.4743    16.2226    16.3343
  405.5000    74.4783    16.2031    16.2643
  405.6000    74.7056    16.1098    16.2641
  405.7000    74.7897    16.1098    16.2638
  405.8000    74.7933    16.1098    16.1870
  405.9000    74.8590    16.0584    16.1502
  406.0000    75.1130    15.9978    16.1140
  406.1000    75.4138    15.9866    16.0374
  406.2000    75.4168    15.8866    16.0371
  406.3000    75.5710    15.8866    15.9492
  406.4000    75.8251    15.8241    15.9251
  406.5000    76.1217    15.7761    15.9249
  406.6000    76.6492    15.7761    15.9246
  406.7000    76.8917    15.7729    15.9163
  406.8000    77.3307    15.6664    15.8134
  406.9000    77.8353    15.6664    15.8132
  407.0000    78.3399    15.6664    15.8129
  407.1000    78.8443    15.6664    15.8127
  407.2000    79.4111    15.6516    15.7923
  407.3000    79.6339    15.5575    15.7023
  407.4000    79.7224    15.5575    15.7021
  407.5000    79.5028    15.5575    15.7018
  407.6000    79.0056    15.5575    15.7016
  407.7000    78.5081    15.5313    15.6693
  407.8000    78.0111    15.4493    15.5920
  407.9000    77.5142    15.4493    15.5917
  408.0000    77.0169    15.4493    15.5915
  408.1000    76.5196    15.4493    15.5913
  408.2000    76.0606    15.4493    15.5911
  408.3000    75.7981    15.4493    15.5908
  408.4000    75.5669    15.4493    15.5906
  408.5000    75.1394    15.4493    15.5904
  408.6000    74.8956    15.4493    15.5902
  408.7000    74.8266    15.4493    15.5899
  408.8000    74.5982    15.4493    15.5897
  408.9000    74.6026    15.4493    15.5896
  409.0000    74.3906    15.4493    15.5893
  409.1000    74.3050    15.4493    15.6767
  409.2000    74.3087    15.4493    15.6981
  409.3000    74.3124    15.4493    15.6979
  409.4000    74.3160    15.4493    15.6976
  409.5000    74.5692    15.4493    15.6975
  409.6000    74.6277    15.4493    15.6972
  409.7000    74.6313    15.4493    15.6970
  409.8000    74.7226    15.4493    15.6968
  409.9000    74.9431    15.4493    15.7382
  410.0000    74.9470    15.4493    15.8063
  410.1000    74.9504    15.4493    15.8061
  410.2000    75.1302    15.5333    15.8059
  410.3000    75.3843    15.5575    15.8057
  410.4000    75.6383    15.5575    15.8055
  410.5000    75.8925    15.5575    15.8052
  410.6000    76.1869    15.5575    15.8196
  410.7000    76.6114    15.5575    15.9155
  410.8000    76.9591    15.5575    15.9153
  410.9000    77.2132    15.5575    15.9151
  411.0000    77.5162    15.5953    15.9149
  411.1000    78.0311    15.6664    15.9147
  411.2000    78.2798    15.6664    15.9145
  411.3000    78.5339    15.6664    15.9142
  411.4000    78.9252    15.6664    15.9140
  411.5000    79.3465    15.6664    15.9137
  411.6000    79.5714    15.6664    15.9135
  411.7000    79.5754    15.6664    15.9133
  411.8000    79.5787    15.6664    15.9131
  411.9000    79.5823    15.6664    15.9129
  412.0000    79.5860    15.6054    15.9127
  412.1000    79.5260    15.5575    15.9640
  412.2000    79.2887    15.5356    16.0237
  412.3000    79.2932    15.4493    16.0117
  412.4000    79.2962    15.4493    15.9117
  412.5000    79.1477    15.3777    15.9116
  412.6000    78.9991    15.3419    15.9113
  412.7000    79.0027    15.3089    15.8675
  412.8000    79.0065    15.2352    15.8002
  412.9000    78.7693    15.2352    15.7958
  413.0000    78.7093    15.1533    15.6897
  413.1000    78.7129    15.0668    15.6151
  413.2000    78.7166    15.0241    15.5255
  413.3000    78.7203    14.9993    15.4364
  413.4000    78.7243    14.9196    15.3637
  413.5000    78.7276    14.9196    15.3634
  413.6000    78.8985    14.8469    15.2786
  413.7000    79.0393    14.8159    15.1909
  413.8000    79.0430    14.7804    15.1498
  413.9000    79.0519    14.7128    15.1223
  414.0000    79.3553    14.7128    15.0355
  414.1000    79.3583    14.6302    14.9390
  414.2000    79.3619    14.6105    14.9388
  414.3000    79.3656    14.5647    14.9386
