~VERSION INFORMATION
 VERS.                2.0:   CWLS LOG ASCII STANDARD - VERSION 2.0
 WRAP.                 NO:   ONE LINE PER DEPTH STEP
~WELL INFORMATION
#MNEM.UNIT      DATA TYPE    INFORMATION
#----------   ------------   ------------------------------
 STRT.F         1400.0000:   START DEPTH
 STOP.F         3422.0000:   STOP DEPTH
 STEP.F            0.5000:   STEP LENGTH
 NULL.          -999.2500:   NO VALUE
 COMP. LAWRENCE/ALLISON INC:   COMPANY
 WELL.   NPR 3 #36-STX-23:   WELL
 FLD .             TEAPOT:   FIELD
 LOC .      S23 T38N R78W:   LOCATION
 CNTY.            NATRONA:   COUNTY
 STAT.            WYOMING:   STATE
 CTRY. UNITED STATES OF AMERICA:   COUNTRY
 SRVC.            Unknown:   SERVICE COMPANY
 DATE.        04-JAN-1985:   LOGDATE
 API .       490251137700:   API NUMBER
~CURVE INFORMATION
#MNEM.UNIT       API CODE    CURVE DESCRIPTION
#----------   ------------   ------------------------------
 DEPT.F                  :   
 ROP .MIN/FT 91 810 01 00:   RAT OF DRILLING PENETRATION
 TGAS.UNITS  91 830 01 00:   TOTAL GAS UNIT
~PARAMETER INFORMATION
#MNEM.UNIT          VALUE    DESCRIPTION
#----------   ------------   ------------------------------
 DATE.           1-4-1985:   RUN DATE
 RUN .                  1:   RUN NUMBER
 DD  .F              3427:   DEPTH DRILLER
 TLI .F              1400:   TOP LOG INTERVAL
 BSD .F              3427:   BIT SIZE AT DEPTH
 WITN. RAY ANDERSON/JACK HARBISON:   WITNESSED BY
 CLNT.            A2DTECH:   CLIENT CODE
 ORIG.           5" PRINT:   ORIGIN OF DATA
 UWI .       490251137700:   UNIQUE WELL ID
 DICO. A2D Technologies, Inc.:   DIGITIZING COMPANY
~OTHER INFORMATION
~A  DEPT       ROP       TGAS   
# ...
 2007.5000     0.8726     0.1196
 2008.0000     0.8727     0.1276
 2008.5000     0.8728     0.1356
 2009.0000     0.8729     0.1436
 2009.5000     0.8730     0.1515
 2010.0000     0.8731     0.1595
 2010.5000     0.8732     0.1675
 2011.0000     0.8733     0.1755
 2011.5000     0.8734     0.1835
 2012.0000     0.8735     0.1914
 2012.5000     0.8736     0.1994
 2013.0000     0.8737     0.2074
 2013.5000     0.8738     0.2154
 2014.0000     0.8739     0.2233
 2014.5000     0.8740     0.2313
 2015.0000     0.8741     0.2393
 2015.5000     0.8742     0.2473
 2016.0000     0.8743     0.2552
 2016.5000     0.8744     0.2632
 2017.0000     0.8745     0.2712
 2017.5000     0.8746     0.2792
 2018.0000     0.8747     0.2871
 2018.5000     0.8748     0.2951
 2019.0000     0.8749     0.3031
 2019.5000     0.8750     0.3111
 2020.0000     0.8751     0.3190
 2020.5000     0.8746     0.3270
 2021.0000     0.8740     0.3209
 2021.5000     0.8734     0.2976
 2022.0000     0.8729     0.2743
 2022.5000     0.8723     0.2510
 2023.0000     0.8717     0.2278
 2023.5000     0.8711     0.2045
 2024.0000     0.8705     0.1812
 2024.5000     0.8700     0.1579
 2025.0000     0.8694     0.1346
 2025.5000     0.8688     0.1114
 2026.0000     0.8682     0.0881
 2026.5000     0.8676     0.0648
 2027.0000     0.8671     0.0415
 2027.5000     0.8665     0.0182
 2028.0000     0.8659     0.0000
 2028.5000     0.8653     0.0000
 2029.0000     0.8647     0.0000
 2029.5000     0.8072     0.0000
 2030.0000     0.7212     0.0000
 2030.5000     0.6832     0.0000
 2031.0000     0.6644     0.0000
 2031.5000     0.6457     0.0000
 2032.0000     0.6462     0.0000
 2032.5000     0.6456     0.0000
 2033.0000     0.6449     0.0000
 2033.5000     0.6443     0.0000
 2034.0000     0.6437     0.0000
 2034.5000     0.6431     0.0000
 2035.0000     0.6425     0.0000
 2035.5000     0.6418     0.0000
 2036.0000     0.6412     0.0000
 2036.5000     0.6406     0.0000
 2037.0000     0.6400     0.0000
 2037.5000     0.6394     0.0000
 2038.0000     0.6387     0.0000
 2038.5000     0.6381     0.0000
 2039.0000     0.6375     0.0000
 2039.5000     0.6369     0.0000
 2040.0000     0.6363     0.0000
 2040.5000     0.6356     0.0000
 2041.0000     0.6337     0.0000
 2041.5000     0.6305     0.0000
 2042.0000     0.6272     0.0000
 2042.5000     0.6240     0.0000
 2043.0000     0.6207     0.0000
 2043.5000     0.6186     0.0000
 2044.0000     0.6185     0.0000
 2044.5000     0.6184     0.0000
 2045.0000     0.6184     0.0000
 2045.5000     0.6183     0.0000
 2046.0000     0.6183     0.0000
 2046.5000     0.6182     0.0000
 2047.0000     0.6181     0.0000
 2047.5000     0.6181     0.0000
 2048.0000     0.6180     0.0000
 2048.5000     0.6180     0.0000
 2049.0000     0.6179     0.0000
 2049.5000     0.6178     0.0000
 2050.0000     0.6178     0.0000
 2050.5000     0.6177     0.0000
 2051.0000     0.6177     0.0000
 2051.5000     0.6176     0.0000
 2052.0000     0.6176     0.0000
 2052.5000     0.6171     0.0000
 2053.0000     0.6164     0.0000
 2053.5000     0.6156     0.0000
 2054.0000     0.6149     0.0000
 2054.5000     0.6142     0.0000
 2055.0000     0.6134     0.0000
 2055.5000     0.6127     0.0000
 2056.0000     0.6120     0.0000
 2056.5000     0.6112     0.0000
 2057.0000     0.6105     0.0000
 2057.5000     0.6098     0.0000
 2058.0000     0.6090     0.0000
 2058.5000     0.6083     0.0000
 2059.0000     0.6075     0.0000
 2059.5000     0.6068     0.0000
 2060.0000     0.6061     0.0000
 2060.5000     0.6066     0.0000
 2061.0000     0.6076     0.0000
 2061.5000     0.6086     0.0000
 2062.0000     0.6095     0.0000
 2062.5000     0.6105     0.0000
 2063.0000     0.6115     0.0000
 2063.5000     0.6124     0.0000
 2064.0000     0.6134     0.0000
 2064.5000     0.6144     0.0000
 2065.0000     0.6153     0.0000
 2065.5000     0.6163     0.0000
 2066.0000     0.6173     0.0000
 2066.5000     0.6183     0.0000
 2067.0000     0.6192     0.0000
 2067.5000     0.6202     0.0000
 2068.0000     0.6212     0.0000
 2068.5000     0.6221     0.0000
 2069.0000     0.6231     0.0000
 2069.5000     0.6241     0.0000
 2070.0000     0.6250     0.0000
 2070.5000     0.6260     0.0000
 2071.0000     0.6270     0.0000
 2071.5000     0.6280     0.0000
 2072.0000     0.6289     0.0000
 2072.5000     0.6299     0.0000
 2073.0000     0.6309     0.0000
 2073.5000     0.6318     0.0000
 2074.0000     0.6328     0.0000
 2074.5000     0.6338     0.0000
 2075.0000     0.6347     0.0000
 2075.5000     0.6357     0.0000
 2076.0000     0.6367     0.0000
 2076.5000     0.6377     0.0000
 2077.0000     0.6386     0.0000
 2077.5000     0.6396     0.0000
 2078.0000     0.6406     0.0000
 2078.5000     0.6415     0.0000
 2079.0000     0.6425     0.0000
 2079.5000     0.6435     0.0000
 2080.0000     0.6441     0.0000
 2080.5000     0.6438     0.0000
 2081.0000     0.6435     0.0000
 2081.5000     0.6433     0.0000
 2082.0000     0.6430     0.0000
 2082.5000     0.6427     0.0000
 2083.0000     0.6425     0.0000
 2083.5000     0.6422     0.0000
 2084.0000     0.6419     0.0000
 2084.5000     0.6417     0.0000
 2085.0000     0.6414     0.0000
 2085.5000     0.6411     0.0000
 2086.0000     0.6408     0.0000
 2086.5000     0.6406     0.0000
 2087.0000     0.6403     0.0000
 2087.5000     0.6400     0.0000
 2088.0000     0.6398     0.0000
 2088.5000     0.6395     0.0000
 2089.0000     0.6392     0.0000
 2089.5000     0.6757     0.0000
 2090.0000     0.7579     0.0000
 2090.5000     0.8401     0.0000
 2091.0000     0.9224     0.0000
 2091.5000     1.0046     0.0000
 2092.0000     0.9335     0.0000
 2092.5000     0.8123     0.0000
 2093.0000     0.6911     0.0000
 2093.5000     0.5700     0.0000
 2094.0000     0.4974     0.0000
 2094.5000     0.4985     0.0000
 2095.0000     0.4995     0.0000
 2095.5000     0.5005     0.0000
 2096.0000     0.5015     0.0000
 2096.5000     0.5026     0.0000
 2097.0000     0.5036     0.0000
 2097.5000     0.5046     0.0000
 2098.0000     0.5056     0.0000
 2098.5000     0.5067     0.0000
 2099.0000     0.5077     0.0000
 2099.5000     0.5087     0.0000
 2100.0000     0.5096     0.0000
 2100.5000     0.5099     0.0000
 2101.0000     0.5101     0.0000
 2101.5000     0.5103     0.0000
 2102.0000     0.5106     0.0000
 2102.5000     0.5108     0.0000
 2103.0000     0.5111     0.0000
 2103.5000     0.5113     0.0000
 2104.0000     0.5115     0.0000
 2104.5000     0.5118     0.0000
 2105.0000     0.5120     0.0000
 2105.5000     0.5123     0.0000
 2106.0000     0.5125     0.0000
 2106.5000     0.5127     0.0000
 2107.0000     0.5130     0.0000
 2107.5000     0.5132     0.0000
 2108.0000     0.5135     0.0000
 2108.5000     0.5137     0.0000
 2109.0000     0.5139     0.0000
 2109.5000     0.5374     0.0000
 2110.0000     0.6041     0.0000
 2110.5000     0.6708     0.0000
 2111.0000     0.7375     0.0000
 2111.5000     0.7652     0.0000
 2112.0000     0.7654     0.0000
 2112.5000     0.7146     0.0000
 2113.0000     0.5799     0.0000
 2113.5000     0.4680     0.0000
 2114.0000     0.5356     0.0000
 2114.5000     0.6031     0.0000
 2115.0000     0.6899     0.0000
 2115.5000     0.7478     0.0000
 2116.0000     0.7673     0.0000
 2116.5000     0.7675     0.0000
 2117.0000     0.7678     0.0000
 2117.5000     0.7680     0.0000
 2118.0000     0.7683     0.0000
 2118.5000     0.7685     0.0000
 2119.0000     0.7687     0.0000
 2119.5000     0.7690     0.0000
 2120.0000     0.7692     0.0000
 2120.5000     0.7686     0.0000
 2121.0000     0.7680     0.0000
 2121.5000     0.7673     0.0000
 2122.0000     0.7667     0.0000
 2122.5000     0.7661     0.0000
 2123.0000     0.7655     0.0000
 2123.5000     0.7648     0.0000
 2124.0000     0.7642     0.0000
 2124.5000     0.7636     0.0000
 2125.0000     0.7629     0.0000
 2125.5000     0.7623     0.0000
 2126.0000     0.7617     0.0000
 2126.5000     0.7611     0.0000
 2127.0000     0.7604     0.0000
 2127.5000     0.7598     0.0000
 2128.0000     0.7592     0.0000
 2128.5000     0.7585     0.0000
