~VERSION INFORMATION
 VERS.                2.0:   CWLS LOG ASCII STANDARD - VERSION 2.0
 WRAP.                 NO:   ONE LINE PER DEPTH STEP
~WELL INFORMATION
#MNEM.UNIT      DATA TYPE    INFORMATION
#----------   ------------   ------------------------------
 STRT.F           28.0000:   START DEPTH
 STOP.F          791.0000:   STOP DEPTH
 STEP.F            0.5000:   STEP LENGTH
 NULL.          -999.2500:   NO VALUE
 COMP. LAWRENCE/ALLISON INC:   COMPANY
 WELL.    34-61 SX #11-11:   WELL
 FLD .             TEAPOT:   FIELD
 LOC .      S11 T38N R78W:   LOCATION
 CNTY.            NATRONA:   COUNTY
 STAT.            WYOMING:   STATE
 CTRY. UNITED STATES OF AMERICA:   COUNTRY
 SRVC.           Gearhart:   SERVICE COMPANY
 DATE.        29-JUL-1987:   LOGDATE
 API .       490251112500:   API NUMBER
~CURVE INFORMATION
#MNEM.UNIT       API CODE    CURVE DESCRIPTION
#----------   ------------   ------------------------------
 DEPT.F                  :   
 GRR .GAPI   07 310 01 00:   GAMMA RAY FROM RESISTIVITY
 RILD.OHMM   07 120 46 00:   RESISTIVITY INDUCTION LOG DEEP
 RILM.OHMM   07 120 44 00:   RESISTIVITY INDUCTION LOG MEDIUM
 RLL .OHMM   07 220 00 00:   RESISTIVITY LATEROLOG
~PARAMETER INFORMATION
#MNEM.UNIT          VALUE    DESCRIPTION
#----------   ------------   ------------------------------
 PD  .                 GL:   PERMANENT DATUM
 EPD .F              5172:   ELEVATION PERMANENT DATUM
 LMF .                 KB:   LOG MEASURED FROM
 DAPD.F                 7:   FEET ABOVE PERMANENT DATUM
 DMF .                 KB:   DRILLING MEASURED FROM
 EKB .F              5180:   KELLING BUSHING
 EDF .F              5178:   DRILLING FLOOR
 EGL .F              5172:   GROUND LEVEL
 DATE.        29-JUL-1987:   RUN DATE
 RUN .                  1:   RUN NUMBER
 DD  .F               793:   DEPTH DRILLER
 DL  .F               792:   DEPTH LOGGER
 BLI .F               791:   BOTTOM LOG INTERVAL
 TLI .F                30:   TOP LOG INTERVAL
 CS  .IN            8.625:   CASING SIZE
 CBL .F                50:   CASING BOTTOM LOGGER
 BS  .IN            7.875:   BIT SIZE
 BSD .F               793:   BIT SIZE AT DEPTH
 DFT .                MUD:   DRILLING FLUID TYPE
 DFD .                0.5:   DRILLING FLUID DENSITY
 MSS .           FLOWLINE:   MUD SAMPLE SOURCE
 RMS .OHMM           1.92:   RESISTIVITY MUD SAMPLE
 MST .F                71:   MUD SAMPLE TEMPERATURE
 RMF .OHMM            1.4:   RESISTIVITY MUD FILTRATE SAMPLE
 MFST.F                72:   MUD FILTRATE SAMPLE TEMPERATURE
 RMC .OHMM            2.2:   RESISTIVITY MUD CAKE
 MCST.F                72:   MUD CAKE SAMPLE TEMPERATURE
 MFSS.              CHART:   MUD FILTRATE SAMPLE SOURCE
 MCSS.              CHART:   MUD CAKE SAMPLE SOURCE
 TCS .HRS            2200:   TIME CURCULATED STOPPED
 MRT .F                60:   MAXIMUM RECORDED TEMPERATURE
 LUN .               7397:   LOGGING UNIT NUMBER
 LUL .           GILLETTE:   LOGGING UNIT LOCATION
 ENGI.         WEATHERMON:   RECORDING ENGINEER
 WITN.             STRONG:   WITNESSED BY
 CLNT.            A2DTECH:   CLIENT CODE
 ORIG.           5" PRINT:   ORIGIN OF DATA
 UWI .       490251112500:   UNIQUE WELL ID
 DICO. A2D Technologies, Inc.:   DIGITIZING COMPANY
~OTHER INFORMATION
~A   DEPT      GRR       RILD       RILM        RLL   
# ...
  685.0000    67.1867    12.5210    12.7132    12.1615
  685.5000    68.7187    12.2552    12.3560    12.1590
  686.0000    69.0275    11.8106    11.9240    12.2437
  686.5000    66.2789    11.2512    11.5071    12.2406
  687.0000    64.1411    11.1695    11.2634    12.3253
  687.5000    62.6143    11.1672    11.3416    12.3227
  688.0000    63.2296    11.4048    11.5024    12.4079
  688.5000    64.7616    11.5652    11.7477    12.3170
  689.0000    67.2111    11.6450    11.7461    12.1410
  689.5000    69.3915    11.6420    11.7445    11.9675
  690.0000    70.2751    11.6396    11.7429    11.8804
  690.5000    67.2207    11.6373    11.6583    11.8780
  691.0000    65.0830    11.6349    11.5740    11.7081
  691.5000    63.8619    11.6325    11.5724    11.7052
  692.0000    63.5591    11.6301    11.5708    11.7028
  692.5000    65.0918    11.6272    11.5692    11.6177
  693.0000    66.3304    11.6248    11.6500    11.6153
  693.5000    67.5450    11.6224    11.6484    11.5308
  694.0000    68.1595    11.5380    11.6464    11.5284
  694.5000    68.4683    11.5357    11.5625    11.5255
  695.0000    68.4712    11.5306    11.5609    11.4417
  695.5000    67.5568    11.4490    11.5594    11.3585
  696.0000    67.2538    11.3658    11.4761    11.1961
  696.5000    68.4925    11.2833    11.3935    11.1938
  697.0000    71.0276    11.1222    11.3114    11.1092
  697.5000    72.1565    10.9635    11.1503    11.0310
  698.0000    70.6304    10.8839    11.0700    10.9508
  698.5000    69.7152    10.8811    11.0685    10.8717
  699.0000    69.1073    10.9568    10.9888    11.0242
  699.5000    69.7219    11.1103    11.0655    11.2591
  700.0000    70.0306    11.2871    11.1426    11.4990
  700.5000    70.0342    11.5078    11.3813    11.4971
  701.0000    69.4255    11.5891    11.6252    11.8269
  701.5000    67.8994    11.8370    11.8743    12.0793
  702.0000    64.8442    12.0905    12.1288    12.3375
  702.5000    63.3180    12.2622    12.3012    12.5122
  703.0000    63.9333    12.3485    12.3879    12.5100
  703.5000    65.4652    12.1738    12.2124    12.3321
  704.0000    66.9972    12.0017    11.9546    12.2432
  704.5000    68.8350    11.8320    11.8607    12.0691
  705.0000    70.0816    11.6648    11.6185    11.8946
  705.5000    71.2880    11.5742    11.5357    11.6449
  706.0000    71.2909    11.4177    11.3725    11.5610
  706.5000    70.6815    11.2563    11.2914    11.3965
  707.0000    72.5200    11.1761    11.1316    11.3144
  707.5000    75.3667    11.0964    10.9739    11.1534
  708.0000    78.6427    10.9395    10.8957    11.0727
  708.5000    76.8108    10.8614    10.8180    10.9930
  709.0000    74.6730    10.7840    10.6649    10.9915
  709.5000    73.4527    10.6315    10.6589    10.9123
  710.0000    74.4548    10.5558    10.5132    10.8285
  710.5000    78.3522    10.4805    10.4382    10.6792
  711.0000    75.2970    10.3322    10.2905    10.6023
  711.5000    72.5476    10.2586    10.2171    10.5259
  712.0000    69.4924    10.1136    10.1442    10.3761
  712.5000    70.4134    10.0415    10.0005    10.2285
  713.0000    72.8628     9.8995     9.9292    10.0827
  713.5000    75.3122     9.7596     9.7887     9.9393
  714.0000    76.8442     9.5535     9.6503     9.7979
  714.5000    76.8491     9.4854     9.5790     9.7273
  715.0000    75.0159     9.4178     9.4457     9.5821
  715.5000    74.4064     9.2847     9.2463     9.3854
  716.0000    74.7159     9.0888     9.0511     9.1865
  716.5000    75.0246     8.8341     8.7352     9.0558
  717.0000    75.0275     8.4659     8.4880     8.8639
  717.5000    74.7253     8.1130     8.0215     8.6075
  718.0000    74.4217     7.3464     7.5787     8.3130
  718.5000    75.9544     6.5069     6.8621     8.0221
  719.0000    78.0980     5.5720     6.1257     7.6867
  719.5000    81.5200     5.3777     5.3908     7.2615
  720.0000    86.0556     5.4541     4.7115     6.6492
  720.5000    89.7282     5.5708     4.4514     5.8674
  721.0000    94.0125     5.6901     4.2960     5.6223
  721.5000    96.1561     5.8948     4.3263     6.3872
  722.0000    91.1232     6.0638     4.8115     7.6259
  722.5000    83.0127     6.3267     5.8676     8.2616
  723.0000    79.3459     6.7428     6.3883     8.9751
  723.5000    77.5140     7.3407     7.0046     9.4980
  724.0000    76.2936     7.8994     7.7901     9.6328
  724.5000    75.0346     8.6385     8.4814     9.4283
  725.0000    73.8530     9.0771     8.9758     9.3604
  725.5000    74.1624     9.3374     9.2989     9.4258
  726.0000    77.2234     9.4700     9.4982     9.5589
  726.5000    79.3670     9.4741     9.6333     9.6260
  727.0000    80.2881     9.6720     9.7010     9.6929
  727.5000    79.9844     9.7403     9.7107     9.8301
  728.0000    81.2113     9.8786     9.8383     9.9689
  728.5000    83.0491    10.0189     9.9781    10.1820
  729.0000    83.9694    10.1610    10.1918    10.3262
  729.5000    82.4440    10.3053    10.3366    10.3983
  730.0000    81.2237    10.5258    10.4934    10.6202
  730.5000    80.0033    10.6001    10.6325    10.7706
  731.0000    79.0888    10.8269    10.8602    10.9230
  731.5000    78.4801    11.1374    11.0146    11.0777
  732.0000    77.8714    11.3759    11.1711    11.2345
  732.5000    77.8750    11.6193    11.2592    11.3935
  733.0000    77.8779    11.7843    11.4907    11.5548
  733.5000    77.8808    11.8675    11.5719    11.7180
  734.0000    78.1896    12.0358    11.6535    11.7998
  734.5000    78.4990    12.1206    11.7354    11.8822
  735.0000    78.8077    12.2057    11.9022    11.9648
  735.5000    79.4223    12.2049    11.9861    11.9632
  736.0000    80.0368    12.2041    12.0705    11.9616
  736.5000    80.9572    12.2032    12.1556    12.0452
  737.0000    78.5143    12.2024    12.1546    12.0435
  737.5000    75.4591    12.2014    12.1466    12.0415
  738.0000    73.6271    12.2006    12.0669    12.1256
  738.5000    73.9358    12.1138    12.0660    12.1240
  739.0000    76.4585    12.1128    11.9800    12.1223
  739.5000    78.8349    12.1111    11.8945    12.1207
  740.0000    79.7559    12.0254    11.8937    12.0329
  740.5000    79.1472    12.0246    11.8087    12.0313
  741.0000    78.2327    12.0238    11.8079    12.0297
  741.5000    77.3182    11.9381    11.8071    12.0281
  742.0000    76.7095    11.8530    11.8063    11.9363
  742.5000    77.0189    11.8522    11.8013    11.8550
  743.0000    77.0218    11.8512    11.7211    11.7696
  743.5000    77.0247    11.6837    11.6375    11.6848
  744.0000    76.4160    11.6004    11.5545    11.6832
  744.5000    75.8073    11.5178    11.4721    11.5170
  745.0000    75.5044    11.3469    11.3903    11.3528
  745.5000    75.2022    11.1942    11.2290    11.2710
  746.0000    74.5928    11.0360    11.1489    11.1898
  746.5000    74.5618    10.8800    10.9911    11.0306
  747.0000    75.8795    10.7262    10.8356    11.0203
  747.5000    78.5785    10.5745    10.6811    10.8719
  748.0000    81.0279    10.4249    10.5310    10.7172
  748.5000    81.6424    10.2775    10.3821    10.5648
  749.0000    81.9511    10.2042    10.2352    10.4145
  749.5000    81.9928    10.1315    10.0191    10.2663
  750.0000    83.6470     9.8474     9.9476    10.0857
  750.5000    85.9531     9.7756     9.8383     9.8345
  751.0000    85.5861     9.7044     9.7337     9.7627
  751.5000    83.7920     9.7021     9.7310     9.7605
  752.0000    82.5688     9.6999     9.6600     9.6892
  752.5000    83.1804     9.6292     9.5895     9.6869
  753.0000    83.4862     9.6270     9.5873     9.6162
  753.5000    82.5688     9.5568     9.5851     9.6139
  754.0000    81.3456     9.5545     9.5151     9.5432
  754.5000    81.9572     9.4844     9.5129     9.5410
  755.0000    83.4862     9.4153     9.4436     9.5388
  755.5000    84.4037     9.4132     9.4414     9.4022
  756.0000    84.4037     9.4110     9.3725     9.4000
  756.5000    84.0979     9.3424     9.3040     9.3314
  757.0000    84.0979     9.2743     9.2357     9.2633
  757.5000    83.1804     9.1417     9.1684     9.1956
