~VERSION INFORMATION
 VERS.                2.0:   CWLS LOG ASCII STANDARD - VERSION 2.0
 WRAP.                 NO:   ONE LINE PER DEPTH STEP
~WELL INFORMATION
#MNEM.UNIT      DATA TYPE    INFORMATION
#----------   ------------   ------------------------------
 STRT.F           30.0000:   START DEPTH
 STOP.F          480.0000:   STOP DEPTH
 STEP.F            0.5000:   STEP LENGTH
 NULL.          -999.2500:   NO VALUE
 COMP. FENIX & SCISSON INC:   COMPANY
 WELL.   51-SX-10 #NPR-10:   WELL
 FLD .             TEAPOT:   FIELD
 LOC .      S10 T38N R78W:   LOCATION
 CNTY.            NATRONA:   COUNTY
 STAT.            WYOMING:   STATE
 CTRY. UNITED STATES OF AMERICA:   COUNTRY
 SRVC.              Welex:   SERVICE COMPANY
 DATE.        13-MAR-1977:   LOGDATE
 API .       490251031000:   API NUMBER
~CURVE INFORMATION
#MNEM.UNIT       API CODE    CURVE DESCRIPTION
#----------   ------------   ------------------------------
 DEPT.F                  :   
 SGRD.OHMM   07 220 05 00:   SHALLOW GUARD RESISTIVITY
 ILD .OHMM   07 120 46 00:   INDUCTION LOG DEEP
 ILM .OHMM   07 120 44 00:   INDUCTION LOG MEDIUM
 SPR .MV     07 010 01 00:   SPONTANEOUS POTENTIAL
 RHOB.G/C3   45 350 01 00:   BULK DENSITY
 DPOR.DEC    45 890 12 00:   DENSITY POROSITY SANDSTONE
 CORR.G/C3   45 356 01 00:   DENSITY CORRECTION
 GRD .GAPI   45 310 01 00:   GAMMA RAY FROM DENSITY LOG
 CALD.IN     45 280 60 00:   CALIPER FROM DENSITY LOG
~PARAMETER INFORMATION
#MNEM.UNIT          VALUE    DESCRIPTION
#----------   ------------   ------------------------------
 PD  .                 GL:   PERMANENT DATUM
 EPD .F              5216:   ELEVATION PERMANENT DATUM
 LMF .                 GL:   LOG MEASURED FROM
 DMF .                 GL:   DRILLING MEASURED FROM
 EGL .F              5216:   GROUND LEVEL
 DATE.            3-13-77:   RUN DATE
 RUN .                  1:   RUN NUMBER
 DD  .F               490:   DEPTH DRILLER
 DL  .F               485:   DEPTH LOGGER
 BLI .F               483:   BOTTOM LOG INTERVAL
 TLI .F                35:   TOP LOG INTERVAL
 CS  .IN            8.625:   CASING SIZE
 CBD .F                40:   CASING BOTTOM DRILLER
 CBL .F                36:   CASING BOTTOM LOGGER
 BS  .IN            7.875:   BIT SIZE
 BSD .F               490:   BIT SIZE AT DEPTH
 DFT .            KCL MUD:   DRILLING FLUID TYPE
 DFD .                8.9:   DRILLING FLUID DENSITY
 DFV .                 34:   DRILLING FLUID VISCOSITY
 MSS .            MUD PIT:   MUD SAMPLE SOURCE
 RMS .OHMM            .43:   RESISTIVITY MUD SAMPLE
 MST .F                60:   MUD SAMPLE TEMPERATURE
 RMF .OHMM            .37:   RESISTIVITY MUD FILTRATE SAMPLE
 MFST.F                60:   MUD FILTRATE SAMPLE TEMPERATURE
 RMC .OHMM            .47:   RESISTIVITY MUD CAKE
 MCST.F                60:   MUD CAKE SAMPLE TEMPERATURE
 MFSS.           FANN KIT:   MUD FILTRATE SAMPLE SOURCE
 MCSS.           FANN KIT:   MUD CAKE SAMPLE SOURCE
 RMB .OHMM            .40:   RESISTIVITY MUD AT BHT
 BHT .F                63:   BOTTOM HOLE TEMPERATURE
 TCS .HRS             1.5:   TIME CURCULATED STOPPED
 MRT .F                63:   MAXIMUM RECORDED TEMPERATURE
 LUN .               8611:   LOGGING UNIT NUMBER
 LUL .             CASPER:   LOGGING UNIT LOCATION
 ENGI.               DOAK:   RECORDING ENGINEER
 WITN.         STUEBINGER:   WITNESSED BY
 CLNT.            A2DTECH:   CLIENT CODE
 ORIG.       2", 5" PRINT:   ORIGIN OF DATA
 UWI .       490251031000:   UNIQUE WELL ID
 DICO. A2D Technologies, Inc.:   DIGITIZING COMPANY
~OTHER INFORMATION
~A   DEPT     SGRD        ILD        ILM        SPR       RHOB       DPOR        CORR       GRD       CALD   
# ...
  322.0000    28.4171    19.9989    21.4333   -24.9568     2.3612     0.1702     0.0772    97.5389     7.9104
  322.5000    28.0106    20.0477    21.5611   -25.0378     2.3722     0.1632     0.0827    94.0493     7.9112
  323.0000    28.3103    20.0966    21.7078   -25.1187     2.3761     0.1626     0.0882    94.1173     7.9118
  323.5000    28.6545    20.1458    21.8554   -25.1996     2.3814     0.1611     0.0928    93.4564     7.9125
  324.0000    29.0029    20.1951    22.0041   -25.2805     2.3798     0.1578     0.0905    93.5172     7.9132
  324.5000    29.3556    20.2437    22.1538   -25.3614     2.3723     0.1669     0.0881    93.8262     7.9139
  325.0000    29.6054    20.2778    22.3045   -25.4423     2.3685     0.1686     0.0856    93.8651     7.9146
  325.5000    28.3260    20.0873    22.4563   -25.5232     2.3685     0.1681     0.0864    93.2320     7.9153
  326.0000    27.3731    19.9421    22.6537   -25.6041     2.3674     0.1685     0.0884    92.6195     7.9159
  326.5000    26.7241    19.7978    22.3876   -25.6850     2.3637     0.1710     0.0905    92.0274     7.9166
  327.0000    26.4514    19.1554    21.8750   -25.7659     2.3600     0.1734     0.0895    92.9077     7.9173
  327.5000    26.1893    18.0937    21.3741   -25.8468     2.3564     0.1758     0.0865    95.2997     7.9180
  328.0000    26.0141    17.0173    20.8847   -25.9277     2.3581     0.1752     0.0836    97.6794     7.9187
  328.5000    26.1567    17.8571    20.4023   -26.0086     2.3631     0.1719     0.0809    98.8459     7.9194
  329.0000    26.2583    18.4911    20.0924   -26.0895     2.3682     0.1686     0.0810    95.6783     7.9200
  329.5000    26.0685    17.4931    20.0833   -26.1704     2.3733     0.1650     0.0810    93.4444     7.9207
  330.0000    25.9268    17.0173    20.0490   -26.2514     2.3715     0.1666     0.0810    93.2071     7.9214
  330.5000    25.7781    17.7744    20.0292   -26.3323     2.3688     0.1682     0.0810    93.5929     7.9221
  331.0000    25.7781    18.1485    20.0091   -26.4132     2.3695     0.1665     0.0810    93.6453     7.9228
  331.5000    25.7781    17.9671    19.9889   -26.4941     2.3785     0.1619     0.0809    92.5926     7.9234
  332.0000    25.6485    17.8274    19.9688   -26.5750     2.3875     0.1572     0.0838    91.7017     7.9241
  332.5000    24.8301    17.6894    19.9492   -26.6559     2.3967     0.1526     0.0876    92.2701     7.9248
  333.0000    24.1654    17.5541    19.9309   -26.7368     2.3973     0.1506     0.0915    92.8082     7.9255
  333.5000    24.5915    17.4938    19.9079   -26.8177     2.3875     0.1574     0.0886    93.3364     7.9262
  334.0000    25.0414    17.5464    20.4426   -26.8984     2.3770     0.1623     0.0823    93.6280     7.9269
  334.5000    25.4995    17.5844    21.0100   -26.9795     2.3670     0.1694     0.0821    92.1378     7.9275
  335.0000    25.9695    17.6224    21.5931   -27.0751     2.3707     0.1644     0.0839    90.7196     7.9282
  335.5000    26.2617    17.6604    22.1924   -27.2426     2.3898     0.1558     0.0858    89.6902     7.9289
  336.0000    26.0679    17.6985    22.5473   -27.4098     2.3938     0.1540     0.0864    90.2393     7.9296
  336.5000    25.5801    17.7363    22.7220   -27.5764     2.4001     0.1495     0.0848    91.3138     7.9303
  337.0000    25.1018    17.7750    22.8982   -27.7866     2.4070     0.1430     0.0833    92.3848     7.9310
  337.5000    24.6324    17.8086    23.0757   -28.0249     2.4031     0.1455     0.0818    93.4629     7.9316
  338.0000    24.1719    18.3710    24.1699   -28.2634     2.4014     0.1481     0.0802    94.5475     7.9323
  338.5000    23.7235    19.0790    25.3160   -28.5020     2.4323     0.1360     0.0792    95.5916     7.9330
  339.0000    23.7235    19.8167    26.5018   -28.7406     2.4643     0.1152     0.0851    93.2152     7.9337
  339.5000    26.1433    20.5828    29.7296   -28.9793     2.4988     0.0945     0.0913    90.7676     7.9344
  340.0000    29.1254    21.3786    33.3301   -29.2183     2.5334     0.0737     0.0974    89.4896     7.9351
  340.5000    34.1111    22.2035    35.3209   -29.4561     2.5566     0.0534     0.1035    88.1883     7.9357
  341.0000    39.7547    22.8637    34.3162   -29.6409     2.5537     0.0534     0.1070    89.0637     7.9364
  341.5000    40.9472    22.8637    32.1694   -29.6156     2.5458     0.0606     0.1090    91.0294     7.9371
  342.0000    40.8920    22.4456    28.6722   -29.5943     2.5383     0.0676     0.1065    92.9686     7.9378
  342.5000    40.9506    21.1777    25.6478   -29.5734     2.5141     0.0836     0.1034    94.9240     7.9385
  343.0000    31.6877    19.7560    22.9385   -29.5525     2.4873     0.0982     0.1003    95.8956     7.9391
  343.5000    25.4232    18.4297    20.5168   -29.5316     2.4606     0.1080     0.0972    95.1863     7.9398
  344.0000    20.6566    17.1925    18.3519   -29.5107     2.4355     0.1178     0.0942    94.2061     7.9405
  344.5000    20.0925    16.0383    17.1247   -29.4898     2.4185     0.1276     0.0911    93.2003     7.9412
  345.0000    20.1901    15.5421    16.3536   -29.4693     2.4179     0.1299     0.0880    92.7063     7.9419
  345.5000    20.2682    15.3632    16.0249   -29.4457     2.4177     0.1284     0.0872    92.6826     7.9426
  346.0000    20.3466    15.1863    15.9111   -29.5712     2.4220     0.1270     0.0875    93.2970     7.9432
  346.5000    20.4253    15.0114    15.8061   -29.7612     2.4262     0.1255     0.0878    93.9674     7.9439
  347.0000    20.4669    14.6941    15.4776   -29.9536     2.4264     0.1262     0.0882    94.5430     7.9446
  347.5000    20.4669    14.3155    15.1771   -30.1462     2.4218     0.1281     0.0886    93.2525     7.9453
  348.0000    20.4669    13.9467    14.8826   -30.3385     2.4202     0.1298     0.0889    91.8803     7.9460
  348.5000    20.4669    13.5873    14.5937   -30.5308     2.4257     0.1264     0.0892    90.9378     7.9467
  349.0000    20.4655    13.2372    14.3104   -30.7232     2.4345     0.1225     0.0896    92.6372     7.9473
  349.5000    20.4616    12.8957    14.1288   -30.9156     2.4432     0.1191     0.0900    97.6718     7.9480
  350.0000    20.4751    12.5635    13.9610   -31.1079     2.4520     0.1235     0.0903   100.2765     7.9487
  350.5000    19.8979    12.2076    13.7952   -31.3003     2.4592     0.1184     0.0907   102.9120     7.9494
  351.0000    19.5269    12.3939    13.6313   -31.4926     2.4532     0.1210     0.0909   105.6356     7.9499
  351.5000    19.1629    12.6045    13.4694   -31.6850     2.4438     0.1246     0.0897   106.5148     7.9485
  352.0000    18.8355    12.8202    13.3850   -31.8773     2.4344     0.1298     0.0885   105.9987     7.9471
  352.5000    19.4967    13.0214    13.5766   -32.0702     2.4252     0.1366     0.0872   103.1486     7.9458
  353.0000    20.1271    12.9705    13.7255   -32.2622     2.4199     0.1346     0.0860   100.6280     7.9444
  353.5000    20.4668    12.9130    13.8769   -32.4430     2.4262     0.1318     0.0848   100.6743     7.9431
  354.0000    19.2012    12.8557    14.0191   -32.4891     2.4315     0.1298     0.0836   101.4126     7.9417
  354.5000    18.3212    12.7986    14.4981   -32.5373     2.4293     0.1313     0.0831   102.4006     7.9403
  355.0000    18.3183    12.7418    14.9612   -32.5861     2.4274     0.1326     0.0834   103.4082     7.9390
  355.5000    18.3191    12.6853    15.4392   -32.6347     2.4324     0.1279     0.0837   104.3794     7.9376
  356.0000    18.2007    12.6658    15.8061   -32.6834     2.4395     0.1192     0.0839   104.4625     7.9363
  356.5000    18.0627    12.7918    15.6251   -32.7321     2.4464     0.1178     0.0842   101.7766     7.9349
  357.0000    17.9861    12.8792    15.5171   -32.7813     2.4534     0.1145     0.0844    99.2228     7.9335
  357.5000    18.5252    12.9672    16.3267   -32.8320     2.4602     0.1103     0.0847    96.5888     7.9322
  358.0000    18.6625    13.0558    16.7061   -32.8232     2.4671     0.1061     0.0849    95.8208     7.9308
