~VERSION INFORMATION
 VERS.                2.0:   CWLS LOG ASCII STANDARD - VERSION 2.0
 WRAP.                 NO:   ONE LINE PER DEPTH STEP
~WELL INFORMATION
#MNEM.UNIT      DATA TYPE    INFORMATION
#----------   ------------   ------------------------------
 STRT.F            8.0000:   START DEPTH
 STOP.F          916.0000:   STOP DEPTH
 STEP.F            0.5000:   STEP LENGTH
 NULL.          -999.2500:   NO VALUE
 COMP. LAWRENCE/ALLISON INC:   COMPANY
 WELL.    41-66 SX #11-11:   WELL
 FLD .             NPR #3:   FIELD
 LOC .      S11 T38N R78W:   LOCATION
 CNTY.            NATRONA:   COUNTY
 STAT.            WYOMING:   STATE
 CTRY. UNITED STATES OF AMERICA:   COUNTRY
 SRVC.           Gearhart:   SERVICE COMPANY
 DATE.        13-MAY-1987:   LOGDATE
 API .       490251112600:   API NUMBER
~CURVE INFORMATION
#MNEM.UNIT       API CODE    CURVE DESCRIPTION
#----------   ------------   ------------------------------
 DEPT.F                  :   
 GRR .GAPI   07 310 01 00:   GAMMA RAY FROM RES. LOG.
 RILM.OHMM   07 120 44 00:   INDUCTION LOG MEDIUM RESISTIVITY
 RILD.OHMM   07 120 46 00:   INDUCTION LOG DEEP RESISTIVITY
~PARAMETER INFORMATION
#MNEM.UNIT          VALUE    DESCRIPTION
#----------   ------------   ------------------------------
 PD  .                 GL:   PERMANENT DATUM
 EPD .F              5166:   ELEVATION PERMANENT DATUM
 LMF .                 KB:   LOG MEASURED FROM
 DAPD.F                 8:   FEET ABOVE PERMANENT DATUM
 DMF .                 KB:   DRILLING MEASURED FROM
 EKB .F              5174:   KELLING BUSHING
 EDF .F              5174:   DRILLING FLOOR
 EGL .F              5166:   GROUND LEVEL
 DATE.            5-13-87:   RUN DATE
 RUN .                  1:   RUN NUMBER
 DD  .F               945:   DEPTH DRILLER
 DL  .F               930:   DEPTH LOGGER
 BLI .F               921:   BOTTOM LOG INTERVAL
 TLI .F                49:   TOP LOG INTERVAL
 CS  .IN            8.625:   CASING SIZE
 CBD .F                47:   CASING BOTTOM DRILLER
 CBL .F                49:   CASING BOTTOM LOGGER
 BS  .IN            7.875:   BIT SIZE
 BSD .F               945:   BIT SIZE AT DEPTH
 DFT .           AIR FOAM:   DRILLING FLUID TYPE
 TCS .HRS            2230:   TIME CURCULATED STOPPED
 TLAB.HRS            1105:   TIME LOGGER AT BOTTOM
 MRT .F                80:   MAXIMUM RECORDED TEMPERATURE
 LUN .               7597:   LOGGING UNIT NUMBER
 LUL .                GLT:   LOGGING UNIT LOCATION
 ENGI.            WANGLER:   RECORDING ENGINEER
 WITN.             STRONG:   WITNESSED BY
 CLNT.            A2DTECH:   CLIENT CODE
 ORIG.       2", 5" PRINT:   ORIGIN OF DATA
 UWI .       490251112600:   UNIQUE WELL ID
 DICO. A2D Technologies, Inc.:   DIGITIZING COMPANY
~OTHER INFORMATION
~A    DEPT      GRR      RILM       RILD   
# ...
  645.0000   119.0148     7.0979     7.1137
  645.5000   120.8971     6.9625     6.9376
  646.0000   121.3475     6.8297     6.7849
  646.5000   121.8365     6.6995     6.6349
  647.0000   122.2039     6.5717     6.4883
  647.5000   122.3465     6.4464     6.3451
  648.0000   120.0779     6.3234     6.2054
  648.5000   119.9565     6.1888     5.9968
  649.0000   120.6498     6.0528     5.6853
  649.5000   121.3651     5.8380     5.3899
  650.0000   121.7182     5.4236     5.1099
  650.5000   121.9098     5.0406     4.8563
  651.0000   122.3588     4.6834     4.6893
  651.5000   123.0137     4.3522     4.6104
  652.0000   123.6470     4.1384     4.7303
  652.5000   122.5157     4.0781     4.8180
  653.0000   121.2238     4.3490     4.9441
  653.5000   120.3547     4.6640     5.1632
  654.0000   120.3670     5.0045     5.4458
  654.5000   120.3723     5.3692     5.7543
  655.0000   120.7246     5.7604     6.0802
  655.5000   121.4865     6.1801     6.4246
  656.0000   121.9008     6.6323     6.7019
  656.5000   121.1915     7.1152     6.8220
  657.0000   120.9440     7.1501     6.9427
  657.5000   121.3832     7.1839     7.0664
  658.0000   122.1364     7.1722     7.2520
  658.5000   123.2588     7.1550     7.2476
  659.0000   124.3972     7.1380     7.2394
  659.5000   125.5117     7.1209     7.2311
  660.0000   124.3024     7.1040     7.2229
  660.5000   123.2077     7.0870     7.2147
  661.0000   124.4132     7.0701     7.2065
  661.5000   126.9556     7.0532     7.1983
  662.0000   129.2990     7.0364     7.1901
  662.5000   128.0222     7.0196     7.1819
  663.0000   124.5707     7.0028     7.1737
  663.5000   121.4006     6.9861     7.1656
  664.0000   121.6338     6.9695     7.1574
  664.5000   125.3720     6.9529     7.1492
  665.0000   129.7949     6.9363     7.1411
  665.5000   134.5128     6.9182     7.1331
  666.0000   134.2002     6.9409     7.1249
  666.5000   128.2661     6.9668     7.1164
  667.0000   124.3606     6.9833     6.9518
  667.5000   124.0594     6.7788     6.7404
  668.0000   125.2014     6.4548     6.4782
  668.5000   126.4304     6.1191     6.2232
  669.0000   128.6796     6.0177     6.0345
  669.5000   131.1092     5.9082     5.9535
  670.0000   133.0154     5.7816     5.8736
  670.5000   131.9854     5.7823     5.7949
  671.0000   128.4000     5.7820     5.7171
  671.5000   124.5298     5.7989     5.6417
  672.0000   121.7163     5.8227     5.4238
  672.5000   121.5390     5.8371     5.1876
  673.0000   125.2413     5.2378     4.9719
  673.5000   129.1666     4.7490     4.9821
  674.0000   131.6812     4.2751     4.9919
  674.5000   132.1585     4.2350     5.0016
  675.0000   130.8340     4.2350     5.0115
  675.5000   129.4136     4.5309     5.0165
  676.0000   128.0017     4.8476     5.0683
  676.5000   127.2267     5.1864     5.0644
  677.0000   127.0966     5.5489     5.5539
  677.5000   126.9467     5.9367     5.8685
  678.0000   125.9433     6.4147     6.1771
  678.5000   123.6283     6.5067     6.2948
  679.0000   121.6241     6.5443     6.3545
  679.5000   120.2221     6.5830     6.2357
  680.0000   118.8383     6.6011     5.9389
  680.5000   117.5934     6.1296     5.6391
  681.0000   119.1381     5.6786     5.3563
  681.5000   120.9052     5.2609     5.1632
  682.0000   125.3640     4.8739     5.1632
  682.5000   129.7039     4.5154     5.1507
  683.0000   131.4905     4.4396     5.1339
  683.5000   132.0170     4.6773     5.1171
  684.0000   131.5733     4.9440     5.1147
  684.5000   129.8150     5.2248     5.3985
  685.0000   125.3555     5.5172     5.7211
  685.5000   121.3713     5.8129     6.0630
  686.0000   119.7269     6.1261     6.4254
  686.5000   118.6541     6.4561     6.8094
  687.0000   117.5928     6.8040     7.2520
  687.5000   116.4777     7.1164     7.2988
  688.0000   116.0810     7.1719     7.3641
  688.5000   117.6663     7.2307     7.4299
  689.0000   119.9074     7.2520     7.4964
  689.5000   122.3137     7.3516     7.5634
  690.0000   119.9358     7.5013     7.6311
  690.5000   115.8551     7.6541     7.6958
  691.0000   114.4288     7.7472     7.7550
  691.5000   113.3588     7.7050     7.8145
  692.0000   112.7231     7.7353     7.8746
  692.5000   115.0847     7.7656     7.9351
  693.0000   117.3870     7.7961     7.9960
  693.5000   118.8261     7.8983     8.0575
  694.0000   118.8305     7.8973     8.1194
  694.5000   118.2149     7.9420     8.1817
  695.0000   115.5755     7.9697     8.2446
  695.5000   113.2672     8.0713     8.3079
  696.0000   112.0588     8.2451     8.3717
  696.5000   112.0617     8.4225     8.4339
  697.0000   112.6702     8.6038     8.4339
  697.5000   113.3240     8.8414     7.7732
  698.0000   112.1107     8.5188     7.0825
  698.5000   110.2853     7.5371     6.4531
  699.0000   108.4555     6.5760     5.8924
  699.5000   113.2539     5.7377     5.8124
  700.0000   122.9030     5.0067     5.7279
  700.5000   132.5435     4.5242     5.7279
  701.0000   133.9797     4.7175     5.7279
  701.5000   131.1843     5.1017     5.7279
  702.0000   118.8208     5.7060     6.1489
  702.5000   109.1072     6.3819     6.6272
  703.0000   107.1420     7.1379     7.1427
  703.5000   105.3568     7.9834     7.6982
  704.0000   105.2825     8.9253     8.2970
  704.5000   105.2932     9.1025     8.9424
  705.0000   105.1956     9.2826     9.4452
  705.5000   104.7624     9.5347     9.5347
  706.0000   104.5531     9.4731     9.5527
  706.5000   104.8042     9.4031     9.5722
  707.0000   105.2878     9.3347     9.5917
  707.5000   106.2787     9.2673     9.6113
  708.0000   107.2862     9.2003     9.6251
  708.5000   107.5020     9.0953     9.9700
  709.0000   107.6796     9.1815    10.4704
  709.5000   107.0053     9.5347    10.9960
  710.0000   103.7265    10.4293    11.6245
  710.5000    97.0269    11.3867    12.5342
  711.0000    87.4395    12.4319    13.5204
  711.5000    77.8282    13.5731    14.5460
  712.0000    73.0730    14.8190    15.5804
  712.5000    71.4697    16.0221    16.9155
  713.0000    70.4102    17.1033    18.3542
  713.5000    69.8780    18.2574    19.2246
  714.0000    70.0611    19.4895    19.8332
  714.5000    70.2124    20.8047    20.2851
  715.0000    68.2988    22.0832    20.2851
  715.5000    66.3422    22.5040    20.1938
  716.0000    64.9822    22.2926    19.9970
  716.5000    65.6777    21.6158    19.8021
  717.0000    67.7980    20.7174    19.4227
  717.5000    69.9177    19.8564    18.6598
  718.0000    72.0387    19.0309    17.9268
  718.5000    74.1566    18.2376    17.2227
  719.0000    76.0257    17.4468    16.6276
  719.5000    75.9535    17.0336    16.5503
  720.0000    75.1982    16.8319    16.4732
  720.5000    74.7539    16.6384    16.3953
  721.0000    74.6553    16.6384    16.3285
  721.5000    73.5664    16.9422    16.5369
  722.0000    73.1094    17.1509    16.7339
  722.5000    73.7305    17.3622    16.9318
  723.0000    74.3499    17.5761    17.1320
  723.5000    74.3404    17.7927    17.4161
  724.0000    74.3377    18.1064    17.9493
  724.5000    74.3468    18.6397    18.4912
  725.0000    73.2616    19.1886    19.0509
  725.5000    71.4171    19.7547    19.6274
  726.0000    69.5339    20.3354    20.0946
  726.5000    67.7501    20.8676    20.0982
  727.0000    68.1794    20.8676    19.6501
  727.5000    70.8762    20.1540    19.3142
  728.0000    73.5527    19.7131    18.9845
  728.5000    76.2245    19.2819    18.6606
  729.0000    77.7782    18.8601    18.3422
  729.5000    78.1447    18.4475    18.0293
  730.0000    78.5145    18.1133    17.7217
  730.5000    78.8805    17.8036    17.4193
  731.0000    79.2820    17.4934    17.1221
  731.5000    76.7332    17.1885    16.8300
  732.0000    73.6594    16.8889    16.5429
  732.5000    70.7178    16.5946    16.2606
  733.0000    71.5118    16.3054    15.9832
  733.5000    73.6160    16.0212    15.7225
  734.0000    75.7257    15.8716    15.4285
  734.5000    77.8509    15.9558    15.4807
  735.0000    78.2288    16.0342    15.5559
  735.5000    77.1896    16.1129    15.6315
