~VERSION INFORMATION
 VERS.                2.0:   CWLS LOG ASCII STANDARD - VERSION 2.0
 WRAP.                 NO:   ONE LINE PER DEPTH STEP
~WELL INFORMATION
#MNEM.UNIT      DATA TYPE    INFORMATION
#----------   ------------   ------------------------------
 STRT.F           34.0000:   START DEPTH
 STOP.F          576.0000:   STOP DEPTH
 STEP.F            0.5000:   STEP LENGTH
 NULL.          -999.2500:   NO VALUE
 COMP. FENIX & SCISSON INC:   COMPANY
 WELL.   NPR-3 #22 SX 3-3:   WELL
 FLD .             TEAPOT:   FIELD
 LOC .       S3 T38N R78W:   LOCATION
 CNTY.            NATRONA:   COUNTY
 STAT.            WYOMING:   STATE
 CTRY. UNITED STATES OF AMERICA:   COUNTRY
 SRVC.            Unknown:   SERVICE COMPANY
 DATE.        17-JUL-1978:   LOGDATE
 API .       490251066700:   API NUMBER
~CURVE INFORMATION
#MNEM.UNIT       API CODE    CURVE DESCRIPTION
#----------   ------------   ------------------------------
 DEPT.F                  :   
 SN  .OHMM   05 040 16 00:   SHORT NORMAL 16"
 ILD .OHMM   05 120 46 00:   INDUCTION LOG DEEP
 SPR .MV     05 010 01 00:   SPONTANEOUS POTENTIAL FROM RES.
 CALD.IN     45 280 60 00:   CALIPER FROM DENSITY LOG
 GRD .GAPI   45 310 01 00:   GAMMA RAY FROM DENSITY LOG
 CORR.G/C3   45 356 01 00:   DENSITY CORRECTION
 DPHI.DEC    45 890 12 00:   DENSITY POROSITY SANDSTONE
 DEN .G/C3   45 350 01 00:   COMPENSATED BULK DENSITY
~PARAMETER INFORMATION
#MNEM.UNIT          VALUE    DESCRIPTION
#----------   ------------   ------------------------------
 PD  .                 GL:   PERMANENT DATUM
 EPD .F              5193:   ELEVATION PERMANENT DATUM
 LMF .                 KB:   LOG MEASURED FROM
 DAPD.F                 4:   FEET ABOVE PERMANENT DATUM
 DMF .                 KB:   DRILLING MEASURED FROM
 EKB .F              5197:   KELLING BUSHING
 EGL .F              5193:   GROUND LEVEL
 DATE.        17-JUL-1978:   RUN DATE
 RUN .                  1:   RUN NUMBER
 DD  .F               570:   DEPTH DRILLER
 DL  .F               576:   DEPTH LOGGER
 BLI .F               576:   BOTTOM LOG INTERVAL
 CS  .IN            8.625:   CASING SIZE
 CBD .F                30:   CASING BOTTOM DRILLER
 BS  .IN            7.875:   BIT SIZE
 BSD .F               570:   BIT SIZE AT DEPTH
 DFT .            MUD KCL:   DRILLING FLUID TYPE
 DFD .                8.6:   DRILLING FLUID DENSITY
 DFV .                 32:   DRILLING FLUID VISCOSITY
 DFL .                 15:   DRILLING FLUID LOSS
 MSS .           FLOWLINE:   MUD SAMPLE SOURCE
 RMS .OHMM            .18:   RESISTIVITY MUD SAMPLE
 MST .F                86:   MUD SAMPLE TEMPERATURE
 RMF .OHMM            .17:   RESISTIVITY MUD FILTRATE SAMPLE
 MFST.F                94:   MUD FILTRATE SAMPLE TEMPERATURE
 RMC .OHMM            .34:   RESISTIVITY MUD CAKE
 MCST.F                94:   MUD CAKE SAMPLE TEMPERATURE
 MFSS.               MEAS:   MUD FILTRATE SAMPLE SOURCE
 TCS .HRS            0300:   TIME CURCULATED STOPPED
 LUN .               2958:   LOGGING UNIT NUMBER
 LUL .               CASP:   LOGGING UNIT LOCATION
 ENGI.             MILLER:   RECORDING ENGINEER
 WITN.           MCGINLEY:   WITNESSED BY
 CLNT.            A2DTECH:   CLIENT CODE
 ORIG.           5" PRINT:   ORIGIN OF DATA
 UWI .       490251066700:   UNIQUE WELL ID
 DICO. A2D Technologies, Inc.:   DIGITIZING COMPANY
~OTHER INFORMATION
~A   DEPT       SN        ILD        SPR       CALD         GRD      CORR       DPHI        DEN   
# ...
  155.5000     8.1168     8.2291   -37.6338     8.3188    80.4664     0.0191     0.1232     2.4707
  156.0000     8.1217     8.2920   -38.8274     8.3623    86.9916     0.0147     0.1194     2.4475
  156.5000     8.1828     8.2970   -39.5392     8.4348    86.8495     0.0073     0.1131     2.4730
  157.0000     8.2444     8.3594   -39.2270     8.7391    85.2581    -0.0016     0.1131     2.4880
  157.5000     8.3065     8.3645   -40.2504     8.3768    80.3285     0.0074     0.1194     2.4901
  158.0000     8.4278     8.4855   -40.6823     8.2012    83.5252    -0.0045     0.1262     2.4841
  158.5000     8.4911     8.5493   -40.8202     8.1739    85.4121    -0.0059     0.1268     2.4767
  159.0000     8.4962     8.5545   -40.6532     8.2029    86.4293    -0.0029     0.1271     2.4648
  159.5000     8.5601     8.5597   -40.7910     8.4638    87.4466     0.0016     0.1262     2.4566
  160.0000     8.5653     8.6240   -41.0741     8.4928    87.8842    -0.0058     0.1235     2.4568
  160.5000     8.5704     8.6353   -41.5023     8.3188    85.5681    -0.0073     0.1276     2.4723
  161.0000     8.5756     8.6954   -41.7857     8.1727    83.5420    -0.0024     0.1301     2.4701
  161.5000     8.5808     8.7006   -42.2173     8.0580    85.2846     0.0137     0.1274     2.4611
  162.0000     8.5861     8.7059   -42.3515     8.0000    86.8816     0.0063     0.1244     2.4463
  162.5000     8.6013     8.6501   -42.3363     7.9710    77.0293    -0.0041     0.1230     2.4493
  163.0000     8.6571     8.6566   -42.3187     7.7536    77.6118    -0.0056     0.1310     2.4671
  163.5000     8.6016     8.6619   -42.1553     7.6232    81.9624     0.0005     0.1393     2.4669
  164.0000     8.6081     8.6671   -41.6943     7.6232    79.0358     0.0035     0.1432     2.4552
  164.5000     8.6133     8.6723   -41.6798     7.6232    77.4759    -0.0054     0.1604     2.4404
  165.0000     8.5594     8.6776   -41.8140     7.6232    77.1881    -0.0039     0.1638     2.4203
  165.5000     8.5645     8.6890   -41.7995     7.6232    78.7858    -0.0023     0.1667     2.4069
  166.0000     8.5697     8.8099   -41.7849     7.6232    82.9915     0.0007     0.1664     2.4017
  166.5000     8.5749     8.9374   -41.7703     7.6232    85.3132     0.0022     0.1658     2.4010
  167.0000     8.6394     9.1294   -41.7558     7.6232    85.3159     0.0038     0.1634     2.4003
  167.5000     8.6448     9.2615   -41.5923     7.6232    89.5071     0.0070     0.1512     2.4055
  168.0000     8.7710     9.5259   -41.5774     7.6377    91.6983     0.0128     0.1471     2.4255
  168.5000     8.8980     9.7977   -41.5596     7.6522    77.3540     0.0158     0.1310     2.4427
  169.0000     9.0268     9.9395   -41.5450     7.6522    74.0235     0.0188     0.1280     2.4293
  169.5000     9.1575    10.0834   -41.5305     7.6522    73.5908     0.0174     0.1251     2.4523
  170.0000     9.3542    10.2294   -41.5159     7.6522    79.3913     0.0100     0.1227     2.4697
  170.5000     9.5552    10.5215   -41.5014     7.6522    82.5158     0.0008     0.1206     2.4761
  171.0000     9.6935    10.7490   -41.1892     7.6812    84.3252    -0.0048     0.1429     2.4754
  171.5000     9.8338    10.8298   -40.5794     7.7391    85.9222    -0.0033     0.1390     2.4539
  172.0000     9.8444    10.8363   -41.1600     7.8116    86.5047     0.0027     0.1364     2.4286
  172.5000     9.9140    10.9177   -41.5919     7.9130    85.9277     0.0102     0.1340     2.4241
  173.0000     9.9897    10.9243   -41.4285     8.0145    83.6117     0.0192     0.1257     2.4519
  173.5000     9.9958    11.0065   -41.1052     8.0725    76.0609     0.0252     0.1209     2.4673
  174.0000    10.0018    11.0892   -40.6548     8.1163    74.1970     0.0282     0.1192     2.4799
  174.5000    10.0079    11.0959   -40.1907     8.1304    75.3599     0.0283     0.1180     2.5059
  175.0000    10.0139    11.1793   -40.0273     8.1304    83.0438     0.0298     0.1160     2.4926
  175.5000    10.0200    11.1862   -40.0128     8.1304    83.6256     0.0313     0.1031     2.4896
  176.0000    10.0260    11.2718   -39.8494     8.1014    77.8320     0.0299     0.1091     2.5052
  176.5000    10.0321    11.2786   -39.5372     8.0870    74.3565     0.0285     0.1153     2.5113
  177.0000     9.9693    11.2063   -39.5226     8.0870    73.9063     0.0236     0.1135     2.5119
  177.5000     9.8958    11.1379   -39.6605     8.0725    73.7824     0.0092     0.1126     2.5075
  178.0000     9.7117    10.9168   -39.1959     8.0580    75.5250    -0.0087     0.1330     2.4881
  178.5000     9.5175    10.7002   -38.2885     8.0580    81.1800    -0.0086     0.1367     2.4577
  179.0000     9.2025    10.4159   -38.1250     8.0435    76.2552    -0.0086     0.1424     2.4488
  179.5000     8.9580    10.2091   -38.1101     8.0580    75.8231    -0.0115     0.1629     2.4397
  180.0000     8.8395    10.0756   -38.0923     8.0580    79.9033    -0.0161     0.1676     2.4161
  180.5000     8.7842     9.8690   -38.0778     8.0583    80.3216    -0.0248     0.1653     2.3908
  181.0000     8.7908     9.5487   -38.0632     8.0870    76.7019    -0.0293     0.1635     2.3960
  181.5000     8.7961     9.4225   -38.0486     8.3043    72.5018    -0.0292     0.1667     2.4042
  182.0000     8.8015     9.4296   -38.0341     7.9855    70.3299    -0.0217     0.1742     2.3901
  182.5000     8.8070     9.4353   -38.6147     7.9565    73.8333    -0.0127     0.1703     2.3871
  183.0000     8.8134     9.5719   -39.0466     7.9565    73.0889    -0.0052     0.1593     2.3912
  183.5000     8.7569     9.7104   -39.1845     7.9565    77.6753    -0.0002     0.1400     2.4198
  184.0000     8.7635     9.8510   -39.3155     7.9578    81.7918     0.0083     0.1272     2.4466
  184.5000     8.7688     9.8569   -39.4494     7.9710    78.4612    -0.0126     0.1371     2.4533
  185.0000     8.7126     9.9310   -39.4345     7.9710    71.5075    -0.0259     0.1393     2.4518
  185.5000     8.7192    10.0058   -39.2480     7.9710    69.1914    -0.0259     0.1573     2.4280
  186.0000     8.6645    10.0132   -38.2115     7.9710    67.8899    -0.0109     0.1715     2.4056
  186.5000     8.6699     9.8808   -38.0481     7.9710    66.8484    -0.0034     0.1680     2.3991
  187.0000     8.6156     9.3584   -38.0336     7.9855    66.1563    -0.0123     0.1727     2.3953
  187.5000     8.5617     8.9852   -38.1715     7.9855    68.0439    -0.0019     0.1715     2.3894
  188.0000     8.3918     8.9276   -38.4509     7.9855    70.8003     0.0026     0.1557     2.3946
  188.5000     8.1700     8.9344   -39.3292     7.9855    74.4263    -0.0137     0.1730     2.4221
  189.0000     8.0632     8.9398   -39.0170     7.9855    76.6030    -0.0047     0.1745     2.4140
  189.5000     8.0115     8.9452   -37.9608     7.9855    78.6536     0.0074     0.1609     2.3894
  190.0000     8.0175     8.9506   -37.9462     7.9855    79.2172     0.0028     0.1543     2.4103
  190.5000     8.0224     8.8946   -38.0833     8.0000    76.3222    -0.0031     0.1487     2.4303
  191.0000     8.0272     8.9628   -38.5436     7.9855    75.5996    -0.0015     0.1585     2.4266
  191.5000     8.0321     8.9682   -39.5358     7.9855    77.7770    -0.0015     0.1543     2.4222
  192.0000     8.0370     8.9736   -39.8224     7.9855    79.8088    -0.0104     0.1579     2.4296
  192.5000     8.0420     8.9790   -39.8042     7.9855    80.5362    -0.0059     0.1621     2.4102
  193.0000     7.9915     8.9845   -39.6409     7.9855    80.2290    -0.0014     0.1612     2.3984
  193.5000     7.9975     9.0520   -39.4775     7.9855    75.6150    -0.0132     0.1573     2.4140
  194.0000     8.0023     9.1200   -39.3141     7.9878    73.1540    -0.0177     0.1680     2.4140
  194.5000     8.0072     9.1256   -39.4484     8.0145    72.8662    -0.0132     0.1775     2.4007
  195.0000     7.9559     9.0684   -40.0290     8.0145    73.7393    -0.0057     0.1700     2.3873
  195.5000     7.9061     8.9498   -40.4609     8.0000    77.2203     0.0018     0.1719     2.3857
