~VERSION INFORMATION
 VERS.                2.0:   CWLS LOG ASCII STANDARD - VERSION 2.0
 WRAP.                 NO:   ONE LINE PER DEPTH STEP
~WELL INFORMATION
#MNEM.UNIT      DATA TYPE    INFORMATION
#----------   ------------   ------------------------------
 STRT.F            8.0000:   START DEPTH
 STOP.F          551.0000:   STOP DEPTH
 STEP.F            0.5000:   STEP LENGTH
 NULL.          -999.2500:   NO VALUE
 COMP.   FLUOR DANIEL INC:   COMPANY
 WELL. NAVAL PETROLEUM RESERVE 3 S-10 #31-10:   WELL
 FLD .        TEAPOT DOME:   FIELD
 LOC .      S10 T38N R78W:   LOCATION
 CNTY.            NATRONA:   COUNTY
 STAT.            WYOMING:   STATE
 CTRY. UNITED STATES OF AMERICA:   COUNTRY
 SRVC.       Schlumberger:   SERVICE COMPANY
 DATE.        21-JUN-1970:   LOGDATE
 API .       490251039400:   API NUMBER
~CURVE INFORMATION
#MNEM.UNIT       API CODE    CURVE DESCRIPTION
#----------   ------------   ------------------------------
 DEPT.F                  :   
 SPR .MV     05 010 01 00:   SPONTANEOUS POTENTIAL FROM RES.
 ASN .OHMM   05 041 16 00:   AMPLIFIED SHORT NORMAL 16"
 ILD .OHMM   05 120 46 00:   INDUCTION LOG DEEP
 CILD.MMHO   05 110 46 00:   CONDUCTIVITY INDUCTION LOG DEEP
 CALD.IN     45 280 60 00:   CALIPER FROM DENSITY LOG
 CORR.G/C3   45 356 01 00:   DENSITY CORRECTION
 RHOB.G/C3   45 350 01 00:   BULK DENSITY
 DPHI.DEC    45 890 12 00:   DENSITY POROSITY SANDSTONE
~PARAMETER INFORMATION
#MNEM.UNIT          VALUE    DESCRIPTION
#----------   ------------   ------------------------------
 PD  .                 GL:   PERMANENT DATUM
 EPD .F              5256:   ELEVATION PERMANENT DATUM
 LMF .                 KB:   LOG MEASURED FROM
 DAPD.F                10:   FEET ABOVE PERMANENT DATUM
 DMF .                 KB:   DRILLING MEASURED FROM
 EKB .F              5266:   KELLING BUSHING
 EGL .F              5256:   GROUND LEVEL
 DATE.        27-JUN-1970:   RUN DATE
 RUN .                  1:   RUN NUMBER
 DD  .F               553:   DEPTH DRILLER
 DL  .F               552:   DEPTH LOGGER
 BLI .F               551:   BOTTOM LOG INTERVAL
 TLI .F                44:   TOP LOG INTERVAL
 CS  .IN             9.75:   CASING SIZE
 BS  .IN                9:   BIT SIZE
 BSD .F               553:   BIT SIZE AT DEPTH
 DFT .        FRESHGELMUD:   DRILLING FLUID TYPE
 DFD .                9.2:   DRILLING FLUID DENSITY
 BHT .F               100:   BOTTOM HOLE TEMPERATURE
 TCS .HRS               1:   TIME CURCULATED STOPPED
 MRT .F               100:   MAXIMUM RECORDED TEMPERATURE
 ENGI.             TUSNES:   RECORDING ENGINEER
 WITN.                HAZ:   WITNESSED BY
 CLNT.            A2DTECH:   CLIENT CODE
 ORIG.           5" PRINT:   ORIGIN OF DATA
 UWI .       490251039400:   UNIQUE WELL ID
 DICO. A2D Technologies, Inc.:   DIGITIZING COMPANY
~OTHER INFORMATION
~A    DEPT     SPR        ASN        ILD       CILD         CALD     CORR       RHOB       DPHI   
# ...
  291.5000   -31.3665     8.9783     8.1150   119.6753     8.6811     0.0216     2.4755     0.1123
  292.0000   -31.5217     9.0557     8.1914   118.1193     8.6818     0.0179     2.4632     0.1093
  292.5000   -31.5217     9.1176     8.1905   117.3338     8.6826     0.0060     2.4513     0.1207
  293.0000   -31.3665     9.1641     8.2671   116.5483     8.6833     0.0098     2.4636     0.1140
  293.5000   -31.3665     9.2260     8.2661   114.9923     8.6840     0.0158     2.4791     0.1086
  294.0000   -31.2112     9.2730     8.3427   114.2065     8.6848     0.0181     2.4825     0.1071
  294.5000   -31.0559     9.3208     8.3418   113.4206     8.6703     0.0032     2.4713     0.1185
  295.0000   -31.0559     9.3653     8.3410   112.6319     8.6713     0.0062     2.4616     0.1227
  295.5000   -30.9006     9.4118     8.3403   111.8464     8.6570     0.0213     2.4511     0.1134
  296.0000   -30.7453     9.4582     8.3395   111.8313     8.6577     0.0326     2.5202     0.0986
  296.5000   -30.5901     9.4737     8.3388   111.0457     8.6433     0.0274     2.5375     0.0881
  297.0000   -30.4348     9.4427     8.3378   111.0306     8.6442     0.0170     2.5068     0.0896
  297.5000   -30.2795     9.4118     8.3371   111.0155     8.6297     0.0109     2.4859     0.1001
  298.0000   -30.1242     9.3498     8.3363   112.6126     8.6307     0.0003     2.4732     0.1091
  298.5000   -29.9689     9.2879     8.2584   114.1141     8.6314    -0.0033     2.4650     0.1148
  299.0000   -29.8137     9.2105     8.2576   115.6156     8.6472    -0.0054     2.4575     0.1172
  299.5000   -29.8137     9.1022     8.1797   117.1171     8.6479     0.0090     2.4516     0.1190
  300.0000   -29.6584     8.9445     8.1789   117.8679     8.6486     0.0188     2.4748     0.1202
  300.5000   -29.9659     8.8074     7.9314   118.6186     8.6623     0.0157     2.5057     0.0997
  301.0000   -29.9627     8.7281     7.7129   118.6186     8.6759     0.0094     2.4768     0.1097
  301.5000   -30.1150     8.6186     7.5570   118.6186     8.6820    -0.0006     2.4655     0.1150
  302.0000   -30.4218     8.4935     7.4783   118.6186     8.6680     0.0206     2.4473     0.1231
  302.5000   -30.4187     8.3437     7.3225   118.6186     8.6690     0.0139     2.4383     0.1267
  303.0000   -30.4156     8.0805     7.0123   120.2202     8.6851     0.0019     2.4826     0.1110
  303.5000   -30.4126     7.8019     6.6991   123.1231     8.6861     0.0050     2.4962     0.1038
  304.0000   -30.4095     7.4768     6.3776   126.3930     8.7022     0.0193     2.4760     0.1001
  304.5000   -30.4065     7.0743     5.9933   133.6336     8.7032     0.0119     2.4385     0.1206
  305.0000   -30.4034     6.6563     5.5398   141.8919     8.7193    -0.0023     2.4123     0.1365
  305.5000   -30.4003     6.2074     5.0753   151.6517     8.7353    -0.0068     2.4424     0.1235
  306.0000   -30.3973     5.7585     4.6108   169.6697     8.7514     0.0091     2.4139     0.1223
  306.5000   -30.2389     5.2786     4.1464   186.9369     8.7824     0.0069     2.3869     0.1451
  307.0000   -29.9253     4.7523     3.6047   215.4655     8.8147     0.0040     2.3960     0.1427
  307.5000   -29.7670     4.2570     3.1402   253.7538     8.8766     0.0025     2.4178     0.1334
  308.0000   -29.2981     3.8390     2.8301   300.3003     8.9686     0.0035     2.3916     0.1601
  308.5000   -28.8292     3.5139     2.5971   343.8438     9.0871     0.0295     2.3519     0.1790
  309.0000   -28.3571     3.2508     2.4412   394.8949     9.2834     0.0718     2.3458     0.1844
  309.5000   -27.8913     3.1269     2.3625   423.4234     9.4496     0.0886     2.3412     0.1856
  310.0000   -27.4224     3.0960     2.3610   438.4384     9.5707     0.1094     2.2995     0.2472
  310.5000   -27.1081     3.1269     2.3595   442.9429     9.6015     0.0900     2.2485     0.2427
  311.0000   -26.9497     3.2198     2.3580   430.1802     9.3173     0.1449     2.2523     0.2532
  311.5000   -26.9467     3.3437     2.4336   414.4144     9.4087     0.1419     2.2313     0.2764
  312.0000   -26.9436     3.5139     2.6636   382.1321     9.0343     0.1217     2.1961     0.2703
  312.5000   -27.2511     3.7616     3.0478   343.8438     9.1705     0.0798     2.2187     0.2577
  313.0000   -27.5586     4.1442     3.5175   285.2853     9.3968     0.0303     2.2450     0.2371
  313.5000   -27.8661     4.9647     3.9872   240.9910     9.0374     0.0356     2.3426     0.1791
  314.0000   -28.3289     5.5411     4.5216   204.2042     8.9217     0.1010     2.4192     0.1116
  314.5000   -28.7917     6.0056     5.1247   174.1742     9.1596     0.0620     2.3880     0.1439
  315.0000   -29.0999     6.4551     5.6633   160.6607     8.9655     0.0133     2.4238     0.1399
  315.5000   -29.2521     6.6873     6.1247   153.1532     8.6962     0.0261     2.4590     0.1204
  316.0000   -29.4036     6.8111     6.3551   146.3964     8.6673     0.0134     2.4651     0.1132
  316.5000   -29.4005     6.8576     6.4307   143.3934     8.6683     0.0345     2.4674     0.1119
  317.0000   -29.7081     6.9040     6.3517   141.1411     8.6843     0.0368     2.4659     0.1131
  317.5000   -29.7050     6.9505     6.1958   141.8919     8.6856     0.0332     2.4539     0.1167
  318.0000   -29.7019     6.9505     6.0400   147.8979     8.7017     0.0280     2.4795     0.1104
  318.5000   -29.6987     6.9040     5.8841   155.4054     8.7325     0.0213     2.4780     0.1037
  319.0000   -29.3851     6.7492     5.6511   165.1652     8.7185     0.0168     2.4601     0.1175
  319.5000   -29.0708     6.4241     5.4953   174.9249     8.7348     0.0154     2.4504     0.1139
  320.0000   -28.6019     6.0681     5.3394   184.6847     8.7509     0.0147     2.4842     0.1067
  320.5000   -28.4436     5.8514     5.1064   192.1922     8.7820     0.0163     2.4700     0.1109
  321.0000   -28.1300     5.7276     4.9506   200.4505     8.8280     0.0212     2.4468     0.1202
  321.5000   -27.9716     5.6347     4.8719   207.9580     8.9342     0.0525     2.4355     0.1256
  322.0000   -27.6580     5.5418     4.7932   213.2132     9.1154     0.0908     2.4221     0.1270
  322.5000   -27.4997     5.6502     4.7917   216.2162     9.1462     0.0729     2.4022     0.1448
  323.0000   -27.3413     5.8050     4.8673   214.6812     8.8022     0.0527     2.4085     0.1342
  323.5000   -27.4943     5.9598     5.0334   209.3927     8.7582     0.0482     2.4287     0.1279
  324.0000   -27.6457     6.1920     5.3269   200.2778     8.7442     0.0400     2.4133     0.1528
  324.5000   -27.7987     6.4241     5.6340   191.0480     8.7602     0.0311     2.3923     0.1564
  325.0000   -28.1056     6.6873     5.9411   181.0478     8.7462     0.0094     2.4044     0.1444
  325.5000   -28.5683     6.9536     6.2486   168.5518     8.7473    -0.0026     2.4307     0.1324
  326.0000   -29.0310     7.2829     6.5553   156.1476     8.7483    -0.0017     2.4495     0.1218
  326.5000   -29.3395     7.6427     6.8625   146.9182     8.7494     0.0066     2.4578     0.1157
  327.0000   -29.8013     7.9691     7.0156   137.9690     8.7507     0.0097     2.4676     0.1115
  327.5000   -29.9535     8.1889     7.2456   131.0504     8.7367     0.0232     2.4834     0.1058
  328.0000   -30.1057     8.2817     7.4752   127.2135     8.7377     0.0294     2.5021     0.0991
  328.5000   -30.1019     8.3282     7.5512   124.1470     8.7235     0.0200     2.5097     0.0964
  329.0000   -29.9436     8.3437     7.6268   123.3880     8.7095     0.0077     2.4812     0.1084
  329.5000   -29.6299     8.3437     7.5478   124.1774     8.6955     0.0010     2.4715     0.1105
  330.0000   -29.4716     8.2972     7.5462   125.7334     8.6815    -0.0057     2.4656     0.1135
  330.5000   -29.1580     8.2198     7.4676   128.0598     8.6676    -0.0079     2.4574     0.1156
  331.0000   -28.9996     8.1115     7.3117   131.1567     8.6538     0.0095     2.4537     0.1158
  331.5000   -28.8413     7.9876     7.2309   133.4831     8.6549     0.0027     2.4580     0.1122
