~VERSION INFORMATION
 VERS.                2.0:   CWLS LOG ASCII STANDARD - VERSION 2.0
 WRAP.                 NO:   ONE LINE PER DEPTH STEP
~WELL INFORMATION
#MNEM.UNIT      DATA TYPE    INFORMATION
#----------   ------------   ------------------------------
 STRT.F           30.0000:   START DEPTH
 STOP.F          655.5000:   STOP DEPTH
 STEP.F            0.5000:   STEP LENGTH
 NULL.          -999.2500:   NO VALUE
 COMP. FENIX & SCISSON INC:   COMPANY
 WELL.    NPR-3 SX #52-15:   WELL
 FLD .             TEAPOT:   FIELD
 LOC .      S15 T38N R78W:   LOCATION
 CNTY.            NATRONA:   COUNTY
 STAT.            WYOMING:   STATE
 CTRY. UNITED STATES OF AMERICA:   COUNTRY
 SRVC.            Unknown:   SERVICE COMPANY
 DATE.        27-MAY-1978:   LOGDATE
 API .       490251062200:   API NUMBER
~CURVE INFORMATION
#MNEM.UNIT       API CODE    CURVE DESCRIPTION
#----------   ------------   ------------------------------
 DEPT.F                  :   
 GRD .GAPI   45 310 01 00:   GAMMA RAY FROM DENSITY LOG
 CALD.IN     45 280 60 00:   CALIPER
 RHOB.G/C3   45 350 01 00:   BULK DENSITY
 DPHI.DEC    45 890 12 00:   DENSITY POROSITY SANDSTONE
 CORR.G/C3   45 356 01 00:   DENSITY CORRECTION
 SN  .OHMM   05 040 16 00:   SHORT NORMAL 16"
 IL  .OHMM   05 120 00 00:   INDUCTION LOG
 SPR .MV     05 010 01 00:   SPONTANEOUS POTENTIAL FROM RES.
~PARAMETER INFORMATION
#MNEM.UNIT          VALUE    DESCRIPTION
#----------   ------------   ------------------------------
 PD  .                 GL:   PERMANENT DATUM
 EPD .F              5240:   ELEVATION PERMANENT DATUM
 LMF .                 KB:   LOG MEASURED FROM
 DAPD.F                 4:   FEET ABOVE PERMANENT DATUM
 DMF .                 GL:   DRILLING MEASURED FROM
 EKB .F              5244:   KELLING BUSHING
 EGL .F              5240:   GROUND LEVEL
 DATE.          5-27-1978:   RUN DATE
 RUN .                  1:   RUN NUMBER
 DD  .F               645:   DEPTH DRILLER
 DL  .F               655:   DEPTH LOGGER
 BLI .F               650:   BOTTOM LOG INTERVAL
 TLI .F                50:   TOP LOG INTERVAL
 CS  .IN            8.625:   CASING SIZE
 CBD .F                40:   CASING BOTTOM DRILLER
 CBL .F                40:   CASING BOTTOM LOGGER
 BS  .IN            7.875:   BIT SIZE
 BSD .F               645:   BIT SIZE AT DEPTH
 DFT .                KCL:   DRILLING FLUID TYPE
 DFD .                8.6:   DRILLING FLUID DENSITY
 DFV .                 32:   DRILLING FLUID VISCOSITY
 DFPH.               10.5:   DRILLING FLUID PH
 DFL .                7.4:   DRILLING FLUID LOSS
 MSS .           FLOWLINE:   MUD SAMPLE SOURCE
 RMS .OHMM            .30:   RESISTIVITY MUD SAMPLE
 MST .F                66:   MUD SAMPLE TEMPERATURE
 RMF .OHMM            .32:   RESISTIVITY MUD FILTRATE SAMPLE
 MFST.F                64:   MUD FILTRATE SAMPLE TEMPERATURE
 RMC .OHMM            .50:   RESISTIVITY MUD CAKE
 MCST.F                64:   MUD CAKE SAMPLE TEMPERATURE
 MFSS.           MEASURED:   MUD FILTRATE SAMPLE SOURCE
 BHT .F                68:   BOTTOM HOLE TEMPERATURE
 TCS .HRS               2:   TIME CURCULATED STOPPED
 MRT .F                68:   MAXIMUM RECORDED TEMPERATURE
 LUN .               2958:   LOGGING UNIT NUMBER
 LUL .              CASP.:   LOGGING UNIT LOCATION
 ENGI.            POINTER:   RECORDING ENGINEER
 WITN.           MCGINLEY:   WITNESSED BY
 CLNT.            A2DTECH:   CLIENT CODE
 ORIG.      2" , 5" PRINT:   ORIGIN OF DATA
 UWI .       490251062200:   UNIQUE WELL ID
 DICO. A2D Technologies, Inc.:   DIGITIZING COMPANY
~OTHER INFORMATION
~A   DEPT       GRD      CALD       RHOB       DPHI       CORR         SN         IL        SPR   
# ...
  111.0000    93.0993     7.6739     2.5010     0.1062     0.1565     7.4898     8.4222   -22.5440
  111.5000    91.1868     7.6569     2.5005     0.0910     0.1533     7.6089     8.4865   -22.5226
  112.0000    90.0104     7.6358     2.5114     0.0902     0.1499     7.7809     8.5512   -22.5012
  112.5000    90.1804     7.5979     2.5289     0.1041     0.1381     7.7779     8.6164   -22.4799
  113.0000    89.4166     7.5465     2.5319     0.1176     0.1149     7.7728     8.6821   -22.4585
  113.5000    90.0797     7.3958     2.5127     0.1310     0.0918     7.7677     8.7706   -22.4370
  114.0000    92.8699     7.2424     2.4927     0.1359     0.0687     7.7626     8.7167   -22.4138
  114.5000    95.5771     7.0912     2.4726     0.1377     0.0475     7.7575     8.6364   -22.4653
  115.0000    96.3365     7.0693     2.4572     0.1397     0.0480     7.7524     8.5567   -22.5386
  115.5000    94.3034     7.0541     2.4542     0.1419     0.0481     7.7473     8.4778   -22.6080
  116.0000    90.4078     7.0384     2.4508     0.1387     0.0481     7.7422     8.3997   -22.6100
  116.5000    86.9898     7.0282     2.4512     0.1354     0.0481     7.7371     8.3222   -22.6096
  117.0000    85.9407     7.0419     2.4544     0.1377     0.0481     7.7320     8.2455   -22.6096
  117.5000    85.7320     7.0550     2.4565     0.1400     0.0481     7.7269     8.1695   -22.6096
  118.0000    84.0359     7.0681     2.4542     0.1423     0.0491     7.7217     8.0729   -22.6096
  118.5000    86.0986     7.0812     2.4505     0.1275     0.0525     7.7169     8.2109   -22.6096
  119.0000    89.9341     7.0942     2.4469     0.1052     0.0679     7.7096     8.4076   -22.6096
  119.5000    93.8063     7.1122     2.4568     0.0741     0.0836     7.7966     8.6089   -22.6096
  120.0000    95.5196     7.1624     2.5022     0.0745     0.0984     7.9501     8.8518   -22.6096
  120.5000    90.2295     7.2130     2.5472     0.0951     0.0792     8.1066     8.8285   -22.6096
  121.0000    81.0571     7.2662     2.5595     0.1115     0.0537     8.2230     8.8010   -22.6096
  121.5000    68.5279     7.3771     2.5320     0.1295     0.0401     8.2991     8.7709   -22.6096
  122.0000    60.4200     7.4927     2.5058     0.1329     0.0415     8.2163     8.8085   -22.6097
  122.5000    67.7286     7.6025     2.4787     0.1367     0.0433     8.1418     8.8518   -22.6092
  123.0000    79.1867     7.6169     2.4637     0.1367     0.0450     8.0680     8.8116   -22.6119
  123.5000    90.6824     7.6277     2.4573     0.1322     0.0478     7.9949     8.7700   -22.4714
  124.0000    98.4307     7.6388     2.4595     0.1282     0.0527     7.9256     8.7285   -22.2768
  124.5000   100.4062     7.6471     2.4648     0.1279     0.0575     7.9090     8.6902   -22.0788
  125.0000    98.7069     7.6522     2.4702     0.1261     0.0624     7.8932     8.6902   -21.8820
  125.5000    97.0819     7.6573     2.4735     0.1242     0.0672     7.8775     8.6902   -21.6804
  126.0000    96.3531     7.6623     2.4743     0.1242     0.0721     7.8617     8.6902   -21.7687
  126.5000    94.0760     7.6731     2.4764     0.1211     0.0769     7.8460     8.6902   -22.0023
  127.0000    90.5053     7.6888     2.4785     0.1173     0.0818     7.8303     8.6902   -22.2156
  127.5000    88.8734     7.7039     2.4807     0.1135     0.0866     7.8147     8.6902   -22.1963
  128.0000    89.1227     7.6961     2.4877     0.1097     0.0887     7.7991     8.6902   -22.1815
  128.5000    91.0172     7.6872     2.4947     0.1071     0.0894     7.7835     8.6902   -22.1674
  129.0000    92.9006     7.6783     2.5005     0.1076     0.0901     7.7679     8.6902   -22.1533
  129.5000    93.2578     7.6691     2.5046     0.1080     0.0908     7.7524     8.6904   -22.1393
  130.0000    93.3460     7.6438     2.5045     0.1104     0.0916     7.7369     8.6902   -22.1252
  130.5000    93.6152     7.5977     2.5035     0.1138     0.0928     7.7215     8.6050   -22.1111
  131.0000    95.6447     7.5683     2.4965     0.1138     0.0974     7.6782     8.4979   -22.0971
  131.5000    98.0333     7.5865     2.4898     0.1091     0.1045     7.5430     8.3920   -22.0830
  132.0000   100.4545     7.6044     2.4949     0.1070     0.1112     7.4103     8.2875   -22.0690
  132.5000    99.5716     7.6458     2.5006     0.1141     0.1156     7.2796     8.1843   -22.0549
  133.0000    98.4397     7.6903     2.5001     0.1154     0.1201     7.1524     8.0824   -22.0410
  133.5000    97.3279     7.7361     2.4979     0.1159     0.1246     7.0951     7.9976   -22.0273
  134.0000    96.1438     7.7302     2.4932     0.1169     0.1292     7.0956     7.9902   -22.0109
  134.5000    93.1850     7.7119     2.4920     0.1195     0.1337     7.0962     7.9828   -21.9010
  135.0000    90.1372     7.6934     2.4912     0.1177     0.1333     7.0963     7.9754   -21.7823
  135.5000    87.7325     7.6749     2.4905     0.1114     0.1322     7.0963     7.9680   -21.6637
  136.0000    88.3138     7.6564     2.4896     0.1070     0.1310     7.0963     7.9606   -21.5448
  136.5000    91.8258     7.6381     2.4948     0.1082     0.1266     7.0963     7.9532   -21.4272
  137.0000    96.2374     7.6234     2.5022     0.1186     0.1143     7.0963     7.9458   -21.4139
  137.5000   102.6299     7.6188     2.5040     0.1175     0.1022     7.0963     7.9386   -21.4141
  138.0000   100.4545     7.6142     2.4931     0.1204     0.0901     7.0962     7.9313   -21.4143
  138.5000    96.3127     7.6096     2.4896     0.1265     0.0798     7.0960     7.9256   -21.4143
  139.0000    93.5496     7.6049     2.4895     0.1262     0.0796     7.0965     8.0180   -21.4143
  139.5000    93.4878     7.6045     2.4836     0.1234     0.0792     7.1303     8.0931   -21.4143
  140.0000    93.8798     7.6058     2.4748     0.1234     0.0788     7.2437     8.1687   -21.4143
  140.5000    94.2040     7.6446     2.4778     0.1219     0.0783     7.3590     8.2450   -21.4143
  141.0000    91.9138     7.6833     2.4805     0.1169     0.0779     7.4760     8.3220   -21.4143
  141.5000    89.2920     7.6751     2.4812     0.1180     0.0775     7.5949     8.3998   -21.4143
  142.0000    86.8266     7.6625     2.4855     0.1191     0.0770     7.7096     8.4782   -21.4143
  142.5000    86.6225     7.6014     2.4914     0.1160     0.0766     7.7057     8.5575   -21.4143
  143.0000    88.9611     7.5398     2.4891     0.1146     0.0762     7.7011     8.6375   -21.4143
  143.5000    93.5361     7.4867     2.4886     0.1152     0.0757     7.6965     8.7191   -21.4143
  144.0000    97.6122     7.5307     2.4927     0.1158     0.0753     7.6920     8.7706   -21.4143
  144.5000    94.9416     7.6225     2.4937     0.1165     0.0749     7.6874     8.6393   -21.4143
  145.0000    92.0919     7.6541     2.4924     0.1200     0.0744     7.6829     8.5436   -21.4143
  145.5000    90.0181     7.6365     2.4911     0.1233     0.0717     7.6784     8.4490   -21.4143
  146.0000    90.8893     7.6181     2.4864     0.1244     0.0650     7.6738     8.3554   -21.4143
  146.5000    92.7385     7.5996     2.4786     0.1256     0.0600     7.6693     8.2628   -21.4143
  147.0000    90.1767     7.5812     2.4774     0.1235     0.0601     7.6647     8.1713   -21.4143
  147.5000    88.4364     7.5631     2.4756     0.1207     0.0601     7.6602     8.0808   -21.4143
  148.0000    90.4740     7.5427     2.4759     0.1198     0.0593     7.6557     7.9913   -21.4143
  148.5000    92.2029     7.4731     2.4873     0.1174     0.0574     7.6511     7.9027   -21.4143
  149.0000    94.1421     7.4028     2.4875     0.1154     0.0555     7.6460     7.8529   -21.4143
  149.5000    95.6518     7.3333     2.4892     0.1150     0.0536     7.6426     7.8529   -21.4143
  150.0000    94.4982     7.3251     2.4919     0.1218     0.0517     7.6348     8.0757   -21.4143
  150.5000    93.2587     7.3251     2.4910     0.1174     0.0503     7.8541     8.2489   -21.4143
  151.0000    92.1391     7.3647     2.4889     0.1088     0.0527     8.0249     8.4213   -21.4143
