~VERSION INFORMATION
 VERS.                2.0:   CWLS LOG ASCII STANDARD - VERSION 2.0
 WRAP.                 NO:   ONE LINE PER DEPTH STEP
~WELL INFORMATION
#MNEM.UNIT      DATA TYPE    INFORMATION
#----------   ------------   ------------------------------
 STRT.F           30.0000:   START DEPTH
 STOP.F          458.0000:   STOP DEPTH
 STEP.F            0.5000:   STEP LENGTH
 NULL.          -999.2500:   NO VALUE
 COMP. FENIX & SCISSON INC:   COMPANY
 WELL. NPR 3 #53 SX 10-10:   WELL
 FLD .             TEAPOT:   FIELD
 LOC .      S10 T38N R78W:   LOCATION
 CNTY.            NATRONA:   COUNTY
 STAT.            WYOMING:   STATE
 CTRY. UNITED STATES OF AMERICA:   COUNTRY
 SRVC.              Welex:   SERVICE COMPANY
 DATE.        16-APR-1977:   LOGDATE
 API .       490251033200:   API NUMBER
~CURVE INFORMATION
#MNEM.UNIT       API CODE    CURVE DESCRIPTION
#----------   ------------   ------------------------------
 DEPT.F                  :   
 SPR .MV     07 010 01 00:   SPONTANEOUS POTENTIAL FROM RES.
 ILD .OHMM   07 120 46 00:   INDUCTION LOG DEEP
 ILM .OHMM   07 120 44 00:   INDUCTION LOG MEDIUM
 SGRD.OHMM   07 220 05 00:   SHALLOW GUARD RESISTIVITY
 GRD .GAPI   45 310 01 00:   GAMMA RAY FROM DENSITY LOG
 CALD.IN     45 280 60 00:   CALIPER FROM DENSITY LOG
 CORR.G/C3   45 356 01 00:   DENSITY CORRECTION
 RHOB.G/C3   45 350 01 00:   BULK DENSITY
 DPHI.DEC    45 890 12 00:   DENSITY POROSITY SANDSTONE
~PARAMETER INFORMATION
#MNEM.UNIT          VALUE    DESCRIPTION
#----------   ------------   ------------------------------
 PD  .                 GL:   PERMANENT DATUM
 EPD .F              5180:   ELEVATION PERMANENT DATUM
 LMF .                 GL:   LOG MEASURED FROM
 DMF .                 GL:   DRILLING MEASURED FROM
 EGL .F              5180:   GROUND LEVEL
 DATE.        16-APR-1977:   RUN DATE
 RUN .                  1:   RUN NUMBER
 DD  .F               455:   DEPTH DRILLER
 DL  .F               461:   DEPTH LOGGER
 BLI .F               459:   BOTTOM LOG INTERVAL
 TLI .F                30:   TOP LOG INTERVAL
 CS  .IN            8.625:   CASING SIZE
 BS  .IN            7.875:   BIT SIZE
 BSD .F               455:   BIT SIZE AT DEPTH
 DFT .            KCL MUD:   DRILLING FLUID TYPE
 DFD .                8.9:   DRILLING FLUID DENSITY
 TCS .HRS            0600:   TIME CURCULATED STOPPED
 MRT .F                66:   MAXIMUM RECORDED TEMPERATURE
 ENGI.               DOAK:   RECORDING ENGINEER
 WITN.      B. HARRINGTON:   WITNESSED BY
 CLNT.            A2DTECH:   CLIENT CODE
 ORIG.           5" PRINT:   ORIGIN OF DATA
 UWI .       490251033200:   UNIQUE WELL ID
 DICO. A2D Technologies, Inc.:   DIGITIZING COMPANY
~OTHER INFORMATION
~A   DEPT      SPR        ILD        ILM       SGRD         GRD        CALD      CORR        RHOB     DPHI   
# ...
  139.5000   -47.2012     6.1785     7.6554    10.0805   104.9035     7.8252     0.0252     2.4268     0.1315
  140.0000   -47.1894     6.3558     8.0959    10.5878   106.2585     7.8270     0.0283     2.4359     0.1267
  140.5000   -47.1746     6.5381     8.5617    11.1977   109.9910     7.8437     0.0315     2.4510     0.1229
  141.0000   -47.1598     6.7723     8.7466    11.5198   112.8275     7.8752     0.0332     2.4578     0.1190
  141.5000   -47.1450     6.9666     8.8128    11.3694   109.1350     7.8921     0.0379     2.4549     0.1170
  142.0000   -47.1302     7.1171     8.8183    10.3276   107.3652     7.8939     0.0380     2.4490     0.1205
  142.5000   -47.1154     7.2207     8.7616    11.5438   108.4276     7.8808     0.0352     2.4491     0.1208
  143.0000   -47.1006     7.2253     8.7338    11.8758   109.3368     7.8453     0.0293     2.4620     0.1172
  143.5000   -47.0858     7.2800     8.8083    11.7208   110.2417     7.8321     0.0264     2.4763     0.1096
  144.0000   -47.0710     7.4372     8.7781    11.6461   108.0351     7.7969     0.0251     2.4674     0.1123
  144.5000   -47.0562     7.7571     8.7230    12.0645   108.0528     7.7838     0.0223     2.4555     0.1176
  145.0000   -47.0414     8.0908     8.7904    11.7979   108.6649     7.7855     0.0224     2.4533     0.1191
  145.5000   -47.0266     8.0958     8.9184    11.9277   109.8714     7.7873     0.0211     2.4571     0.1179
  146.0000   -47.0118     8.0999     9.1110    12.5265   112.8609     7.7891     0.0152     2.4655     0.1145
  146.5000   -46.9970     8.1141     9.2437    13.0538   117.0391     7.7909     0.0139     2.4596     0.1154
  147.0000   -46.9823     8.2880     9.2494    12.6104   119.1371     7.7926     0.0095     2.4499     0.1190
  147.5000   -47.1180     8.3426     9.1267    12.1848   120.6408     7.7944     0.0082     2.4444     0.1213
  148.0000   -47.1006     8.3478     9.0694    12.1229   121.6987     7.7962     0.0084     2.4433     0.1228
  148.5000   -47.0858     8.3530     9.0765    12.6586   119.4876     7.8129     0.0101     2.4464     0.1225
  149.0000   -47.0710     8.3582     9.1452    12.8302   117.7223     7.8146     0.0102     2.4514     0.1200
  149.5000   -47.2042     8.3647     9.2783    11.9814   115.9570     7.8313     0.0134     2.4609     0.1191
  150.0000   -47.1894     8.4851     9.4120    12.3259   110.1783     7.8480     0.0181     2.4767     0.1029
  150.5000   -47.3225     8.4313     9.3523    13.4928   107.6716     7.8351     0.0258     2.4798     0.1010
  151.0000   -47.3076     8.3778     9.3588    13.1310   108.7350     7.8222     0.0304     2.4859     0.0992
  151.5000   -47.2928     8.3825     9.1085    12.4304   110.6880     7.8094     0.0306     2.4898     0.0955
  152.0000   -47.2780     8.3871     8.9871    13.0515   115.3175     7.8114     0.0307     2.4868     0.0970
  152.5000   -47.2631     8.3917     9.0557    11.7713   114.2594     7.7986     0.0309     2.4824     0.1003
  153.0000   -47.2483     8.3385     9.1236    11.6958   110.1337     7.8156     0.0294     2.4735     0.1054
  153.5000   -47.2335     8.2285     9.1286    11.7841   108.2159     7.8177     0.0251     2.4661     0.1131
  154.0000   -47.2186     8.2331     9.1336    11.7897   110.8103     7.8198     0.0236     2.4564     0.1161
  154.5000   -47.2038     8.1808     8.9510    11.7954   114.9941     7.8219     0.0194     2.4453     0.1209
  155.0000   -47.1632     8.0119     8.8930    11.8011   118.5488     7.8239     0.0196     2.4378     0.1253
  155.5000   -47.1470     7.7491     8.6564    11.7240   117.2041     7.8263     0.0182     2.4327     0.1277
  156.0000   -47.2832     7.5358     8.3668    11.4902   114.9926     7.8284     0.0184     2.4313     0.1277
  156.5000   -47.4154     7.3402     8.1431    11.4957   112.6260     7.8454     0.0200     2.4321     0.1267
  157.0000   -47.3951     7.0744     7.8165    11.1875   110.7457     7.8475     0.0232     2.4352     0.1255
  157.5000   -47.5313     6.6892     7.5550    10.5905   112.5780     7.8496     0.0264     2.4383     0.1249
  158.0000   -47.9602     6.1650     7.1031     9.8877   115.7592     7.8441     0.0311     2.4279     0.1278
  158.5000   -47.9399     5.6435     6.5411     9.3601   118.7127     7.8387     0.0327     2.4174     0.1371
  159.0000   -48.2204     5.2557     6.1498     8.9221   120.4811     7.8408     0.0359     2.4033     0.1455
  159.5000   -48.6493     4.5525     5.5855     8.3879   119.7296     7.8429     0.0330     2.3883     0.1574
  160.0000   -49.0823     4.1514     5.2878     7.8312   118.1030     7.8450     0.0286     2.3689     0.1673
  160.5000   -49.0620     3.9031     5.0060     7.3115   117.4187     7.8471     0.0272     2.3525     0.1772
  161.0000   -49.0458     3.5943     4.6099     6.6401   119.4027     7.8492     0.0274     2.3248     0.1861
  161.5000   -49.1820     3.4740     4.3342     5.9475   116.4062     7.8512     0.0260     2.3016     0.1999
  162.0000   -49.3142     3.1119     3.9093     5.1819   115.2006     7.8533     0.0217     2.2777     0.2197
  162.5000   -49.4463     2.9461     3.5261     4.3916   112.0728     7.8554     0.0158     2.2620     0.2317
  163.0000   -49.4261     2.8673     3.2471     3.8753   109.6017     7.8575     0.0100     2.2568     0.2376
  163.5000   -49.4098     2.8096     3.1381     3.3740   107.5394     7.8447     0.0071     2.2592     0.2355
  164.0000   -49.3936     2.8115     3.1182     3.1340   106.2199     7.8468     0.0027     2.2780     0.2256
  164.5000   -49.2290     2.8326     3.2301     4.9602   104.6459     7.8489     0.0089     2.3194     0.2051
  165.0000   -48.9161     2.9136     3.4157     7.0664   107.6969     7.8510     0.0151     2.3443     0.1787
  165.5000   -48.8999     3.1240     3.5623     7.8728   110.8126     7.8307     0.0152     2.3624     0.1708
  166.0000   -48.5869     3.3264     3.8727     3.8108   117.2967     7.8104     0.0094     2.3670     0.1678
  166.5000   -48.2740     3.6920     4.4495    10.1089   120.2258     7.8125     0.0080     2.3723     0.1534
  167.0000   -47.8127     4.1548     4.9045    10.3974   121.8475     7.8145     0.0097     2.3859     0.1404
  167.5000   -47.6481     4.5481     5.4435    10.1186   123.0560     7.8166     0.0158     2.4176     0.1380
  168.0000   -47.4835     4.9102     5.9588     9.5787   124.4487     7.8187     0.0175     2.4207     0.1389
  168.5000   -47.6157     5.3012     6.3011     9.7168   125.8069     7.8209     0.0176     2.4162     0.1400
  169.0000   -47.5994     5.4907     6.5264     9.8568   127.2759     7.8229     0.0162     2.4126     0.1403
  169.5000   -47.5831     5.6478     6.7131     9.9300   126.9406     7.8250     0.0149     2.4142     0.1412
  170.0000   -47.5668     5.7693     6.9531     9.7983   122.2933     7.8273     0.0120     2.4090     0.1435
  170.5000   -47.5504     5.8126     7.0052     9.3398   116.0084     7.8294     0.0107     2.4023     0.1462
  171.0000   -47.5341     5.8158     7.0577     9.4745   112.0119     7.8315     0.0109     2.4024     0.1471
  171.5000   -47.5178     5.7789     7.0616    10.0181   110.2653     7.8336     0.0110     2.4055     0.1467
  172.0000   -47.6506     5.7027     7.0655    10.4475   116.8707     7.8357     0.0112     2.4041     0.1473
  172.5000   -48.0754     5.6657     6.7821    10.2380   122.8752     7.8377     0.0083     2.3959     0.1518
  173.0000   -48.2076     5.4770     6.3324     9.1069   124.4626     7.8398     0.0054     2.3885     0.1565
  173.5000   -48.4921     5.3305     6.0785     5.6928   125.6711     7.8419     0.0010     2.3841     0.1592
  174.0000   -48.6243     5.1522     5.8347     5.2424   126.1122     7.8440    -0.0003     2.3880     0.1577
  174.5000   -48.6040     4.9449     5.7180     8.1646   124.3279     7.8312    -0.0017     2.4046     0.1450
  175.0000   -48.4394     4.9135     5.7212     8.6930   120.1833     7.8333    -0.0015     2.4122     0.1417
  175.5000   -47.9781     4.9510     5.8443     7.4014   116.5118     7.8204     0.0002     2.4130     0.1387
