~VERSION INFORMATION
 VERS.                2.0:   CWLS LOG ASCII STANDARD - VERSION 2.0
 WRAP.                 NO:   ONE LINE PER DEPTH STEP
~WELL INFORMATION
#MNEM.UNIT      DATA TYPE    INFORMATION
#----------   ------------   ------------------------------
 STRT.F           36.0000:   START DEPTH
 STOP.F          700.0000:   STOP DEPTH
 STEP.F            0.5000:   STEP LENGTH
 NULL.          -999.2500:   NO VALUE
 COMP. FENIX & SCISSON INC:   COMPANY
 WELL. NPR #3 13SX14 #13-14:   WELL
 FLD .             TEAPOT:   FIELD
 LOC .      S14 T38N R78W:   LOCATION
 CNTY.            NATRONA:   COUNTY
 STAT.            WYOMING:   STATE
 CTRY. UNITED STATES OF AMERICA:   COUNTRY
 SRVC.              Welex:   SERVICE COMPANY
 DATE.        28-FEB-1977:   LOGDATE
 API .       490251029600:   API NUMBER
~CURVE INFORMATION
#MNEM.UNIT       API CODE    CURVE DESCRIPTION
#----------   ------------   ------------------------------
 DEPT.F                  :   
 CALD.IN     45 280 60 00:   CALIPER FROM DENSITY LOG
 GRD .GAPI   45 310 01 00:   GAMMA RAY FROM DENSITY LOG
 CORR.G/C3   45 356 01 00:   DENSITY CORRECTION
 RHOB.G/C3   45 350 01 00:   BULK DENSITY
 DPHI.DEC    45 890 12 00:   DENSITY POROSITY SANDSTONE
 SPR .MV     07 010 01 00:   SPONTANEOUS POTENTIAL
 SGRD.OHMM   07 220 05 00:   SHALLOW RESISTIVITY
 ILD .OHMM   07 120 46 00:   INDUCTION LOG DEEP
 ILM .OHMM   07 120 44 00:   INDUCTION LOG MEDIUM
~PARAMETER INFORMATION
#MNEM.UNIT          VALUE    DESCRIPTION
#----------   ------------   ------------------------------
 PD  .                 GL:   PERMANENT DATUM
 EPD .F              5238:   ELEVATION PERMANENT DATUM
 LMF .                 GL:   LOG MEASURED FROM
 DMF .                 GL:   DRILLING MEASURED FROM
 EGL .F              5238:   GROUND LEVEL
 DATE.            2-28-77:   RUN DATE
 RUN .                  1:   RUN NUMBER
 DD  .F               710:   DEPTH DRILLER
 DL  .F               706:   DEPTH LOGGER
 BLI .F               704:   BOTTOM LOG INTERVAL
 TLI .F                42:   TOP LOG INTERVAL
 CS  .IN            8.625:   CASING SIZE
 CBD .F                42:   CASING BOTTOM DRILLER
 CBL .F                42:   CASING BOTTOM LOGGER
 BS  .IN            7.875:   BIT SIZE
 BSD .F               710:   BIT SIZE AT DEPTH
 DFT .           CHEM-GEL:   DRILLING FLUID TYPE
 DFD .                8.7:   DRILLING FLUID DENSITY
 DFV .                 33:   DRILLING FLUID VISCOSITY
 DFPH.                  7:   DRILLING FLUID PH
 DFL .                  8:   DRILLING FLUID LOSS
 MSS .          FLOW LINE:   MUD SAMPLE SOURCE
 RMS .OHMM           .382:   RESISTIVITY MUD SAMPLE
 MST .F                54:   MUD SAMPLE TEMPERATURE
 RMF .OHMM           .342:   RESISTIVITY MUD FILTRATE SAMPLE
 MFST.F                54:   MUD FILTRATE SAMPLE TEMPERATURE
 RMC .OHMM           .821:   RESISTIVITY MUD CAKE
 MCST.F                54:   MUD CAKE SAMPLE TEMPERATURE
 MFSS.           MEASURED:   MUD FILTRATE SAMPLE SOURCE
 MCSS.           MEASURED:   MUD CAKE SAMPLE SOURCE
 RMB .OHMM           .333:   RESISTIVITY MUD AT BHT
 BHT .F                62:   BOTTOM HOLE TEMPERATURE
 TCS .HRS               3:   TIME CURCULATED STOPPED
 MRT .F                62:   MAXIMUM RECORDED TEMPERATURE
 LUN .               8611:   LOGGING UNIT NUMBER
 LUL .           GILLETTE:   LOGGING UNIT LOCATION
 ENGI.               DOAK:   RECORDING ENGINEER
 WITN.               JAPP:   WITNESSED BY
 CLNT.            A2DTECH:   CLIENT CODE
 ORIG.       2", 5" PRINT:   ORIGIN OF DATA
 UWI .       490251029600:   UNIQUE WELL ID
 DICO. A2D Technologies, Inc.:   DIGITIZING COMPANY
~OTHER INFORMATION
~A   DEPT       CALD       GRD       CORR        RHOB     DPHI         SPR        SGRD      ILD        ILM   
   36.0000     8.1215    88.5458    -0.4014     1.9985  -999.2500    -9.4433     0.9456  -999.2500  1625.3239
   36.5000     8.0618    88.6010    -0.3735     1.9985  -999.2500    -9.5925     0.9456  -999.2500  1625.3239
   37.0000     8.0345    88.5458    -0.3735     1.9852  -999.2500   -10.0185     0.9456  -999.2500  1625.3239
   37.5000     8.0204    86.8984    -0.3450     1.9557  -999.2500   -10.4445     0.9478  -999.2500  1647.8521
   38.0000     8.0097    85.3822    -0.3229     1.9589  -999.2500   -10.7642     0.9456  -999.2500  1625.3239
   38.5000     7.9956    83.3773    -0.2933     1.9193  -999.2500   -11.1898     0.9456  -999.2500  1625.3239
   39.0000     7.9827    82.1377    -0.2544     1.8902  -999.2500   -11.6155     0.9456  -999.2500  1625.4734
   39.5000     7.9692    81.9961    -0.2078     1.8599  -999.2500   -11.9815     0.9456  -999.2500  1625.9543
   40.0000     8.1211    83.0170    -0.1611     1.8379  -999.2500   -12.2877     0.9454  -999.2500  1625.3239
   40.5000     8.3730    85.4756    -0.1126     1.8794  -999.2500   -12.5940     0.9461  -999.2500  1610.4080
   41.0000     8.3760    89.6495    -0.0474     1.9259  -999.2500   -12.8999     0.9472  -999.2500  1345.7996
   41.5000     8.3687    94.1821     0.0215     1.9732  -999.2500   -13.2049     1.1406  -999.2500   897.9953
   42.0000     8.3571    98.7324     0.0680     2.0185  -999.2500   -13.4529     1.3339  -999.2500   455.3940
   42.5000     8.5882   103.2810     0.0478     2.0608  -999.2500   -13.5560     2.3908  -999.2500    11.5056
   43.0000     9.1356   107.8187     0.0209     2.1011  -999.2500   -13.6598     4.2883     0.3439     2.9120
   43.5000     9.7757   112.3592    -0.0095     2.1844     0.2343   -13.7634     4.9724     0.3069     3.4556
   44.0000    10.1341   117.0854     0.0010     2.2859     0.1727   -13.7160     5.3522     0.2879     3.6818
   44.5000     8.3217   118.4253     0.0258     2.4128     0.1388   -13.5200     5.2794     0.3608     3.7904
   45.0000     7.9927   118.2396     0.0352     2.4122     0.1368   -13.3218     5.1107     0.4523     3.9032
   45.5000     8.0007   117.2172     0.0361     2.4083     0.1406   -13.4197     4.9693     0.8590     4.0193
   46.0000     8.0148   115.3788     0.0369     2.4044     0.1442   -13.5063     5.3941     1.6031     4.1338
   46.5000     8.0280   112.3092     0.0377     2.4005     0.1476   -13.2749     5.8681     3.2828     3.9918
   47.0000     8.0400   109.2648     0.0384     2.3966     0.1473   -13.3399     5.4838     3.2273     3.7813
   47.5000     8.0517   110.9798     0.0392     2.3927     0.1503   -13.4654     4.7222     3.1442     3.5819
   48.0000     8.0571   113.1994     0.0400     2.3854     0.1549   -13.6058     3.8686     3.0214     3.4061
   48.5000     8.0239   114.5069     0.0407     2.3781     0.1592   -13.3481     3.8845     3.0783     3.4795
   49.0000     7.9902   113.0640     0.0396     2.3726     0.1612   -13.0909     5.1003     3.2017     3.5494
   49.5000     7.9823   111.1526     0.0369     2.3675     0.1636   -12.8380     5.8176     3.3439     3.5999
   50.0000     7.9851   109.2672     0.0343     2.3624     0.1676   -13.4164     5.3669     3.2497     3.2778
   50.5000     7.9887   110.3199     0.0316     2.3538     0.1735   -14.0816     4.8566     3.1256     3.0483
   51.0000     7.9922   112.4133     0.0309     2.3454     0.1793   -14.7467     4.3949     3.0061     2.8780
   51.5000     7.9957   114.5140     0.0309     2.3368     0.1851   -15.4383     4.0958     2.8912     2.7592
   52.0000     7.9992   116.6169     0.0309     2.3284     0.1909   -15.3692     4.4093     2.7808     2.6555
   52.5000     8.0027   118.3197     0.0286     2.3187     0.1966   -15.3227     4.2146     2.6568     2.5815
   53.0000     8.0062   119.6852     0.0254     2.3079     0.2021   -15.5327     3.8767     2.5785     2.5156
   53.5000     8.0097   120.1600     0.0222     2.2969     0.2077   -15.7437     3.5796     2.4931     2.4434
   54.0000     8.0131   120.3743     0.0190     2.2857     0.2138   -15.9579     3.3052     2.4430     2.4431
   54.5000     8.0166   120.2240     0.0158     2.2853     0.2141   -16.1746     3.1932     2.7206     2.6269
   55.0000     8.0201   119.8728     0.0149     2.2969     0.2090   -16.3907     4.9239     3.0714     2.7841
   55.5000     8.0236   119.6037     0.0167     2.3256     0.1891   -16.1853     7.0563     3.2537     2.9506
   56.0000     8.0271   115.7226     0.0191     2.3684     0.1693   -15.9451     6.7800     3.4292     3.1276
   56.5000     8.0306   110.8435     0.0214     2.4074     0.1494   -15.7062     6.3571     3.6596     3.3153
   57.0000     8.0340   111.4381     0.0238     2.4104     0.1388   -15.4679     6.0885     3.8554     3.5143
   57.5000     8.0375   113.1999     0.0263     2.4077     0.1408   -15.2297     6.3074     4.0369     3.6669
   58.0000     8.0412   114.9285     0.0270     2.4048     0.1429   -14.9916     6.4925     4.1363     3.7582
   58.5000     8.0384   115.9487     0.0273     2.4019     0.1450   -14.7533     6.2720     3.8754     3.8046
   59.0000     8.0340   115.6472     0.0275     2.3990     0.1471   -14.5153     6.1203     3.9404     3.8046
   59.5000     8.0296   115.3556     0.0277     2.3962     0.1496   -14.2806     5.9741     4.1338     3.6039
   60.0000     8.0252   115.1373     0.0280     2.3935     0.1520   -13.8835     5.8681     3.9644     3.4211
   60.5000     8.0208   118.4362     0.0282     2.3846     0.1548   -13.4357     5.5652     3.7214     3.2476
   61.0000     8.0163   122.5094     0.0284     2.3762     0.1590   -12.9881     5.1102     3.4933     3.0828
   61.5000     8.0119   126.4454     0.0287     2.3646     0.1652   -12.5584     5.3022     3.2791     2.9265
   62.0000     8.0075   128.3703     0.0289     2.3519     0.1740   -11.4130     5.1726     3.0776     2.7780
   62.5000     8.0030   130.8453     0.0271     2.3391     0.1828   -10.0602     4.8976     2.9654     2.6371
   63.0000     7.9986   133.3960     0.0247     2.3265     0.1917    -8.6801     4.6372     2.8076     2.5359
   63.5000     7.9942   135.9876     0.0222     2.3142     0.1983    -7.8234     4.3013     2.6655     2.4667
   64.0000     7.9898   137.2167     0.0198     2.3029     0.2044    -6.9891     3.7464     2.5359     2.4441
   64.5000     7.9854   134.5936     0.0173     2.2915     0.2103    -6.1624     3.1932     2.6070     2.4896
   65.0000     7.9809   131.2140     0.0149     2.2872     0.2145    -5.3273     3.1932     2.8826     2.6256
   65.5000     7.9765   127.8343     0.0125     2.2946     0.2079    -4.4922     4.7856     3.1832     2.8411
   66.0000     7.9721   124.4662     0.0119     2.3197     0.1813    -4.1308     8.1028     3.5152     3.0742
   66.5000     7.9676   121.2091     0.0148     2.3731     0.1453    -4.6233     7.7700     3.8818     3.3593
   67.0000     7.9632   118.9049     0.0177     2.4124     0.1337    -5.0978     7.2699     4.2866     3.6916
   67.5000     7.9588   117.4543     0.0205     2.4213     0.1294    -5.5634     7.3261     4.7337     4.0568
   68.0000     7.9544   118.5121     0.0228     2.4306     0.1249    -5.5971     7.4388     5.1309     4.4581
   68.5000     7.9499   117.5429     0.0216     2.4346     0.1239    -4.8312     7.5251     5.2225     4.7913
   69.0000     7.9455   116.2010     0.0205     2.4385     0.1225    -4.1077     7.3214     5.3157     5.0817
   69.5000     7.9426   116.1041     0.0194     2.4425     0.1192    -4.5302     7.4074     5.4509     5.3899
   70.0000     7.9447   117.6335     0.0203     2.4473     0.1146    -5.6551     7.5267     5.5747     5.7169
   70.5000     7.9467   119.1782     0.0226     2.4561     0.1100    -6.9138     7.2540     5.6948     6.0636
   71.0000     7.9486   119.4484     0.0249     2.4649     0.1055    -8.1807     7.5070     5.8175     6.4171
   71.5000     7.9506   118.2366     0.0272     2.4738     0.1009    -8.9360     8.1499     5.9429     6.7814
   72.0000     7.9526   116.9705     0.0294     2.4822     0.0982    -9.6074     9.1140     6.0710     6.9792
