~VERSION INFORMATION
 VERS.                2.0:   CWLS LOG ASCII STANDARD - VERSION 2.0
 WRAP.                 NO:   ONE LINE PER DEPTH STEP
~WELL INFORMATION
#MNEM.UNIT      DATA TYPE    INFORMATION
#----------   ------------   ------------------------------
 STRT.F            0.0000:   START DEPTH
 STOP.F          614.0000:   STOP DEPTH
 STEP.F            0.5000:   STEP LENGTH
 NULL.          -999.2500:   NO VALUE
 COMP. BROWN JOHN E&C INC:   COMPANY
 WELL. NAVAL PET  RESERVE 3 SHX-2 #12-15-2:   WELL
 FLD .                NPR:   FIELD
 LOC .       S2 T38N R78W:   LOCATION
 CNTY.            NATRONA:   COUNTY
 STAT.            WYOMING:   STATE
 CTRY. UNITED STATES OF AMERICA:   COUNTRY
 SRVC.           Gearhart:   SERVICE COMPANY
 DATE.        17-AUG-1988:   LOGDATE
 API .       490251124000:   API NUMBER
~CURVE INFORMATION
#MNEM.UNIT       API CODE    CURVE DESCRIPTION
#----------   ------------   ------------------------------
 DEPT.F                  :   
 GRR .GAPI   07 310 01 00:   GAMMA RAY
 RILD.OHMM   07 120 46 00:   INDUCTION LOG DEEP RESISTIVITY
 RILM.OHMM   07 120 44 00:   INDUCTION LOG MEDIUM RESISTIVITY
~PARAMETER INFORMATION
#MNEM.UNIT          VALUE    DESCRIPTION
#----------   ------------   ------------------------------
 PD  .                 GL:   PERMANENT DATUM
 EPD .F              5093:   ELEVATION PERMANENT DATUM
 LMF .                 KB:   LOG MEASURED FROM
 DAPD.F                10:   FEET ABOVE PERMANENT DATUM
 DMF .                 KB:   DRILLING MEASURED FROM
 EKB .F              5103:   KELLING BUSHING
 EDF .F              5101:   DRILLING FLOOR
 EGL .F              5093:   GROUND LEVEL
 DATE.        17-AUG-1988:   RUN DATE
 RUN .                  1:   RUN NUMBER
 DD  .F               620:   DEPTH DRILLER
 DL  .F               623:   DEPTH LOGGER
 BLI .F               614:   BOTTOM LOG INTERVAL
 TLI .F                50:   TOP LOG INTERVAL
 CS  .IN            9.625:   CASING SIZE
 CBD .F                50:   CASING BOTTOM DRILLER
 CBL .F                50:   CASING BOTTOM LOGGER
 BS  .IN             8.75:   BIT SIZE
 BSD .F               620:   BIT SIZE AT DEPTH
 DFT .                AIR:   DRILLING FLUID TYPE
 TCS .HRS            0500:   TIME CURCULATED STOPPED
 TLAB.HRS            0625:   TIME LOGGER AT BOTTOM
 MRT .F                70:   MAXIMUM RECORDED TEMPERATURE
 LUN .               7597:   LOGGING UNIT NUMBER
 LUL .           GILLETTE:   LOGGING UNIT LOCATION
 ENGI.           JOHNSTON:   RECORDING ENGINEER
 WITN.             STRONG:   WITNESSED BY
 CLNT.            A2DTECH:   CLIENT CODE
 ORIG.           5" PRINT:   ORIGIN OF DATA
 UWI .       490251124000:   UNIQUE WELL ID
 DICO. A2D Technologies, Inc.:   DIGITIZING COMPANY
~OTHER INFORMATION
~A    DEPT      GRR      RILD       RILM   
# ...
  182.0000   111.0874     8.0452     7.9733
  182.5000   106.8347     8.1596     8.0292
  183.0000   107.4526     8.2180     8.0856
  183.5000   111.7235     8.2192     8.1995
  184.0000   115.0811     8.2780     8.2570
  184.5000   118.1343     8.3373     8.2570
  185.0000   119.6655     8.3970     8.2570
  185.5000   119.9789     8.3981     8.3150
  186.0000   117.5527     8.4582     8.3733
  186.5000   114.8220     8.6388     8.4321
  187.0000   113.9178     8.7006     8.4321
  187.5000   113.6225     8.7629     8.4913
  188.0000   117.3089     8.8256     8.4913
  188.5000   120.3703     8.7653     8.5509
  189.0000   121.2603     8.7665     8.5509
  189.5000   119.9546     8.5857     8.4321
  190.0000   116.9353     8.4086     8.2570
  190.5000   114.5902     8.2352     8.1423
  191.0000   117.2056     8.2364     8.0856
  191.5000   121.3077     8.1801     8.0856
  192.0000   122.2300     8.1812     8.0856
  192.5000   121.3259     8.1824     8.0856
  193.0000   120.7238     8.1835     8.0292
  193.5000   119.8219     8.1847     8.0292
  194.0000   118.6134     8.1858     8.0292
  194.5000   117.1004     8.1869     8.0856
  195.0000   115.2829     8.2455     8.0856
  195.5000   113.4655     8.2467     8.1423
  196.0000   112.8635     8.2478     8.1995
  196.5000   112.8748     8.2490     8.2570
  197.0000   112.8839     8.2501     8.3150
  197.5000   112.2842     8.2513     8.3150
  198.0000   111.6821     8.2524     8.3733
  198.5000   112.3023     8.3115     8.3733
  199.0000   114.7467     8.3710     8.3733
  199.5000   118.7131     8.4309     8.3733
  200.0000   120.2420     8.4321     8.3733
  200.5000   121.1630     8.3150     8.1423
  201.0000   122.6849     8.6713     8.2014
  201.5000   122.3743     8.7321     8.2628
  202.0000   120.5357     8.7934     8.5589
  202.5000   116.8951     8.8551     8.7321
  203.0000   116.6088     8.9173     8.8551
  203.5000   117.5464     8.9173     8.8551
  204.0000   118.1614     8.9799     8.9173
  204.5000   119.0533     8.9799     8.9267
  205.0000   119.6652     9.0429     8.9799
  205.5000   120.0060     9.1063     8.9914
  206.0000   120.9255     9.1703     9.1703
  206.5000   121.5403     9.2346     9.2346
  207.0000   122.7642     9.2346     9.2994
  207.5000   124.3379     9.2994     9.4304
  208.0000   125.4673     9.4304     9.4966
  208.5000   125.4703     9.4966     9.4966
  209.0000   125.4733     9.5632     9.6303
  209.5000   125.4764     9.6979     9.6979
  210.0000   125.1749     9.7660     9.7660
  210.5000   124.2654     9.7672     9.8345
  211.0000   121.8332     9.9058     9.9035
  211.5000   120.0090     9.9731    10.0430
  212.0000   120.3172    10.0477    10.1845
  212.5000   124.8864    10.2620    10.4004
  213.0000   127.6292    10.5543    10.6209
  213.5000   127.6322    10.8550    10.8461
  214.0000   125.1999    11.0865    11.0761
  214.5000   117.5926    11.2439    11.3109
  215.0000   112.1162    11.4702    11.5507
  215.5000   105.4221    11.5507    11.6318
  216.0000   100.8590    11.7134    11.7134
  216.5000   102.0797    11.8784    11.7956
  217.0000   113.9548    11.8784    11.7956
  217.5000   117.6108    11.9618    11.7956
  218.0000   117.3087    11.7134    11.7134
  218.5000   116.3993    11.5507    11.5507
  219.0000   116.7067    11.4702    11.4702
  219.5000   117.3178    11.3109    11.3109
  220.0000   114.8863    11.2321    11.2321
  220.5000   113.3673    11.2321    11.2321
  221.0000   113.9791    11.1538    11.1538
  221.5000   117.3307    11.1538    11.0761
  222.0000   119.1602    11.1538    11.0761
  222.5000   120.6853    11.1538    11.0761
  223.0000   121.6016    11.1538    10.9989
  223.5000   122.8223    11.1538    10.9989
  224.0000   123.1290    11.0761    10.9989
  224.5000   121.0019    11.0761    10.9989
  225.0000   119.4821    11.0761    10.9989
  225.5000   119.1807    10.9989    10.9989
  226.0000   120.0978    10.9222    10.9222
  226.5000   119.1876    10.9222    10.9222
  227.0000   117.6685    10.8461    10.7705
  227.5000   116.7576    10.6955    10.6209
  228.0000   122.2408    10.5469    10.4734
  228.5000   123.7659    10.4004    10.3279
  229.0000   122.2469    10.3279    10.3279
  229.5000   120.4234    10.3279    10.3279
  230.0000   124.6883    10.3279    10.3279
  230.5000   126.2134    10.3279    10.2560
  231.0000   125.9120    10.3279    10.2560
  231.5000   125.6099    10.3279    10.2560
  232.0000   126.8313    10.2560    10.2512
  232.5000   128.3564    10.2560    10.0430
  233.0000   127.7506    10.1845     9.9661
  233.5000   128.0573    10.1135     9.7660
  234.0000   126.2346    10.0430     9.7569
  234.5000   125.0200     9.8345     9.6303
  235.0000   125.0231     9.6303     9.4966
  235.5000   126.8526     9.2994     9.3647
  236.0000   128.9865     9.1703     9.0429
  236.5000   129.2932     8.9799     8.7934
  237.0000   127.7749     8.8551     8.4913
  237.5000   125.9515     8.6713     8.2570
  238.0000   125.0405     8.4321     8.0856
  238.5000   124.7391     8.1423     8.0292
  239.0000   126.2650     8.0292     8.0292
  239.5000   129.0078     8.0292     8.1995
  240.0000   130.2285     8.2570     8.3733
  240.5000   129.6227     8.4913     8.4913
  241.0000   122.6242     8.6713     8.6109
  241.5000   118.3654     8.7352     8.7321
  242.0000   113.4978     8.9215     8.7934
  242.5000   111.6744     9.0429     8.9173
  243.0000   113.1995     9.1703     9.1063
  243.5000   115.6378     9.1703     9.1703
  244.0000   116.5541     9.1703     9.1703
  244.5000   115.6438     9.0968     9.0429
  245.0000   115.0380     9.0324     8.9799
  245.5000   116.2588     8.9684     8.9173
  246.0000   118.6972     8.8551     8.9173
  246.5000   120.2223     8.7934     8.9173
  247.0000   121.4430     8.7934     8.9173
  247.5000   122.3592     8.8551     8.9173
  248.0000   123.8844     8.8551     8.9173
  248.5000   124.4962     8.9173     8.9799
  249.0000   124.1948     8.9799     9.1703
  249.5000   122.9802     9.7660     9.4966
  250.0000   121.4612     9.9731     9.6643
  250.5000   120.5571     9.8351     9.7674
  251.0000   119.6511     9.9745     9.8373
  251.5000   119.0533     9.9752     9.8387
  252.0000   119.9798     9.9064     9.8400
  252.5000   121.8112     9.8379     9.7047
  253.0000   123.3485     9.7021     9.5713
  253.5000   124.8807     9.5678     9.4397
  254.0000   126.7093     9.4357     9.2450
  254.5000   124.8734     9.3053     9.2463
  255.0000   123.3688     9.2410     9.2476
  255.5000   121.5393     9.1772     9.1204
  256.0000   120.0365     9.1780     8.9950
  256.5000   118.8270     9.1145     8.9962
  257.0000   117.0087     9.0516     8.9348
  257.5000   115.4948     8.9892     8.9360
  258.0000   115.9216     8.9900     8.9373
  258.5000   120.7552     8.9906     8.9385
  259.0000   123.1475     8.9284     8.9398
  259.5000   119.4461     8.9292     8.9410
  260.0000   115.2106     8.9925     9.3255
  260.5000   113.1292     9.1198     9.5914
  261.0000   117.1854     9.2489     9.7278
  261.5000   120.5004     9.3798     9.7292
  262.0000   121.0714     9.5126     9.7306
  262.5000   118.2903     9.6473     9.8002
  263.0000   114.6444     9.7838     9.8704
  263.5000   111.3027     9.9920    10.0811
  264.0000   109.2074    10.1334    10.3685
  264.5000   110.8555    10.5684    10.5898
  265.0000   114.1858    10.8690    10.8159
  265.5000   114.4381    11.1781    11.0467
  266.0000   111.6105    11.4960    11.4414
  266.5000   107.3214    11.9059    11.7677
  267.0000   103.7421    12.2446    11.9351
  267.5000   102.6025    12.5050    12.2754
  268.0000   103.9028    12.6821    12.5374
  268.5000   107.2247    12.8616    12.6271
  269.0000   108.7184    12.9528    12.8967
  269.5000   107.1265    13.1361    12.8985
  270.0000   105.3878    13.0453    12.9003
  270.5000   106.7399    12.9553    12.9021
  271.0000   112.2314    12.8659    12.7247
  271.5000   115.2877    12.5999    12.6377
  272.0000   116.3832    12.5127    12.5513
  272.5000   113.9118    12.2540    12.2925
