~VERSION INFORMATION
 VERS.                2.0:   CWLS LOG ASCII STANDARD - VERSION 2.0
 WRAP.                 NO:   ONE LINE PER DEPTH STEP
~WELL INFORMATION
#MNEM.UNIT      DATA TYPE    INFORMATION
#----------   ------------   ------------------------------
 STRT.F            0.0000:   START DEPTH
 STOP.F         2720.0000:   STOP DEPTH
 STEP.F            0.5000:   STEP LENGTH
 NULL.          -999.2500:   NO VALUE
 COMP. DEPARTMENT OF ENERGY:   COMPANY
 WELL.       NPR-3 #410-A:   WELL
 FLD . TEAPOT NAVAL RESERVE:   FIELD
 LOC .      S20 T39N R78W:   LOCATION
 CNTY.            NATRONA:   COUNTY
 STAT.            WYOMING:   STATE
 CTRY. UNITED STATES OF AMERICA:   COUNTRY
 SRVC.      NL McCullough:   SERVICE COMPANY
 DATE.        26-JUL-1965:   LOGDATE
 API .       490251144500:   API NUMBER
~CURVE INFORMATION
#MNEM.UNIT       API CODE    CURVE DESCRIPTION
#----------   ------------   ------------------------------
 DEPT.F                  :   
 GR  .GAPI   30 310 01 00:   GAMMA RAY
 CALI.IN     30 280 01 00:   CALIPER
~PARAMETER INFORMATION
#MNEM.UNIT          VALUE    DESCRIPTION
#----------   ------------   ------------------------------
 PD  .                 GL:   PERMANENT DATUM
 LMF .                 GL:   LOG MEASURED FROM
 DATE.            7-16-65:   RUN DATE
 RUN .                  1:   RUN NUMBER
 DD  .F              2720:   DEPTH DRILLER
 TLI .F              2100:   TOP LOG INTERVAL
 CS  .IN            6.875:   CASING SIZE
 DFT .              WATER:   DRILLING FLUID TYPE
 ENGI. FITZSIMMONE/COWLTHORPE:   RECORDING ENGINEER
 WITN.             HUDSON:   WITNESSED BY
 CLNT.            A2DTECH:   CLIENT CODE
 ORIG.           5" PRINT:   ORIGIN OF DATA
 UWI .       490251144500:   UNIQUE WELL ID
 DICO. A2D Technologies, Inc.:   DIGITIZING COMPANY
~OTHER INFORMATION
~A    DEPT      GR         CALI 
# ...
  486.0000  -999.2500     5.8382
  486.5000  -999.2500     5.8365
  487.0000  -999.2500     5.8349
  487.5000  -999.2500     5.8333
  488.0000  -999.2500     5.8317
  488.5000  -999.2500     5.8301
  489.0000  -999.2500     5.8400
  489.5000  -999.2500     5.8605
  490.0000  -999.2500     5.8812
  490.5000  -999.2500     5.8905
  491.0000  -999.2500     5.8925
  491.5000  -999.2500     5.8942
  492.0000  -999.2500     5.8960
  492.5000  -999.2500     5.8979
  493.0000  -999.2500     5.8997
  493.5000  -999.2500     5.9015
  494.0000  -999.2500     5.9033
  494.5000  -999.2500     5.9051
  495.0000  -999.2500     5.9069
  495.5000  -999.2500     5.9088
  496.0000  -999.2500     5.9125
  496.5000  -999.2500     5.9185
  497.0000  -999.2500     5.9244
  497.5000  -999.2500     5.9304
  498.0000  -999.2500     5.9363
  498.5000  -999.2500     5.9423
  499.0000  -999.2500     5.9483
  499.5000  -999.2500     5.9542
  500.0000  -999.2500     5.9602
  500.5000  -999.2500     5.9661
  501.0000  -999.2500     5.9694
  501.5000  -999.2500     5.9678
  502.0000  -999.2500     5.9663
  502.5000  -999.2500     5.9648
  503.0000  -999.2500     5.9633
  503.5000  -999.2500     5.9618
  504.0000  -999.2500     5.9603
  504.5000  -999.2500     5.9588
  505.0000  -999.2500     5.9573
  505.5000  -999.2500     5.9559
  506.0000  -999.2500     5.9543
  506.5000  -999.2500     5.9528
  507.0000  -999.2500     5.9514
  507.5000  -999.2500     5.9498
  508.0000  -999.2500     5.9462
  508.5000  -999.2500     5.9425
  509.0000  -999.2500     5.9387
  509.5000  -999.2500     5.9350
  510.0000  -999.2500     5.9312
  510.5000  -999.2500     5.9327
  511.0000  -999.2500     5.9375
  511.5000  -999.2500     5.9424
  512.0000  -999.2500     5.9473
  512.5000  -999.2500     5.9521
  513.0000  -999.2500     5.9570
  513.5000  -999.2500     5.9619
  514.0000  -999.2500     5.9667
  514.5000  -999.2500     5.9699
  515.0000  -999.2500     5.9699
  515.5000  -999.2500     5.9699
  516.0000  -999.2500     5.9699
  516.5000  -999.2500     5.9699
  517.0000  -999.2500     5.9699
  517.5000  -999.2500     5.9699
  518.0000  -999.2500     5.9699
  518.5000  -999.2500     5.9699
  519.0000  -999.2500     5.9706
  519.5000  -999.2500     5.9719
  520.0000  -999.2500     5.9731
  520.5000  -999.2500     5.9744
  521.0000  -999.2500     5.9757
  521.5000  -999.2500     5.9770
  522.0000  -999.2500     5.9783
  522.5000  -999.2500     5.9795
  523.0000  -999.2500     5.9808
  523.5000  -999.2500     5.9821
  524.0000  -999.2500     5.9834
  524.5000  -999.2500     5.9846
  525.0000  -999.2500     5.9859
  525.5000  -999.2500     5.9872
  526.0000  -999.2500     5.9885
  526.5000  -999.2500     5.9899
  527.0000  -999.2500     5.9851
  527.5000  -999.2500     5.9793
  528.0000  -999.2500     5.9734
  528.5000  -999.2500     5.9676
  529.0000  -999.2500     5.9618
  529.5000  -999.2500     5.9559
  530.0000  -999.2500     5.9501
  530.5000  -999.2500     5.9529
  531.0000  -999.2500     5.9564
  531.5000  -999.2500     5.9598
  532.0000  -999.2500     5.9631
  532.5000  -999.2500     5.9666
  533.0000  -999.2500     5.9697
  533.5000  -999.2500     5.9664
  534.0000  -999.2500     5.9629
  534.5000  -999.2500     5.9594
  535.0000  -999.2500     5.9558
  535.5000  -999.2500     5.9524
  536.0000  -999.2500     5.9531
  536.5000  -999.2500     5.9686
  537.0000  -999.2500     5.9837
  537.5000  -999.2500     5.9899
  538.0000  -999.2500     5.9900
  538.5000  -999.2500     5.9899
  539.0000  -999.2500     5.9899
  539.5000  -999.2500     5.9919
  540.0000  -999.2500     6.0043
  540.5000  -999.2500     6.0168
  541.0000  -999.2500     6.0295
  541.5000  -999.2500     6.0259
  542.0000  -999.2500     6.0210
  542.5000  -999.2500     6.0163
  543.0000  -999.2500     6.0115
  543.5000  -999.2500     6.0078
  544.0000  -999.2500     6.0047
  544.5000  -999.2500     6.0015
  545.0000  -999.2500     5.9983
  545.5000  -999.2500     5.9951
  546.0000  -999.2500     5.9921
  546.5000  -999.2500     5.9977
  547.0000  -999.2500     6.0188
  547.5000  -999.2500     6.0397
  548.0000  -999.2500     6.0538
  548.5000  -999.2500     6.0611
  549.0000  -999.2500     6.0683
  549.5000  -999.2500     6.0755
  550.0000  -999.2500     6.0829
  550.5000  -999.2500     6.0899
  551.0000  -999.2500     6.0788
  551.5000  -999.2500     6.0663
  552.0000  -999.2500     6.0539
  552.5000  -999.2500     6.0416
  553.0000  -999.2500     6.0292
  553.5000  -999.2500     6.0166
  554.0000  -999.2500     6.0117
  554.5000  -999.2500     6.0518
  555.0000  -999.2500     6.0695
  555.5000  -999.2500     6.0467
  556.0000  -999.2500     6.0219
  556.5000  -999.2500     5.9956
  557.0000  -999.2500     6.0150
  557.5000  -999.2500     6.0496
  558.0000  -999.2500     6.0703
  558.5000  -999.2500     6.0649
  559.0000  -999.2500     6.0596
  559.5000  -999.2500     6.0542
  560.0000  -999.2500     6.0510
  560.5000  -999.2500     6.0767
  561.0000  -999.2500     6.0856
  561.5000  -999.2500     6.0758
  562.0000  -999.2500     6.0661
  562.5000  -999.2500     6.0563
  563.0000  -999.2500     6.0465
  563.5000  -999.2500     6.0367
  564.0000  -999.2500     6.0269
  564.5000  -999.2500     6.0170
  565.0000  -999.2500     6.0109
  565.5000  -999.2500     6.0337
  566.0000  -999.2500     6.0560
  566.5000  -999.2500     6.0780
  567.0000  -999.2500     6.0875
  567.5000  -999.2500     6.0809
  568.0000  -999.2500     6.0744
  568.5000  -999.2500     6.0730
  569.0000  -999.2500     6.0804
  569.5000  -999.2500     6.0877
  570.0000  -999.2500     6.0951
  570.5000  -999.2500     6.1024
  571.0000  -999.2500     6.1097
  571.5000  -999.2500     6.1171
  572.0000  -999.2500     6.1244
  572.5000  -999.2500     6.1297
  573.0000  -999.2500     6.1228
  573.5000  -999.2500     6.1160
  574.0000  -999.2500     6.1093
  574.5000  -999.2500     6.1026
  575.0000  -999.2500     6.0959
  575.5000  -999.2500     6.0892
  576.0000  -999.2500     6.0825
  576.5000  -999.2500     6.0758
  577.0000  -999.2500     6.0707
  577.5000  -999.2500     6.0742
  578.0000  -999.2500     6.0777
  578.5000  -999.2500     6.0811
  579.0000  -999.2500     6.0848
  579.5000  -999.2500     6.0879
  580.0000  -999.2500     6.0634
  580.5000  -999.2500     5.9357
  581.0000  -999.2500     5.9376
  581.5000  -999.2500     5.9484
  582.0000  -999.2500     5.9584
  582.5000  -999.2500     5.9682
  583.0000  -999.2500     5.9781
  583.5000  -999.2500     5.9879
  584.0000  -999.2500     5.9977
  584.5000  -999.2500     6.0076
  585.0000  -999.2500     6.0174
  585.5000  -999.2500     6.0273
  586.0000  -999.2500     6.0371
  586.5000  -999.2500     6.0472
  587.0000  -999.2500     6.0460
  587.5000  -999.2500     6.0401
  588.0000  -999.2500     6.0340
  588.5000  -999.2500     6.0279
  589.0000  -999.2500     6.0219
  589.5000  -999.2500     6.0158
  590.0000  -999.2500     6.0098
  590.5000  -999.2500     6.0037
  591.0000  -999.2500     5.9977
  591.5000  -999.2500     5.9913
  592.0000  -999.2500     5.9928
  592.5000  -999.2500     5.9967
  593.0000  -999.2500     6.0007
  593.5000  -999.2500     6.0047
  594.0000  -999.2500     6.0086
  594.5000  -999.2500     6.0125
  595.0000  -999.2500     6.0165
  595.5000  -999.2500     6.0204
  596.0000  -999.2500     6.0243
  596.5000  -999.2500     6.0283
  597.0000  -999.2500     6.0322
  597.5000  -999.2500     6.0362
  598.0000  -999.2500     6.0401
  598.5000  -999.2500     6.0441
  599.0000  -999.2500     6.0479
  599.5000  -999.2500     6.0473
  600.0000  -999.2500     6.0406
  600.5000  -999.2500     6.0340
  601.0000  -999.2500     6.0273
  601.5000  -999.2500     6.0206
  602.0000  -999.2500     6.0139
  602.5000  -999.2500     6.0073
  603.0000  -999.2500     6.0006
  603.5000  -999.2500     5.9941
  604.0000  -999.2500     5.9969
  604.5000  -999.2500     6.0144
  605.0000  -999.2500     6.0319
  605.5000  -999.2500     6.0496
  606.0000  -999.2500     6.0573
  606.5000  -999.2500     6.0647
  607.0000  -999.2500     6.0722
