~VERSION INFORMATION
 VERS.                2.0:   CWLS LOG ASCII STANDARD - VERSION 2.0
 WRAP.                 NO:   ONE LINE PER DEPTH STEP
~WELL INFORMATION
#MNEM.UNIT      DATA TYPE    INFORMATION
#----------   ------------   ------------------------------
 STRT.F            7.5000:   START DEPTH
 STOP.F         2886.0000:   STOP DEPTH
 STEP.F            0.5000:   STEP LENGTH
 NULL.          -999.2500:   NO VALUE
 COMP. LAWRENCE/ALLISON INC:   COMPANY
 WELL.     16-1 AX #21-21:   WELL
 FLD .             TEAPOT:   FIELD
 LOC .      S21 T39N R78W:   LOCATION
 CNTY.            NATRONA:   COUNTY
 STAT.            WYOMING:   STATE
 CTRY. UNITED STATES OF AMERICA:   COUNTRY
 SRVC.      Dresser Atlas:   SERVICE COMPANY
 DATE.        05-DEC-1986:   LOGDATE
 API .       490251111900:   API NUMBER
~CURVE INFORMATION
#MNEM.UNIT       API CODE    CURVE DESCRIPTION
#----------   ------------   ------------------------------
 DEPT.F                  :   
 GRR .GAPI   07 310 01 00:   GAMMA RAY FROM RES. LOG.
 SPR .MV     07 010 01 00:   SPONTANEOUS POTENTIAL
 RFOC.OHMM   07 220 04 00:   RESISTIVITY FOCUSED LOG
 RILM.OHMM   07 120 44 00:   INDUCTION LOG MEDIUM RESISTIVITY
 RILD.OHMM   07 120 46 00:   INDUCTION LOG DEEP RESISTIVITY
 CALD.IN     45 280 60 00:   CALIPER
 DEN .G/C3   45 350 01 00:   BULK DENSITY
 CORR.G/C3   45 356 01 00:   DENSITY CORRECTION
 CNC .DEC    42 890 03 00:   NEUTRON POROSITY SANDSTONE
 PORD.DEC    45 890 12 00:   DENSITY POROSITY SANDSTONE
~PARAMETER INFORMATION
#MNEM.UNIT          VALUE    DESCRIPTION
#----------   ------------   ------------------------------
 PD  .                 GL:   PERMANENT DATUM
 EPD .F              4992:   ELEVATION PERMANENT DATUM
 LMF .                 KB:   LOG MEASURED FROM
 DAPD.F                12:   FEET ABOVE PERMANENT DATUM
 DMF .                 KB:   DRILLING MEASURED FROM
 EKB .F              5004:   KELLING BUSHING
 EGL .F              4992:   GROUND LEVEL
 DATE.            12-5-86:   RUN DATE
 RUN .                  1:   RUN NUMBER
 DD  .F              2905:   DEPTH DRILLER
 DL  .F              2890:   DEPTH LOGGER
 BLI .F              2884:   BOTTOM LOG INTERVAL
 TLI .F              2200:   TOP LOG INTERVAL
 CS  .IN            8.625:   CASING SIZE
 CBD .F               300:   CASING BOTTOM DRILLER
 CBL .F               300:   CASING BOTTOM LOGGER
 BS  .IN            7.875:   BIT SIZE
 BSD .F              2905:   BIT SIZE AT DEPTH
 DFT .        KCL POLYMER:   DRILLING FLUID TYPE
 DFD .                  9:   DRILLING FLUID DENSITY
 DFV .                 36:   DRILLING FLUID VISCOSITY
 DFPH.                9.5:   DRILLING FLUID PH
 DFL .               11.8:   DRILLING FLUID LOSS
 MSS .            MUDTANK:   MUD SAMPLE SOURCE
 RMS .OHMM            .43:   RESISTIVITY MUD SAMPLE
 MST .F                63:   MUD SAMPLE TEMPERATURE
 RMF .OHMM           .348:   RESISTIVITY MUD FILTRATE SAMPLE
 MFST.F                63:   MUD FILTRATE SAMPLE TEMPERATURE
 RMC .OHMM           .538:   RESISTIVITY MUD CAKE
 MCST.F                63:   MUD CAKE SAMPLE TEMPERATURE
 MFSS.               MEAS:   MUD FILTRATE SAMPLE SOURCE
 MCSS.               CALC:   MUD CAKE SAMPLE SOURCE
 RMB .OHMM           .233:   RESISTIVITY MUD AT BHT
 BHT .F               116:   BOTTOM HOLE TEMPERATURE
 TCS .HRS             3.5:   TIME CURCULATED STOPPED
 MRT .F               116:   MAXIMUM RECORDED TEMPERATURE
 LUN .            HL-6274:   LOGGING UNIT NUMBER
 LUL .           GILLETTE:   LOGGING UNIT LOCATION
 ENGI.             RAUTIO:   RECORDING ENGINEER
 WITN.             STRONG:   WITNESSED BY
 CLNT.            A2DTECH:   CLIENT CODE
 ORIG.       2", 5" PRINT:   ORIGIN OF DATA
 UWI .       490251111900:   UNIQUE WELL ID
 DICO. A2D Technologies, Inc.:   DIGITIZING COMPANY
~OTHER INFORMATION
~A    DEPT     GRR        SPR       RFOC       RILM       RILD       CALD        DEN       CORR        CNC       PORD   
# ...
  711.0000    86.5461   -47.3399     8.8659     8.6186     9.1192  -999.2500  -999.2500  -999.2500  -999.2500  -999.2500
  711.5000    86.0489   -47.5873     8.8435     8.5886     9.0872  -999.2500  -999.2500  -999.2500  -999.2500  -999.2500
  712.0000    85.7607   -47.8367     8.8250     8.5847     9.0651  -999.2500  -999.2500  -999.2500  -999.2500  -999.2500
  712.5000    86.0088   -48.0774     8.8156     8.5847     9.0472  -999.2500  -999.2500  -999.2500  -999.2500  -999.2500
  713.0000    86.1390   -47.8544     8.8063     8.5847     9.0294  -999.2500  -999.2500  -999.2500  -999.2500  -999.2500
  713.5000    86.3665   -47.7139     8.7971     8.5847     9.0116  -999.2500  -999.2500  -999.2500  -999.2500  -999.2500
  714.0000    88.2229   -47.8679     8.7879     8.5847     8.9930  -999.2500  -999.2500  -999.2500  -999.2500  -999.2500
  714.5000    90.6201   -47.7481     8.7787     8.5847     8.9929  -999.2500  -999.2500  -999.2500  -999.2500  -999.2500
  715.0000    92.9899   -47.5178     8.7693     8.5847     8.9930  -999.2500  -999.2500  -999.2500  -999.2500  -999.2500
  715.5000    93.5462   -47.2843     8.7601     8.5844     8.9931  -999.2500  -999.2500  -999.2500  -999.2500  -999.2500
  716.0000    91.3884   -47.0535     8.7501     8.5847     8.9930  -999.2500  -999.2500  -999.2500  -999.2500  -999.2500
  716.5000    88.0424   -46.9261     8.7463     8.6628     9.0432  -999.2500  -999.2500  -999.2500  -999.2500  -999.2500
  717.0000    84.5833   -47.1068     8.9434     8.7595     9.1249  -999.2500  -999.2500  -999.2500  -999.2500  -999.2500
  717.5000    81.9135   -47.2774     9.0854     8.8589     9.2074  -999.2500  -999.2500  -999.2500  -999.2500  -999.2500
  718.0000    79.7449   -47.4478     9.1617     8.9090     9.2915  -999.2500  -999.2500  -999.2500  -999.2500  -999.2500
  718.5000    81.2838   -47.6182     9.0415     8.6873     9.3331  -999.2500  -999.2500  -999.2500  -999.2500  -999.2500
  719.0000    85.7099   -47.7891     8.9606     8.5724     9.1894  -999.2500  -999.2500  -999.2500  -999.2500  -999.2500
  719.5000    90.1702   -47.9589     8.8804     8.5320     9.0935  -999.2500  -999.2500  -999.2500  -999.2500  -999.2500
  720.0000    91.6730   -48.0807     8.8235     8.4918     8.9930  -999.2500  -999.2500  -999.2500  -999.2500  -999.2500
  720.5000    88.0050   -47.9973     8.8120     8.4518     8.9487  -999.2500  -999.2500  -999.2500  -999.2500  -999.2500
  721.0000    83.9368   -47.9182     8.8004     8.4242     8.9098  -999.2500  -999.2500  -999.2500  -999.2500  -999.2500
  721.5000    83.7251   -47.8395     8.7889     8.4164     8.9427  -999.2500  -999.2500  -999.2500  -999.2500  -999.2500
  722.0000    85.4827   -47.7609     8.7774     8.4088     8.9709  -999.2500  -999.2500  -999.2500  -999.2500  -999.2500
  722.5000    87.2493   -47.6821     8.7659     8.4014     8.9927  -999.2500  -999.2500  -999.2500  -999.2500  -999.2500
  723.0000    86.7393   -47.6038     8.7543     8.3939     8.9795  -999.2500  -999.2500  -999.2500  -999.2500  -999.2500
  723.5000    86.3589   -47.5240     8.7427     8.3864     8.9683  -999.2500  -999.2500  -999.2500  -999.2500  -999.2500
  724.0000    88.0292   -47.5895     8.7296     8.3789     8.9572  -999.2500  -999.2500  -999.2500  -999.2500  -999.2500
  724.5000    89.6587   -47.7660     8.7168     8.3715     8.9460  -999.2500  -999.2500  -999.2500  -999.2500  -999.2500
  725.0000    88.3673   -47.9442     8.7039     8.3641     8.9349  -999.2500  -999.2500  -999.2500  -999.2500  -999.2500
  725.5000    86.9855   -48.1236     8.6911     8.3566     8.9239  -999.2500  -999.2500  -999.2500  -999.2500  -999.2500
  726.0000    86.9494   -48.2848     8.6783     8.3486     8.9129  -999.2500  -999.2500  -999.2500  -999.2500  -999.2500
  726.5000    85.8883   -48.1595     8.6648     8.2895     8.8601  -999.2500  -999.2500  -999.2500  -999.2500  -999.2500
  727.0000    83.5034   -48.0268     8.5809     8.2266     8.7929  -999.2500  -999.2500  -999.2500  -999.2500  -999.2500
  727.5000    81.6029   -47.8954     8.4932     8.1642     8.7261  -999.2500  -999.2500  -999.2500  -999.2500  -999.2500
  728.0000    85.0104   -47.7644     8.4065     8.1023     8.6598  -999.2500  -999.2500  -999.2500  -999.2500  -999.2500
  728.5000    88.5243   -47.6330     8.3207     8.0408     8.5942  -999.2500  -999.2500  -999.2500  -999.2500  -999.2500
  729.0000    92.2933   -47.5016     8.2714     7.9795     8.5053  -999.2500  -999.2500  -999.2500  -999.2500  -999.2500
  729.5000    96.1900   -47.3742     8.2906     7.9697     8.5336  -999.2500  -999.2500  -999.2500  -999.2500  -999.2500
  730.0000    99.0301   -47.4373     8.3041     7.9703     8.5786  -999.2500  -999.2500  -999.2500  -999.2500  -999.2500
  730.5000    96.1204   -47.8512     8.3176     7.9710     8.5847  -999.2500  -999.2500  -999.2500  -999.2500  -999.2500
  731.0000    93.4454   -48.2581     8.3312     7.8777     8.5849  -999.2500  -999.2500  -999.2500  -999.2500  -999.2500
  731.5000    93.3473   -48.5355     8.3486     7.7428     8.5847  -999.2500  -999.2500  -999.2500  -999.2500  -999.2500
  732.0000    92.8696   -48.6264     8.2555     7.6787     8.5386  -999.2500  -999.2500  -999.2500  -999.2500  -999.2500
  732.5000    91.7143   -48.6966     8.1266     7.6787     8.3959  -999.2500  -999.2500  -999.2500  -999.2500  -999.2500
  733.0000    91.3495   -48.6935     8.0440     7.6788     8.1949  -999.2500  -999.2500  -999.2500  -999.2500  -999.2500
  733.5000    92.1298   -48.6146     8.0440     7.6787     8.2495  -999.2500  -999.2500  -999.2500  -999.2500  -999.2500
  734.0000    93.3127   -48.4528     8.0440     7.6787     8.2714  -999.2500  -999.2500  -999.2500  -999.2500  -999.2500
  734.5000    94.5630   -48.2915     7.9198     7.6787     8.2713  -999.2500  -999.2500  -999.2500  -999.2500  -999.2500
  735.0000    95.4024   -48.1245     7.8228     7.6788     8.2714  -999.2500  -999.2500  -999.2500  -999.2500  -999.2500
  735.5000    94.2838   -48.1397     7.9740     7.6788     8.2714  -999.2500  -999.2500  -999.2500  -999.2500  -999.2500
  736.0000    90.1084   -48.2010     8.1191     7.6781     8.2714  -999.2500  -999.2500  -999.2500  -999.2500  -999.2500
  736.5000    88.9137   -48.2635     8.0559     7.6787     8.2721  -999.2500  -999.2500  -999.2500  -999.2500  -999.2500
  737.0000    91.4099   -48.3256     7.9826     7.5644     8.2367  -999.2500  -999.2500  -999.2500  -999.2500  -999.2500
  737.5000    95.3793   -48.3875     7.9100     7.4872     8.2044  -999.2500  -999.2500  -999.2500  -999.2500  -999.2500
  738.0000    99.3927   -48.4494     7.8380     7.4108     8.1722  -999.2500  -999.2500  -999.2500  -999.2500  -999.2500
  738.5000   100.9006   -48.5012     7.7669     7.3300     8.1401  -999.2500  -999.2500  -999.2500  -999.2500  -999.2500
  739.0000    98.5990   -48.5276     7.6954     7.2871     8.0816  -999.2500  -999.2500  -999.2500  -999.2500  -999.2500
  739.5000    96.9038   -48.5538     7.6787     7.2408     7.9731  -999.2500  -999.2500  -999.2500  -999.2500  -999.2500
  740.0000    99.4905   -48.5800     7.6787     7.1953     7.8670  -999.2500  -999.2500  -999.2500  -999.2500  -999.2500
  740.5000   100.0684   -48.6062     7.6937     7.2783     7.8214  -999.2500  -999.2500  -999.2500  -999.2500  -999.2500
  741.0000    98.4732   -48.6326     7.7719     7.3650     7.9213  -999.2500  -999.2500  -999.2500  -999.2500  -999.2500
  741.5000    96.8314   -48.6583     7.8510     7.4524     8.0049  -999.2500  -999.2500  -999.2500  -999.2500  -999.2500
  742.0000    96.3123   -48.6873     7.9308     7.5419     8.0893  -999.2500  -999.2500  -999.2500  -999.2500  -999.2500
  742.5000    97.8668   -48.5169     8.0104     7.6672     8.1746  -999.2500  -999.2500  -999.2500  -999.2500  -999.2500
  743.0000    99.6731   -48.2337     8.0952     7.9158     8.2608  -999.2500  -999.2500  -999.2500  -999.2500  -999.2500
  743.5000    98.8247   -47.9497     8.3810     8.1640     8.6091  -999.2500  -999.2500  -999.2500  -999.2500  -999.2500
  744.0000    97.0086   -47.7550     8.7899     8.5168     9.0107  -999.2500  -999.2500  -999.2500  -999.2500  -999.2500
