~VERSION INFORMATION
 VERS.                2.0:   CWLS LOG ASCII STANDARD - VERSION 2.0
 WRAP.                 NO:   ONE LINE PER DEPTH STEP
~WELL INFORMATION
#MNEM.UNIT      DATA TYPE    INFORMATION
#----------   ------------   ------------------------------
 STRT.F            0.0000:   START DEPTH
 STOP.F          675.0000:   STOP DEPTH
 STEP.F            0.5000:   STEP LENGTH
 NULL.          -999.2500:   NO VALUE
 COMP.       F D SERV INC:   COMPANY
 WELL. NAVEL PETROLEUM RESERVE 3 SX-2 #18-1-2:   WELL
 FLD .             TEAPOT:   FIELD
 LOC .       S2 T38N R78W:   LOCATION
 CNTY.            NATRONA:   COUNTY
 STAT.            WYOMING:   STATE
 CTRY. UNITED STATES OF AMERICA:   COUNTRY
 SRVC.     Atlas Wireline:   SERVICE COMPANY
 DATE.        23-DEC-1991:   LOGDATE
 API .       490252247200:   API NUMBER
~CURVE INFORMATION
#MNEM.UNIT       API CODE    CURVE DESCRIPTION
#----------   ------------   ------------------------------
 DEPT.F                  :   
 GRR .GAPI   07 310 01 00:   GAMMA RAY FROM RES. LOG.
 SPR .MV     07 010 01 00:   SPONTANEOUS POTENTIAL
 SFL .OHMM   07 220 01 00:   SHALLOW FOCUSED LOG RESISTIVITY
 ILD .OHMM   07 120 46 00:   INDUCTION LOG DEEP
 ILM .OHMM   07 120 44 00:   INDUCTION LOG MEDIUM
~PARAMETER INFORMATION
#MNEM.UNIT          VALUE    DESCRIPTION
#----------   ------------   ------------------------------
 PD  .                 GL:   PERMANENT DATUM
 EPD .F              5148:   ELEVATION PERMANENT DATUM
 LMF .                 KB:   LOG MEASURED FROM
 DAPD.F                10:   FEET ABOVE PERMANENT DATUM
 DMF .                 KB:   DRILLING MEASURED FROM
 EKB .F              5158:   KELLING BUSHING
 EGL .F              5148:   GROUND LEVEL
 DATE.        23-DEC-1991:   RUN DATE
 RUN .                  1:   RUN NUMBER
 DD  .F               630:   DEPTH DRILLER
 DL  .F               678:   DEPTH LOGGER
 BLI .F               675:   BOTTOM LOG INTERVAL
 CS  .IN            9.625:   CASING SIZE
 CBD .F                44:   CASING BOTTOM DRILLER
 CBL .F                48:   CASING BOTTOM LOGGER
 BS  .IN             8.75:   BIT SIZE
 BSD .F               680:   BIT SIZE AT DEPTH
 DFT .           CHEM GEL:   DRILLING FLUID TYPE
 DFD .                9.7:   DRILLING FLUID DENSITY
 DFV .                 79:   DRILLING FLUID VISCOSITY
 DFPH.                  9:   DRILLING FLUID PH
 DFL .                 10:   DRILLING FLUID LOSS
 MSS .           MUD TANK:   MUD SAMPLE SOURCE
 RMS .OHMM            .82:   RESISTIVITY MUD SAMPLE
 MST .F                54:   MUD SAMPLE TEMPERATURE
 RMF .OHMM           1.02:   RESISTIVITY MUD FILTRATE SAMPLE
 MFST.F                54:   MUD FILTRATE SAMPLE TEMPERATURE
 RMC .OHMM            .51:   RESISTIVITY MUD CAKE
 MCST.F                54:   MUD CAKE SAMPLE TEMPERATURE
 MFSS.               CALC:   MUD FILTRATE SAMPLE SOURCE
 MCSS.               CALC:   MUD CAKE SAMPLE SOURCE
 RMB .OHMM            .43:   RESISTIVITY MUD AT BHT
 BHT .F               102:   BOTTOM HOLE TEMPERATURE
 TCS .HRS               2:   TIME CURCULATED STOPPED
 MRT .F               102:   MAXIMUM RECORDED TEMPERATURE
 LUN .            HL-6307:   LOGGING UNIT NUMBER
 LUL .             CASPER:   LOGGING UNIT LOCATION
 ENGI.            WADDELL:   RECORDING ENGINEER
 WITN.              FJVAS:   WITNESSED BY
 CLNT.            A2DTECH:   CLIENT CODE
 ORIG.      2" & 5" PRINT:   ORIGIN OF DATA
 UWI .       490252247200:   UNIQUE WELL ID
 DICO. A2D Technologies, Inc.:   DIGITIZING COMPANY
~OTHER INFORMATION
~A    DEPT      GRR       SPR        SFL        ILD        ILM   
# ...
  305.0000    98.8687   -25.6052     8.1714     6.6734     7.2661
  305.5000    94.9067   -25.9450     8.5668     6.7428     7.3579
  306.0000    94.4933   -25.9621     8.2965     6.8128     7.4547
  306.5000    97.2628   -25.9600     8.2250     6.8836     7.5381
  307.0000    97.9831   -25.9587     8.1036     6.9551     7.6267
  307.5000    99.1676   -25.9628     8.1818     7.0274     7.7126
  308.0000   101.8767   -26.1089     8.3320     7.1004     7.8477
  308.5000   104.9873   -26.2631     8.2667     7.1508     7.9113
  309.0000   106.8216   -26.3071     8.1046     7.2097     7.9780
  309.5000   107.6884   -26.1437     8.2420     7.2692     8.0451
  310.0000   107.7019   -25.9846     8.4936     7.3291     8.1127
  310.5000   103.9750   -25.8217     8.7536     7.3895     8.1809
  311.0000   100.1067   -25.8784     8.8327     7.4504     8.2497
  311.5000    97.3432   -26.0790     8.8651     7.5118     8.3192
  312.0000    99.5289   -26.2817     8.8966     7.5319     8.3894
  312.5000   101.0246   -26.4855     8.9285     7.5503     8.4875
  313.0000   100.8602   -26.6262     8.9601     7.5688     8.4453
  313.5000   101.1882   -26.7273     8.9729     7.5946     8.3751
  314.0000   101.5761   -26.9030     8.9712     7.5517     8.3055
  314.5000    98.2231   -27.1224     8.9766     7.4818     8.2364
  315.0000    95.8245   -27.3432     8.7907     7.4125     8.1679
  315.5000    95.8543   -27.5646     8.6372     7.3438     8.1000
  316.0000   100.0227   -27.7727     8.4873     7.2758     8.0327
  316.5000   104.0520   -27.7791     8.3415     7.2085     7.9659
  317.0000   104.9171   -27.7920     8.1790     7.1839     7.9548
  317.5000   104.4419   -27.8614     8.3012     7.2014     7.9548
  318.0000   103.1354   -27.9295     8.4965     7.2135     7.9548
  318.5000   102.5757   -27.9770     8.6964     7.2258     7.9548
  319.0000   103.4939   -27.8795     8.8083     7.2380     7.9548
  319.5000   104.8522   -27.7821     8.6903     7.2503     7.9548
  320.0000   104.6582   -27.6861     8.6098     7.2625     7.9548
  320.5000   104.2183   -27.5956     8.5301     7.2748     7.9548
  321.0000   103.0135   -27.3250     8.4544     7.2872     7.9548
  321.5000   101.7386   -27.0339     8.3832     7.2995     7.9554
  322.0000   100.8038   -26.7774     8.3320     7.3126     7.9243
  322.5000   101.9171   -26.9138     8.4689     7.3183     7.8960
  323.0000   103.6209   -27.0543     8.5661     7.2031     7.8679
  323.5000   103.0370   -27.1938     8.4339     7.1262     7.8399
  324.0000   101.5513   -27.3282     8.3112     7.1082     7.8125
  324.5000   101.1525   -27.6418     8.1789     7.0943     7.7456
  325.0000   103.4155   -28.0163     8.1969     7.0807     7.6763
  325.5000   104.7482   -28.3980     8.2171     7.0670     7.6071
  326.0000   105.9828   -28.5715     8.2372     7.0523     7.5386
  326.5000   105.9623   -28.5534     8.2551     6.9838     7.4707
  327.0000   105.3739   -28.5321     8.1396     6.9090     7.4034
  327.5000   104.5784   -28.5102     8.0288     6.7946     7.3368
  328.0000   103.7768   -28.4886     8.0288     6.5974     7.1319
  328.5000   102.9762   -28.4671     8.0288     6.4058     6.8825
  329.0000   102.2267   -28.4455     8.0288     6.2199     6.6345
  329.5000   103.1995   -28.4238     7.9297     6.0393     6.3797
  330.0000   104.8482   -28.4022     7.7214     5.8640     6.0243
  330.5000   106.6055   -28.3874     7.1233     5.7496     6.0829
  331.0000   108.0823   -28.4178     6.5715     5.7362     6.1927
  331.5000   108.9341   -28.4478     6.0751     5.7229     6.3102
  332.0000   109.7970   -28.4776     6.6098     5.7097     6.3095
  332.5000   110.5071   -28.5074     7.6077     5.6986     6.5177
  333.0000   110.2760   -28.5371     8.1042     5.8747     6.6550
  333.5000   109.6350   -28.5676     8.2551     6.0313     6.7953
  334.0000   108.4417   -28.6371     7.8313     6.1922     6.9383
  334.5000   106.8116   -28.7789     7.5946     6.3566     7.0856
  335.0000   102.6711   -28.9197     7.8051     6.4899     7.1499
  335.5000    98.4110   -29.0606     7.9887     6.5986     7.1916
  336.0000    96.2447   -29.2015     8.0288     6.7092     7.2335
  336.5000    96.2796   -29.3429     8.0291     6.7328     7.2508
  337.0000    98.6244   -29.4833     8.0289     6.7328     7.1620
  337.5000   101.0008   -29.5794     8.0289     6.7051     7.0988
  338.0000   101.1987   -29.4663     8.0288     6.6707     7.0362
  338.5000   100.1870   -29.3570     8.0288     6.6360     6.9710
  339.0000   100.3444   -29.2483     7.9526     6.5818     6.8934
  339.5000   100.8993   -29.1397     7.7697     6.4492     6.8169
  340.0000   100.5847   -29.0308     7.5911     6.3201     6.7413
  340.5000   100.3223   -28.9373     7.4166     6.1936     6.6664
  341.0000   102.0149   -28.8528     7.3724     6.0696     6.6091
  341.5000   105.1253   -28.7683     7.3551     5.8390     6.3361
  342.0000   107.7441   -28.6838     7.3379     5.5564     6.0813
  342.5000   107.8944   -28.5991     7.3210     5.2874     5.8368
  343.0000   106.2522   -28.5147     7.1766     5.0315     5.5140
  343.5000   104.4592   -28.4324     7.0116     4.7879     5.1185
  344.0000   101.8052   -28.4933     5.8268     4.4785     4.7489
  344.5000    99.2396   -28.7409     5.2154     4.5202     4.5583
  345.0000    98.4852   -28.9860     4.8891     4.6041     4.8081
  345.5000    98.5281   -29.2321     4.8680     4.7040     5.0571
  346.0000    99.6923   -29.4781     6.8397     4.7786     5.3273
  346.5000   100.9207   -29.7237     7.3428     5.0219     5.6243
  347.0000   100.9947   -29.9631     7.4552     5.2610     5.9380
  347.5000    99.7492   -30.2423     7.4552     5.5092     6.2713
  348.0000    99.6539   -30.5236     7.4767     5.7600     6.4392
  348.5000   102.0788   -30.5287     7.5084     6.0812     6.6379
  349.0000   103.4258   -30.4219     7.5401     6.2723     6.8403
  349.5000   104.2645   -30.3119     7.5727     6.4556     7.0110
  350.0000   104.4740   -30.2020     7.6268     6.5684     7.0930
  350.5000   103.4038   -30.0923     7.7413     6.6387     7.1759
  351.0000   103.0322   -29.9822     7.8557     6.7093     7.2508
  351.5000   102.9592   -29.8738     7.9709     6.7806     7.3537
  352.0000   101.0659   -29.8201     8.0716     6.8580     7.4686
  352.5000    99.0281   -30.0234     8.1554     6.8943     7.5853
  353.0000    98.5130   -30.2264     8.1790     6.9435     7.7038
  353.5000    98.0872   -30.4588     8.1790     6.9934     7.8242
  354.0000    97.8670   -30.8507     8.2501     7.0436     7.9548
  354.5000    99.0998   -31.2483     8.4688     7.0942     7.9332
  355.0000    99.9836   -31.6444     8.6930     7.1208     7.9102
  355.5000    97.5704   -32.0432     8.8925     7.1300     7.8814
  356.0000    95.0348   -32.2470     8.6967     7.1392     7.9123
  356.5000    97.0335   -32.3008     8.4095     7.1484     7.9690
  357.0000    99.8891   -32.3516     8.4405     7.1577     8.0263
  357.5000   102.8315   -32.4020     8.5668     7.1671     8.0838
  358.0000   105.3238   -32.4527     8.6274     7.1762     8.1420
  358.5000   106.7899   -32.5035     8.6884     7.1839     8.1790
  359.0000   105.9603   -32.5540     8.7277     7.1192     8.0361
  359.5000   105.0194   -32.6058     8.6978     7.0642     7.9790
  360.0000   104.5559   -32.5522     8.6729     7.0097     7.9219
  360.5000   104.9554   -32.4264     8.6462     6.9870     7.8655
  361.0000   104.7978   -32.2994     8.4509     6.9869     7.8095
  361.5000   104.1819   -32.1484     8.2567     6.9870     7.7538
  362.0000   103.5727   -31.9571     8.1036     6.9871     7.7002
  362.5000   103.1245   -31.7676     8.2274     6.9869     7.5223
  363.0000   102.9511   -31.6320     8.3320     6.9870     7.3586
  363.5000   102.2584   -31.7504     8.2017     6.8650     7.2398
  364.0000   100.7496   -31.8824     8.0426     6.7163     7.1229
  364.5000    99.5454   -32.2270     7.8875     6.5709     7.0063
  365.0000    99.3202   -32.5652     7.7359     6.3783     6.8278
  365.5000    99.6328   -32.9085     7.4429     6.1239     6.5729
