~VERSION INFORMATION
 VERS.                2.0:   CWLS LOG ASCII STANDARD - VERSION 2.0
 WRAP.                 NO:   ONE LINE PER DEPTH STEP
~WELL INFORMATION
#MNEM.UNIT      DATA TYPE    INFORMATION
#----------   ------------   ------------------------------
 STRT.F           30.0000:   START DEPTH
 STOP.F          744.0000:   STOP DEPTH
 STEP.F            0.5000:   STEP LENGTH
 NULL.          -999.2500:   NO VALUE
 COMP. FENIX & SCISSON INC:   COMPANY
 WELL.   NPR 3 #53 S - 34:   WELL
 FLD .             TEAPOT:   FIELD
 LOC .      S34 T39N R78W:   LOCATION
 CNTY.            NATRONA:   COUNTY
 STAT.            WYOMING:   STATE
 CTRY. UNITED STATES OF AMERICA:   COUNTRY
 SRVC.       Schlumberger:   SERVICE COMPANY
 DATE.        28-MAR-1977:   LOGDATE
 API .       490251031700:   API NUMBER
~CURVE INFORMATION
#MNEM.UNIT       API CODE    CURVE DESCRIPTION
#----------   ------------   ------------------------------
 DEPT.F                  :   
 CALD.IN     45 280 60 00:   CALIPER FROM DENSITY LOG
 GRD .GAPI   45 310 01 00:   GAMMA RAY FROM DENSITY LOG
 CORR.G/C3   45 356 01 00:   DENSITY CORRECTION
 DPHI.DEC    45 890 12 00:   DENSITY POROSITY SANDSTONE
 RHOB.G/C3   45 350 01 00:   BULK DENSITY
~PARAMETER INFORMATION
#MNEM.UNIT          VALUE    DESCRIPTION
#----------   ------------   ------------------------------
 PD  .                 GL:   PERMANENT DATUM
 EPD .F              5081:   ELEVATION PERMANENT DATUM
 LMF .                 GL:   LOG MEASURED FROM
 DAPD.F                 5:   FEET ABOVE PERMANENT DATUM
 DMF .                 KB:   DRILLING MEASURED FROM
 EKB .F              5086:   KELLING BUSHING
 EGL .F              5081:   GROUND LEVEL
 DATE.        20-MAR-1977:   RUN DATE
 RUN .                  1:   RUN NUMBER
 DD  .F               751:   DEPTH DRILLER
 DL  .F               745:   DEPTH LOGGER
 BLI .F               744:   BOTTOM LOG INTERVAL
 TLI .F                30:   TOP LOG INTERVAL
 CBL .F                38:   CASING BOTTOM LOGGER
 BS  .IN            7.875:   BIT SIZE
 BSD .F               751:   BIT SIZE AT DEPTH
 DFT .             5% KCL:   DRILLING FLUID TYPE
 MSS .           MUD TANK:   MUD SAMPLE SOURCE
 RMS .OHMM            .23:   RESISTIVITY MUD SAMPLE
 MST .F                68:   MUD SAMPLE TEMPERATURE
 RMF .OHMM            .18:   RESISTIVITY MUD FILTRATE SAMPLE
 MFST.F                68:   MUD FILTRATE SAMPLE TEMPERATURE
 RMC .OHMM            .35:   RESISTIVITY MUD CAKE
 MCST.F                68:   MUD CAKE SAMPLE TEMPERATURE
 MFSS.               MEAS:   MUD FILTRATE SAMPLE SOURCE
 MCSS.               CALC:   MUD CAKE SAMPLE SOURCE
 RMB .OHMM            .24:   RESISTIVITY MUD AT BHT
 BHT .F                60:   BOTTOM HOLE TEMPERATURE
 TCS .HRS            0300:   TIME CURCULATED STOPPED
 MRT .F                60:   MAXIMUM RECORDED TEMPERATURE
 LUN .               7680:   LOGGING UNIT NUMBER
 LUL .               CSPR:   LOGGING UNIT LOCATION
 ENGI.                FIX:   RECORDING ENGINEER
 WITN.              BURKE:   WITNESSED BY
 CLNT.            A2DTECH:   CLIENT CODE
 ORIG.           5" PRINT:   ORIGIN OF DATA
 UWI .       490251031700:   UNIQUE WELL ID
 DICO. A2D Technologies, Inc.:   DIGITIZING COMPANY
~OTHER INFORMATION
~A   DEPT     CALD        GRD       CORR       DPHI       RHOB   
# ...
  274.0000     8.3970    92.8757     0.0235     0.1171     2.4654
  274.5000     8.3984    91.9694     0.0019     0.1193     2.4522
  275.0000     8.3997    88.2897    -0.0035     0.1255     2.4426
  275.5000     8.4011    87.8457     0.0051     0.1192     2.4555
  276.0000     8.3870    89.9003     0.0145     0.1149     2.4626
  276.5000     8.3884    91.3221     0.0168     0.1193     2.4540
  277.0000     8.4052    90.9866     0.0091     0.1223     2.4471
  277.5000     8.4066    88.8477     0.0156     0.1089     2.4697
  278.0000     8.4080    88.2451     0.0252     0.1061     2.4838
  278.5000     8.4094    89.1924     0.0238     0.1073     2.4885
  279.0000     8.3953    89.0565     0.0170     0.1094     2.4844
  279.5000     8.3970    88.7621     0.0173     0.1113     2.4774
  280.0000     8.3826    88.7849     0.0234     0.1128     2.4708
  280.5000     8.3843    89.1113     0.0172     0.1143     2.4669
  281.0000     8.3703    89.5918     0.0111     0.1143     2.4655
  281.5000     8.3716    89.9182     0.0034     0.1171     2.4632
  282.0000     8.3730    89.1660     0.0081     0.1127     2.4710
  282.5000     8.3744    84.5618     0.0012     0.1148     2.4633
  283.0000     8.3757    78.1085     0.0098     0.1130     2.4680
  283.5000     8.3613    71.9634     0.0183     0.1170     2.4634
  284.0000     8.3631    76.9124     0.0122     0.1201     2.4472
  284.5000     8.3644    85.2697     0.0107     0.1185     2.4558
  285.0000     8.3812    90.5700     0.0084     0.1169     2.4590
  285.5000     8.3826    93.8182     0.0116     0.1147     2.4676
  286.0000     8.3840    95.8377     0.0186     0.1109     2.4715
  286.5000     8.3853    97.0390     0.0194     0.1119     2.4700
  287.0000     8.3867    97.9817     0.0226     0.1090     2.4794
  287.5000     8.3881    98.7704     0.0350     0.0994     2.5081
  288.0000     8.3895    99.8672     0.0490     0.0981     2.5183
  288.5000     8.3909    96.9579     0.0251     0.1034     2.4821
  289.0000     8.3925    92.6618     0.0259     0.0968     2.4944
  289.5000     8.3781    91.5969     0.0368     0.1027     2.5045
  290.0000     8.3799    92.8524     0.0291     0.0999     2.4937
  290.5000     8.3812    94.4114     0.0307     0.1011     2.5054
  291.0000     8.3826    96.7409     0.0261     0.1091     2.4923
  291.5000     8.3840    97.9873     0.0169     0.1166     2.4681
  292.0000     8.3853    93.3876     0.0162     0.1209     2.4510
  292.5000     8.3867    91.0946     0.0100     0.1150     2.4516
  293.0000     8.3881    88.6475     0.0093     0.1078     2.4682
  293.5000     8.3737    87.2790     0.0186     0.1059     2.4848
  294.0000     8.3754    85.9024     0.0280     0.1174     2.4647
  294.5000     8.3768    85.4665     0.0149     0.1214     2.4547
  295.0000     8.3781    88.5773     0.0134     0.1192     2.4447
  295.5000     8.3795    93.0148     0.0189     0.1111     2.4688
  296.0000     8.3809    93.8417     0.0229     0.1089     2.4751
  296.5000     8.3823    89.8584     0.0179     0.1027     2.4868
  297.0000     8.3682    88.1817     0.0260     0.1073     2.4899
  297.5000     8.3696    86.9673     0.0230     0.1116     2.4714
  298.0000     8.3710    86.0611     0.0191     0.1051     2.4808
  298.5000     8.3724    84.8466     0.0231     0.0942     2.5056
  299.0000     8.3740    83.6322     0.0309     0.1063     2.5103
  299.5000     8.3754    82.7260     0.0270     0.1118     2.4709
  300.0000     8.3768    82.1279     0.0263     0.1093     2.4748
  300.5000     8.3781    82.7605     0.0248     0.1043     2.4880
  301.0000     8.3795    83.2380     0.0188     0.1099     2.4765
  301.5000     8.3809    83.0991     0.0204     0.1086     2.4798
  302.0000     8.3814    81.2654     0.0112     0.1011     2.4845
  302.5000     8.3816    82.9755     0.0159     0.0995     2.4875
  303.0000     8.3819    86.2265     0.0237     0.1016     2.4891
  303.5000     8.3821    90.0938     0.0176     0.1097     2.4845
  304.0000     8.3824    90.7254     0.0131     0.1146     2.4660
  304.5000     8.3827    90.2784     0.0101     0.1124     2.4715
  305.0000     8.3829    87.5202     0.0101     0.1102     2.4801
  305.5000     8.3832    87.0431     0.0149     0.1051     2.4887
  306.0000     8.3834    89.2455     0.0150     0.1067     2.4856
  306.5000     8.3837    90.3394     0.0163     0.1036     2.5020
  307.0000     8.3839    89.2760     0.0275     0.0998     2.5121
  307.5000     8.3845    86.8260     0.0160     0.1091     2.4819
  308.0000     8.3861    85.2964     0.0207     0.1072     2.4750
  308.5000     8.3876    84.8534     0.0278     0.1022     2.4921
  309.0000     8.3891    84.8865     0.0310     0.0947     2.4976
  309.5000     8.3907    86.1895     0.0341     0.0881     2.5008
  310.0000     8.3922    88.6009     0.0404     0.0893     2.5017
  310.5000     8.3779    90.1570     0.0273     0.0995     2.4963
  311.0000     8.3798    90.4766     0.0228     0.1041     2.4870
  311.5000     8.3813    89.1089     0.0128     0.1094     2.4775
  312.0000     8.3829    88.9662    -0.0003     0.1190     2.4530
  312.5000     8.3844    88.5230     0.0021     0.1165     2.4523
  313.0000     8.3859    87.7679     0.0092     0.1090     2.4842
  313.5000     8.3874    88.0913     0.0108     0.1049     2.4734
  314.0000     8.3890    88.4109     0.0179     0.1111     2.4781
  314.5000     8.3905    86.7350     0.0172     0.1064     2.4813
  315.0000     8.3920    86.4383     0.0197     0.1026     2.5030
  315.5000     8.3781    85.8410     0.0143     0.0964     2.5000
  316.0000     8.3797    84.3154     0.0043     0.0980     2.5055
  316.5000     8.3812    81.4031     0.0020     0.0963     2.5079
  317.0000     8.3827    85.5786     0.0199     0.0987     2.4893
  317.5000     8.3843    87.4428     0.0177     0.1043     2.4762
  318.0000     8.3858    88.3825     0.0217     0.1064     2.4956
  318.5000     8.3873    90.0927     0.0248     0.0999     2.4856
  319.0000     8.3889    92.7273     0.0125     0.1099     2.4694
  319.5000     8.4062    95.3693     0.0103     0.1119     2.4710
  320.0000     8.3923    93.6107     0.0119     0.1087     2.4788
  320.5000     8.3938    90.5824     0.0190     0.1060     2.4897
  321.0000     8.3953    90.1689     0.0268     0.1031     2.4867
  321.5000     8.3968    90.1880     0.0145     0.1096     2.4774
  322.0000     8.3984    90.9736     0.0045     0.1198     2.4477
  322.5000     8.3999    92.0674     0.0070     0.1188     2.4562
  323.0000     8.4014    92.3909     0.0157     0.1132     2.4694
  323.5000     8.4030    90.7112     0.0226     0.1010     2.4824
  324.0000     8.4045    89.3397     0.0188     0.0991     2.4972
  324.5000     8.4060    90.5876     0.0251     0.0969     2.5034
  325.0000     8.4075    90.7569     0.0306     0.0898     2.5058
  325.5000     8.4092    90.6181     0.0105     0.1046     2.4795
  326.0000     8.4106    88.9384     0.0184     0.1071     2.4866
  326.5000     8.3963    86.4883     0.0223     0.0983     2.5076
  327.0000     8.3982    81.4188     0.0263     0.0806     2.5193
  327.5000     8.3997    75.5789     0.0279     0.0768     2.5248
  328.0000     8.4013    81.4493     0.0141     0.0728     2.5403
  328.5000     8.4028    87.6279     0.0157     0.0761     2.5288
  329.0000     8.4043    90.1084     0.0127     0.0969     2.5017
  329.5000     8.4059    91.0482     0.0050     0.1130     2.4699
  330.0000     8.4074    91.0838    -0.0026     0.1164     2.4514
  330.5000     8.4090    90.1541     0.0005     0.1177     2.4592
  331.0000     8.4105    89.5501     0.0014     0.1126     2.4709
  331.5000     8.4120    88.6245     0.0040     0.1079     2.4764
  332.0000     8.4139    87.8887     0.0102     0.1010     2.4989
  332.5000     8.3996    88.3898     0.0141     0.0891     2.5099
  333.0000     8.4015    89.7719     0.0172     0.0901     2.5037
  333.5000     8.4030    92.0984     0.0251     0.0895     2.5079
  334.0000     8.4046    95.9658     0.0182     0.0928     2.5037
  334.5000     8.3903    96.2892     0.0144     0.1058     2.4791
