~VERSION INFORMATION
 VERS.                2.0:   CWLS LOG ASCII STANDARD - VERSION 2.0
 WRAP.                 NO:   ONE LINE PER DEPTH STEP
~WELL INFORMATION
#MNEM.UNIT      DATA TYPE    INFORMATION
#----------   ------------   ------------------------------
 STRT.F            0.0000:   START DEPTH
 STOP.F          743.0000:   STOP DEPTH
 STEP.F            0.5000:   STEP LENGTH
 NULL.          -999.2500:   NO VALUE
 COMP. LAWRENCE/ALLISON INC:   COMPANY
 WELL.   NPR 3 #33-16SX11:   WELL
 FLD .                NPR:   FIELD
 LOC .      S11 T38N R78W:   LOCATION
 CNTY.            NATRONA:   COUNTY
 STAT.            WYOMING:   STATE
 CTRY. UNITED STATES OF AMERICA:   COUNTRY
 SRVC.           Gearhart:   SERVICE COMPANY
 DATE.        05-JUN-1986:   LOGDATE
 API .       490251107500:   API NUMBER
~CURVE INFORMATION
#MNEM.UNIT       API CODE    CURVE DESCRIPTION
#----------   ------------   ------------------------------
 DEPT.F                  :   
 GRR .GAPI   07 310 01 00:   GAMMA RAY
 RILD.OHMM   07 120 46 00:   INDUCTION LOG DEEP RESISTIVITY
 RILM.OHMM   07 120 44 00:   INDUCTION LOG MEDIUM RESISTIVITY
 RLL .OHMM   07 220 00 00:   LATEROLOG RESISTIVITY
 SPR .MV     07 010 01 00:   SPONTANEOUS POTENTIAL
~PARAMETER INFORMATION
#MNEM.UNIT          VALUE    DESCRIPTION
#----------   ------------   ------------------------------
 PD  .                 GL:   PERMANENT DATUM
 EPD .F              5175:   ELEVATION PERMANENT DATUM
 LMF .                 KB:   LOG MEASURED FROM
 DMF .                 KB:   DRILLING MEASURED FROM
 EKB .F              5175:   KELLING BUSHING
 EGL .F              5175:   GROUND LEVEL
 DATE.        05-JUN-1986:   RUN DATE
 RUN .                  1:   RUN NUMBER
 DD  .F               736:   DEPTH DRILLER
 DL  .F               744:   DEPTH LOGGER
 BLI .F               743:   BOTTOM LOG INTERVAL
 TLI .F                42:   TOP LOG INTERVAL
 CS  .IN            8.625:   CASING SIZE
 CBD .F                42:   CASING BOTTOM DRILLER
 CBL .F                42:   CASING BOTTOM LOGGER
 BS  .IN            7.875:   BIT SIZE
 BSD .F               736:   BIT SIZE AT DEPTH
 DFT .           KCL- GEL:   DRILLING FLUID TYPE
 DFD .                9.2:   DRILLING FLUID DENSITY
 DFV .                 42:   DRILLING FLUID VISCOSITY
 DFPH.                 11:   DRILLING FLUID PH
 MSS .           FLOWLINE:   MUD SAMPLE SOURCE
 RMS .OHMM            .51:   RESISTIVITY MUD SAMPLE
 MST .F                81:   MUD SAMPLE TEMPERATURE
 RMF .OHMM            .48:   RESISTIVITY MUD FILTRATE SAMPLE
 MFST.F                65:   MUD FILTRATE SAMPLE TEMPERATURE
 RMC .OHMM            .81:   RESISTIVITY MUD CAKE
 MCST.F                66:   MUD CAKE SAMPLE TEMPERATURE
 MFSS.               MEAS:   MUD FILTRATE SAMPLE SOURCE
 MCSS.               MEAS:   MUD CAKE SAMPLE SOURCE
 RMB .OHMM            .47:   RESISTIVITY MUD AT BHT
 BHT .F                90:   BOTTOM HOLE TEMPERATURE
 TCS .HRS            1930:   TIME CURCULATED STOPPED
 TLAB.HRS            2114:   TIME LOGGER AT BOTTOM
 LUN .               7609:   LOGGING UNIT NUMBER
 LUL .           GILLETTE:   LOGGING UNIT LOCATION
 ENGI. WEATHERMON/ JOHNSTON:   RECORDING ENGINEER
 WITN.           LENNINGS:   WITNESSED BY
 CLNT.            A2DTECH:   CLIENT CODE
 ORIG.           5" PRINT:   ORIGIN OF DATA
 UWI .       490251107500:   UNIQUE WELL ID
 DICO. A2D Technologies, Inc.:   DIGITIZING COMPANY
~OTHER INFORMATION
~A    DEPT     GRR       RILD       RILM        RLL        SPR   
# ...
  549.0000    64.9525    19.1051    17.6866    20.4092   -40.8161
  549.5000    64.6461    19.1090    17.5709    19.8576   -40.5145
  550.0000    64.0362    18.7954    17.4131    19.1778   -43.5508
  550.5000    63.4245    18.4608    17.1639    18.5195   -42.1851
  551.0000    65.8451    18.3360    16.9756    18.3913   -42.4886
  551.5000    67.3799    18.1975    16.8586    18.2642   -44.0191
  552.0000    68.5633    17.8391    16.6262    18.0119   -43.8543
  552.5000    68.8624    17.3512    16.2826    17.5037   -42.4886
  553.0000    69.4621    16.8767    15.9461    16.9149   -41.7299
  553.5000    70.3667    16.4151    15.8360    16.3343   -42.3369
  554.0000    71.2727    16.0781    15.6176    15.8845   -42.6404
  554.5000    70.9619    15.8565    15.5100    15.6647   -42.0334
  555.0000    69.1047    15.6235    15.4031    15.4480   -42.0334
  555.5000    65.3838    15.4285    15.4044    15.4469   -41.5781
  556.0000    62.7486    15.3242    15.2980    15.2354   -42.7921
  556.5000    63.3497    15.3273    15.1926    15.1304   -42.9439
  557.0000    64.5578    15.2230    14.9831    15.1314   -41.7299
  557.5000    65.1604    15.1208    14.8729    15.1324   -42.3369
  558.0000    65.7602    15.0187    14.6745    15.1334   -42.9439
  558.5000    66.3611    15.0225    14.6757    15.2407   -43.2544
  559.0000    67.6845    15.1308    14.7795    15.2418   -43.3991
  559.5000    71.5073    15.1338    14.9884    15.3501   -43.3991
  560.0000    73.9293    15.2430    15.0944    15.4590   -43.7026
  560.5000    76.0479    15.4604    15.3106    15.5686   -44.1578
  561.0000    77.8630    15.5719    15.5243    15.6790   -44.3096
  561.5000    79.6780    15.7942    15.7437    15.7902   -42.9439
  562.0000    81.4931    16.0203    15.8551    15.9021   -43.4031
  562.5000    81.1583    16.1358    15.9673    15.9033   -43.7026
  563.0000    78.7485    16.2521    16.0803    16.1287   -43.2473
  563.5000    77.2252    16.3693    16.3075    16.2431   -41.8816
  564.0000    76.9158    16.3726    16.3254    16.3583   -42.3369
  564.5000    76.9099    16.4907    16.4242    16.4743   -42.4886
  565.0000    78.1180    16.4942    16.5404    16.4754   -41.8816
  565.5000    79.6296    16.4982    16.5416    16.4765   -41.4254
  566.0000    80.8377    16.5015    16.3130    16.4779   -41.4709
  566.5000    79.0094    16.5048    15.7546    16.3638   -42.7921
  567.0000    75.9686    16.5082    15.2037    16.3652   -43.2473
  567.5000    75.0538    16.3966    14.5920    16.3663   -42.0334
  568.0000    77.7778    16.2858    14.1910    16.3674   -41.2747
  568.5000    79.5929    16.1758    13.7050    16.2536   -42.0334
  569.0000    80.4975    15.9554    13.2356    16.1241   -43.0956
  569.5000    79.8847    15.7365    12.9621    15.9188   -44.0253
  570.0000    79.5751    15.6302    12.8728    16.0319   -44.7648
  570.5000    80.1749    15.5246    12.9641    16.2590   -42.9439
  571.0000    81.9900    15.6373    13.2394    16.3743   -44.0061
  571.5000    83.8051    16.0967    13.9036    16.8403   -42.7921
  572.0000    82.8888    17.0118    15.0146    17.4609   -44.4613
  572.5000    79.8480    17.9928    16.3280    19.6465   -44.0061
  573.0000    75.8967    19.0304    17.7665    22.7585   -43.7026
  573.5000    73.0775    20.6979    19.9961    25.6357   -43.8543
  574.0000    69.5102    22.8281    22.0511    28.8766   -43.7026
  574.5000    65.2555    25.3630    23.8132    31.1896   -43.2473
  575.0000    61.6078    27.4482    25.3595    33.4529   -44.4613
  575.5000    58.8705    28.9643    26.8183    34.8901   -44.7648
  576.0000    57.3472    29.5835    27.0080    34.4079   -45.0683
  576.5000    56.4308    29.7968    27.0099    32.9952   -45.3718
  577.0000    58.8951    29.8028    26.6375    30.9830   -44.4613
  577.5000    64.6119    29.1909    25.9055    29.5037   -43.3991
  578.0000    67.3374    28.1689    24.8442    28.4910   -43.8543
  578.5000    69.4560    27.0449    23.6606    27.3073   -44.0061
  579.0000    70.6640    26.6739    22.8503    26.9433   -43.8543
  579.5000    70.9631    26.3093    22.3616    26.7572   -43.3991
  580.0000    70.6523    26.1315    21.9161    26.3870   -42.7717
  580.5000    69.4314    25.9549    21.4632    26.0220   -42.0334
  581.0000    68.5159    25.4232    20.8734    25.6624   -42.4886
  581.5000    68.5088    25.0757    20.4417    25.3075   -42.9439
  582.0000    68.1994    24.5621    20.0196    24.9319   -43.0956
  582.5000    67.8901    24.2263    19.4695    24.4409   -42.0334
  583.0000    67.8842    23.7289    18.9348    24.1028   -42.4886
  583.5000    68.1818    22.9193    18.5435    23.6032   -42.0263
  584.0000    68.1760    22.2925    18.2872    22.7934   -40.2124
  584.5000    68.1700    21.5272    17.9096    21.7051   -39.3020
  585.0000    68.4663    20.6289    17.7862    20.9407   -41.5781
  585.5000    69.3708    19.6724    17.7874    19.8205   -42.9439
  586.0000    70.5789    19.1344    17.7889    19.2746   -42.6404
  586.5000    70.8780    18.6111    17.7901    18.8751   -39.9090
  587.0000    70.8707    18.3558    17.7913    18.8767   -41.2827
  587.5000    70.8648    18.2326    17.4236    19.0106   -40.5162
  588.0000    71.1785    18.2364    17.1831    19.1454   -40.6677
  588.5000    72.6726    18.2409    16.8281    19.1280   -39.9090
  589.0000    74.1841    18.1177    16.3490    18.6196   -40.8194
  589.5000    75.6957    17.8691    15.6954    18.2340   -41.2747
  590.0000    74.1724    17.3813    15.0524    17.8561   -40.2124
  590.5000    71.7386    17.0244    14.5369    17.3646   -39.4537
  591.0000    69.6083    16.6748    14.2365    16.8863   -39.6055
  591.5000    70.8317    16.0929    14.0400    16.3067   -39.7572
  592.0000    77.0579    15.5573    13.9330    16.0812   -38.8467
  592.5000    75.9625    15.2378    13.8472    16.1955   -37.9363
  593.0000    72.6183    14.9249    13.7518    16.3103   -37.7845
  593.5000    69.2740    14.8233    13.8493    16.3114   -37.6328
  594.0000    67.7507    14.6215    14.0450    16.3125   -37.3293
  594.5000    68.0483    14.5210    14.0459    16.0868   -37.8230
  595.0000    69.8634    14.3241    14.0469    15.8496   -38.8467
  595.5000    70.4645    14.2273    13.8530    15.3200   -39.3020
  596.0000    68.0292    14.2309    13.6618    14.8981   -38.9985
  596.5000    67.1129    14.2338    13.3797    14.4878   -38.5432
  597.0000    69.2315    14.2367    13.1030    14.0888   -38.2398
  597.5000    74.3849    14.1404    12.6545    13.8939   -38.6950
  598.0000    78.9314    14.1434    12.2189    13.8948   -39.6055
  598.5000    79.8594    14.0477    11.8855    13.8960   -38.6950
  599.0000    77.6694    13.9528    11.8863    13.7998   -38.8467
  599.5000    75.5739    13.8585    11.8871    13.8009   -38.2398
  600.0000    75.2658    13.7525    12.0368    13.8021   -38.5865
  600.5000    75.2622    13.6725    12.3994    13.9028   -39.3034
  601.0000    75.5635    13.5801    12.3149    14.1039   -38.6983
  601.5000    75.2564    13.5835    12.2317    14.6097   -37.7892
  602.0000    74.9499    13.5862    12.1496    14.8196   -37.1833
  602.5000    74.6429    13.5889    12.0675    14.9277   -37.9439
  603.0000    74.9442    13.5917    12.0706    15.0365   -38.4006
  603.5000    75.5482    13.4997    11.9884    15.0406   -38.5541
  604.0000    76.4558    13.4086    12.0754    14.9397   -38.5556
  604.5000    76.7557    13.3179    12.0779    14.7360   -38.7088
  605.0000    76.4486    13.1365    12.2502    14.7409   -38.7102
  605.5000    75.5352    13.0471    12.5121    14.8484   -38.7117
  606.0000    74.6218    12.9589    12.7801    14.8524   -38.4100
  606.5000    73.4050    12.8719    12.8723    14.7527   -38.4115
  607.0000    72.7951    12.7849    12.9651    14.7568   -38.4129
  607.5000    72.4886    12.6985    12.9677    14.7617   -38.4144
  608.0000    75.2165    12.6133    12.8801    14.5604   -38.4158
  608.5000    79.7659    12.6159    12.8827    14.4618   -38.7207
  609.0000    81.2812    12.5300    12.7956    14.3648   -39.1778
  609.5000    80.9741    12.4459    12.6207    14.4705   -39.6345
