~VERSION INFORMATION
 VERS.                2.0:   CWLS LOG ASCII STANDARD - VERSION 2.0
 WRAP.                 NO:   ONE LINE PER DEPTH STEP
~WELL INFORMATION
#MNEM.UNIT      DATA TYPE    INFORMATION
#----------   ------------   ------------------------------
 STRT.F          906.5000:   START DEPTH
 STOP.F         2710.5000:   STOP DEPTH
 STEP.F            0.5000:   STEP LENGTH
 NULL.          -999.2500:   NO VALUE
 COMP.   FLUOR DANIEL INC:   COMPANY
 WELL. NAVAL PETROLEUM RESERVE 3 X-4 #77-4:   WELL
 FLD .             TEAPOT:   FIELD
 LOC .       S4 T38N R78W:   LOCATION
 CNTY.            NATRONA:   COUNTY
 STAT.            WYOMING:   STATE
 CTRY. UNITED STATES OF AMERICA:   COUNTRY
 SRVC.            Unknown:   SERVICE COMPANY
 DATE.        21-JUN-1995:   LOGDATE
 API .       490252273600:   API NUMBER
~CURVE INFORMATION
#MNEM.UNIT       API CODE    CURVE DESCRIPTION
#----------   ------------   ------------------------------
 DEPT.F                  :   
 TGAS.UNITS  91 830 01 00:   TOTAL GAS FROM HOTWIRE
 ROP .MIN/FT 91 810 01 00:   RAT OF DRILLING PENETRATION
~PARAMETER INFORMATION
#MNEM.UNIT          VALUE    DESCRIPTION
#----------   ------------   ------------------------------
 EKB .F              5291:   KELLING BUSHING
 EGL .F              5281:   GROUND LEVEL
 DATE.            6-21-95:   RUN DATE
 DD  .F              2711:   DEPTH DRILLER
 CBD .F               893:   CASING BOTTOM DRILLER
 ENGI.               HUSK:   RECORDING ENGINEER
 WITN.              TOWER:   WITNESSED BY
 CLNT.            A2DTECH:   CLIENT CODE
 ORIG.           5" PRINT:   ORIGIN OF DATA
 UWI .       490252273600:   UNIQUE WELL ID
 DICO. A2D Technologies, Inc.:   DIGITIZING COMPANY
~OTHER INFORMATION
~A   DEPT      TGAS         ROP 
# ...
 2486.0000   235.4952     0.5978
 2486.5000   235.4489     0.5983
 2487.0000   235.4026     0.5875
 2487.5000   235.3563     0.5882
 2488.0000   235.3100     0.5772
 2488.5000   235.2637     0.5779
 2489.0000   235.2174     0.5785
 2489.5000   235.1711     0.5790
 2490.0000   235.1248     0.5681
 2490.5000   235.0785     0.5688
 2491.0000   235.0322     0.5694
 2491.5000   234.9859     0.5699
 2492.0000   234.9396     0.5705
 2492.5000   234.8933     0.5824
 2493.0000   234.8470     0.5831
 2493.5000   234.8007     0.5836
 2494.0000   234.7544     0.5842
 2494.5000   234.7081     0.5847
 2495.0000   234.6618     0.5852
 2495.5000   234.6155     0.5859
 2496.0000   234.5692     0.5864
 2496.5000   234.5229     0.5870
 2497.0000   234.4766     0.5888
 2497.5000   234.4303     0.5911
 2498.0000   234.3840     0.5934
 2498.5000   234.3377     0.5956
 2499.0000   234.2914     0.5979
 2499.5000   234.2451     0.6001
 2500.0000   234.1988     0.6066
 2500.5000   234.1525     0.6057
 2501.0000   234.1062     0.6049
 2501.5000   234.0599     0.6040
 2502.0000   234.0135     0.6032
 2502.5000   233.9673     0.6023
 2503.0000   233.9210     0.6015
 2503.5000   233.8746     0.6007
 2504.0000   233.8284     0.5998
 2504.5000   233.7821     0.5990
 2505.0000   233.7357     0.5981
 2505.5000   233.6895     0.5973
 2506.0000   233.6432     0.5964
 2506.5000   233.5968     0.5956
 2507.0000   233.5506     0.5947
 2507.5000   233.5043     0.5939
 2508.0000   233.4579     0.5930
 2508.5000   233.4117     0.5922
 2509.0000   233.3653     0.5913
 2509.5000   233.3190     0.5905
 2510.0000   233.2728     0.5897
 2510.5000   233.2264     0.5888
 2511.0000   233.1801     0.5880
 2511.5000   233.1339     0.5871
 2512.0000   233.0875     0.5863
 2512.5000   233.0412     0.5854
 2513.0000   232.9949     0.5846
 2513.5000   232.9486     0.5837
 2514.0000   232.9023     0.5829
 2514.5000   232.8560     0.5820
 2515.0000   232.8097     0.5812
 2515.5000   232.7634     0.5803
 2516.0000   232.7171     0.5795
 2516.5000   232.6708     0.5787
 2517.0000   232.6245     0.5778
 2517.5000   232.5782     0.5770
 2518.0000   232.5319     0.5761
 2518.5000   232.4856     0.5753
 2519.0000   232.4393     0.5744
 2519.5000   232.3930     0.5736
 2520.0000   232.3467     0.5727
 2520.5000   232.3004     0.5723
 2521.0000   232.2541     0.5720
 2521.5000   232.2078     0.5717
 2522.0000   232.1615     0.5601
 2522.5000   232.1152     0.5598
 2523.0000   232.0689     0.5595
 2523.5000   232.0226     0.5592
 2524.0000   231.9763     0.5590
 2524.5000   231.9300     0.5587
 2525.0000   231.8837     0.5583
 2525.5000   231.8374     0.5581
 2526.0000   231.7911     0.5464
 2526.5000   231.7448     0.5348
 2527.0000   231.6985     0.5232
 2527.5000   231.6522     0.5229
 2528.0000   231.6059     0.5227
 2528.5000   231.5596     0.5111
 2529.0000   231.5133     0.5107
 2529.5000   231.4670     0.5218
 2530.0000   231.4207     0.5215
 2530.5000   231.3744     0.5212
 2531.0000   231.3281     0.5210
 2531.5000   231.2818     0.5207
 2532.0000   231.2355     0.5204
 2532.5000   231.1892     0.5201
 2533.0000   231.1429     0.5085
 2533.5000   231.0966     0.4968
 2534.0000   231.0503     0.4966
 2534.5000   231.0040     0.4963
 2535.0000   230.9577     0.4960
 2535.5000   230.9114     0.4957
 2536.0000   230.8651     0.4841
 2536.5000   230.8188     0.4952
 2537.0000   230.7725     0.4949
 2537.5000   230.7262     0.4946
 2538.0000   230.6799     0.5057
 2538.5000   230.6336     0.5168
 2539.0000   230.5873     0.5164
 2539.5000   230.5410     0.5275
 2540.0000   230.4947     0.5386
 2540.5000   230.4484     0.5248
 2541.0000   230.4021     0.5361
 2541.5000   230.3558     0.5356
 2542.0000   230.3095     0.5343
 2542.5000   230.2632     0.5330
 2543.0000   230.2169     0.5317
 2543.5000   230.1706     0.5304
 2544.0000   230.1243     0.5291
 2544.5000   230.0780     0.5278
 2545.0000   230.0317     0.5264
 2545.5000   229.9854     0.5251
 2546.0000   229.9391     0.5238
 2546.5000   229.8928     0.5225
 2547.0000   229.8465     0.5212
 2547.5000   229.8002     0.5199
 2548.0000   229.7539     0.5186
 2548.5000   229.7076     0.5173
 2549.0000   229.6613     0.5160
 2549.5000   229.6150     0.5147
 2550.0000   229.5687     0.5135
 2550.5000   229.5224     0.5135
 2551.0000   229.4761     0.5135
 2551.5000   229.4298     0.5135
 2552.0000   229.3835     0.5135
 2552.5000   229.3372     0.5135
 2553.0000   229.2909     0.5135
 2553.5000   229.2446     0.5248
 2554.0000   229.1983     0.5135
 2554.5000   229.1520     0.5248
 2555.0000   229.1057     0.5248
 2555.5000   229.0594     0.5248
 2556.0000   229.0131     0.5135
 2556.5000   228.9668     0.5135
 2557.0000   228.9205     0.5135
 2557.5000   228.8742     0.5023
 2558.0000   228.8279     0.5023
 2558.5000   228.7816     0.5023
 2559.0000   228.7353     0.5023
 2559.5000   228.6890     0.5023
 2560.0000   228.6352     0.5135
 2560.5000   228.6064     0.5044
 2561.0000   228.5720     0.5063
 2561.5000   228.5376     0.5082
 2562.0000   228.5033     0.5102
 2562.5000   228.4689     0.5121
 2563.0000   228.4345     0.5135
 2563.5000   228.4001     0.5135
 2564.0000   228.3658     0.5135
 2564.5000   228.3314     0.5135
 2565.0000   228.2970     0.5248
 2565.5000   228.2626     0.5135
 2566.0000   228.2283     0.5135
 2566.5000   228.1939     0.5135
 2567.0000   228.1595     0.5135
 2567.5000   228.1251     0.5135
 2568.0000   228.0907     0.5135
 2568.5000   228.0564     0.5135
 2569.0000   228.0220     0.5107
 2569.5000   227.9876     0.4991
 2570.0000   227.9532     0.4989
 2570.5000   227.9189     0.4986
 2571.0000   227.8845     0.4870
 2571.5000   227.8501     0.4753
 2572.0000   227.8157     0.4637
 2572.5000   227.7814     0.4521
 2573.0000   227.7470     0.4518
 2573.5000   227.7126     0.4515
 2574.0000   227.6782     0.4512
 2574.5000   227.6438     0.4510
 2575.0000   227.6095     0.4507
 2575.5000   227.5751     0.4617
 2576.0000   227.5407     0.4728
 2576.5000   227.5063     0.4725
 2577.0000   227.4720     0.4722
 2577.5000   227.4376     0.4719
 2578.0000   227.4032     0.4830
 2578.5000   227.3688     0.4827
 2579.0000   227.3345     0.4938
 2579.5000   227.3001     0.4935
 2580.0000   227.2657     0.4931
 2580.5000   227.2313     0.4929
 2581.0000   227.1970     0.5040
 2581.5000   227.1626     0.5151
 2582.0000   227.1282     0.5147
 2582.5000   227.0938     0.5031
 2583.0000   227.0594     0.5142
 2583.5000   227.0251     0.5139
 2584.0000   226.9907     0.5136
 2584.5000   226.9563     0.5133
 2585.0000   226.9219     0.5130
 2585.5000   278.4315     0.5354
 2586.0000   281.1889     0.5351
 2586.5000   281.7159     0.5349
 2587.0000   281.6602     0.5346
 2587.5000   282.1872     0.5456
 2588.0000   282.1315     0.5585
 2588.5000   282.0869     0.6245
 2589.0000   282.0416     0.6241
 2589.5000   281.9960     0.6238
 2590.0000   281.9421     0.6236
 2590.5000   281.8976     0.6233
 2591.0000   281.8530     0.6230
 2591.5000   281.8085     0.6227
 2592.0000   281.2035     0.6224
 2592.5000   281.1590     0.6221
 2593.0000   281.6859     0.6218
 2593.5000   281.6302     0.6216
 2594.0000   282.1466     0.6213
 2594.5000   282.1011     0.6210
 2595.0000   282.0555     0.6207
 2595.5000   282.0013     0.6205
 2596.0000   283.0775     0.6202
 2596.5000   283.0330     0.6199
 2597.0000   282.9884     0.6196
 2597.5000   282.9438     0.6193
 2598.0000   282.8993     0.6190
 2598.5000   281.7339     0.6187
 2599.0000   281.1290     0.6185
 2599.5000   280.5240     0.6069
 2600.0000   279.3586     0.6066
 2600.5000   278.1924     0.5832
 2601.0000   278.1468     0.5713
 2601.5000   276.4134     0.5707
 2602.0000   274.2702     0.5701
 2602.5000   274.2590     0.5580
 2603.0000   274.2457     0.5574
 2603.5000   274.2347     0.5456
 2604.0000   273.6634     0.5563
 2604.5000   273.0920     0.5556
 2605.0000   273.0811     0.5664
 2605.5000   273.0701     0.5543
 2606.0000   273.6195     0.5537
 2606.5000   274.1690     0.5531
 2607.0000   274.1580     0.5524
