~VERSION INFORMATION
 VERS.                2.0:   CWLS LOG ASCII STANDARD - VERSION 2.0
 WRAP.                 NO:   ONE LINE PER DEPTH STEP
~WELL INFORMATION
#MNEM.UNIT      DATA TYPE    INFORMATION
#----------   ------------   ------------------------------
 STRT.F            0.0000:   START DEPTH
 STOP.F          700.0000:   STOP DEPTH
 STEP.F            0.5000:   STEP LENGTH
 NULL.          -999.2500:   NO VALUE
 COMP. FENIX & SCISSON INC:   COMPANY
 WELL. 37-11 SX 11 WP #11-11:   WELL
 FLD .             TEAPOT:   FIELD
 LOC .      S11 T38N R78W:   LOCATION
 CNTY.            NATRONA:   COUNTY
 STAT.            WYOMING:   STATE
 CTRY. UNITED STATES OF AMERICA:   COUNTRY
 SRVC.      Dresser Atlas:   SERVICE COMPANY
 DATE.        21-AUG-1980:   LOGDATE
 API .       490251084200:   API NUMBER
~CURVE INFORMATION
#MNEM.UNIT       API CODE    CURVE DESCRIPTION
#----------   ------------   ------------------------------
 DEPT.F                  :   
 SPR .MV     07 010 01 00:   SPONTANEOUS POTENTIAL
 RFOC.OHMM   07 220 04 00:   RESISTIVITY FOCUSED LOG
 RILD.OHMM   07 120 46 00:   INDUCTION LOG DEEP RESISTIVITY
 RILM.OHMM   07 120 44 00:   INDUCTION LOG MEDIUM RESISTIVITY
 GRD .GAPI   45 310 01 00:   GAMMA RAY FROM DENSITY LOG
 CALD.IN     45 280 60 00:   CALIPER
 RHOB.G/C3   45 350 01 00:   BULK DENSITY
 CORR.G/C3   45 356 01 00:   DENSITY CORRECTION
 CNC .DEC    42 890 03 00:   NEUTRON POROSITY SANDSTONE
 PORD.DEC    45 890 12 00:   POROSITY DENSITY SANDSTONE
~PARAMETER INFORMATION
#MNEM.UNIT          VALUE    DESCRIPTION
#----------   ------------   ------------------------------
 PD  .                 GL:   PERMANENT DATUM
 EPD .F              5194:   ELEVATION PERMANENT DATUM
 LMF .                 KB:   LOG MEASURED FROM
 DAPD.F                 5:   FEET ABOVE PERMANENT DATUM
 DMF .                 KB:   DRILLING MEASURED FROM
 EKB .F              5199:   KELLING BUSHING
 EDF .F              5198:   DRILLING FLOOR
 EGL .F              5194:   GROUND LEVEL
 DATE.            8-21-80:   RUN DATE
 RUN .                  1:   RUN NUMBER
 DD  .F               695:   DEPTH DRILLER
 DL  .F               700:   DEPTH LOGGER
 BLI .F               699:   BOTTOM LOG INTERVAL
 BS  .IN            7.875:   BIT SIZE
 BSD .F               695:   BIT SIZE AT DEPTH
 DFT .      DISPERSED KCL:   DRILLING FLUID TYPE
 DFD .               2.68:   DRILLING FLUID DENSITY
 DFV .                 50:   DRILLING FLUID VISCOSITY
 DFPH.                 14:   DRILLING FLUID PH
 DFL .                 18:   DRILLING FLUID LOSS
 MSS .           FLOWLINE:   MUD SAMPLE SOURCE
 RMS .OHMM           .256:   RESISTIVITY MUD SAMPLE
 MST .F                70:   MUD SAMPLE TEMPERATURE
 RMF .OHMM           .393:   RESISTIVITY MUD FILTRATE SAMPLE
 MFST.F                66:   MUD FILTRATE SAMPLE TEMPERATURE
 RMC .OHMM           .858:   RESISTIVITY MUD CAKE
 MCST.F                66:   MUD CAKE SAMPLE TEMPERATURE
 MFSS.               MEAS:   MUD FILTRATE SAMPLE SOURCE
 MCSS.               MEAS:   MUD CAKE SAMPLE SOURCE
 RMB .OHMM            .53:   RESISTIVITY MUD AT BHT
 BHT .F                99:   BOTTOM HOLE TEMPERATURE
 TCS .HRS               3:   TIME CURCULATED STOPPED
 MRT .F                99:   MAXIMUM RECORDED TEMPERATURE
 LUN .               9369:   LOGGING UNIT NUMBER
 LUL .       ROCK SPRINGS:   LOGGING UNIT LOCATION
 ENGI.            PAULSON:   RECORDING ENGINEER
 WITN.              SCOTT:   WITNESSED BY
 CLNT.            A2DTECH:   CLIENT CODE
 ORIG.       2", 5" PRINT:   ORIGIN OF DATA
 UWI .       490251084200:   UNIQUE WELL ID
 DICO. A2D Technologies, Inc.:   DIGITIZING COMPANY
~OTHER INFORMATION
~A    DEPT     SPR       RFOC       RILD       RILM        GRD       CALD       RHOB       CORR        CNC         PORD 
# ...
  268.0000   -10.4859     8.0587     7.3780     7.5386   107.5853     8.0262     2.5173    -0.0008     0.2677     0.1139
  268.5000   -10.7537     8.0397     7.3837     7.5472   102.2770     8.0262     2.5269    -0.0080     0.2788     0.1122
  269.0000   -10.8832     8.0167     7.3893     7.5603    98.4709     8.0263     2.5037    -0.0238     0.2898     0.1063
  269.5000   -10.4599     7.9938     7.3949     7.5781    98.0655     8.0270     2.4851    -0.0362     0.2938     0.0859
  270.0000    -9.8059     7.9709     7.4006     7.5959    98.5761     7.9939     2.4868    -0.0312     0.2803     0.0655
  270.5000    -9.1585     7.9481     7.4063     7.6137    99.3277     7.9677     2.4920    -0.0222     0.2658     0.0547
  271.0000    -9.1974     7.9253     7.4133     7.6224   100.6019     7.9793     2.5060    -0.0099     0.2640     0.0677
  271.5000    -9.4978     7.9106     7.3859     7.5541   102.8072     7.9901     2.5419     0.0147     0.2711     0.0826
  272.0000   -10.7100     8.2421     7.3492     7.5033   104.8814     8.0009     2.5778     0.0350     0.2803     0.0816
  272.5000   -11.8879     8.6013     7.3127     7.4759   105.2054     8.0085     2.5871     0.0275     0.2862     0.0809
  273.0000   -13.0830     8.3745     7.2764     7.4431   103.0864     8.0135     2.5573     0.0189     0.2901     0.0834
  273.5000   -13.3119     8.0131     7.2402     7.4104    97.6090     8.0183     2.5410     0.0165     0.2840     0.0817
  274.0000   -11.7179     7.6211     7.2042     7.3779    92.5299     8.0232     2.5426     0.0186     0.2759     0.0792
  274.5000    -9.8272     7.6224     7.1685     7.3455    93.0428     8.0262     2.5410     0.0207     0.2684     0.0786
  275.0000    -8.5309     7.6221     7.1329     7.3133    96.1001     8.0262     2.5394     0.0256     0.2668     0.0822
  275.5000    -7.2216     7.6224     7.0974     7.2811   101.3953     8.0262     2.5428     0.0311     0.2760     0.0903
  276.0000    -4.1321     7.6221     7.0622     7.2492   103.9853     8.0262     2.5473     0.0368     0.2841     0.0983
  276.5000    -1.0590     7.6520     7.0271     7.2171   101.7847     8.0262     2.5450     0.0281     0.2922     0.1065
  277.0000    -0.0407     7.7357     7.0120     7.2100    98.9769     8.0273     2.5326     0.0167     0.2930     0.1020
  277.5000     0.0772     7.8376     7.0120     7.2099    97.5569     8.0326     2.5203     0.0053     0.2891     0.0952
  278.0000     0.1783     7.7926     7.0120     7.2099    96.8121     8.0377     2.5081     0.0005     0.2824     0.0944
  278.5000     0.2864     7.7369     7.0120     7.2099    96.7368     8.0428     2.5034     0.0037     0.2776     0.0996
  279.0000     0.1659     7.6817     7.0120     7.2099    97.3669     8.0464     2.5122     0.0151     0.2804     0.1001
  279.5000    -0.0166     7.6268     7.0118     7.2098    98.0317     8.0464     2.5194     0.0167     0.2925     0.1005
  280.0000    -0.2033     7.5723     7.0122     7.2098    99.6241     8.0464     2.5137     0.0075     0.3058     0.0984
  280.5000    -0.5057     7.5175     7.0466     7.2099   102.1639     8.0464     2.5094     0.0023     0.2984     0.0911
  281.0000    -0.9753     7.4815     7.0852     7.2672   104.4563     8.0434     2.5090     0.0146     0.2883     0.0915
  281.5000    -1.4406     7.5564     7.1240     7.3470   105.8026     8.0395     2.5097     0.0188     0.2676     0.0982
  282.0000    -1.9099     7.6367     7.1630     7.4276   106.5113     8.0355     2.5180     0.0242     0.2555     0.1028
  282.5000    -2.0942     7.7174     7.2021     7.5091   106.8720     8.0316     2.5260     0.0335     0.2683     0.0778
  283.0000    -2.0293     7.8412     7.2492     7.5916   106.4405     8.0276     2.5166     0.0340     0.2810     0.0762
  283.5000    -1.9602     8.0288     7.2983     7.6225   104.0044     8.0306     2.5068     0.0322     0.2934     0.0840
  284.0000    -1.8902     8.2211     7.3476     7.6225   100.7926     8.0373     2.5255     0.0348     0.2968     0.0915
  284.5000    -1.8218     8.3651     7.3982     7.6529    98.2694     8.0442     2.5494     0.0378     0.2986     0.0738
  285.0000    -1.7481     8.2816     7.4702     7.7178    97.4298     8.0446     2.5505     0.0273     0.2964     0.0686
  285.5000    -1.9761     8.1899     7.5538     7.7832    96.1419     8.0420     2.5268     0.0172     0.2946     0.0678
  286.0000    -2.3465     8.0993     7.6383     7.8493    95.2539     8.0394     2.5253     0.0148     0.3026     0.0672
  286.5000    -2.3997     8.0587     7.6935     7.9159    95.5396     8.0367     2.5563     0.0241     0.3255     0.0625
  287.0000    -2.1198     8.0587     7.6567     7.9843    96.8497     8.0341     2.5632     0.0289     0.3036     0.0637
  287.5000    -1.9815     8.3763     7.6247     8.0261    98.8192     8.0315     2.5626     0.0280     0.2841     0.0787
  288.0000    -2.1470     8.7131     7.5928     8.0976   100.0047     8.0289     2.5694     0.0301     0.2640     0.0898
  288.5000    -2.3150     8.9261     7.5612     8.1697   102.3146     8.0263     2.5742     0.0338     0.2720     0.0907
  289.0000    -2.0781     8.5004     7.5297     8.2096   105.0305     8.0281     2.5502     0.0173     0.2803     0.0909
  289.5000    -1.7545     8.1708     7.4993     8.0239   105.2467     8.0301     2.5265     0.0051     0.2848     0.0959
  290.0000    -1.4292     8.1143     7.4255     7.7853   103.0934     8.0321     2.5241    -0.0002     0.2866     0.1008
  290.5000    -1.5394     8.0855     7.3136     7.4824   103.0163     8.0340     2.5238    -0.0048     0.2832     0.1008
  291.0000    -2.0199     8.0576     7.2020     7.4215   104.1096     8.0360     2.5143     0.0006     0.2773     0.0691
  291.5000    -2.1292     8.0294     7.0923     7.3384   103.3752     8.0380     2.5118     0.0069     0.2813     0.0605
  292.0000    -2.1463     8.0014     6.9843     7.2562   101.3971     8.0399     2.5258     0.0179     0.2956     0.0658
  292.5000    -2.7646     7.9194     6.8780     7.1749   100.7708     8.0419     2.5510     0.0303     0.3131     0.0831
  293.0000    -3.4345     7.7563     6.7732     7.0752   104.5816     8.0439     2.5765     0.0364     0.3135     0.0916
  293.5000    -4.1032     7.5965     6.6853     6.9645   105.9211     8.0460     2.5677     0.0324     0.3086     0.1083
  294.0000    -4.7708     7.4401     6.6483     6.8555   105.5241     8.0409     2.5513     0.0259     0.3018     0.1186
  294.5000    -5.4431     7.2868     6.6115     6.7483   104.4924     8.0333     2.5326     0.0197     0.2950     0.0865
  295.0000    -6.0363     7.2099     6.5712     6.6943   105.2549     8.0257     2.5034     0.0078     0.2901     0.0689
  295.5000    -6.6574     7.2320     6.6202     6.8236   107.9244     8.0182     2.4792    -0.0065     0.2892     0.0749
  296.0000    -6.9793     7.2469     6.6748     6.9252   112.1943     8.0113     2.5062     0.0007     0.2881     0.0855
  296.5000    -7.2210     7.2618     6.7300     7.0157   113.6963     8.0243     2.5482     0.0249     0.2709     0.0764
  297.0000    -7.3806     7.2771     6.7856     7.0395   112.6507     8.0266     2.5626     0.0297     0.2613     0.0610
  297.5000    -7.0859     7.6220     6.8416     7.0633   109.4120     8.0262     2.5388     0.0244     0.2568     0.0548
  298.0000    -6.3249     7.9955     6.8982     7.0890   105.1408     8.0262     2.5303     0.0228     0.2524     0.0807
  298.5000    -5.4602     8.2155     6.9551     7.1432   102.5746     8.0262     2.5763     0.0299     0.2512     0.1036
  299.0000    -4.5945     7.7309     7.0126     7.1977   101.6835     8.0262     2.5877     0.0370     0.2603     0.1069
  299.5000    -3.8285     7.3449     7.0705     7.2527    99.0440     8.0262     2.5569     0.0269     0.2766     0.1032
  300.0000    -3.2812     7.5591     7.1068     7.3081    96.6879     8.0262     2.5184     0.0143     0.2931     0.0970
  300.5000    -3.0941     7.8094     7.1403     7.3637    95.4526     8.0262     2.4988     0.0093     0.3093     0.0916
  301.0000    -3.0128     7.9843     7.1739     7.4139    95.0726     8.0262     2.5042     0.0068     0.3004     0.0887
