~VERSION INFORMATION
 VERS.                2.0:   CWLS LOG ASCII STANDARD - VERSION 2.0
 WRAP.                 NO:   ONE LINE PER DEPTH STEP
~WELL INFORMATION
#MNEM.UNIT      DATA TYPE    INFORMATION
#----------   ------------   ------------------------------
 STRT.F           31.0000:   START DEPTH
 STOP.F          662.0000:   STOP DEPTH
 STEP.F            0.5000:   STEP LENGTH
 NULL.          -999.2500:   NO VALUE
 COMP. FENIX & SCISSON INC:   COMPANY
 WELL.   NPR-3 #83SX15-15:   WELL
 FLD .             TEAPOT:   FIELD
 LOC .      S15 T38N R78W:   LOCATION
 CNTY.            NATRONA:   COUNTY
 STAT.            WYOMING:   STATE
 CTRY. UNITED STATES OF AMERICA:   COUNTRY
 SRVC.            Unknown:   SERVICE COMPANY
 DATE.        17-MAY-1978:   LOGDATE
 API .       490251062500:   API NUMBER
~CURVE INFORMATION
#MNEM.UNIT       API CODE    CURVE DESCRIPTION
#----------   ------------   ------------------------------
 DEPT.F                  :   
 SN  .OHMM   07 040 16 00:   SHORT NORMAL 16'
 ILD .OHMM   07 120 46 00:   INDUCTION LOG DEEP
 CALD.IN     45 280 60 00:   CALIPER
 GRD .GAPI   45 310 01 00:   GAMMA RAY FROM DENSITY LOG
 RHOB.G/C3   45 350 01 00:   BULK DENSITY
 DPHI.DEC    45 890 10 00:   DENSITY POROSITY SANDSTONE
 CORR.G/C3   45 356 01 00:   DENSITY CORRECTION
~PARAMETER INFORMATION
#MNEM.UNIT          VALUE    DESCRIPTION
#----------   ------------   ------------------------------
 PD  .                 GL:   PERMANENT DATUM
 EPD .F              5265:   ELEVATION PERMANENT DATUM
 LMF .                 KB:   LOG MEASURED FROM
 DMF .                 KB:   DRILLING MEASURED FROM
 EKB .F              5269:   KELLING BUSHING
 EGL .F              5265:   GROUND LEVEL
 DATE.          5-17-1978:   RUN DATE
 RUN .                  1:   RUN NUMBER
 DD  .F               670:   DEPTH DRILLER
 DL  .F               668:   DEPTH LOGGER
 BLI .F               662:   BOTTOM LOG INTERVAL
 TLI .F                40:   TOP LOG INTERVAL
 CS  .IN            8.625:   CASING SIZE
 CBD .F                40:   CASING BOTTOM DRILLER
 BS  .IN            7.875:   BIT SIZE
 BSD .F               670:   BIT SIZE AT DEPTH
 DFT .                KCL:   DRILLING FLUID TYPE
 DFD .                8.6:   DRILLING FLUID DENSITY
 DFV .                 31:   DRILLING FLUID VISCOSITY
 DFPH.                 10:   DRILLING FLUID PH
 BHT .F                75:   BOTTOM HOLE TEMPERATURE
 TCS .HRS               2:   TIME CURCULATED STOPPED
 MRT .F                75:   MAXIMUM RECORDED TEMPERATURE
 LUN .               3006:   LOGGING UNIT NUMBER
 LUL .                CPR:   LOGGING UNIT LOCATION
 ENGI.             MILLER:   RECORDING ENGINEER
 WITN.           MCGINLEY:   WITNESSED BY
 CLNT.            A2DTECH:   CLIENT CODE
 ORIG.      2" & 5" PRINT:   ORIGIN OF DATA
 UWI .       490251062500:   UNIQUE WELL ID
 DICO. A2D Technologies, Inc.:   DIGITIZING COMPANY
~OTHER INFORMATION
~A   DEPT       SN        ILD       CALD         GRD      RHOB       DPHI       CORR   
# ...
  622.5000    10.0191    11.6998     7.3011    55.7929     2.4275     0.1531     0.0511
  623.0000    10.0037    11.6409     7.2598    54.1211     2.4199     0.1590     0.0448
  623.5000     9.9883    11.5822     7.2185    51.6932     2.4130     0.1614     0.0384
  624.0000     9.9729    11.5238     7.1772    51.9494     2.4129     0.1610     0.0343
  624.5000     9.9575    11.4658     7.1358    52.4795     2.4129     0.1595     0.0329
  625.0000     9.9422    11.4080     7.0944    52.2865     2.4129     0.1591     0.0314
  625.5000     9.9269    11.3505     7.0516    53.7318     2.4129     0.1587     0.0315
  626.0000     9.9116    11.2933     7.0417    55.6272     2.4138     0.1614     0.0322
  626.5000     9.8963    11.2364     7.0669    56.7014     2.4163     0.1614     0.0329
  627.0000     9.8811    11.1798     7.1126    56.7352     2.4258     0.1535     0.0336
  627.5000     9.8658    11.1234     7.1583    58.2415     2.4355     0.1480     0.0343
  628.0000     9.8506    11.0674     7.2044    59.8324     2.4452     0.1448     0.0350
  628.5000     9.8354    11.0116     7.2273    61.4201     2.4469     0.1416     0.0357
  629.0000     9.8203    10.9561     7.2379    62.9147     2.4470     0.1416     0.0364
  629.5000     9.8052    10.9403     7.2364    61.3357     2.4469     0.1426     0.0371
  630.0000     9.7909    10.9404     7.2297    59.3043     2.4513     0.1402     0.0377
  630.5000     9.7780    10.9403     7.2223    57.2446     2.4579     0.1359     0.0384
  631.0000     9.7652    10.9403     7.2406    55.1812     2.4602     0.1350     0.0391
  631.5000     9.7524    10.9404     7.2672    56.0269     2.4606     0.1350     0.0398
  632.0000     9.7396    10.9379     7.2943    57.7317     2.4617     0.1350     0.0405
  632.5000     9.7268    10.9345     7.3192    59.0670     2.4678     0.1251     0.0408
  633.0000     9.7140    10.9311     7.2937    58.6495     2.4731     0.1254     0.0400
  633.5000     9.7013    10.9277     7.2661    58.3603     2.4730     0.1270     0.0393
  634.0000     9.6885    10.9243     7.2386    59.6691     2.4729     0.1286     0.0415
  634.5000     9.6758    10.9210     7.2110    60.8747     2.4748     0.1242     0.0457
  635.0000     9.6631    10.9176     7.1827    61.0814     2.4791     0.1197     0.0486
  635.5000     9.6504    10.9142     7.1902    60.7359     2.4853     0.1154     0.0461
  636.0000     9.6378    10.9108     7.2006    60.6998     2.4859     0.1152     0.0437
  636.5000     9.6251    10.9074     7.2109    61.5928     2.4866     0.1151     0.0413
  637.0000     9.6125    10.9040     7.2205    64.8046     2.4870     0.1157     0.0398
  637.5000     9.5999    10.9006     7.2029    66.2477     2.4858     0.1196     0.0385
  638.0000     9.5873    10.8973     7.1550    66.2976     2.4841     0.1233     0.0372
  638.5000     9.5747    10.8939     7.1079    62.3583     2.4830     0.1195     0.0358
  639.0000     9.5621    10.8905     7.0813    61.3456     2.4830     0.1180     0.0345
  639.5000     9.5496    10.8871     7.0949    61.6881     2.4830     0.1217     0.0331
  640.0000     9.5371    10.8837     7.1143    62.0845     2.4830     0.1210     0.0318
  640.5000     9.5246    10.8804     7.1339    60.2557     2.4830     0.1214     0.0310
  641.0000     9.5120    10.8770     7.1536    58.1490     2.4830     0.1222     0.0310
  641.5000     9.4996    10.8736     7.1732    58.3028     2.4838     0.1207     0.0333
  642.0000     9.4871    10.8702     7.1928    59.4335     2.4872     0.1183     0.0389
  642.5000     9.4747    10.8669     7.2124    58.6211     2.4945     0.1140     0.0438
  643.0000     9.4622    10.8635     7.2320    58.0266     2.5017     0.1075     0.0470
  643.5000     9.4498    10.8601     7.2516    60.3484     2.5090     0.1009     0.0502
  644.0000     9.4374    10.8567     7.2712    61.8543     2.5163     0.0944     0.0529
  644.5000     9.4250    10.8534     7.2909    61.9920     2.5236     0.0882     0.0508
  645.0000     9.4126    10.8500     7.3034    62.0906     2.5270     0.0885     0.0487
  645.5000     9.4003    10.8467     7.3088    62.4463     2.5259     0.0911     0.0469
  646.0000     9.3880    10.8431     7.3142    62.8803     2.5181     0.0938     0.0467
  646.5000     9.3757    10.8421     7.3201    63.3260     2.5103     0.0991     0.0465
  647.0000     9.3634    10.7619     7.2984    63.7706     2.5024     0.1046     0.0462
  647.5000     9.3439    10.6698     7.2692    64.2212     2.4986     0.1058     0.0460
  648.0000     9.3074    10.5784     7.2425    64.2371     2.4956     0.1090     0.0457
  648.5000     9.2711    10.4877     7.2646    64.1523     2.4926     0.1127     0.0455
  649.0000     9.2349    10.3979     7.2881    64.7909     2.4896     0.1164     0.0453
  649.5000     9.1988    10.3088     7.2928    65.8855     2.4880     0.1199     0.0449
  650.0000     9.1630    10.2205     7.2757    65.0001     2.4904     0.1159     0.0480
  650.5000     9.1272    10.1329     7.2652    64.1501     2.4953     0.1130     0.0514
  651.0000     9.0916    10.0461     7.3084    65.1051     2.5001     0.1105     0.0548
  651.5000     9.0562     9.9601     7.3517    66.2468     2.5050     0.1064     0.0583
  652.0000     9.0208     9.8747     7.3952    66.4638     2.5098     0.1023     0.0574
  652.5000     8.9856     9.7956     7.4381    66.6251     2.5094     0.0998     0.0553
  653.0000     8.9510     9.6612     7.4208    66.7923     2.5082     0.1026     0.0531
  653.5000     8.8581     9.5366     7.3991    66.9611     2.5069     0.1078     0.0512
  654.0000     8.7135     9.4136     7.3779    67.1004     2.5108     0.1041     0.0562
  654.5000     8.5710     9.2922     7.3649    66.9485     2.5155     0.0982     0.0608
  655.0000     8.4309     9.1863     7.3963    66.7949     2.5178     0.0934     0.0594
  655.5000     8.2932     9.0849     7.4270    66.8751     2.5183     0.0934     0.0578
  656.0000     8.1577     8.9846     7.4575    67.9030     2.5187     0.0948     0.0576
  656.5000     8.0244     8.8854     7.4885    68.7579     2.5190     0.0970     0.0588
  657.0000     7.8933     8.7872     7.4927    67.2868     2.5180     0.0991     0.0600
  657.5000     7.7644     8.6902     7.4814    65.5338     2.5169     0.1014     0.0621
  658.0000     7.6397     8.3620     7.4698    63.7848     2.5173     0.0986     0.0698
  658.5000     7.4200     7.9748     7.4582    64.4637     2.5264     0.0950     0.0777
  659.0000     7.1044     7.6039     7.4462    66.7001     2.5327     0.0906     0.0741
  659.5000     6.7603     7.2504     7.4164    67.7739     2.5212     0.0979     0.0679
  660.0000     6.1758     6.9135     7.3637    65.6819     2.5071     0.1068     0.0632
  660.5000     5.7077     6.5922     7.3116    69.0301     2.4943     0.1154     0.0645
  661.0000     5.5357     6.2854     7.2582    70.2236     2.4923     0.1154     0.0746
  661.5000     5.3689     5.9940     7.1649    70.0520     2.5400     0.1133     0.0861
  662.0000     5.2848     5.7659     7.0494    69.9762     2.5613     0.1113     0.0732
