~VERSION INFORMATION
 VERS.                2.0:   CWLS LOG ASCII STANDARD - VERSION 2.0
 WRAP.                 NO:   ONE LINE PER DEPTH STEP
~WELL INFORMATION
#MNEM.UNIT      DATA TYPE    INFORMATION
#----------   ------------   ------------------------------
 STRT.F           19.5000:   START DEPTH
 STOP.F         1292.5000:   STOP DEPTH
 STEP.F            0.5000:   STEP LENGTH
 NULL.          -999.2500:   NO VALUE
 COMP. FENIX & SCISSON INC:   COMPANY
 WELL.  NPR-3 "SX" #74-14:   WELL
 FLD .             TEAPOT:   FIELD
 LOC .      S14 T38N R78W:   LOCATION
 CNTY.            NATRONA:   COUNTY
 STAT.            WYOMING:   STATE
 CTRY. UNITED STATES OF AMERICA:   COUNTRY
 SRVC.            Unknown:   SERVICE COMPANY
 DATE.        22-MAR-1978:   LOGDATE
 API .       490251060300:   API NUMBER
~CURVE INFORMATION
#MNEM.UNIT       API CODE    CURVE DESCRIPTION
#----------   ------------   ------------------------------
 DEPT.F                  :   
 SPR .MV     05 010 01 00:   SPONTANEOUS POTENTIAL
 SN  .OHMM   05 040 16 00:   SHORT NORMAL 16'
 ILD .OHMM   05 120 46 00:   INDUCTION LOG DEEP
 CALD.IN     45 280 60 00:   CALIPER
 GRD .GAPI   45 310 01 00:   GAMMA RAY FROM DENSITY LOG
 CORR.G/C3   45 356 01 00:   DENSITY CORRECTION
 RHOB.G/C3   45 350 01 00:   BULK DENSITY
 DPHI.DEC    45 890 12 00:   DENSITY POROSITY SANDSTONE
~PARAMETER INFORMATION
#MNEM.UNIT          VALUE    DESCRIPTION
#----------   ------------   ------------------------------
 PD  .                 GL:   PERMANENT DATUM
 EPD .F              5312:   ELEVATION PERMANENT DATUM
 LMF .                 KB:   LOG MEASURED FROM
 DMF .                 KB:   DRILLING MEASURED FROM
 EKB .F              5316:   KELLING BUSHING
 EGL .F              5312:   GROUND LEVEL
 DATE.          3-22-1978:   RUN DATE
 RUN .                  1:   RUN NUMBER
 DD  .F              1280:   DEPTH DRILLER
 DL  .F              1292:   DEPTH LOGGER
 BLI .F              1286:   BOTTOM LOG INTERVAL
 TLI .F                50:   TOP LOG INTERVAL
 CS  .IN            8.625:   CASING SIZE
 CBD .F                50:   CASING BOTTOM DRILLER
 CBL .F                50:   CASING BOTTOM LOGGER
 BS  .IN            7.875:   BIT SIZE
 BSD .F              1280:   BIT SIZE AT DEPTH
 DFT .                KCL:   DRILLING FLUID TYPE
 DFD .                8.6:   DRILLING FLUID DENSITY
 DFV .                 31:   DRILLING FLUID VISCOSITY
 DFPH.               10.5:   DRILLING FLUID PH
 DFL .               11.6:   DRILLING FLUID LOSS
 MSS .            MUD PIT:   MUD SAMPLE SOURCE
 RMS .OHMM            .38:   RESISTIVITY MUD SAMPLE
 MST .F                52:   MUD SAMPLE TEMPERATURE
 RMF .OHMM            .32:   RESISTIVITY MUD FILTRATE SAMPLE
 MFST.F                66:   MUD FILTRATE SAMPLE TEMPERATURE
 RMC .OHMM             .4:   RESISTIVITY MUD CAKE
 MCST.F                68:   MUD CAKE SAMPLE TEMPERATURE
 MFSS.           MEASURED:   MUD FILTRATE SAMPLE SOURCE
 RMB .OHMM            .24:   RESISTIVITY MUD AT BHT
 BHT .F                82:   BOTTOM HOLE TEMPERATURE
 TCS .HRS               4:   TIME CURCULATED STOPPED
 MRT .F                82:   MAXIMUM RECORDED TEMPERATURE
 LUN .               2958:   LOGGING UNIT NUMBER
 LUL .               CASP:   LOGGING UNIT LOCATION
 ENGI.            POINTER:   RECORDING ENGINEER
 WITN.           MCGINLEY:   WITNESSED BY
 CLNT.            A2DTECH:   CLIENT CODE
 ORIG.        2" 5" PRINT:   ORIGIN OF DATA
 UWI .       490251060300:   UNIQUE WELL ID
 DICO. A2D Technologies, Inc.:   DIGITIZING COMPANY
~OTHER INFORMATION
~A   DEPT      SPR         SN        ILD       CALD         GRD      CORR       RHOB       DPHI   
# ...
  829.5000   -48.2694     9.4565     9.3046     8.1782    95.2104    -0.0062     2.4692     0.0992
  830.0000   -48.3479     9.4226     9.2742     8.1782   100.0868    -0.0015     2.4650     0.0985
  830.5000   -48.5111     9.3884     9.2226     8.1782   108.0870     0.0039     2.4620     0.0955
  831.0000   -48.6615     9.3543     9.1713     8.1782   105.9784     0.0058     2.4708     0.0924
  831.5000   -49.0075     9.3203     9.1203     8.1782   102.9014     0.0055     2.4756     0.0903
  832.0000   -48.9817     9.2864     9.0696     8.1782   100.9491     0.0052     2.4745     0.0886
  832.5000   -48.3634     9.2526     9.0191     8.1782   101.5399     0.0050     2.4793     0.0908
  833.0000   -48.2265     9.2189     8.9690     8.1782   102.3964     0.0047     2.4770     0.0917
  833.5000   -48.4188     9.1854     8.9191     8.1782   102.3797     0.0044     2.4774     0.0902
  834.0000   -48.3304     9.1520     8.8695     8.1782   102.5407     0.0041     2.4784     0.0903
  834.5000   -48.0266     9.1305     8.8039     8.1782   102.7147     0.0027     2.4746     0.0915
  835.0000   -47.7239     9.1210     8.8113     8.1782   102.1736     0.0093     2.4650     0.0927
  835.5000   -47.5237     9.1117     8.8225     8.1782   101.2014     0.0158     2.4695     0.0898
  836.0000   -47.5958     9.1025     8.8336     8.1782   100.5503     0.0223     2.4762     0.0834
  836.5000   -47.6600     9.0933     8.8448     8.1782   100.3811     0.0243     2.4864     0.0834
  837.0000   -47.7164     9.0841     8.8560     8.1782    98.7319     0.0249     2.4888     0.0826
  837.5000   -47.8682     9.0749     8.8671     8.1782   100.4029     0.0254     2.4913     0.0803
  838.0000   -48.0192     9.0657     8.8841     8.1782   104.6930     0.0258     2.4939     0.0816
  838.5000   -48.1069     9.0566     8.8617     8.1782   108.0198     0.0198     2.4931     0.0831
  839.0000   -48.1070     9.0507     8.7999     8.1782   109.2254     0.0128     2.4910     0.0873
  839.5000   -48.1076     9.0508     8.7384     8.1782   110.7856     0.0059     2.4873     0.0913
  840.0000   -48.1075     9.0507     8.6774     8.1782   112.0025    -0.0010     2.4781     0.0955
  840.5000   -48.1084     9.0505     8.6168     8.1782   107.7804     0.0048     2.4696     0.0978
  841.0000   -48.1088     9.0510     8.5567     8.1782   102.8027     0.0060     2.4669     0.0961
  841.5000   -48.2531     9.0512     8.4970     8.1782   100.7356     0.0076     2.4684     0.0936
  842.0000   -48.5126     8.9599     8.4377     8.1782   101.4486     0.0149     2.4707     0.0910
  842.5000   -48.7727     8.8307     8.3968     8.1782   103.2045     0.0116     2.4768     0.0890
  843.0000   -48.8937     8.7033     8.3749     8.1782   102.8902     0.0065     2.4805     0.0906
  843.5000   -48.8582     8.5778     8.3530     8.1782   102.6079     0.0013     2.4780     0.0933
  844.0000   -48.8239     8.4732     8.3313     8.1782   102.4715    -0.0039     2.4740     0.0954
  844.5000   -48.7887     8.4251     8.3097     8.1782   105.3495    -0.0055     2.4699     0.0979
  845.0000   -48.7534     8.3773     8.2881     8.1782   108.7331    -0.0043     2.4659     0.1004
  845.5000   -48.7194     8.3297     8.2665     8.1782   113.6763    -0.0030     2.4618     0.1014
  846.0000   -48.6132     8.2830     8.1786     8.1782   114.6408    -0.0018     2.4578     0.1000
  846.5000   -48.4664     8.2194     7.9945     8.1782   114.6733    -0.0006     2.4628     0.0981
  847.0000   -48.3194     8.0340     7.8145     8.1782   115.1807    -0.0007     2.4633     0.0963
  847.5000   -48.1715     7.8529     7.6386     8.1782   120.4632    -0.0031     2.4677     0.0956
  848.0000   -48.1082     7.6760     7.4664     8.1782   122.2716    -0.0054     2.4684     0.0968
  848.5000   -48.1077     7.5964     7.3135     8.1782   118.0583    -0.0052     2.4670     0.0981
  849.0000   -48.1076     7.6210     7.2538     8.1782   113.3953    -0.0024     2.4656     0.0994
  849.5000   -48.1076     7.6964     7.2541     8.1782   106.8503     0.0003     2.4643     0.0982
  850.0000   -48.1048     7.7724     7.3637     8.1782    95.3709     0.0030     2.4646     0.0960
  850.5000   -48.2302     7.8495     7.4480     8.1782    90.2485     0.0057     2.4668     0.0926
  851.0000   -48.4038     7.9272     7.5333     8.1782    95.8576     0.0060     2.4731     0.0914
  851.5000   -48.5769     8.0057     7.6196     8.1782   100.9718     0.0060     2.4777     0.0923
  852.0000   -48.6906     8.0849     7.7070     8.1782    99.8866     0.0060     2.4780     0.0933
  852.5000   -48.6109     8.1649     7.8095     8.1782   100.8552     0.0060     2.4783     0.0943
  853.0000   -48.5479     8.1779     7.8033     8.1782   102.7820     0.0093     2.4763     0.0932
  853.5000   -48.4065     8.1779     7.7930     8.1782   102.8342     0.0131     2.4722     0.0902
  854.0000   -48.9671     8.1778     7.7827     8.1782   102.1513     0.0163     2.4797     0.0878
  854.5000   -49.5072     8.1779     7.7726     8.1782   102.0459     0.0175     2.4861     0.0838
  855.0000   -49.6992     8.1779     7.7625     8.1782   101.6389     0.0196     2.4887     0.0841
  855.5000   -49.7120     8.1779     7.7484     8.1782    99.7005     0.0216     2.4893     0.0822
  856.0000   -49.3797     8.1779     7.7371     8.1782    92.8540     0.0121     2.4925     0.0802
  856.5000   -48.9869     8.1779     7.8138     8.1782    91.1531     0.0045     2.4930     0.0857
  857.0000   -48.5854     8.1779     7.8157     8.1782    96.6429     0.0008     2.4858     0.0902
  857.5000   -48.5525     8.1779     7.8209     8.1782   103.4174    -0.0029     2.4766     0.0954
  858.0000   -48.6258     8.1779     7.8254     8.1782   110.1462    -0.0062     2.4707     0.0974
  858.5000   -48.7022     8.1779     7.8301     8.1782   114.3522    -0.0036     2.4673     0.0986
  859.0000   -48.7787     8.1779     7.8349     8.1782   107.1032    -0.0005     2.4666     0.0967
  859.5000   -48.8533     8.1779     7.8396     8.1782   102.4343     0.0026     2.4672     0.0939
  860.0000   -48.8775     8.1779     7.8444     8.1782   101.2397     0.0035     2.4726     0.0946
  860.5000   -48.7813     8.1779     7.8492     8.1782   100.4030     0.0027     2.4725     0.0929
  861.0000   -48.6899     8.1779     7.8539     8.1782   100.9986     0.0020     2.4756     0.0913
  861.5000   -48.5986     8.1778     7.8587     8.1782   103.7233     0.0050     2.4772     0.0908
  862.0000   -48.5071     8.1774     7.8635     8.1782   107.3227     0.0083     2.4766     0.0856
  862.5000   -48.4156     8.2069     7.8682     8.1782   105.8719     0.0095     2.4793     0.0811
  863.0000   -48.3241     8.2356     7.8731     8.1782   104.2877     0.0085     2.4890     0.0826
  863.5000   -48.2325     8.2536     7.8778     8.1782   101.7814     0.0090     2.4899     0.0819
  864.0000   -48.1408     8.2536     7.8819     8.1782   100.1222     0.0120     2.4887     0.0764
  864.5000   -48.0504     8.2536     7.8818     8.1782   100.8875     0.0096     2.4946     0.0744
  865.0000   -47.9605     8.2536     7.8818     8.1782   101.8036     0.0092     2.5003     0.0740
  865.5000   -48.0677     8.2536     7.8836     8.1782   104.0723     0.0142     2.5035     0.0736
  866.0000   -48.4174     8.2536     7.8899     8.1782   105.9847     0.0176     2.5036     0.0781
  866.5000   -48.7661     8.2536     7.8960     8.1782   106.0024     0.0152     2.5038     0.0818
  867.0000   -49.0975     8.2536     7.9021     8.1782   105.7596     0.0130     2.4983     0.0816
  867.5000   -48.9974     8.2536     7.9082     8.1782   105.7416     0.0109     2.4896     0.0814
  868.0000   -48.8247     8.2536     7.9143     8.1782   106.7333     0.0050     2.4898     0.0845
  868.5000   -48.6525     8.2536     7.9204     8.1782   107.1526    -0.0001     2.4903     0.0875
  869.0000   -48.4799     8.2536     7.9265     8.1782   105.2746    -0.0005     2.4845     0.0876
  869.5000   -48.3104     8.2536     7.9327     8.1782   102.5177    -0.0010     2.4790     0.0878
