~VERSION INFORMATION
 VERS.                2.0:   CWLS LOG ASCII STANDARD - VERSION 2.0
 WRAP.                 NO:   ONE LINE PER DEPTH STEP
~WELL INFORMATION
#MNEM.UNIT      DATA TYPE    INFORMATION
#----------   ------------   ------------------------------
 STRT.F           26.0000:   START DEPTH
 STOP.F          484.0000:   STOP DEPTH
 STEP.F            0.5000:   STEP LENGTH
 NULL.          -999.2500:   NO VALUE
 COMP.    FENIX & SCISSON:   COMPANY
 WELL.        NPR #44-S-3:   WELL
 FLD .              NPR-3:   FIELD
 LOC .       S3 T38N R78W:   LOCATION
 CNTY.            NATRONA:   COUNTY
 STAT.            WYOMING:   STATE
 CTRY. UNITED STATES OF AMERICA:   COUNTRY
 SRVC.              Welex:   SERVICE COMPANY
 DATE.        22-APR-1977:   LOGDATE
 API .       490251034000:   API NUMBER
~CURVE INFORMATION
#MNEM.UNIT       API CODE    CURVE DESCRIPTION
#----------   ------------   ------------------------------
 DEPT.F                  :   
 SPR .MV     07 010 01 00:   SPONTANEOUS POTENTIAL
 ILD .OHMM   07 120 46 00:   INDUCTION LOG DEEP
 ILM .OHMM   07 120 44 00:   INDUCTION LOG MEDIUM
 SGRD.OHMM   07 221 05 00:   SHALLOW SHORT GUARD RESISTIVITY
 GRD .GAPI   45 310 01 00:   GAMMA RAY FROM DENSITY LOG
 CALD.IN     45 280 60 00:   CALIPER FROM DENSITY LOG
 CORR.G/C3   45 356 01 00:   DENSITY CORRECTION
 RHOB.G/C3   45 350 01 00:   BULK DENSITY
 DPHI.DEC    45 890 12 00:   DENSITY POROSITY SANDSTONE
~PARAMETER INFORMATION
#MNEM.UNIT          VALUE    DESCRIPTION
#----------   ------------   ------------------------------
 PD  .                 GL:   PERMANENT DATUM
 EPD .F              5160:   ELEVATION PERMANENT DATUM
 LMF .                 GL:   LOG MEASURED FROM
 DMF .                 GL:   DRILLING MEASURED FROM
 EGL .F              5160:   GROUND LEVEL
 DATE.        22-APR-1977:   RUN DATE
 RUN .                  1:   RUN NUMBER
 DD  .F               490:   DEPTH DRILLER
 DL  .F               486:   DEPTH LOGGER
 BLI .F               484:   BOTTOM LOG INTERVAL
 TLI .F                30:   TOP LOG INTERVAL
 CS  .IN            8.625:   CASING SIZE
 CBD .F                40:   CASING BOTTOM DRILLER
 CBL .F                38:   CASING BOTTOM LOGGER
 BS  .IN            7.875:   BIT SIZE
 BSD .F               490:   BIT SIZE AT DEPTH
 DFT .            KCL GEL:   DRILLING FLUID TYPE
 DFD .                8.8:   DRILLING FLUID DENSITY
 DFV .                 36:   DRILLING FLUID VISCOSITY
 DFPH.                8.0:   DRILLING FLUID PH
 DFL .                6.4:   DRILLING FLUID LOSS
 MSS .            MUD PIT:   MUD SAMPLE SOURCE
 RMS .OHMM            .36:   RESISTIVITY MUD SAMPLE
 MST .F                60:   MUD SAMPLE TEMPERATURE
 RMF .OHMM            .30:   RESISTIVITY MUD FILTRATE SAMPLE
 MFST.F                60:   MUD FILTRATE SAMPLE TEMPERATURE
 RMC .OHMM            .42:   RESISTIVITY MUD CAKE
 MCST.F                60:   MUD CAKE SAMPLE TEMPERATURE
 MFSS.               MEAS:   MUD FILTRATE SAMPLE SOURCE
 MCSS.               MEAS:   MUD CAKE SAMPLE SOURCE
 RMB .OHMM            .30:   RESISTIVITY MUD AT BHT
 BHT .F                70:   BOTTOM HOLE TEMPERATURE
 TCS .HRS            0200:   TIME CURCULATED STOPPED
 MRT .F                70:   MAXIMUM RECORDED TEMPERATURE
 LUN .               8611:   LOGGING UNIT NUMBER
 LUL .             CASPER:   LOGGING UNIT LOCATION
 ENGI.          T. JOYNER:   RECORDING ENGINEER
 WITN.           ROB LYON:   WITNESSED BY
 CLNT.            A2DTECH:   CLIENT CODE
 ORIG.           5" PRINT:   ORIGIN OF DATA
 UWI .       490251034000:   UNIQUE WELL ID
 DICO. A2D Technologies, Inc.:   DIGITIZING COMPANY
~OTHER INFORMATION
~A   DEPT      SPR        ILD        ILM       SGRD        GRD       CALD       CORR       RHOB       DPHI   
# ...
  391.0000   -26.0713    20.8098    25.4625    33.4536    84.8960     7.6030    -0.0009     2.4369     0.1257
  391.5000   -26.0653    20.9643    27.7432    39.2447    81.4963     7.6193     0.0007     2.4608     0.1147
  392.0000   -26.2078    21.1200    30.0838    50.7181    79.7311     7.5716     0.0009     2.4683     0.1135
  392.5000   -26.2018    21.1302    27.6919    59.4979    78.4116     7.7260     0.0025     2.4557     0.1171
  393.0000   -26.1958    20.9880    25.0813    41.5543    77.2407     7.7275     0.0041     2.4409     0.1239
  393.5000   -26.1899    20.8539    25.1649    32.8688    76.3626     7.7141     0.0058     2.4305     0.1296
  394.0000   -26.0356    20.5836    26.6072    29.4446    77.8707     7.7156     0.0059     2.4089     0.1391
  394.5000   -26.0242    20.3107    22.7248    28.4617    80.2660     7.7022     0.0060     2.4030     0.1486
  395.0000   -25.8754    20.1805    18.3951    27.8947    83.2556     7.7037     0.0062     2.4045     0.1477
  395.5000   -25.8650    20.0471    17.8162    27.7197    85.7994     7.7052     0.0048     2.4079     0.1462
  396.0000   -25.7151    19.7854    19.1345    27.7370    88.0461     7.7067     0.0049     2.4084     0.1474
  396.5000   -25.5608    19.7949    20.7971    27.7542    89.1040     7.7082     0.0051     2.4016     0.1500
  397.0000   -25.5549    19.5325    21.6581    27.9642    88.6761     7.7245     0.0037     2.3959     0.1524
  397.5000   -25.6974    19.2736    20.0694    27.9816    88.0951     7.7259     0.0038     2.3961     0.1542
  398.0000   -25.6914    19.2829    19.6816    28.1932    89.6033     7.7274     0.0040     2.4021     0.1520
  398.5000   -25.5371    18.8949    21.4053    28.4065    91.7013     7.7289     0.0026     2.4019     0.1532
  399.0000   -25.6795    18.6449    22.4730    28.0294    93.7994     7.7156     0.0027     2.3976     0.1523
  399.5000   -25.6736    18.3985    22.4823    27.8536    91.4398     7.7170     0.0013     2.3992     0.1508
  400.0000   -25.8555    18.5352    20.4311    28.0687    89.5491     7.7185     0.0000     2.4030     0.1486
  400.5000   -26.0071    18.3276    18.7998    27.1317    88.3474     7.7348     0.0016     2.4046     0.1459
  401.0000   -25.9580    18.1747    18.6799    26.4080    88.2239     7.7363     0.0017     2.4084     0.1426
  401.5000   -25.9550    17.8114    18.3040    26.0574    89.1976     7.7378     0.0004     2.4122     0.1447
  402.0000   -25.9520    17.5749    17.4463    25.8940    91.4939     7.7393    -0.0010     2.4070     0.1476
  402.5000   -25.9491    17.3447    17.0934    25.9101    91.9937     7.7410    -0.0024     2.4011     0.1485
  403.0000   -26.0945    17.1136    17.8268    25.6710    90.2336     7.7425    -0.0038     2.3996     0.1479
  403.5000   -26.0915    16.8875    18.0825    25.2387    90.4005     7.7288    -0.0037     2.4035     0.1464
  404.0000   -26.2377    16.4385    17.7186    24.5655    91.7562     7.7306    -0.0050     2.4073     0.1448
  404.5000   -26.3831    16.2184    16.7703    24.2395    92.6661     7.7321    -0.0079     2.4104     0.1445
  405.0000   -26.3794    15.8939    17.2495    23.7603    92.9816     7.7184    -0.0093     2.4043     0.1484
  405.5000   -26.3764    15.5759    16.5553    23.1265    93.7429     7.7202    -0.0077     2.3992     0.1498
  406.0000   -26.6702    15.1631    15.4557    22.5097    95.6929     7.7217    -0.0076     2.3979     0.1501
  406.5000   -26.9647    14.9587    15.6774    21.7583    96.5982     7.7231    -0.0074     2.4017     0.1483
  407.0000   -27.4061    14.7611    16.0126    21.3249    94.5409     7.7246    -0.0073     2.4055     0.1455
  407.5000   -27.5522    14.4706    16.2423    20.7560    93.9603     7.7260    -0.0072     2.4071     0.1461
  408.0000   -27.8453    14.3788    16.3618    20.3426    94.2759     7.7275    -0.0071     2.4020     0.1494
  408.5000   -28.1391    14.2822    15.9220    20.2118    93.5559     7.7290    -0.0069     2.3968     0.1508
  409.0000   -28.2845    14.0992    15.2813    20.0851    92.2369     7.7304    -0.0053     2.4021     0.1499
  409.5000   -28.5790    14.0038    15.0774    19.9591    90.4722     7.7319    -0.0052     2.4052     0.1472
  410.0000   -28.8720    13.9147    15.7229    19.9746    88.8561     7.7334    -0.0051     2.4082     0.1439
  410.5000   -29.1658    13.6427    16.0591    19.9871    89.3202     7.7348    -0.0050     2.4135     0.1406
  411.0000   -29.3119    13.3700    16.2894    19.9995    91.7277     7.7363    -0.0048     2.4181     0.1375
  411.5000   -29.6057    13.2783    16.1837    20.1509    91.0503     7.7378    -0.0047     2.4234     0.1342
  412.0000   -29.8987    13.0126    16.0789    20.1634    87.5923     7.7244    -0.0031     2.4309     0.1315
  412.5000   -29.8958    12.8479    15.7553    20.1760    90.7174     7.6963    -0.0015     2.4377     0.1279
  413.0000   -29.8928    12.6710    15.3319    20.0494    94.1714     7.6978     0.0001     2.4422     0.1252
  413.5000   -30.0390    12.5113    15.0234    20.0619    94.7796     7.6996     0.0018     2.4475     0.1219
  414.0000   -30.1844    12.5183    14.8231    19.9337    92.1279     7.7010     0.0049     2.4536     0.1195
  414.5000   -30.4781    12.4307    14.7271    19.8087    92.2949     7.7025     0.0050     2.4589     0.1170
  415.0000   -30.4744    12.3599    14.6317    19.5491    94.2449     7.7039     0.0051     2.4657     0.1146
  415.5000   -30.6206    12.3669    14.5369    19.4262    95.8977     7.7054     0.0022     2.4725     0.1122
  416.0000   -30.7660    12.2883    14.3432    19.1713    96.8076     7.7069    -0.0007     2.4740     0.1107
  416.5000   -30.9114    12.2953    14.3491    18.9201    97.2717     7.7083    -0.0020     2.4733     0.1104
  417.0000   -31.0568    12.3021    14.2562    18.8014    96.6957     7.7098    -0.0034     2.4628     0.1140
  417.5000   -31.2015    12.3089    14.1638    18.5548    93.5937     7.7113    -0.0033     2.4592     0.1154
  418.0000   -31.3476    12.3157    13.9750    18.3113    91.9730     7.7127    -0.0017     2.4617     0.1165
  418.5000   -31.6406    12.3225    13.7854    18.1961    95.5575     7.7142    -0.0016     2.4692     0.1126
  419.0000   -31.6377    12.3293    13.6051    18.2078    91.4200     7.7157     0.0001     2.4588     0.1156
  419.5000   -31.7831    12.3362    13.6108    18.2192    90.6240     7.7171     0.0002     2.4484     0.1197
  420.0000   -31.7801    12.3430    13.7109    18.2305    94.2799     7.7186     0.0003     2.4388     0.1230
  420.5000   -31.9263    12.3498    13.9076    18.2419    96.8242     7.7201    -0.0011     2.4322     0.1259
  421.0000   -32.2193    12.3567    14.0183    18.5074    97.7341     7.7215    -0.0024     2.4307     0.1271
  421.5000   -32.2163    12.3635    14.2204    18.7768    95.6722     7.7230    -0.0039     2.4323     0.1268
  422.0000   -32.3625    12.3703    14.4148    19.5844    97.3486     7.7245    -0.0052     2.4354     0.1253
  422.5000   -32.5079    12.3772    14.6334    18.8002    97.2883     7.7259    -0.0066     2.4399     0.1231
  423.0000   -32.6533    12.3843    14.9342    18.0474    96.4702     7.7274    -0.0080     2.4452     0.1210
  423.5000   -32.7987    12.3052    15.0441    17.9342    97.9791     7.7289    -0.0094     2.4498     0.1195
  424.0000   -33.0917    12.3123    14.5242    17.8213    99.1861     7.7304    -0.0092     2.4506     0.1210
  424.5000   -33.2379    12.1496    14.0504    17.8329   100.0960     7.7319    -0.0106     2.4432     0.1227
  425.0000   -33.3833    12.0726    13.8632    17.8440   100.5601     7.7336    -0.0105     2.4388     0.1242
  425.5000   -33.3796    12.0654    13.7734    17.8551   101.1729     7.7351    -0.0089     2.4374     0.1247
  426.0000   -33.5257    12.0027    14.1841    17.8662   101.7856     7.7365    -0.0088     2.4427     0.1226
  426.5000   -33.6711    11.8444    14.5691    17.8774   100.3180     7.7380    -0.0086     2.4465     0.1211
  427.0000   -33.8165    11.7693    14.1787    17.7652    97.5132     7.7395    -0.0070     2.4503     0.1193
