~VERSION INFORMATION
 VERS.                2.0:   CWLS LOG ASCII STANDARD - VERSION 2.0
 WRAP.                 NO:   ONE LINE PER DEPTH STEP
~WELL INFORMATION
#MNEM.UNIT      DATA TYPE    INFORMATION
#----------   ------------   ------------------------------
 STRT.F            0.5000:   START DEPTH
 STOP.F         3087.0000:   STOP DEPTH
 STEP.F            0.5000:   STEP LENGTH
 NULL.          -999.2500:   NO VALUE
 COMP. DEPARTMENT OF ENERGY:   COMPANY
 WELL.    NPR-3 #201-A-29:   WELL
 FLD . TEAPOT NAVAL RESERVE:   FIELD
 LOC .      S29 T39N R78W:   LOCATION
 CNTY.            NATRONA:   COUNTY
 STAT.            WYOMING:   STATE
 CTRY. UNITED STATES OF AMERICA:   COUNTRY
 SRVC.      NL McCullough:   SERVICE COMPANY
 DATE.        24-JUN-1965:   LOGDATE
 API .       490251144400:   API NUMBER
~CURVE INFORMATION
#MNEM.UNIT       API CODE    CURVE DESCRIPTION
#----------   ------------   ------------------------------
 DEPT.F                  :   
 GRR .GAPI   30 310 01 00:   GAMMA RAY
 CALI.IN     30 280 01 00:   CALIPER
~PARAMETER INFORMATION
#MNEM.UNIT          VALUE    DESCRIPTION
#----------   ------------   ------------------------------
 PD  .                 GL:   PERMANENT DATUM
 LMF .                 GL:   LOG MEASURED FROM
 EDF .F              5012:   DRILLING FLOOR
 DATE.        24-JUN-1965:   RUN DATE
 RUN .                  1:   RUN NUMBER
 DD  .F              2782:   DEPTH DRILLER
 DL  .F              2772:   DEPTH LOGGER
 BLI .F              2770:   BOTTOM LOG INTERVAL
 TLI .F              2300:   TOP LOG INTERVAL
 CS  .IN            6.625:   CASING SIZE
 CBD .F              2756:   CASING BOTTOM DRILLER
 ENGI.         COWLTHORPE:   RECORDING ENGINEER
 WITN.             HUDSON:   WITNESSED BY
 CLNT.            A2DTECH:   CLIENT CODE
 ORIG.           5" PRINT:   ORIGIN OF DATA
 UWI .       490251144400:   UNIQUE WELL ID
 DICO. A2D Technologies, Inc.:   DIGITIZING COMPANY
~OTHER INFORMATION
~A    DEPT     GRR         CALI 
# ...
 1944.5000  -999.2500     6.6244
 1945.0000  -999.2500     6.6244
 1945.5000  -999.2500     6.6244
 1946.0000  -999.2500     6.6228
 1946.5000  -999.2500     6.6214
 1947.0000  -999.2500     6.6199
 1947.5000  -999.2500     6.6184
 1948.0000  -999.2500     6.6169
 1948.5000  -999.2500     6.6155
 1949.0000  -999.2500     6.6140
 1949.5000  -999.2500     6.6125
 1950.0000  -999.2500     6.6111
 1950.5000  -999.2500     6.6096
 1951.0000  -999.2500     6.6081
 1951.5000  -999.2500     6.6066
 1952.0000  -999.2500     6.6052
 1952.5000  -999.2500     6.6049
 1953.0000  -999.2500     6.6058
 1953.5000  -999.2500     6.6067
 1954.0000  -999.2500     6.6076
 1954.5000  -999.2500     6.6084
 1955.0000  -999.2500     6.6093
 1955.5000  -999.2500     6.6102
 1956.0000  -999.2500     6.6111
 1956.5000  -999.2500     6.6119
 1957.0000  -999.2500     6.6128
 1957.5000  -999.2500     6.6137
 1958.0000  -999.2500     6.6146
 1958.5000  -999.2500     6.6155
 1959.0000  -999.2500     6.6163
 1959.5000  -999.2500     6.6172
 1960.0000  -999.2500     6.6181
 1960.5000  -999.2500     6.6190
 1961.0000  -999.2500     6.6199
 1961.5000  -999.2500     6.6207
 1962.0000  -999.2500     6.6216
 1962.5000  -999.2500     6.6225
 1963.0000  -999.2500     6.6234
 1963.5000  -999.2500     6.6243
 1964.0000  -999.2500     6.6244
 1964.5000  -999.2500     6.6244
 1965.0000  -999.2500     6.6244
 1965.5000  -999.2500     6.6244
 1966.0000  -999.2500     6.6244
 1966.5000  -999.2500     6.6244
 1967.0000  -999.2500     6.6244
 1967.5000  -999.2500     6.6245
 1968.0000  -999.2500     6.6254
 1968.5000  -999.2500     6.6263
 1969.0000  -999.2500     6.6272
 1969.5000  -999.2500     6.6281
 1970.0000  -999.2500     6.6291
 1970.5000  -999.2500     6.6300
 1971.0000  -999.2500     6.6309
 1971.5000  -999.2500     6.6318
 1972.0000  -999.2500     6.6327
 1972.5000  -999.2500     6.6337
 1973.0000  -999.2500     6.6346
 1973.5000  -999.2500     6.6355
 1974.0000  -999.2500     6.6364
 1974.5000  -999.2500     6.6373
 1975.0000  -999.2500     6.6383
 1975.5000  -999.2500     6.6392
 1976.0000  -999.2500     6.6401
 1976.5000  -999.2500     6.6410
 1977.0000  -999.2500     6.6419
 1977.5000  -999.2500     6.6429
 1978.0000  -999.2500     6.6438
 1978.5000  -999.2500     6.6436
 1979.0000  -999.2500     6.6411
 1979.5000  -999.2500     6.6386
 1980.0000  -999.2500     6.6361
 1980.5000  -999.2500     6.6336
 1981.0000  -999.2500     6.6310
 1981.5000  -999.2500     6.6285
 1982.0000  -999.2500     6.6260
 1982.5000  -999.2500     6.6235
 1983.0000  -999.2500     6.6210
 1983.5000  -999.2500     6.6185
 1984.0000  -999.2500     6.6160
 1984.5000  -999.2500     6.6135
 1985.0000  -999.2500     6.6110
 1985.5000  -999.2500     6.6085
 1986.0000  -999.2500     6.6060
 1986.5000  -999.2500     6.6044
 1987.0000  -999.2500     6.6045
 1987.5000  -999.2500     6.6045
 1988.0000  -999.2500     6.6045
 1988.5000  -999.2500     6.6045
 1989.0000  -999.2500     6.6045
 1989.5000  -999.2500     6.6045
 1990.0000  -999.2500     6.6045
 1990.5000  -999.2500     6.6045
 1991.0000  -999.2500     6.6045
 1991.5000  -999.2500     6.6045
 1992.0000  -999.2500     6.6045
 1992.5000  -999.2500     6.6045
 1993.0000  -999.2500     6.6045
 1993.5000  -999.2500     6.6045
 1994.0000  -999.2500     6.6045
 1994.5000  -999.2500     6.6045
 1995.0000  -999.2500     6.6045
 1995.5000  -999.2500     6.6045
 1996.0000  -999.2500     6.6045
 1996.5000    64.3150     6.6045
 1997.0000    61.7286     6.6045
 1997.5000    67.6008     6.6045
 1998.0000    65.1936     6.6045
 1998.5000    61.8187     6.6045
 1999.0000    66.9005     6.6045
 1999.5000    67.8383     6.6045
 2000.0000    67.1872     6.6045
 2000.5000    66.6100     6.6045
 2001.0000    65.0951     6.6045
 2001.5000    67.4201     6.6045
 2002.0000    68.2629     6.6045
 2002.5000    61.4900     6.6045
 2003.0000    67.2906     6.6045
 2003.5000    61.9911     6.6045
 2004.0000    64.7817     6.6045
 2004.5000    62.7404     6.6045
 2005.0000    65.2546     6.6045
 2005.5000    66.3182     6.6045
 2006.0000    63.2291     6.6045
 2006.5000    60.7317     6.6045
 2007.0000    64.1896     6.6045
 2007.5000    66.4354     6.6045
 2008.0000    62.4194     6.6045
 2008.5000    60.8828     6.6045
 2009.0000    63.0916     6.6053
 2009.5000    63.8152     6.6062
 2010.0000    64.3483     6.6071
 2010.5000    65.4283     6.6080
 2011.0000    65.7755     6.6089
 2011.5000    66.7390     6.6098
 2012.0000    63.7175     6.6107
 2012.5000    65.9467     6.6116
 2013.0000    66.3387     6.6125
 2013.5000    66.4914     6.6134
 2014.0000    66.5179     6.6143
 2014.5000    67.4891     6.6152
 2015.0000    65.7555     6.6161
 2015.5000    67.0362     6.6170
 2016.0000    68.9191     6.6178
 2016.5000    71.0966     6.6188
 2017.0000    69.4492     6.6196
 2017.5000    69.1662     6.6205
 2018.0000    69.7226     6.6214
 2018.5000    69.6463     6.6223
 2019.0000    70.3611     6.6232
 2019.5000    71.4602     6.6241
 2020.0000    69.4159     6.6232
 2020.5000    65.3496     6.6215
 2021.0000    67.1199     6.6197
 2021.5000    66.6666     6.6179
 2022.0000    67.2147     6.6161
 2022.5000    67.6180     6.6143
 2023.0000    67.6156     6.6125
 2023.5000    67.2775     6.6107
 2024.0000    65.9449     6.6089
 2024.5000    61.6739     6.6071
 2025.0000    65.5992     6.6054
 2025.5000    65.8186     6.6036
 2026.0000    66.0701     6.6018
 2026.5000    66.4161     6.6000
 2027.0000    67.3528     6.5982
 2027.5000    67.6168     6.5964
 2028.0000    67.0767     6.5946
 2028.5000    65.9715     6.5928
 2029.0000    65.6597     6.5910
 2029.5000    65.6481     6.5892
 2030.0000    66.0443     6.5874
 2030.5000    67.2700     6.5857
 2031.0000    66.2661     6.5845
 2031.5000    67.6996     6.5845
 2032.0000    66.9038     6.5845
 2032.5000    66.0790     6.5845
 2033.0000    64.6749     6.5845
 2033.5000    61.3739     6.5845
 2034.0000    61.6380     6.5845
 2034.5000    60.9076     6.5845
 2035.0000    62.0723     6.5845
 2035.5000    65.3864     6.5845
 2036.0000    66.6152     6.5845
 2036.5000    63.8626     6.5845
 2037.0000    66.8760     6.5845
 2037.5000    66.6306     6.5845
 2038.0000    65.1580     6.5845
 2038.5000    64.2963     6.5845
 2039.0000    65.6525     6.5845
 2039.5000    66.1312     6.5845
 2040.0000    64.9990     6.5845
 2040.5000    63.7673     6.5845
 2041.0000    63.6923     6.5845
 2041.5000    66.1184     6.5845
 2042.0000    67.5305     6.5847
 2042.5000    61.3442     6.5856
 2043.0000    65.3524     6.5865
 2043.5000    66.1277     6.5873
 2044.0000    68.1045     6.5882
 2044.5000    69.9125     6.5891
 2045.0000    66.6224     6.5900
 2045.5000    68.8840     6.5909
 2046.0000    68.3386     6.5918
 2046.5000    70.3295     6.5927
 2047.0000    69.7516     6.5936
 2047.5000    69.6947     6.5944
 2048.0000    71.1367     6.5953
 2048.5000    71.5196     6.5962
 2049.0000    72.5305     6.5971
 2049.5000    73.7866     6.5980
 2050.0000    73.1933     6.5989
 2050.5000    70.2071     6.5998
 2051.0000    68.9391     6.6006
 2051.5000    70.2831     6.6015
 2052.0000    70.6943     6.6024
 2052.5000    69.5867     6.6033
 2053.0000    70.1739     6.6042
 2053.5000    70.7129     6.6057
 2054.0000    71.2991     6.6075
 2054.5000    65.8269     6.6093
 2055.0000    68.9836     6.6111
 2055.5000    67.9270     6.6129
 2056.0000    68.8436     6.6147
 2056.5000    71.2274     6.6165
 2057.0000    69.3449     6.6184
 2057.5000    66.5712     6.6202
 2058.0000    70.3194     6.6220
 2058.5000    74.2229     6.6238
 2059.0000    74.0766     6.6256
 2059.5000    73.0670     6.6274
 2060.0000    72.2459     6.6292
 2060.5000    74.2254     6.6310
 2061.0000    72.7403     6.6328
 2061.5000    71.9251     6.6346
 2062.0000    70.6351     6.6364
 2062.5000    74.2122     6.6382
 2063.0000    74.3735     6.6400
 2063.5000    74.0434     6.6418
 2064.0000    73.9876     6.6436
 2064.5000    75.6970     6.6444
 2065.0000    71.4964     6.6444
 2065.5000    70.4047     6.6444
