~VERSION INFORMATION
 VERS.                2.0:   CWLS LOG ASCII STANDARD - VERSION 2.0
 WRAP.                 NO:   ONE LINE PER DEPTH STEP
~WELL INFORMATION
#MNEM.UNIT      DATA TYPE    INFORMATION
#----------   ------------   ------------------------------
 STRT.F            0.0000:   START DEPTH
 STOP.F          700.0000:   STOP DEPTH
 STEP.F            0.5000:   STEP LENGTH
 NULL.          -999.2500:   NO VALUE
 COMP. FENIX & SCISSON INC:   COMPANY
 WELL. 37-11 SX 11 WP #11-11:   WELL
 FLD .             TEAPOT:   FIELD
 LOC .      S11 T38N R78W:   LOCATION
 CNTY.            NATRONA:   COUNTY
 STAT.            WYOMING:   STATE
 CTRY. UNITED STATES OF AMERICA:   COUNTRY
 SRVC.      Dresser Atlas:   SERVICE COMPANY
 DATE.        21-AUG-1980:   LOGDATE
 API .       490251084200:   API NUMBER
~CURVE INFORMATION
#MNEM.UNIT       API CODE    CURVE DESCRIPTION
#----------   ------------   ------------------------------
 DEPT.F                  :   
 SPR .MV     07 010 01 00:   SPONTANEOUS POTENTIAL
 RFOC.OHMM   07 220 04 00:   RESISTIVITY FOCUSED LOG
 RILD.OHMM   07 120 46 00:   INDUCTION LOG DEEP RESISTIVITY
 RILM.OHMM   07 120 44 00:   INDUCTION LOG MEDIUM RESISTIVITY
 GRD .GAPI   45 310 01 00:   GAMMA RAY FROM DENSITY LOG
 CALD.IN     45 280 60 00:   CALIPER
 RHOB.G/C3   45 350 01 00:   BULK DENSITY
 CORR.G/C3   45 356 01 00:   DENSITY CORRECTION
 CNC .DEC    42 890 03 00:   NEUTRON POROSITY SANDSTONE
 PORD.DEC    45 890 12 00:   POROSITY DENSITY SANDSTONE
~PARAMETER INFORMATION
#MNEM.UNIT          VALUE    DESCRIPTION
#----------   ------------   ------------------------------
 PD  .                 GL:   PERMANENT DATUM
 EPD .F              5194:   ELEVATION PERMANENT DATUM
 LMF .                 KB:   LOG MEASURED FROM
 DAPD.F                 5:   FEET ABOVE PERMANENT DATUM
 DMF .                 KB:   DRILLING MEASURED FROM
 EKB .F              5199:   KELLING BUSHING
 EDF .F              5198:   DRILLING FLOOR
 EGL .F              5194:   GROUND LEVEL
 DATE.            8-21-80:   RUN DATE
 RUN .                  1:   RUN NUMBER
 DD  .F               695:   DEPTH DRILLER
 DL  .F               700:   DEPTH LOGGER
 BLI .F               699:   BOTTOM LOG INTERVAL
 BS  .IN            7.875:   BIT SIZE
 BSD .F               695:   BIT SIZE AT DEPTH
 DFT .      DISPERSED KCL:   DRILLING FLUID TYPE
 DFD .               2.68:   DRILLING FLUID DENSITY
 DFV .                 50:   DRILLING FLUID VISCOSITY
 DFPH.                 14:   DRILLING FLUID PH
 DFL .                 18:   DRILLING FLUID LOSS
 MSS .           FLOWLINE:   MUD SAMPLE SOURCE
 RMS .OHMM           .256:   RESISTIVITY MUD SAMPLE
 MST .F                70:   MUD SAMPLE TEMPERATURE
 RMF .OHMM           .393:   RESISTIVITY MUD FILTRATE SAMPLE
 MFST.F                66:   MUD FILTRATE SAMPLE TEMPERATURE
 RMC .OHMM           .858:   RESISTIVITY MUD CAKE
 MCST.F                66:   MUD CAKE SAMPLE TEMPERATURE
 MFSS.               MEAS:   MUD FILTRATE SAMPLE SOURCE
 MCSS.               MEAS:   MUD CAKE SAMPLE SOURCE
 RMB .OHMM            .53:   RESISTIVITY MUD AT BHT
 BHT .F                99:   BOTTOM HOLE TEMPERATURE
 TCS .HRS               3:   TIME CURCULATED STOPPED
 MRT .F                99:   MAXIMUM RECORDED TEMPERATURE
 LUN .               9369:   LOGGING UNIT NUMBER
 LUL .       ROCK SPRINGS:   LOGGING UNIT LOCATION
 ENGI.            PAULSON:   RECORDING ENGINEER
 WITN.              SCOTT:   WITNESSED BY
 CLNT.            A2DTECH:   CLIENT CODE
 ORIG.       2", 5" PRINT:   ORIGIN OF DATA
 UWI .       490251084200:   UNIQUE WELL ID
 DICO. A2D Technologies, Inc.:   DIGITIZING COMPANY
~OTHER INFORMATION
~A    DEPT     SPR       RFOC       RILD       RILM        GRD       CALD       RHOB       CORR        CNC         PORD 
# ...
  100.5000   -14.6800    10.3484    12.4138    12.6912    76.1596     8.0261     2.4309     0.0009     0.2387     0.1327
  101.0000   -13.7875    10.4102    12.9216    13.3154    75.0920     8.0262     2.4298    -0.0008     0.2369     0.1303
  101.5000   -12.8839    10.4476    13.6076    14.2323    75.7397     8.0262     2.4561    -0.0003     0.2299     0.1024
  102.0000   -13.1328     9.8132    14.2932    15.6997    77.7450     8.0262     2.4533     0.0019     0.2201     0.0718
  102.5000   -13.8167     9.4353    14.9814    18.3698    78.9600     8.0262     2.4522     0.0041     0.1740     0.0036
  103.0000   -14.4904    10.5336    16.0256    21.4873    76.9389     8.0262     2.4736     0.0121     0.1548    -0.0071
  103.5000   -15.1651    12.2652    17.7246    25.1338    74.2740     8.0262     2.5434     0.0332     0.1433     0.0034
  104.0000   -15.8394    18.4296    19.6038    27.9671    71.6448     8.0262     2.6405     0.0520     0.1348     0.0109
  104.5000   -16.4555    27.6299    21.6822    30.6443    69.7706     8.0242     2.6894     0.0323     0.1330     0.0177
  105.0000   -16.7582    41.4232    23.6610    31.8286    67.9502     8.0137     2.6764     0.0109     0.1353     0.0288
  105.5000   -16.6598    49.6356    23.6264    29.4947    66.0379     8.0034     2.6634    -0.0056     0.1420     0.0475
  106.0000   -16.5277    52.4799    21.8282    27.4150    62.3109     7.9933     2.6569    -0.0019     0.1621     0.0734
  106.5000   -15.6707    53.9569    19.5838    22.8977    58.6109     7.9907     2.6452    -0.0100     0.1872     0.1307
  107.0000   -14.8417    36.1441    17.5821    19.3424    57.5991     8.0117     2.6128    -0.0217     0.2123     0.1461
  107.5000   -14.2047    24.2050    15.7859    16.3391    57.6929     8.0255     2.5711    -0.0309     0.2347     0.1640
  108.0000   -13.6160    16.2096    14.0591    14.9141    56.7617     8.0220     2.5303    -0.0304     0.2549     0.1540
  108.5000   -13.0939    11.3582    13.2360    13.7235    56.0859     8.0189     2.4411    -0.0282     0.2584     0.1412
  109.0000   -13.1677    11.2534    12.4138    12.5782    60.2149     8.0156     2.4023    -0.0239     0.2575     0.1383
  109.5000   -13.5960    11.3837    11.6306    12.1354    66.3069     8.0125     2.4029    -0.0131     0.2584     0.1531
  110.0000   -14.0212    11.4641    11.3677    11.6787    73.9658     8.0092     2.4313     0.0096     0.2648     0.1632
  110.5000   -14.4425    11.0393    11.2437    11.4126    79.2137     8.0061     2.4422     0.0191     0.2905     0.1702
  111.0000   -15.0544    10.6910    11.1209    11.1474    79.3867     8.0060     2.4359     0.0180     0.2995     0.1710
  111.5000   -15.7177    10.3531    10.9996    10.8883    78.8226     8.0060     2.4065     0.0110     0.2996     0.1723
  112.0000   -15.8293     9.9713    10.8795    10.7597    78.1137     8.0061     2.3944     0.0043     0.2998     0.1667
  112.5000   -15.6420     9.9780    10.7608    10.6590    75.2095     8.0061     2.3911    -0.0022     0.2825     0.1501
  113.0000   -15.4472     9.8525    10.7434    10.5285    73.0481     8.0061     2.3880    -0.0031     0.2880     0.1452
  113.5000   -15.3385     9.8236    10.7434    10.3943    72.8562     8.0061     2.3942    -0.0030     0.2919     0.1551
  114.0000   -15.3846     9.7917    10.7434    10.3521    73.9065     8.0061     2.4144     0.0011     0.2958     0.1678
  114.5000   -16.1814     9.9100    10.6875    10.3521    75.6931     8.0061     2.4340     0.0183     0.2920     0.1660
  115.0000   -16.9853    10.0440    10.5764    10.3521    77.8502     8.0046     2.4310     0.0082     0.2869     0.1637
  115.5000   -17.5096    10.1618    10.0905     9.8331    79.8942     8.0026     2.4049    -0.0050     0.2841     0.1622
  116.0000   -17.9739    10.4544     9.2800     8.9181    79.7061     8.0006     2.3951    -0.0083     0.2925     0.1607
  116.5000   -17.5044    10.8645     8.5330     8.0883    78.7839     7.9986     2.4051    -0.0113     0.2998     0.1348
  117.0000   -16.6266    11.0465     7.8457     7.3357    79.8727     7.9966     2.4072    -0.0093     0.2954     0.1190
  117.5000   -15.7851     9.4065     7.2108     6.6531    82.1561     7.9946     2.4098    -0.0061     0.2930     0.1128
  118.0000   -15.9500     7.7449     6.8060     6.1926    84.4346     7.9926     2.4290    -0.0028     0.2925     0.1226
  118.5000   -16.1660     6.3768     6.4211     5.9942    86.7000     7.9906     2.4627     0.0045     0.2967     0.1480
  119.0000   -16.3367     6.1581     6.0579     5.8022    89.3740     7.9886     2.4900     0.0164     0.2997     0.1509
  119.5000   -15.7846     6.4508     5.7153     5.7543    92.2611     7.9865     2.4894     0.0032     0.2990     0.1371
  120.0000   -15.2126     6.6642     5.6368     5.7343    95.0312     7.9875     2.4496    -0.0107     0.2983     0.1234
  120.5000   -15.3128     6.8848     5.6037     5.7143    97.6659     7.9898     2.4229    -0.0222     0.3041     0.1138
  121.0000   -15.5135     7.1126     5.5709     5.6944    98.2707     7.9922     2.4319    -0.0285     0.3028     0.1101
  121.5000   -15.7156     7.2771     5.5382     5.6748    97.7608     7.9946     2.4584    -0.0090     0.3014     0.1159
  122.0000   -15.9161     7.0070     5.5058     5.6556    96.4896     7.9969     2.4868     0.0102     0.3000     0.1241
  122.5000   -16.1164     6.7703     5.4586     5.6262    96.0938     7.9993     2.4923     0.0180     0.2786     0.1255
  123.0000   -16.3165     6.5416     5.4774     5.5969    95.9101     8.0017     2.4838     0.0161     0.2724     0.1276
  123.5000   -16.5167     6.3206     5.5127     5.5608    95.1064     8.0041     2.4716     0.0141     0.2818     0.1320
  124.0000   -16.8420     6.0955     5.5481     5.5995    93.8202     8.0064     2.4673     0.0080     0.2902     0.1351
  124.5000   -17.2054     6.1971     5.5834     5.6507    93.0389     8.0088     2.4647    -0.0006     0.2954     0.1358
  125.0000   -17.5693     6.4474     5.6131     5.7024    93.1701     8.0112     2.4567    -0.0057     0.2788     0.1352
  125.5000   -17.9331     6.7015     5.7063     5.7545    93.2823     8.0136     2.4508    -0.0106     0.2688     0.1343
  126.0000   -18.2972     7.0120     5.8024     5.8071    93.4480     8.0160     2.4491    -0.0127     0.2723     0.1335
  126.5000   -18.6614     6.9823     5.9336     5.8791    94.5678     8.0183     2.4504     0.0011     0.2749     0.1397
  127.0000   -19.0032     6.9355     5.8978     5.8493    95.5604     8.0207     2.4517    -0.0031     0.2678     0.1464
  127.5000   -19.1261     6.8891     5.8404     5.8037    94.5191     8.0231     2.4530    -0.0105     0.2596     0.1438
  128.0000   -19.2455     6.8430     5.7843     5.7583    94.7803     8.0255     2.4459    -0.0171     0.2547     0.1396
  128.5000   -19.3967     6.7975     5.7287     5.7134    97.9082     8.0262     2.4353    -0.0187     0.2638     0.1495
  129.0000   -19.4101     6.7435     5.6737     5.6688   100.0226     8.0262     2.4346    -0.0210     0.2737     0.1521
  129.5000   -19.1756     6.6281     5.6192     5.6245    99.8503     8.0262     2.4413    -0.0104     0.2797     0.1348
  130.0000   -18.7564     6.5140     5.5653     5.5806    99.0179     8.0262     2.4335    -0.0111     0.2691     0.1161
  130.5000   -18.0211     6.4011     5.5095     5.5371    98.4711     8.0262     2.4201    -0.0183     0.2584     0.1210
  131.0000   -18.1706     6.3325     5.5095     5.5095    98.5710     8.0262     2.4229    -0.0190     0.2652     0.1246
  131.5000   -18.3738     6.4134     5.5095     5.5908    98.6149     8.0255     2.4691    -0.0066     0.2876     0.1200
  132.0000   -18.5733     6.4506     5.5095     5.6512    97.2651     8.0236     2.4851    -0.0011     0.3006     0.1169
  132.5000   -18.7708     6.3521     5.5494     5.7123    95.6090     8.0217     2.4707    -0.0070     0.3163     0.1275
  133.0000   -18.9622     6.2724     5.5998     5.7740    94.8050     8.0198     2.4707    -0.0081     0.3188     0.1367
  133.5000   -19.3826     6.2734     5.6507     5.8365    94.4331     8.0179     2.4779    -0.0064     0.3160     0.1243
