~VERSION INFORMATION
 VERS.                2.0:   CWLS LOG ASCII STANDARD - VERSION 2.0
 WRAP.                 NO:   ONE LINE PER DEPTH STEP
~WELL INFORMATION
#MNEM.UNIT      DATA TYPE    INFORMATION
#----------   ------------   ------------------------------
 STRT.F           25.0000:   START DEPTH
 STOP.F          832.0000:   STOP DEPTH
 STEP.F            0.5000:   STEP LENGTH
 NULL.          -999.2500:   NO VALUE
 COMP.          U.S. NAVY:   COMPANY
 WELL. RES 3 TEAPOT DOM #32-S-2:   WELL
 FLD .        TEAPOT DOME:   FIELD
 LOC .       S2 T38N R78W:   LOCATION
 CNTY.            NATRONA:   COUNTY
 STAT.            WYOMING:   STATE
 CTRY. UNITED STATES OF AMERICA:   COUNTRY
 SRVC. Schlumberger Well Surveying Corp:   SERVICE COMPANY
 DATE.        03-AUG-1959:   LOGDATE
 API .       490250646800:   API NUMBER
~CURVE INFORMATION
#MNEM.UNIT       API CODE    CURVE DESCRIPTION
#----------   ------------   ------------------------------
 DEPT.F                  :   
 SPR .MV     05 010 01 00:   SPONTANEOUS POTENTIAL FROM RES.
 ILD .OHMM   05 120 46 00:   INDUCTION LOG DEEP
 CILD.MMHO   05 110 46 00:   CONDUCTIVITY INDUCTION LOG DEEP
 ASN .OHMM   05 041 16 00:   AMPLIFIED SHORT NORMAL 16"
~PARAMETER INFORMATION
#MNEM.UNIT          VALUE    DESCRIPTION
#----------   ------------   ------------------------------
 LMF .                 KB:   LOG MEASURED FROM
 DMF .                 KB:   DRILLING MEASURED FROM
 EKB .F              5126:   KELLING BUSHING
 EGL .F              5122:   GROUND LEVEL
 DATE.           8-3-1959:   RUN DATE
 RUN .                  1:   RUN NUMBER
 DD  .F               840:   DEPTH DRILLER
 DL  .F               841:   DEPTH LOGGER
 BLI .F               835:   BOTTOM LOG INTERVAL
 TLI .F                17:   TOP LOG INTERVAL
 CBD .F                17:   CASING BOTTOM DRILLER
 CBL .F                17:   CASING BOTTOM LOGGER
 BS  .IN             6.75:   BIT SIZE
 BSD .F               840:   BIT SIZE AT DEPTH
 DFT .                GEL:   DRILLING FLUID TYPE
 DFD .                9.5:   DRILLING FLUID DENSITY
 DFV .                100:   DRILLING FLUID VISCOSITY
 DFPH.                9.5:   DRILLING FLUID PH
 DFL .                  4:   DRILLING FLUID LOSS
 RMS .OHMM              4:   RESISTIVITY MUD SAMPLE
 MST .F                73:   MUD SAMPLE TEMPERATURE
 RMF .OHMM            3.9:   RESISTIVITY MUD FILTRATE SAMPLE
 MFST.F                73:   MUD FILTRATE SAMPLE TEMPERATURE
 RMC .OHMM            4.1:   RESISTIVITY MUD CAKE
 MCST.F                73:   MUD CAKE SAMPLE TEMPERATURE
 RMB .OHMM              4:   RESISTIVITY MUD AT BHT
 BHT .F                73:   BOTTOM HOLE TEMPERATURE
 TCS .HRS               1:   TIME CURCULATED STOPPED
 LUN .               2523:   LOGGING UNIT NUMBER
 LUL .              CSPR.:   LOGGING UNIT LOCATION
 ENGI.             ATWOOD:   RECORDING ENGINEER
 WITN.             MARTIN:   WITNESSED BY
 CLNT.            A2DTECH:   CLIENT CODE
 ORIG.           5" PRINT:   ORIGIN OF DATA
 UWI .       490250646800:   UNIQUE WELL ID
 DICO. A2D Technologies, Inc.:   DIGITIZING COMPANY
~OTHER INFORMATION
~A   DEPT      SPR        ILD       CILD        ASN   
# ...
  682.0000   -77.0634    16.7470    57.3879    18.3315
  682.5000   -77.4417    16.7120    57.2504    18.1201
  683.0000   -77.7940    16.6533    57.1129    18.1852
  683.5000   -78.4248    16.6022    56.9754    18.2876
  684.0000   -79.2047    16.8064    56.8379    18.4016
  684.5000   -79.9879    17.1313    56.1876    18.5169
  685.0000   -80.6303    17.4148    55.1563    18.5291
  685.5000   -80.3614    17.7443    54.1251    18.3825
  686.0000   -80.0002    17.7862    53.0938    18.2482
  686.5000   -79.6570    17.6049    52.2598    18.1115
  687.0000   -79.2812    17.4670    53.0319    17.9450
  687.5000   -78.9951    17.3088    53.6802    17.7938
  688.0000   -78.6897    17.1598    54.3284    17.6671
  688.5000   -78.3848    17.0288    54.9715    17.5439
  689.0000   -78.0785    16.9115    55.2665    17.4250
  689.5000   -77.7766    16.8045    55.5593    17.3038
  690.0000   -77.4673    16.6994    55.8520    17.1842
  690.5000   -77.1720    16.5926    56.1448    17.0628
  691.0000   -76.8476    16.4888    56.4375    16.9443
  691.5000   -76.6629    16.3867    56.7793    16.8208
  692.0000   -76.6285    16.2122    57.3758    16.7069
  692.5000   -76.5699    16.0552    58.0923    16.5659
  693.0000   -76.5197    15.8977    58.8088    16.3494
  693.5000   -76.4708    15.7404    59.5252    16.1847
  694.0000   -76.4100    15.5830    60.2417    16.0086
  694.5000   -76.3777    15.4257    60.9581    15.8393
  695.0000   -76.1476    15.2684    61.6746    15.6681
  695.5000   -75.6780    15.1106    62.4336    15.4969
  696.0000   -75.2771    14.9537    63.3118    15.3261
  696.5000   -74.7769    14.7949    64.1901    15.1551
  697.0000   -74.4925    14.6401    65.0683    14.9843
  697.5000   -74.5714    14.4776    65.9466    14.8108
  698.0000   -74.5985    14.3294    66.8248    14.6420
  698.5000   -74.6515    14.1488    67.6261    14.4695
  699.0000   -74.6937    14.0547    67.6261    14.4109
  699.5000   -74.7375    14.1610    67.6261    14.4179
  700.0000   -74.7909    14.2498    67.6261    14.4232
  700.5000   -74.8174    14.3481    67.6261    14.4512
  701.0000   -74.9329    14.4406    67.6245    14.4767
  701.5000   -75.4754    14.5374    67.6219    14.5021
  702.0000   -76.3150    14.6295    67.0540    14.5309
  702.5000   -76.5369    14.7288    66.4324    14.5519
  703.0000   -75.8513    14.8156    65.8157    14.5897
  703.5000   -75.2383    14.9260    65.2007    14.5434
  704.0000   -74.6097    14.8947    64.5820    14.3591
  704.5000   -73.9346    14.7270    64.0287    14.1803
  705.0000   -73.7049    14.5835    65.9087    13.9988
  705.5000   -73.5970    14.4284    67.6069    13.8150
  706.0000   -73.3230    14.2788    69.4339    13.6397
  706.5000   -73.1239    14.1278    70.0212    13.4413
  707.0000   -72.8645    13.9744    70.6568    13.2924
  707.5000   -72.7380    13.8326    71.2924    13.2157
  708.0000   -72.9830    13.7184    71.9280    13.1193
  708.5000   -73.2819    13.6137    72.5636    13.0318
  709.0000   -73.3903    13.5183    73.1992    12.9398
  709.5000   -73.2419    13.4194    73.8348    12.8495
  710.0000   -73.1262    13.3224    74.4704    12.7597
  710.5000   -72.9974    13.2242    75.1059    12.6672
  711.0000   -72.8679    13.1271    75.7415    12.5806
  711.5000   -72.7559    13.0284    76.3771    12.4800
  712.0000   -72.5432    12.9323    76.9881    12.4208
  712.5000   -72.2455    12.8318    77.5788    12.4209
  713.0000   -71.9765    12.7723    78.1695    12.4104
  713.5000   -71.6938    12.7499    78.7602    12.4053
  714.0000   -71.4205    12.7203    79.3768    12.3973
  714.5000   -71.1377    12.7020    79.1528    12.3908
  715.0000   -70.8860    12.7103    78.9186    12.3836
  715.5000   -70.8168    12.7204    78.6844    12.3767
  716.0000   -70.7705    12.7301    78.4501    12.3699
  716.5000   -70.7219    12.7399    78.2159    12.3624
  717.0000   -70.6703    12.7497    77.9817    12.3562
  717.5000   -70.6275    12.7593    77.7474    12.3476
  718.0000   -70.5672    12.7693    77.5132    12.3438
  718.5000   -70.5418    12.7786    77.2790    12.3131
  719.0000   -70.3193    12.7877    77.0447    12.2599
  719.5000   -69.9430    12.7382    76.8105    12.2123
  720.0000   -69.6227    12.6648    77.0692    12.1622
  720.5000   -69.0761    12.5959    78.1347    12.1132
  721.0000   -68.5593    12.5248    79.2003    12.0641
  721.5000   -67.9244    12.4548    80.2658    12.0140
  722.0000   -67.6239    12.3843    81.3313    11.9664
  722.5000   -67.8944    12.3137    82.3969    11.9130
  723.0000   -68.1104    12.2437    83.4624    11.8782
  723.5000   -68.2841    12.1725    83.8610    11.8673
  724.0000   -68.0246    12.1038    83.8014    11.8517
  724.5000   -67.7519    12.0301    83.7516    11.8383
  725.0000   -67.4789    11.9812    83.6883    11.8239
  725.5000   -67.2069    12.0034    83.6260    11.8096
  726.0000   -66.9329    12.0259    83.5648    11.7976
  726.5000   -66.6624    12.0489    83.5043    11.8054
  727.0000   -66.3838    12.0715    83.4439    11.8157
  727.5000   -66.1203    12.0944    83.3838    11.8254
  728.0000   -65.8350    12.1170    83.3237    11.8354
  728.5000   -65.8600    12.1402    83.2651    11.8453
  729.0000   -66.0576    12.1623    83.2055    11.8552
  729.5000   -66.2061    12.1863    83.1459    11.8652
  730.0000   -66.3787    12.2068    83.0863    11.8750
  730.5000   -66.5350    12.2342    83.0268    11.8838
  731.0000   -66.7056    12.2345    83.2237    11.8507
  731.5000   -66.8591    12.1263    83.7702    11.8035
  732.0000   -67.0416    12.0272    84.3168    11.7590
  732.5000   -67.1372    11.9270    84.8633    11.7132
  733.0000   -66.6314    11.8275    85.4099    11.6681
  733.5000   -66.2066    11.7276    85.9564    11.6227
  734.0000   -65.7748    11.6280    86.5030    11.5773
  734.5000   -65.3691    11.5282    87.0495    11.5318
  735.0000   -64.9037    11.4283    87.5960    11.4864
  735.5000   -64.6501    11.3286    88.1426    11.4410
  736.0000   -64.6833    11.2414    88.6891    11.3956
  736.5000   -64.6753    11.1416    89.3197    11.3499
  737.0000   -64.9060    11.0468    89.3197    11.3039
  737.5000   -65.2128    10.9636    89.3197    11.2626
  738.0000   -65.5104    10.8543    89.3197    11.3554
  738.5000   -65.8127    10.8285    89.3197    11.4878
  739.0000   -66.1121    10.9616    89.3197    11.6104
  739.5000   -66.4111    11.0844    89.3197    11.7384
  740.0000   -66.7107    11.2128    88.7060    11.8772
  740.5000   -67.0044    11.3397    87.9910    12.2637
  741.0000   -67.3084    11.4609    87.2759    12.7157
  741.5000   -67.5966    11.6284    86.6080    13.2120
  742.0000   -67.9150    12.1609    83.0976    13.6996
  742.5000   -68.1693    12.8819    79.3768    14.6856
  743.0000   -68.9089    13.6374    74.7098    15.7835
  743.5000   -70.4296    14.5006    69.3471    16.6423
  744.0000   -73.4489    15.5509    63.9843    19.1164
  744.5000   -77.1137    17.5508    58.6216    21.4118
  745.0000   -79.7775    19.5548    53.2588    23.1594
  745.5000   -81.1476    21.5683    47.8960    24.2211
  746.0000   -82.2340    23.5354    42.5333    25.1282
  746.5000   -82.5194    25.5590    38.2704    25.9698
  747.0000   -81.9481    26.2756    36.7609    26.5955
  747.5000   -81.4529    26.3744    35.0856    26.7103
  748.0000   -80.8457    25.7145    36.1607    26.6223
  748.5000   -81.0234    24.6457    37.3683    26.0867
  749.0000   -81.7593    23.6427    38.7012    25.4474
  749.5000   -82.5013    23.2955    39.6014    24.8080
  750.0000   -82.0075    22.8041    40.6059    24.1818
  750.5000   -80.9542    22.3903    41.6103    23.5863
  751.0000   -80.1109    21.8362    42.7984    22.9908
  751.5000   -79.1666    21.0387    44.4222    22.3913
  752.0000   -78.2873    20.2003    46.0460    21.7696
  752.5000   -77.3670    19.3757    47.6697    21.2462
  753.0000   -77.0309    19.0509    49.2935    20.9138
  753.5000   -77.0996    18.8858    50.3904    20.7391
  754.0000   -76.9484    19.0434    50.1756    20.7404
  754.5000   -75.8098    19.2679    49.9608    20.8261
