~VERSION INFORMATION
 VERS.                2.0:   CWLS LOG ASCII STANDARD - VERSION 2.0
 WRAP.                 NO:   ONE LINE PER DEPTH STEP
~WELL INFORMATION
#MNEM.UNIT      DATA TYPE    INFORMATION
#----------   ------------   ------------------------------
 STRT.F           34.5000:   START DEPTH
 STOP.F          665.5000:   STOP DEPTH
 STEP.F            0.5000:   STEP LENGTH
 NULL.          -999.2500:   NO VALUE
 COMP. FENIX & SCISSON INC:   COMPANY
 WELL.    NPR-3 SX #14-14:   WELL
 FLD .        TEAPOT DOME:   FIELD
 LOC .      S14 T38N R78W:   LOCATION
 CNTY.            NATRONA:   COUNTY
 STAT.            WYOMING:   STATE
 CTRY. UNITED STATES OF AMERICA:   COUNTRY
 SRVC.            Unknown:   SERVICE COMPANY
 DATE.        01-JUN-1978:   LOGDATE
 API .       490251063100:   API NUMBER
~CURVE INFORMATION
#MNEM.UNIT       API CODE    CURVE DESCRIPTION
#----------   ------------   ------------------------------
 DEPT.F                  :   
 SPR .MV     05 010 01 00:   SPONTANEOUS POTENTIAL FROM RES.
 SN  .OHMM   05 040 16 00:   SHORT NORMAL 16"
 IL  .OHMM   05 120 00 00:   INDUCTION LOG
 GRD .GAPI   45 310 01 00:   GAMMA RAY FROM DENSITY LOG
 RHOB.G/C3   45 350 01 00:   BULK DENSITY
 DPHI.DEC    45 890 12 00:   DENSITY POROSITY SANDSTONE
 CORR.G/C3   45 356 01 00:   DENSITY CORRECTION
 CALD.IN     45 280 60 00:   CALIPER FROM DENSITY LOG
~PARAMETER INFORMATION
#MNEM.UNIT          VALUE    DESCRIPTION
#----------   ------------   ------------------------------
 PD  .                 GL:   PERMANENT DATUM
 EPD .F              5212:   ELEVATION PERMANENT DATUM
 LMF .                 KB:   LOG MEASURED FROM
 DAPD.F                 4:   FEET ABOVE PERMANENT DATUM
 DMF .                 KB:   DRILLING MEASURED FROM
 EKB .F              5216:   KELLING BUSHING
 EGL .F              5212:   GROUND LEVEL
 DATE.           6-1-1978:   RUN DATE
 RUN .                  1:   RUN NUMBER
 DD  .F               670:   DEPTH DRILLER
 DL  .F               670:   DEPTH LOGGER
 BLI .F               664:   BOTTOM LOG INTERVAL
 TLI .F                40:   TOP LOG INTERVAL
 CS  .IN            8.625:   CASING SIZE
 CBD .F                40:   CASING BOTTOM DRILLER
 BS  .IN            7.875:   BIT SIZE
 BSD .F               670:   BIT SIZE AT DEPTH
 DFT .                KCL:   DRILLING FLUID TYPE
 DFD .                8.7:   DRILLING FLUID DENSITY
 DFV .                 32:   DRILLING FLUID VISCOSITY
 DFPH.                 10:   DRILLING FLUID PH
 RMS .OHMM            .30:   RESISTIVITY MUD SAMPLE
 MST .F                66:   MUD SAMPLE TEMPERATURE
 BHT .F                75:   BOTTOM HOLE TEMPERATURE
 TCS .HRS               2:   TIME CURCULATED STOPPED
 MRT .F                75:   MAXIMUM RECORDED TEMPERATURE
 LUN .               2958:   LOGGING UNIT NUMBER
 LUL .              CSPR.:   LOGGING UNIT LOCATION
 ENGI.             MILLER:   RECORDING ENGINEER
 WITN.           MCGINLEY:   WITNESSED BY
 CLNT.            A2DTECH:   CLIENT CODE
 ORIG.      2" , 5" PRINT:   ORIGIN OF DATA
 UWI .       490251063100:   UNIQUE WELL ID
 DICO. A2D Technologies, Inc.:   DIGITIZING COMPANY
~OTHER INFORMATION
~A   DEPT      SPR         SN         IL         GRD      RHOB       DPHI       CORR       CALD   
# ...
  561.0000   -22.1510    12.5733    13.7018    63.1837     2.4253     0.1411     0.0390     7.6111
  561.5000   -22.2374    12.6066    13.7743    62.1468     2.4320     0.1338     0.0343     7.6043
  562.0000   -22.2555    12.6399    13.8474    60.8610     2.4483     0.1265     0.0297     7.5974
  562.5000   -22.2581    12.6733    13.9204    59.5663     2.4624     0.1213     0.0262     7.5903
  563.0000   -22.2639    12.7072    13.9596    58.2727     2.4720     0.1213     0.0254     7.5961
  563.5000   -22.2699    12.7274    13.8315    56.9784     2.4704     0.1288     0.0247     7.6047
  564.0000   -22.2759    12.4857    13.6751    55.6875     2.4610     0.1353     0.0286     7.6133
  564.5000   -22.2820    12.3006    13.4604    54.3636     2.4516     0.1357     0.0325     7.6218
  565.0000   -22.2880    12.1183    13.2490    54.6956     2.4481     0.1360     0.0326     7.6304
  565.5000   -22.2941    11.9388    13.0410    55.7406     2.4468     0.1362     0.0325     7.6389
  566.0000   -22.3001    11.7619    12.8362    57.7258     2.4464     0.1368     0.0325     7.6475
  566.5000   -22.3061    11.5877    12.6327    59.9127     2.4461     0.1364     0.0325     7.6560
  567.0000   -22.3121    11.5030    12.4976    59.7742     2.4474     0.1333     0.0325     7.6646
  567.5000   -22.3182    11.5109    12.5300    59.0417     2.4499     0.1365     0.0326     7.6731
  568.0000   -22.3242    11.5165    12.5548    58.8208     2.4475     0.1381     0.0341     7.6817
  568.5000   -22.3303    11.5222    12.5797    59.1428     2.4450     0.1363     0.0389     7.6902
  569.0000   -22.3363    11.5278    12.6046    58.8495     2.4449     0.1314     0.0437     7.6989
  569.5000   -22.3423    11.5335    12.6133    58.3936     2.4519     0.1266     0.0484     7.7078
  570.0000   -22.3484    11.5391    12.3715    58.7982     2.4608     0.1297     0.0508     7.7055
  570.5000   -22.3544    11.5448    12.2081    59.3055     2.4554     0.1337     0.0530     7.6491
  571.0000   -22.3604    11.5504    12.0469    59.7626     2.4517     0.1261     0.0552     7.5939
  571.5000   -22.3665    11.5561    11.8878    59.3633     2.4649     0.1187     0.0560     7.5697
  572.0000   -22.3725    11.5617    11.8250    58.8631     2.4771     0.1170     0.0550     7.5846
  572.5000   -22.3785    11.5674    11.8745    58.7076     2.4780     0.1170     0.0526     7.6111
  573.0000   -22.3846    11.5731    11.9097    59.6217     2.4780     0.1178     0.0489     7.6378
  573.5000   -22.3906    11.5787    11.9452    60.1090     2.4753     0.1210     0.0441     7.6645
  574.0000   -22.3966    11.5844    11.9806    60.0194     2.4702     0.1239     0.0371     7.6911
  574.5000   -22.4027    11.5901    12.0163    59.8980     2.4659     0.1246     0.0299     7.7178
  575.0000   -22.4087    11.5957    12.0607    61.6626     2.4659     0.1253     0.0285     7.7445
  575.5000   -22.4147    11.6015    12.1430    63.6288     2.4635     0.1248     0.0311     7.7689
  576.0000   -22.4208    11.6076    12.2257    65.6686     2.4645     0.1243     0.0353     7.7713
  576.5000   -22.4268    11.6417    12.3089    65.7581     2.4720     0.1238     0.0394     7.7742
  577.0000   -22.4328    11.6919    12.3927    64.6803     2.4701     0.1232     0.0424     7.7771
  577.5000   -22.4388    11.7418    12.4770    62.4033     2.4668     0.1211     0.0416     7.7801
  578.0000   -22.4447    11.7919    12.5145    61.3081     2.4742     0.1172     0.0409     7.7831
  578.5000   -22.4512    11.8423    12.5370    62.1597     2.4789     0.1161     0.0383     7.7861
  579.0000   -22.4940    11.8929    12.5595    63.1843     2.4785     0.1183     0.0340     7.7890
  579.5000   -22.6245    11.9436    12.5820    63.3963     2.4753     0.1206     0.0298     7.7920
  580.0000   -22.7523    11.9946    12.6046    63.2298     2.4720     0.1228     0.0254     7.7950
  580.5000   -22.8260    12.0459    12.6272    62.7077     2.4692     0.1250     0.0258     7.7980
  581.0000   -22.6493    12.0973    12.6498    61.3447     2.4650     0.1273     0.0273     7.8009
  581.5000   -22.4777    12.1490    12.6724    60.8891     2.4585     0.1253     0.0289     7.8039
  582.0000   -22.3043    12.2008    12.6951    61.6657     2.4658     0.1208     0.0304     7.8065
  582.5000   -22.2558    12.2529    12.7180    63.0821     2.4658     0.1163     0.0319     7.8274
  583.0000   -22.2557    12.3053    12.8560    64.2581     2.4759     0.1118     0.0335     7.8526
  583.5000   -22.2542    12.3578    13.1301    63.0492     2.4871     0.1084     0.0345     7.8781
  584.0000   -22.2630    12.5293    13.5923    60.0752     2.4947     0.1127     0.0345     7.9036
  584.5000   -21.7325    12.9835    14.1454    57.3207     2.4861     0.1180     0.0347     7.9251
  585.0000   -20.9925    13.4542    14.7210    55.9565     2.4765     0.1187     0.0426     7.8975
  585.5000   -20.2414    13.9882    15.3200    55.5260     2.4775     0.1150     0.0472     7.8674
  586.0000   -19.4907    14.7120    15.9433    54.9893     2.4703     0.1347     0.0508     7.7668
  586.5000   -18.7467    15.4732    16.8462    53.6454     2.4472     0.1473     0.0548     7.6584
  587.0000   -18.2497    16.1913    17.8429    52.2875     2.4244     0.1599     0.0670     7.5700
  587.5000   -18.0504    16.3283    18.8985    51.0238     2.4032     0.1725     0.0759     7.5199
  588.0000   -18.0595    16.2447    19.8165    51.3320     2.3829     0.1791     0.0685     7.4692
  588.5000   -18.0952    16.1349    19.5112    51.7505     2.3696     0.1843     0.0554     7.4186
  589.0000   -18.1321    16.0258    19.2569    51.5273     2.3636     0.1922     0.0424     7.3816
  589.5000   -18.1695    15.9175    19.0037    50.8529     2.3531     0.1935     0.0291     7.3615
  590.0000   -18.2069    15.8099    18.9200    50.0128     2.3419     0.1950     0.0249     7.3413
  590.5000   -18.2442    15.7030    18.7500    49.9974     2.3437     0.1909     0.0211     7.3211
  591.0000   -18.2815    15.5927    18.5780    51.2929     2.3508     0.1866     0.0184     7.2776
  591.5000   -18.3188    15.6057    18.5780    52.6134     2.3577     0.1831     0.0180     7.2147
  592.0000   -18.3561    15.6191    18.5780    53.3894     2.3647     0.1831     0.0175     7.2119
  592.5000   -18.3930    15.6326    18.7950    53.5963     2.3673     0.1830     0.0170     7.2122
  593.0000   -18.4301    15.6461    19.0104    52.7537     2.3674     0.1828     0.0166     7.2123
  593.5000   -18.4922    15.6596    19.2283    49.4415     2.3673     0.1823     0.0166     7.2147
  594.0000   -18.7113    15.6732    19.4487    47.6288     2.3698     0.1759     0.0166     7.2184
  594.5000   -18.9317    15.6867    19.6346    48.5774     2.3803     0.1594     0.0166     7.2222
  595.0000   -19.1518    15.7003    19.6346    49.9778     2.3902     0.1390     0.0162     7.2260
  595.5000   -19.3717    15.7135    19.3945    51.3433     2.4202     0.1179     0.0126     7.2293
  596.0000   -19.5939    15.7268    19.2518    52.6954     2.4521     0.1317     0.0090     7.2106
  596.5000   -19.6760    15.7375    19.1101    53.6440     2.4694     0.1469     0.0092     7.1417
  597.0000   -19.6995    15.5192    18.9695    53.7254     2.4345     0.1619     0.0163     7.1328
  597.5000   -19.7220    15.3518    18.8299    55.3236     2.4067     0.1696     0.0208     7.1650
  598.0000   -19.7447    15.1860    18.6914    57.2834     2.3884     0.1703     0.0216     7.2335
  598.5000   -19.7675    15.0219    18.5537    59.1093     2.3873     0.1696     0.0225     7.3094
  599.0000   -19.7903    14.8596    18.4171    58.7740     2.3889     0.1688     0.0233     7.3854
  599.5000   -19.8128    14.6990    18.2817    56.9753     2.3886     0.1730     0.0242     7.4613
  600.0000   -19.8345    14.5401    18.2385    55.2472     2.3814     0.1783     0.0269     7.5371
  600.5000   -19.8624    14.3830    18.2385    54.1810     2.3747     0.1807     0.0316     7.6132
  601.0000   -20.1415    14.2276    18.2384    54.7235     2.3715     0.1765     0.0389     7.6623
