~VERSION INFORMATION
 VERS.                2.0:   CWLS LOG ASCII STANDARD - VERSION 2.0
 WRAP.                 NO:   ONE LINE PER DEPTH STEP
~WELL INFORMATION
#MNEM.UNIT      DATA TYPE    INFORMATION
#----------   ------------   ------------------------------
 STRT.F           30.0000:   START DEPTH
 STOP.F          570.0000:   STOP DEPTH
 STEP.F            0.5000:   STEP LENGTH
 NULL.          -999.2500:   NO VALUE
 COMP.    FENIX & SCISSON:   COMPANY
 WELL.  NPR #3 #13SX11-11:   WELL
 FLD .             TEAPOT:   FIELD
 LOC .      S11 T38N R78W:   LOCATION
 CNTY.            NATRONA:   COUNTY
 STAT.            WYOMING:   STATE
 CTRY. UNITED STATES OF AMERICA:   COUNTRY
 SRVC.       Schlumberger:   SERVICE COMPANY
 DATE.        27-FEB-1977:   LOGDATE
 API .       490251029400:   API NUMBER
~CURVE INFORMATION
#MNEM.UNIT       API CODE    CURVE DESCRIPTION
#----------   ------------   ------------------------------
 DEPT.F                  :   
 GRD .GAPI   45 310 01 00:   GAMMA RAY FROM DENSITY LOG
 CALD.IN     45 280 60 00:   CALIPER FROM DENSITY LOG
 CORR.G/C3   45 356 01 00:   DENSITY CORRECTION
 DPHI.DEC    45 890 12 00:   DENSITY POROSITY STANDSTONE
 RHOB.G/C3   45 350 01 00:   BULK DENSITY
 SPR .MV     07 010 01 00:   SPONTANEOUS POTENTIAL
 ILD .OHMM   07 120 46 00:   INDUCTION LOG DEEP
 ILM .OHMM   07 120 44 00:   INDUCTION LOG MEDIUM
 LL8 .OHMM   07 220 08 00:   LATEROLOG-8 RES.
~PARAMETER INFORMATION
#MNEM.UNIT          VALUE    DESCRIPTION
#----------   ------------   ------------------------------
 PD  .                 GL:   PERMANENT DATUM
 EPD .F              5180:   ELEVATION PERMANENT DATUM
 LMF .                 GL:   LOG MEASURED FROM
 DAPD.F                 0:   FEET ABOVE PERMANENT DATUM
 DMF .                 GL:   DRILLING MEASURED FROM
 EKB .F              5183:   KELLING BUSHING
 EGL .F              5180:   GROUND LEVEL
 DATE.        27-FEB-1977:   RUN DATE
 RUN .                  1:   RUN NUMBER
 DD  .F               585:   DEPTH DRILLER
 DL  .F               571:   DEPTH LOGGER
 BLI .F               570:   BOTTOM LOG INTERVAL
 TLI .F                44:   TOP LOG INTERVAL
 CS  .IN            8.625:   CASING SIZE
 CBD .F                40:   CASING BOTTOM DRILLER
 CBL .F                44:   CASING BOTTOM LOGGER
 BS  .IN            7.875:   BIT SIZE
 BSD .F               585:   BIT SIZE AT DEPTH
 DFT .                KCL:   DRILLING FLUID TYPE
 DFD .                8.7:   DRILLING FLUID DENSITY
 DFV .                 42:   DRILLING FLUID VISCOSITY
 DFPH.                  8:   DRILLING FLUID PH
 DFL .                9.2:   DRILLING FLUID LOSS
 MSS .                PIT:   MUD SAMPLE SOURCE
 RMS .OHMM           .806:   RESISTIVITY MUD SAMPLE
 MST .F                70:   MUD SAMPLE TEMPERATURE
 RMF .OHMM           .720:   RESISTIVITY MUD FILTRATE SAMPLE
 MFST.F                70:   MUD FILTRATE SAMPLE TEMPERATURE
 MFSS.               MEAS:   MUD FILTRATE SAMPLE SOURCE
 RMB .OHMM           .973:   RESISTIVITY MUD AT BHT
 BHT .F                58:   BOTTOM HOLE TEMPERATURE
 TCS .HRS            0230:   TIME CURCULATED STOPPED
 MRT .F                58:   MAXIMUM RECORDED TEMPERATURE
 LUN .               5642:   LOGGING UNIT NUMBER
 LUL .             CASPER:   LOGGING UNIT LOCATION
 ENGI.         JIM MARTIN:   RECORDING ENGINEER
 WITN.         STUEBINGER:   WITNESSED BY
 CLNT.            A2DTECH:   CLIENT CODE
 ORIG.           5" PRINT:   ORIGIN OF DATA
 UWI .       490251029400:   UNIQUE WELL ID
 DICO. A2D Technologies, Inc.:   DIGITIZING COMPANY
~OTHER INFORMATION
~A   DEPT      GRD       CALD       CORR       DPHI       RHOB        SPR        ILD        ILM        LL8   
# ...
  249.0000   107.3374     8.0480     0.0127     0.1232     2.4370   -27.4897     8.8891     9.2059     9.6604
  249.5000   107.0348     8.0462     0.0184     0.1250     2.4422   -27.3401     8.8867     9.2012     9.7256
  250.0000   106.6289     8.0444     0.0175     0.1286     2.4437   -27.3319     8.8228     9.1819     9.8283
  250.5000   107.7977     8.0425     0.0073     0.1346     2.4242   -27.2177     8.6989     9.0667    10.0572
  251.0000   110.5268     8.0407     0.0034     0.1295     2.4204   -27.0292     8.5174     8.8150    10.0592
  251.5000   110.6021     8.0389     0.0146     0.1244     2.4414   -26.5861     8.4498     8.5703     9.9854
  252.0000   107.8156     8.0371     0.0191     0.1202     2.4527   -26.1128     8.3374     8.4487     9.9819
  252.5000   106.7625     8.0352     0.0139     0.1190     2.4579   -25.8308     8.2775     8.4452    10.0481
  253.0000   106.1594     8.0334     0.0266     0.1271     2.4594   -26.2840     8.2175     8.4418     9.9751
  253.5000   106.0180     8.0316     0.0229     0.1316     2.4299   -26.8882     8.2153     8.4383     9.6318
  254.0000   107.4524     8.0296     0.0109     0.1301     2.4234   -27.3414     8.2702     8.5526     9.1088
  254.5000   109.5110     8.0156     0.0141     0.1232     2.4429   -27.7946     8.3840     8.6095     8.7345
  255.0000   110.8785     7.9714     0.0306     0.1127     2.4699   -27.7946     8.5573     8.6658     8.7923
  255.5000   111.1856     7.9422     0.0319     0.1075     2.4834   -27.7946     8.6744     8.7832     9.1648
  256.0000   109.3761     7.9584     0.0139     0.1057     2.4819   -27.7946     8.7330     8.9015     9.4260
  256.5000   110.2913     7.9745     0.0161     0.1109     2.4744   -27.7946     8.7914     9.0220     9.6788
  257.0000   109.9947     8.0057     0.0049     0.1157     2.4511   -27.7946     8.8501     9.0811     9.6665
  257.5000   108.1852     8.0224     0.0221     0.1223     2.4473   -27.7946     8.7859     9.1405     9.5388
  258.0000   106.9809     8.0531     0.0281     0.1343     2.4563   -27.7946     8.6625     9.2643     9.5348
  258.5000   106.6828     8.0542     0.0034     0.1413     2.4008   -27.7946     8.4818     9.1329     9.7320
  259.0000   106.9913     8.0552     0.0056     0.1373     2.4098   -27.7946     8.4209     8.9378    10.1420
  259.5000   104.5782     8.0412     0.0206     0.1310     2.4308   -27.9456     8.4771     8.8699    10.4962
  260.0000   102.9200     8.0121     0.0222     0.1265     2.4420   -28.2477     8.5338     8.8106    10.2056
  260.5000   102.6011     7.9528     0.0161     0.1238     2.4458   -28.0967     8.5315     8.8069     9.5847
  261.0000   105.2012     7.9237     0.0092     0.1196     2.4488   -27.7946     8.5291     8.8647     9.3193
  261.5000   107.4977     7.9560     0.0071     0.1175     2.4548   -27.7946     8.5268     8.8602     9.4462
  262.0000   109.1791     8.0163     0.0109     0.1187     2.4623   -27.7946     8.5244     8.8565     9.7761
  262.5000   108.6233     8.0324     0.0116     0.1227     2.4375   -27.7946     8.5221     8.7917     9.9101
  263.0000   107.0420     8.0488     0.0079     0.1163     2.4521   -28.0967     8.4609     8.7273     9.7694
  263.5000   106.5926     8.0498     0.0011     0.1133     2.4683   -28.3988     8.3420     8.6036     9.5649
  264.0000   108.5668     8.0506     0.0154     0.1188     2.4542   -29.0030     8.1665     8.4816     9.4956
  264.5000   110.2369     8.0494     0.0071     0.1220     2.4435   -29.6073     7.9941     8.3613     9.7593
  265.0000   110.9993     8.0482     0.0184     0.1151     2.4577   -29.4562     7.7175     8.2427    10.3843
  265.5000   109.7950     8.0471     0.0116     0.1111     2.4727   -29.0030     7.4953     8.0696    10.5999
  266.0000   105.5649     8.0459     0.0244     0.1039     2.4870   -28.5498     7.2428     7.8456     9.8171
  266.5000   103.4529     8.0448     0.0251     0.1178     2.4712   -28.5347     7.1492     7.6278     7.8062
  267.0000   101.9460     8.0436     0.0166     0.1190     2.4479   -28.0765     7.1970     7.4677     7.1803
  267.5000   100.7417     8.0425     0.0154     0.1157     2.4577   -27.7946     7.1453     7.4646     7.5873
  268.0000    99.8399     8.0413     0.0094     0.1199     2.4539   -27.6435     7.1433     7.4615     8.8350
  268.5000    99.9971     8.0402     0.0026     0.1279     2.4412   -27.1903     7.3934     7.6153     8.8319
  269.0000   103.1801     8.0390     0.0026     0.1370     2.4216   -27.0393     7.5993     7.8262     8.7073
  269.5000   106.3681     8.0379     0.0049     0.1410     2.3984   -26.8882     7.7038     8.0431     9.0741
  270.0000   109.9496     8.0367     0.0079     0.1401     2.3976   -27.0393     7.7553     8.3235     9.4565
  270.5000   113.1831     8.0356    -0.0079     0.1253     2.4209   -27.1903     8.0262     8.5541     9.7890
  271.0000   111.1377     8.0203     0.0101     0.1184     2.4501   -27.0393     8.2503     8.7311     9.9891
  271.5000   108.0526     8.0214     0.0094     0.1154     2.4561   -27.0393     8.3632     8.9102     9.9166
  272.0000   105.9405     8.0071     0.0094     0.1178     2.4546   -27.1903     8.4777     8.9685     9.8446
  272.5000   107.1568     7.9933    -0.0004     0.1253     2.4374   -27.1903     8.5343     9.0272     9.7619
  273.0000   108.9782     7.9943     0.0117     0.1117     2.4660   -27.4924     8.5314     9.0233     9.6346
  273.5000   110.9508     7.9652     0.0260     0.1015     2.4925   -27.9456     8.5291     8.9565     9.5647
  274.0000   113.2261     7.9662     0.0245     0.0997     2.4966   -28.3988     8.4678     8.8295     9.4953
  274.5000   114.7449     7.9974     0.0109     0.1048     2.4846   -28.7009     8.3488     8.6441     9.2966
  275.0000   115.3545     8.0136     0.0086     0.1114     2.4839   -29.0030     8.1182     8.4042     9.1654
  275.5000   112.4875     8.0297     0.0169     0.1154     2.4786   -29.0030     7.9488     8.1144     9.1622
  276.0000   111.5843     8.0308     0.0184     0.1175     2.4516   -29.0030     7.6758     7.7804     9.0958
  276.5000   112.9533     8.0318     0.0139     0.1114     2.4673   -29.0030     7.2595     7.4087     9.1567
  277.0000   114.4722     8.0329     0.0296     0.1099     2.4816   -28.8520     6.8658     7.0059     9.3452
  277.5000   116.2935     8.0341     0.0304     0.1211     2.4711   -28.5498     6.4464     6.6251     9.8750
  278.0000   117.6611     8.0352     0.0139     0.1221     2.4418   -28.3988     6.1390     6.3524    10.0800
  278.5000   115.6481     8.0362     0.0034     0.1217     2.4500   -28.3988     6.1396     6.2623     7.0739
  279.0000   113.1973     8.0376     0.0019     0.1253     2.4523   -27.9456     6.1860     6.3472     6.6898
  279.5000   112.3840     8.0393     0.0026     0.1277     2.4305   -27.4924     6.4042     6.6142     6.8756
  280.0000   115.7197     8.0410     0.0026     0.1238     2.4372   -26.8882     6.8540     6.9886     7.1158
  280.5000   116.4821     8.0427     0.0026     0.1244     2.4410   -25.9768     7.3954     7.3843     7.7307
  281.0000   115.4291     8.0443     0.0019     0.1322     2.4350   -25.3776     8.0350     7.9113     8.2258
  281.5000   115.1310     8.0460     0.0124     0.1398     2.4072   -25.6949     8.3741     8.3593     8.3958
  282.0000   115.7421     8.0477     0.0229     0.1443     2.3995   -26.3242     8.4893     8.5315     9.4432
  282.5000   110.9084     8.0494     0.0124     0.1464     2.3863   -27.2155     8.4864     8.7073    10.2592
  283.0000   108.9461     8.0511     0.0011     0.1424     2.3809   -27.3414     8.4840     8.7037    10.4812
  283.5000   110.4664     8.0527     0.0154     0.1318     2.4349   -27.1903     8.4817     8.8216     9.7663
  284.0000   109.8672     8.0544     0.0289     0.1211     2.4762   -27.1903     8.8397     8.8794     9.2360
  284.5000   109.4179     8.0561     0.0304     0.1105     2.4822   -27.9456     9.1491     9.0054    10.0342
  285.0000   109.5966     8.0578     0.0304     0.1021     2.4890   -28.0967     9.2750     9.1935    10.4569
