~VERSION INFORMATION
 VERS.                2.0:   CWLS LOG ASCII STANDARD - VERSION 2.0
 WRAP.                 NO:   ONE LINE PER DEPTH STEP
~WELL INFORMATION
#MNEM.UNIT      DATA TYPE    INFORMATION
#----------   ------------   ------------------------------
 STRT.F            0.0000:   START DEPTH
 STOP.F          520.0000:   STOP DEPTH
 STEP.F            0.5000:   STEP LENGTH
 NULL.          -999.2500:   NO VALUE
 COMP. LAWRENCE/ALLISON INC:   COMPANY
 WELL.   NPR #3 #67-13 SX:   WELL
 FLD .             TEAPOT:   FIELD
 LOC .       S3 T38N R78W:   LOCATION
 CNTY.            NATRONA:   COUNTY
 STAT.            WYOMING:   STATE
 CTRY. UNITED STATES OF AMERICA:   COUNTRY
 SRVC.           Gearhart:   SERVICE COMPANY
 DATE.        06-JUL-1988:   LOGDATE
 API .       490251123000:   API NUMBER
~CURVE INFORMATION
#MNEM.UNIT       API CODE    CURVE DESCRIPTION
#----------   ------------   ------------------------------
 DEPT.F                  :   
 GRR .GAPI   07 310 01 00:   GAMMA RAY FROM RES. LOG.
 RILD.OHMM   07 120 46 00:   INDUCTION LOG DEEP RESISTIVITY
 RILM.OHMM   07 120 44 00:   INDUCTION LOG MEDIUM RESISTIVITY
~PARAMETER INFORMATION
#MNEM.UNIT          VALUE    DESCRIPTION
#----------   ------------   ------------------------------
 PD  .                 GL:   PERMANENT DATUM
 EPD .F              5168:   ELEVATION PERMANENT DATUM
 LMF .                 KB:   LOG MEASURED FROM
 DAPD.F                10:   FEET ABOVE PERMANENT DATUM
 DMF .                 KB:   DRILLING MEASURED FROM
 EKB .F              5178:   KELLING BUSHING
 EGL .F              5168:   GROUND LEVEL
 DATE.             7-6-88:   RUN DATE
 RUN .                  1:   RUN NUMBER
 DD  .F               520:   DEPTH DRILLER
 DL  .F               524:   DEPTH LOGGER
 BLI .F             515.5:   BOTTOM LOG INTERVAL
 TLI .F                50:   TOP LOG INTERVAL
 CS  .IN            9.625:   CASING SIZE
 CBD .F                50:   CASING BOTTOM DRILLER
 CBL .F                50:   CASING BOTTOM LOGGER
 BS  .IN             8.75:   BIT SIZE
 BSD .F               520:   BIT SIZE AT DEPTH
 DFT .                AIR:   DRILLING FLUID TYPE
 TLAB.HRS            0015:   TIME LOGGER AT BOTTOM
 MRT .F                70:   MAXIMUM RECORDED TEMPERATURE
 LUN .               7597:   LOGGING UNIT NUMBER
 LUL .           GILLETTE:   LOGGING UNIT LOCATION
 ENGI.          HUCKFELDT:   RECORDING ENGINEER
 WITN.              FIVAS:   WITNESSED BY
 CLNT.            A2DTECH:   CLIENT CODE
 ORIG.       2", 5" PRINT:   ORIGIN OF DATA
 UWI .       490251123000:   UNIQUE WELL ID
 DICO. A2D Technologies, Inc.:   DIGITIZING COMPANY
~OTHER INFORMATION
~A    DEPT      GRR      RILD       RILM   
# ...
  273.0000    80.2904    29.4461    26.3344
  273.5000    80.7182    29.8772    26.3871
  274.0000    81.2664    30.5193    27.3267
  274.5000    80.6080    31.2893    28.0816
  275.0000    79.2526    32.0787    28.9409
  275.5000    77.9237    32.8880    29.6066
  276.0000    77.8390    33.5509    30.3693
  276.5000    79.1466    34.1569    30.8742
  277.0000    80.9269    34.9545    32.6338
  277.5000    82.6585    35.7708    33.5664
  278.0000    84.2632    36.4596    34.3062
  278.5000    83.7925    38.3726    34.8139
  279.0000    79.9410    39.9665    35.9072
  279.5000    76.5725    40.7677    37.1395
  280.0000    75.3339    41.6852    37.2721
  280.5000    74.0677    42.6843    37.4842
  281.0000    72.6363    43.8187    39.4406
  281.5000    71.4363    43.8595    41.3269
  282.0000    69.9745    44.3202    43.0555
  282.5000    68.9669    44.6767    42.9413
  283.0000    69.6708    45.5263    42.6596
  283.5000    71.4446    45.9285    42.6596
  284.0000    73.3543    45.1218    43.5291
  284.5000    75.3502    44.5094    44.2655
  285.0000    77.2898    43.8211    42.6990
  285.5000    79.2766    42.3277    41.4936
  286.0000    80.9213    41.0930    41.1120
  286.5000    81.9723    39.8893    39.8035
  287.0000    82.9540    38.7209    37.7508
  287.5000    84.0037    38.0073    35.8040
  288.0000    85.0045    37.6077    34.4937
  288.5000    86.0225    37.2812    34.4199
  289.0000    87.0791    36.7980    34.3318
  289.5000    88.0225    35.8186    34.2438
  290.0000    88.6325    34.7924    34.1765
  290.5000    88.1929    33.7956    33.2528
  291.0000    86.6243    32.8273    32.3724
  291.5000    84.6186    31.8868    31.7418
  292.0000    83.8399    30.8742    28.6747
  292.5000    85.5530    30.1216    27.6558
  293.0000    87.9316    29.3194    26.6689
  293.5000    90.7959    28.5386    25.7172
  294.0000    93.2901    27.7785    24.7347
  294.5000    92.5741    26.8791    24.2819
  295.0000    90.6230    26.6320    24.1533
  295.5000    90.1491    26.3871    23.8914
  296.0000    90.9857    26.4385    23.6324
  296.5000    92.3775    26.5273    23.3762
  297.0000    93.0071    26.6164    23.1858
  297.5000    91.5133    26.7059    23.1858
  298.0000    89.4661    26.7956    23.1858
  298.5000    89.0989    26.8791    23.1858
  299.0000    89.6345    27.2292    23.5615
  299.5000    90.2168    27.5599    24.0060
  300.0000    90.8189    27.8946    24.5073
  300.5000    91.4438    28.1498    24.9002
  301.0000    91.8884    28.9888    25.4925
  301.5000    91.9525    29.6782    26.0988
  302.0000    90.9738    30.3776    26.7196
  302.5000    89.8779    31.1519    27.3551
  303.0000    91.0299    30.8875    28.0057
  303.5000    92.2058    30.6104    28.6747
  304.0000    91.6682    30.3372    28.8011
  304.5000    90.4782    30.0192    28.5553
  305.0000    90.0171    29.8219    28.1498
  305.5000    92.1548    29.3297    27.4827
  306.0000    94.7230    28.8573    26.6323
  306.5000    97.0992    28.0756    25.8081
  307.0000    99.0306    27.2693    25.4298
  307.5000    97.8541    26.4715    24.7754
  308.0000    96.1824    25.6695    24.2819
  308.5000    95.9221    25.4262    24.1046
  309.0000    96.2135    25.0257    23.7626
  309.5000    97.9378    24.6213    23.4255
  310.0000    99.9017    24.2287    23.1858
  310.5000   100.0587    23.8423    22.7362
  311.0000    99.9326    23.4622    22.3679
  311.5000   100.0477    23.1858    22.0056
  312.0000    98.1903    23.1858    21.6492
  312.5000    95.9974    23.1858    21.3361
  313.0000    95.5193    23.1858    21.3077
  313.5000    95.0546    23.1858    21.6762
  314.0000    94.0595    23.1858    22.0511
  314.5000    92.4780    23.1858    22.5521
  315.0000    90.8761    23.1858    22.3799
  315.5000    90.9310    23.4010    22.2113
  316.0000    91.7890    23.1954    22.0439
  316.5000    92.3286    22.9580    21.7339
  317.0000    91.9973    22.7230    21.2366
  317.5000    92.0186    22.4905    20.7078
  318.0000    93.8620    22.2603    20.1922
  318.5000    95.4208    22.1392    19.8161
  319.0000    96.4516    22.4446    19.9637
  319.5000    97.0735    22.7426    20.1068
  320.0000    95.7457    22.9726    20.3730
  320.5000    93.4377    23.7467    22.2948
  321.0000    90.6555    24.3915    23.8374
  321.5000    86.8578    25.1960    24.0586
  322.0000    84.5275    25.4298    24.0586
  322.5000    84.7051    24.5450    23.2532
  323.0000    85.6708    23.1858    22.5521
  323.5000    88.2043    22.0878    21.4739
  324.0000    90.8176    21.2144    20.4341
  324.5000    91.7930    20.3756    19.4446
  325.0000    92.9962    19.6339    18.4086
  325.5000    94.0586    18.7818    18.0615
  326.0000    94.9865    18.4044    17.4168
  326.5000    95.5770    18.3508    17.2469
  327.0000    94.5687    18.1769    17.2563
  327.5000    94.2082    18.0045    17.2477
  328.0000    94.6763    17.8339    17.2552
  328.5000    93.6264    17.6648    16.9635
  329.0000    92.0762    17.4973    16.7029
  329.5000    91.6043    17.2519    16.4417
  330.0000    92.5704    17.0476    16.1855
  330.5000    94.4307    16.8564    15.9348
  331.0000    95.4957    16.6673    15.6840
  331.5000    94.9118    16.4804    15.4469
  332.0000    93.2953    16.2955    15.3781
  332.5000    91.9468    16.1185    15.2883
  333.0000    91.5104    15.9325    15.2012
  333.5000    92.3293    15.7346    15.0723
  334.0000    95.3586    15.7466    14.9046
  334.5000    98.8982    15.7890    14.7389
  335.0000    99.9268    15.8235    14.5750
  335.5000    99.1375    15.8650    14.4129
  336.0000    98.2928    15.9011    14.3416
  336.5000    97.8246    15.9416    14.4186
  337.0000    97.2456    15.9795    14.4747
  337.5000    96.7955    16.0225    14.7397
  338.0000    98.0173    16.1939    14.9671
  338.5000    99.2049    16.3861    15.1589
  339.0000    98.7433    16.5836    15.3407
  339.5000    98.4054    16.7771    15.4981
  340.0000    98.4524    16.7305    15.6571
  340.5000    98.6828    16.6470    15.8177
  341.0000    98.7198    16.5633    15.7475
  341.5000    97.6675    16.4732    15.5503
  342.0000    96.2423    16.1522    15.3554
  342.5000    95.0531    15.8097    15.1589
  343.0000    94.6228    15.4745    14.9035
  343.5000    95.2614    15.1589    14.5590
  344.0000    96.7477    15.0894    14.2226
  344.5000    98.8301    14.9757    13.8939
  345.0000   101.0012    14.8629    13.5728
  345.5000   102.8917    14.7446    13.3199
  346.0000   104.2354    14.7446    13.0760
  346.5000   105.0035    14.6702    13.0760
  347.0000   104.9957    14.6090    13.2305
  347.5000   105.3687    14.9624    13.3861
  348.0000   105.5053    15.8921    13.5435
  348.5000   103.5138    17.0009    13.7027
  349.0000   101.5332    18.5783    13.9496
  349.5000    98.4050    20.2742    15.6567
  350.0000    92.0322    21.9493    18.2463
  350.5000    85.4401    25.6177    22.0584
  351.0000    80.4070    29.4838    26.6669
  351.5000    78.1688    32.4785    31.0343
  352.0000    78.5764    35.8237    33.8873
  352.5000    79.0131    39.2089    37.0025
  353.0000    79.4192    41.3855    40.3594
  353.5000    79.4174    42.1684    41.1120
  354.0000    78.1753    42.0751    40.9816
  354.5000    77.8514    41.9388    40.7420
  355.0000    79.2187    41.8421    40.5038
  355.5000    81.1076    41.3353    40.3594
  356.0000    81.9263    40.7817    39.5450
  356.5000    82.2918    40.1883    38.9696
  357.0000    84.6514    39.6035    38.4025
  357.5000    86.6320    39.0272    37.8438
  358.0000    87.2056    38.5376    37.1395
  358.5000    87.3685    38.2848    37.0014
  359.0000    85.8794    37.9356    36.7312
  359.5000    84.3524    37.5897    36.4630
  360.0000    83.1452    37.2469    36.1968
  360.5000    81.8028    36.9072    35.9324
  361.0000    81.5673    36.1202    35.3234
  361.5000    81.6058    35.1410    34.3388
  362.0000    82.0653    34.1884    33.3817
  362.5000    83.6511    33.2616    32.1847
  363.0000    85.7176    32.3599    30.8001
  363.5000    87.4923    31.4826    29.4806
