~VERSION INFORMATION
 VERS.                2.0:   CWLS LOG ASCII STANDARD - VERSION 2.0
 WRAP.                 NO:   ONE LINE PER DEPTH STEP
~WELL INFORMATION
#MNEM.UNIT      DATA TYPE    INFORMATION
#----------   ------------   ------------------------------
 STRT.F            8.0000:   START DEPTH
 STOP.F         1010.0000:   STOP DEPTH
 STEP.F            0.5000:   STEP LENGTH
 NULL.          -999.2500:   NO VALUE
 COMP.          U.S. NAVY:   COMPANY
 WELL. RES 3 TEAPOT DOM #47S-35:   WELL
 FLD .             TEAPOT:   FIELD
 LOC .      S35 T39N R78W:   LOCATION
 CNTY.            NATRONA:   COUNTY
 STAT.            WYOMING:   STATE
 CTRY. UNITED STATES OF AMERICA:   COUNTRY
 SRVC.      NL McCullough:   SERVICE COMPANY
 DATE.        12-NOV-1958:   LOGDATE
 API .       490250650800:   API NUMBER
~CURVE INFORMATION
#MNEM.UNIT       API CODE    CURVE DESCRIPTION
#----------   ------------   ------------------------------
 DEPT.F                  :   
 GRN .GAPI   35 310 01 00:   GAMMA RAY
 NEUT.NAPI   35 330 01 00:   NEUTRON
~PARAMETER INFORMATION
#MNEM.UNIT          VALUE    DESCRIPTION
#----------   ------------   ------------------------------
 PD  .                 GL:   PERMANENT DATUM
 EPD .F             51891:   ELEVATION PERMANENT DATUM
 DATE.        11-NOV-1959:   RUN DATE
 RUN .                  1:   RUN NUMBER
 BLI .F              1004:   BOTTOM LOG INTERVAL
 CS  .IN            8.625:   CASING SIZE
 WITN.             MARTNE:   WITNESSED BY
 CLNT.            A2DTECH:   CLIENT CODE
 ORIG.         2.5" PRINT:   ORIGIN OF DATA
 UWI .       490250650800:   UNIQUE WELL ID
 DICO. A2D Technologies, Inc.:   DIGITIZING COMPANY
~OTHER INFORMATION
~A    DEPT     GRN       NEUT   
    8.0000  -999.2500  -999.2500
    8.5000     5.8107  -999.2500
    9.0000     5.4353  -999.2500
    9.5000     5.0992  -999.2500
   10.0000     4.9984  -999.2500
   10.5000     5.0799  -999.2500
   11.0000     5.6069  -999.2500
   11.5000     5.7527  -999.2500
   12.0000     5.9902  -999.2500
   12.5000     6.3982   234.8200
   13.0000     6.5606   333.3783
   13.5000     6.3309   366.8004
   14.0000     6.3009   405.7871
   14.5000     6.7040   414.2342
   15.0000     6.8665   402.7750
   15.5000     6.8062   398.2844
   16.0000     6.7257   377.3020
   16.5000     6.5393   357.8189
   17.0000     5.8969   363.1259
   17.5000     5.6944   382.4338
   18.0000     5.7433   449.6251
   18.5000     5.7963   492.0052
   19.0000     5.8986   500.0000
   19.5000     5.9801   500.0000
   20.0000     5.9805   499.5516
   20.5000     5.9000   498.0595
   21.0000     5.7381   413.3591
   21.5000     5.5928   346.6496
   22.0000     5.4012   312.1740
   22.5000     5.1474   268.6282
   23.0000     5.0233   234.7301
   23.5000     4.9609   222.4438
   24.0000     4.9518   209.5552
   24.5000     4.9726   188.9438
   25.0000     5.0136   161.5445
   25.5000     5.0748   154.7826
   26.0000     5.1563   153.2284
   26.5000     5.1337   152.5705
   27.0000     5.0965   152.5787
   27.5000     5.0768   152.2801
   28.0000     5.0976   150.7146
   28.5000     5.0981   148.1049
   29.0000     5.0987   139.1165
   29.5000     5.0992   127.8793
   30.0000     5.0592   114.3932
   30.5000     4.9381   110.6522
   31.0000     4.6462   109.0880
   31.5000     4.4329   108.4176
   32.0000     4.5403   108.4258
   32.5000     4.5632   109.1829
   33.0000     4.4267   109.5577
   33.5000     4.3373   110.6986
   34.0000     4.1925   114.4539
   34.5000     4.0512   133.9513
   35.0000     4.5580   148.9509
   35.5000     4.6192   152.7062
   36.0000     4.6024   153.4630
   36.5000     4.3164   145.1724
   37.0000     4.9093   135.7421
   37.5000     5.0465   131.0907
   38.0000     4.9522   137.7518
   38.5000     4.6021   126.5146
   39.0000     4.6228   118.2734
   39.5000     4.6435   114.9038
   40.0000     4.7250   108.0960
   40.5000     4.9302   104.8040
   41.0000     5.0298   107.2039
   41.5000     5.0002   112.6799
   42.0000     4.9630   116.0734
   42.5000     4.9594   114.5813
   43.0000     4.9710   111.5900
   43.5000     5.1539   111.5971
   44.0000     5.5796   118.3509
   44.5000     5.8231   130.6072
   45.0000     6.0058   134.9950
   45.5000     6.1321   134.0205
   46.0000     6.2331   129.3403
   46.5000     6.2706   128.8831
   47.0000     6.2711   130.0724
   47.5000     5.4741   143.8917
   48.0000     5.6242   146.3168
   48.5000     5.7462   140.9075
   49.0000     5.7669   140.1649
   49.5000     5.6661   144.7214
   50.0000     5.3831   146.1769
   50.5000     5.3026   144.4865
   51.0000     5.3764   142.3763
   51.5000     5.4845   133.2246
   52.0000     5.6497   130.0450
   52.5000     5.8946   139.4690
   53.0000     6.1558   146.2228
   53.5000     5.8930   152.9765
   54.0000     5.8529   156.7318
   54.5000     5.8534   162.2576
   55.0000     5.8742   175.5247
   55.5000     5.8517   180.7412
   56.0000     5.7650   174.1730
   56.5000     5.4296   167.0127
   57.0000     5.3902   163.8006
   57.5000     5.3705   155.2861
   58.0000     5.2090   148.5467
   58.5000     5.2703   141.0576
   59.0000     5.3923   138.0662
   59.5000     5.4940   137.3237
   60.0000     5.6174   138.0810
   60.5000     5.6570   138.8381
   61.0000     5.6575   139.8426
   61.5000     5.5794   141.4230
   62.0000     5.4358   144.1479
   62.5000     5.4364   145.6160
   63.0000     5.4571   142.6247
   63.5000     5.4373   138.8837
   64.0000     5.3366   135.8923
   64.5000     5.0738   133.6506
   65.0000     5.0540   139.2554
   65.5000     5.0381   149.0367
   66.0000     4.8215   160.9495
   66.5000     4.4554   185.0512
   67.0000     4.3473   187.9835
   67.5000     4.5099   176.4257
   68.0000     4.6522   172.6847
   68.5000     4.7134   172.5450
   69.0000     4.5721   177.9464
   69.5000     4.5732   177.9535
   70.0000     4.6649   177.1364
   70.5000     4.7857   175.7189
   71.0000     4.9463   189.5828
   71.5000     5.1709   192.9760
   72.0000     5.1181   191.4943
   72.5000     4.9807   185.4962
   73.0000     5.2445   178.0071
   73.5000     4.5767   175.0157
   74.0000     4.7189   178.0214
   74.5000     4.9219   193.0210
   75.0000     4.6929   195.2771
   75.5000     5.0608   179.4753
   76.0000     5.1057   164.3478
   76.5000     5.1062   165.9832
   77.0000     5.0663   173.8906
   77.5000     5.0336   175.8246
   78.0000     5.0875   168.3370
   78.5000     5.1690   159.3486
   79.0000     5.2302   155.6077
   79.5000     5.3601   154.1156
   80.0000     5.5229   154.2728
   80.5000     5.5759   162.4925
   81.0000     5.4063   172.5638
   81.5000     5.3439   177.6549
   82.0000     5.3549   179.1754
   82.5000     5.3553   187.4938
   83.0000     5.3761   190.9008
   83.5000     5.3968   190.9079
   84.0000     5.3973   190.1654
   84.5000     5.3925   184.1756
   85.0000     5.2485   173.6132
   85.5000     5.0407   172.1959
   86.0000     4.8169   172.5737
   86.5000     4.7096   181.3118
   87.0000     4.6309   196.4543
   87.5000     4.6111   198.8693
   88.0000     4.6116   200.7209
   88.5000     4.6121   199.9775
   89.0000     4.6365   199.2354
   89.5000     4.8524   196.9942
   90.0000     5.0186   197.8511
   90.5000     4.9967   205.4335
   91.0000     4.8385   220.7721
   91.5000     4.8410   222.7574
   92.0000     5.2435   222.6287
   92.5000     5.3250   218.7031
   93.0000     5.3277   212.0403
   93.5000     5.2044   205.3008
   94.0000     5.1037   190.3155
   94.5000     5.1241   187.3241
   95.0000     5.3335   184.3203
   95.5000     5.5670   183.5045
   96.0000     5.6627   182.8478
   96.5000     5.6531   182.8561
   97.0000     5.5118   182.5562
   97.5000     5.5123   182.1214
   98.0000     5.5937   181.3793
   98.5000     5.7157   182.1375
   99.0000     5.6883   181.3950
   99.5000     5.5859   182.1518
  100.0000     5.4339   182.1589
  100.5000     5.3940   184.6171
  101.0000     5.5770   187.0753
  101.5000     5.8814   189.5336
  102.0000     5.5898   191.9918
  102.5000     5.4575   196.0832
  103.0000     5.6300   202.4452
  103.5000     5.7871   205.4508
  104.0000     5.8752   202.4594
  104.5000     5.7440   193.4711
  105.0000     5.4207   189.7301
  105.5000     5.3606   193.0022
  106.0000     5.3005   195.9070
  106.5000     5.2810   197.2489
  107.0000     5.2614   197.2564
  107.5000     5.2475   196.1207
  108.0000     5.1476   189.7764
  108.5000     5.0630   185.2858
  109.0000     5.0528   182.2945
  109.5000     5.1841   193.5460
  110.0000     5.2860   199.6502
  110.5000     5.3474   205.7571
  111.0000     5.3886   207.0606
  111.5000     5.4095   204.3016
  112.0000     5.3382   196.8516
  112.5000     5.2026   188.9055
  113.0000     5.1483   186.1020
  113.5000     5.2507   190.6081
  114.0000     5.4740   196.6122
  114.5000     5.4949   201.8667
  115.0000     5.4956   205.6220
  115.5000     5.4355   191.9091
  116.0000     5.3754   188.5757
  116.5000     5.4166   176.0682
  117.0000     5.4221   164.0805
  117.5000     5.4586   163.6807
  118.0000     5.4683   176.4330
  118.5000     5.4802   195.1808
  119.0000     5.4203   197.4368
  119.5000     5.2185   195.9447
  120.0000     5.2394   192.8036
  120.5000     5.3413   189.0867
  121.0000     5.2906   187.5187
  121.5000     5.1199   186.7004
  122.0000     5.2249   185.1324
  122.5000     5.4040   180.2286
  123.0000     5.6182   167.8804
  123.5000     5.6494   148.1109
  124.0000     5.5489   147.6962
  124.5000     5.4483   151.0432
  125.0000     5.3072   157.0474
  125.5000     5.2670   163.8011
  126.0000     5.2276   166.8068
  126.5000     5.4654   164.4415
  127.0000     5.7758   159.7226
  127.5000     5.7765   157.0830
  128.0000     5.5285   159.1304
  128.5000     5.2920   166.6716
  129.0000     5.2117   174.1154
