~VERSION INFORMATION
 VERS.                2.0:   CWLS LOG ASCII STANDARD - VERSION 2.0
 WRAP.                 NO:   ONE LINE PER DEPTH STEP
~WELL INFORMATION
#MNEM.UNIT      DATA TYPE    INFORMATION
#----------   ------------   ------------------------------
 STRT.F            7.0000:   START DEPTH
 STOP.F          587.0000:   STOP DEPTH
 STEP.F            0.5000:   STEP LENGTH
 NULL.          -999.2500:   NO VALUE
 COMP. FENIX & SCISSON INC:   COMPANY
 WELL.        NPR-3 #63-3:   WELL
 FLD .             TEAPOT:   FIELD
 LOC .       S3 T38N R78W:   LOCATION
 CNTY.            NATRONA:   COUNTY
 STAT.            WYOMING:   STATE
 CTRY. UNITED STATES OF AMERICA:   COUNTRY
 SRVC.     Wedge Wireline:   SERVICE COMPANY
 DATE.        06-JAN-1978:   LOGDATE
 API .       490251044700:   API NUMBER
~CURVE INFORMATION
#MNEM.UNIT       API CODE    CURVE DESCRIPTION
#----------   ------------   ------------------------------
 DEPT.F                  :   
 ILD .OHMM   05 120 46 00:   INDUCTION LOG DEEP
 SN  .OHMM   05 040 16 00:   SHORT NORMAL
 SPR .MV     05 010 01 00:   SPONTANEOUS POTENTIAL FROM RES.
 CALD.IN     45 280 60 00:   CALIPER FROM DENSITY LOG
 CORR.G/C3   45 356 01 00:   DENSITY CORRECTION
 DPHI.DEC    45 890 12 00:   DENSITY POROSITY SANDSTONE
 GRD .GAPI   45 310 01 00:   GAMMA RAY FROM DENSITY LOG
 RHOB.G/C3   45 350 01 00:   BULK DENSITY
~PARAMETER INFORMATION
#MNEM.UNIT          VALUE    DESCRIPTION
#----------   ------------   ------------------------------
 PD  .                 GL:   PERMANENT DATUM
 EPD .F              5177:   ELEVATION PERMANENT DATUM
 LMF .                 KB:   LOG MEASURED FROM
 DMF .                 KB:   DRILLING MEASURED FROM
 EKB .F              5181:   KELLING BUSHING
 EGL .F              5177:   GROUND LEVEL
 DATE.        06-JAN-1978:   RUN DATE
 RUN .                  1:   RUN NUMBER
 DD  .F               590:   DEPTH DRILLER
 DL  .F               581:   DEPTH LOGGER
 BLI .F               576:   BOTTOM LOG INTERVAL
 TLI .F                20:   TOP LOG INTERVAL
 CS  .IN            9.625:   CASING SIZE
 CBD .F                19:   CASING BOTTOM DRILLER
 CBL .F                19:   CASING BOTTOM LOGGER
 BS  .IN            7.875:   BIT SIZE
 BSD .F               590:   BIT SIZE AT DEPTH
 DFT .                KCL:   DRILLING FLUID TYPE
 DFD .                8.5:   DRILLING FLUID DENSITY
 DFV .                 34:   DRILLING FLUID VISCOSITY
 DFPH.                9.0:   DRILLING FLUID PH
 DFL .                7.8:   DRILLING FLUID LOSS
 MSS .           FLOWLINE:   MUD SAMPLE SOURCE
 RMS .OHMM           0.22:   RESISTIVITY MUD SAMPLE
 MST .F                63:   MUD SAMPLE TEMPERATURE
 RMF .OHMM           0.24:   RESISTIVITY MUD FILTRATE SAMPLE
 MFST.F                63:   MUD FILTRATE SAMPLE TEMPERATURE
 RMC .OHMM           0.48:   RESISTIVITY MUD CAKE
 MCST.F                64:   MUD CAKE SAMPLE TEMPERATURE
 MFSS.               MEAS:   MUD FILTRATE SAMPLE SOURCE
 MCSS.               MEAS:   MUD CAKE SAMPLE SOURCE
 RMB .OHMM           0.19:   RESISTIVITY MUD AT BHT
 BHT .F                71:   BOTTOM HOLE TEMPERATURE
 TCS .HRS               3:   TIME CURCULATED STOPPED
 MRT .F                71:   MAXIMUM RECORDED TEMPERATURE
 LUN .               2958:   LOGGING UNIT NUMBER
 LUL .             CASPER:   LOGGING UNIT LOCATION
 ENGI.             MILLER:   RECORDING ENGINEER
 WITN.         HARRINGTON:   WITNESSED BY
 CLNT.            A2DTECH:   CLIENT CODE
 ORIG.           5" PRINT:   ORIGIN OF DATA
 UWI .       490251044700:   UNIQUE WELL ID
 DICO. A2D Technologies, Inc.:   DIGITIZING COMPANY
~OTHER INFORMATION
~A    DEPT     ILD         SN        SPR       CALD       CORR       DPHI         GRD      RHOB   
# ...
  128.5000    11.6349     8.2764   -43.9374     8.4436    -0.3474     0.1124    88.2701     2.4680
  129.0000    11.6397     8.2805   -44.0786     8.4448    -0.3427     0.1108    92.1159     2.4718
  129.5000    11.6452     8.3410   -44.2198     8.4461    -0.3441     0.1105    98.3056     2.4734
  130.0000    11.6497     8.3442   -44.3611     8.4474    -0.3485     0.1102   103.6142     2.4742
  130.5000    11.6543     8.3475   -44.3559     8.4489    -0.3483     0.1095   106.5733     2.4757
  131.0000    11.6589     8.3515   -44.3517     8.4501    -0.3421     0.1086   103.5419     2.4788
  131.5000    11.7453     8.3548   -44.4931     8.4514    -0.3404     0.1083    98.9877     2.4804
  132.0000    11.8312     8.3581   -44.4879     8.4527    -0.3448     0.1113    97.5415     2.4737
  132.5000    11.8358     8.3613   -44.4838     8.4539    -0.3492     0.1128    98.4449     2.4707
  133.0000    12.0048     8.3654   -44.4797     8.4629    -0.3491     0.1085   100.2293     2.4745
  133.5000    12.1774     8.3686   -44.3292     8.4739    -0.3444     0.1048   101.7255     2.4806
  134.0000    12.3683     8.4298   -44.3251     8.4849    -0.3412     0.1024    99.1047     2.4913
  134.5000    12.5277     8.4914   -44.3210     8.4959    -0.3396     0.1015    96.7719     2.4959
  135.0000    12.7945     8.4948   -44.1715     8.5044    -0.3440     0.1029    99.4374     2.4920
  135.5000    12.9857     8.6167   -44.0211     8.4910    -0.3483     0.1038    94.4726     2.4862
  136.0000    13.1638     8.6797   -43.7263     8.4926    -0.3462     0.1032    99.1994     2.4877
  136.5000    13.2601     8.7431   -43.7221     8.4938    -0.3374     0.1013   101.5656     2.4938
  137.0000    13.3570     8.8679   -43.5727     8.4951    -0.3297     0.1001    96.3071     2.4999
  137.5000    13.4547     8.9952   -43.5675     8.4963    -0.3280     0.0998    94.5178     2.5015
  138.0000    13.4613     9.0610   -43.5634     8.4830    -0.3355     0.1013    98.5257     2.4993
  138.5000    13.4666     9.1271   -43.7057     8.4845    -0.3416     0.1027   101.6659     2.4956
  139.0000    13.4718     9.2574   -43.9913     8.4708    -0.3458     0.1027    98.7513     2.4934
  139.5000    13.5703     9.3259   -44.2778     8.4724    -0.3456     0.1018    96.7122     2.4926
  140.0000    13.6697     9.4590   -44.5644     8.4737    -0.3424     0.1005   102.3201     2.4966
  140.5000    13.6763     9.5281   -44.7057     8.4603    -0.3362     0.0990   103.5172     2.5034
  141.0000    13.8716     9.5977   -44.8459     8.4469    -0.3298     0.0975   100.0208     2.5118
  141.5000    13.9730     9.6024   -44.9861     8.4257    -0.3313     0.0971    94.1694     2.5141
  142.0000    14.0752     9.6725   -45.1284     8.4205    -0.3403     0.0987    92.6833     2.5073
  142.5000    14.2765     9.6763   -45.1232     8.4141    -0.3462     0.1004    97.3469     2.5013
  143.0000    14.4815     9.6801   -45.2645     8.3939    -0.3521     0.1019   105.6955     2.4946
  143.5000    14.6882     9.6174   -45.4057     8.3953    -0.3567     0.1031   108.9484     2.4909
  144.0000    14.8980     9.6220   -45.4006     8.3817    -0.3594     0.1030   108.9706     2.4887
  144.5000    15.1122     9.6258   -45.3965     8.3832    -0.3577     0.1012   106.0561     2.4948
  145.0000    15.3280     9.5634   -45.3923     8.3845    -0.3485     0.0991   103.1471     2.5010
  145.5000    15.5469     9.5681   -45.3881     8.3861    -0.3392     0.0987   101.1136     2.5002
  146.0000    15.7689     9.5718   -45.2377     8.3873    -0.3423     0.1023    99.9555     2.4942
  146.5000    15.9943     9.5756   -45.0883     8.3886    -0.3496     0.1050    99.1023     2.4883
  147.0000    16.0020     9.5793   -44.7935     8.4044    -0.3479     0.1068    96.7166     2.4838
  147.5000    15.8283     9.5832   -44.6269     8.4057    -0.3447     0.1077    88.5798     2.4854
  148.0000    15.6851     9.5877   -44.2028     8.4219    -0.3461     0.1083    88.0091     2.4952
  148.5000    15.5850     9.5914   -43.9080     8.4378    -0.3505     0.1082    89.7991     2.4983
  149.0000    15.2720     9.5952   -43.6132     8.4390    -0.3493     0.1082    94.2267     2.4991
  149.5000    14.9667     9.5990   -43.3183     8.4549    -0.3456     0.1075    99.8981     2.4984
  150.0000    14.9725     9.6251   -43.2157     8.4708    -0.3394     0.1067   104.5531     2.4894
  150.5000    14.8780     9.7403   -43.0088     8.4711    -0.3498     0.1078   104.2706     2.4767
  151.0000    14.8902     9.6778   -42.9963     8.4712    -0.3558     0.1099   102.5081     2.4707
  151.5000    14.9000     9.6169   -42.9839     8.4713    -0.3602     0.1132    99.3033     2.4654
  152.0000    15.0152     9.5563   -42.8230     8.4714    -0.3616     0.1160   100.1956     2.4602
  152.5000    15.0250     9.4940   -42.6652     8.4715    -0.3614     0.1186   102.2626     2.4572
  153.0000    15.1388     9.3694   -42.6528     8.4716    -0.3596     0.1198   103.1550     2.4557
  153.5000    15.1486     9.3737   -42.6404     8.4718    -0.3536     0.1213   101.6978     2.4543
  154.0000    15.0544     9.2497   -42.3372     8.4704    -0.3443     0.1243    97.7973     2.4536
  154.5000    14.8579     9.0657   -42.0310     8.4574    -0.3245     0.1258    91.7378     2.4529
  155.0000    14.3662     8.8833   -41.7279     8.4722    -0.3062     0.1270    89.3995     2.4537
  155.5000    13.8885     8.6458   -41.4248     8.4578    -0.2845     0.1284    87.6487     2.4530
  156.0000    13.5074     8.2435   -41.1216     8.4579    -0.2256     0.1317    86.7789     2.4455
  156.5000    12.9823     7.7523   -40.6730     8.4581    -0.1194     0.1366    87.0838     2.4206
  157.0000    12.3787     7.2396   -40.5123     8.4436    -0.0375     0.1526    88.9398     2.3784
  157.5000    11.8032     6.7607   -40.3545     8.4437     0.0036     0.1904    94.1576     2.3475
  158.0000    11.1721     6.3136   -40.4874     8.4439    -0.0539     0.2000    98.2804     2.2977
  158.5000    10.5133     6.0607   -40.4750     8.4148    -0.5052     0.3328   101.2285     2.1995
  159.0000    10.0245     6.0642   -40.1715     8.4149    -0.4475     0.2931   101.5335     2.1183
  159.5000     9.6246     6.2795   -40.1563     8.4005    -0.2383     0.1984    92.3994     2.3415
  160.0000     9.5647     6.5928   -40.4377     8.4006    -0.2973     0.1279    89.5149     2.4535
  160.5000    11.2173     7.0177   -41.0036     8.3861    -0.3244     0.1224    94.8153     2.4354
  161.0000    12.1926     7.4708   -41.5725     8.3863    -0.3194     0.1224   100.7002     2.4385
  161.5000    12.3700     7.7896   -42.5744     8.3864    -0.3044     0.1215   106.2915     2.4642
  162.0000    12.3780     8.0109   -43.1434     8.3880    -0.3164     0.1202   110.1207     2.4726
  162.5000    12.3881     8.1258   -43.4217     8.4013    -0.3284     0.1187   111.8943     2.4696
  163.0000    12.4807     8.2423   -44.1360     8.4015    -0.3328     0.1190   110.1460     2.4666
  163.5000    12.4901     8.3614   -44.4147     8.4016    -0.3357     0.1189   107.8049     2.4637
  164.0000    12.4982     8.4812   -44.5472     8.4018    -0.3371     0.1180   111.0495     2.4615
  164.5000    12.5066     8.5438   -44.5316     8.4019    -0.3385     0.1158   113.1166     2.4623
  165.0000    12.5165     8.6068   -44.5192     8.4020    -0.3353     0.1131   111.3657     2.4661
  165.5000    12.4366     8.6109   -44.6526     8.4022    -0.3321     0.1125   103.4058     2.4707
  166.0000    12.4468     8.7352   -44.6395     8.4023    -0.3350     0.1136   105.5173     2.4722
  166.5000    12.4549     8.7996   -44.9180     8.4025    -0.3442     0.1142   107.5844     2.4708
  167.0000    12.4650     8.8036   -45.0509     8.4026    -0.3469     0.1136   107.8893     2.4693
  167.5000    12.4731     8.8685   -45.1838     8.4028    -0.3392     0.1111   107.3132     2.4701
  168.0000    12.4813     8.8736   -45.1683     8.4029    -0.3208     0.1072   104.0705     2.4867
  168.5000    12.4894     8.8776   -45.4465     8.4031    -0.3112     0.1057   101.4620     2.4846
