~VERSION INFORMATION
 VERS.                2.0:   CWLS LOG ASCII STANDARD - VERSION 2.0
 WRAP.                 NO:   ONE LINE PER DEPTH STEP
~WELL INFORMATION
#MNEM.UNIT      DATA TYPE    INFORMATION
#----------   ------------   ------------------------------
 STRT.F         1500.0000:   START DEPTH
 STOP.F         3480.0000:   STOP DEPTH
 STEP.F            0.5000:   STEP LENGTH
 NULL.          -999.2500:   NO VALUE
 COMP. FLUOR DANIEL (NOPSR). INC.:   COMPANY
 WELL.   22-STX-26 #22-26:   WELL
 FLD .             NPR #3:   FIELD
 LOC .      S26 T38N R78W:   LOCATION
 CNTY.            NATRONA:   COUNTY
 STAT.            WYOMING:   STATE
 CTRY. UNITED STATES OF AMERICA:   COUNTRY
 SRVC.            Unknown:   SERVICE COMPANY
 DATE.        14-JUN-1995:   LOGDATE
 API .       490252272400:   API NUMBER
~CURVE INFORMATION
#MNEM.UNIT       API CODE    CURVE DESCRIPTION
#----------   ------------   ------------------------------
 DEPT.F                  :   
 ROP .MIN/FT 91 810 01 00:   RATE OF DRILLING PENETRATION
 TGAS.UNITS  91 830 01 00:   TOTAL GAS FROM HOTWIRE
~PARAMETER INFORMATION
#MNEM.UNIT          VALUE    DESCRIPTION
#----------   ------------   ------------------------------
 EKB .F              5348:   KELLING BUSHING
 EGL .F              5338:   GROUND LEVEL
 DATE.            6-14-95:   RUN DATE
 DD  .F              3480:   DEPTH DRILLER
 BLI .F              3480:   BOTTOM LOG INTERVAL
 TLI .F              1500:   TOP LOG INTERVAL
 CS  .IN            9.625:   CASING SIZE
 CBD .F                87:   CASING BOTTOM DRILLER
 ENGI.               HUSK:   RECORDING ENGINEER
 WITN.              TOWER:   WITNESSED BY
 CLNT.            A2DTECH:   CLIENT CODE
 ORIG.           5" PRINT:   ORIGIN OF DATA
 UWI .       490252272400:   UNIQUE WELL ID
 DICO. A2D Technologies, Inc.:   DIGITIZING COMPANY
~OTHER INFORMATION
~A  DEPT         ROP       TGAS 
# ...
 3322.5000     0.5366    10.2339
 3323.0000     0.5375    10.2286
 3323.5000     0.5384    10.2234
 3324.0000     0.6755    10.2181
 3324.5000     0.6758    10.2129
 3325.0000     0.6762    10.2076
 3325.5000     0.6765    10.2023
 3326.0000     0.6768    10.1971
 3326.5000     0.6771    10.1918
 3327.0000     0.6774    10.1866
 3327.5000     0.6777    10.1813
 3328.0000     0.5417    10.1761
 3328.5000     0.5421    10.1708
 3329.0000     0.5424    10.1656
 3329.5000     0.5427    10.1603
 3330.0000     0.5430    10.1551
 3330.5000     0.5433    10.1498
 3331.0000     0.5436    10.1446
 3331.5000     0.5439    10.1393
 3332.0000     0.5443    10.1341
 3332.5000     0.5446    10.1288
 3333.0000     0.5449    10.1236
 3333.5000     0.5452    10.1183
 3334.0000     0.5455    10.1131
 3334.5000     0.5458    10.1078
 3335.0000     0.5462    10.1026
 3335.5000     0.5465    10.0973
 3336.0000     0.5468    10.0921
 3336.5000     0.5471    10.0868
 3337.0000     0.5474    10.0816
 3337.5000     0.5477    10.0763
 3338.0000     0.5480    10.0711
 3338.5000     0.5484    10.0658
 3339.0000     0.5486    10.0606
 3339.5000     0.5490    10.0553
 3340.0000     0.5493    10.0501
 3340.5000     0.5496    10.0448
 3341.0000     0.5499    10.0396
 3341.5000     0.5503    10.0343
 3342.0000     0.5506    10.0291
 3342.5000     0.5509    10.0238
 3343.0000     0.5512    10.0186
 3343.5000     0.5515    10.0133
 3344.0000     0.5518    10.0081
 3344.5000     0.5521    10.0028
 3345.0000     0.5524     9.9976
 3345.5000     0.5528     9.9923
 3346.0000     0.5530     9.9871
 3346.5000     0.5534     9.9818
 3347.0000     0.5537     9.9766
 3347.5000     0.5540     9.9713
 3348.0000     0.5543     9.9661
 3348.5000     0.5547     9.9608
 3349.0000     0.5549     9.9556
 3349.5000     0.5553     9.9503
 3350.0000     0.5556     9.9451
 3350.5000     0.5559     9.9398
 3351.0000     0.5562     9.9345
 3351.5000     0.5565     9.9293
 3352.0000     0.5569     9.9240
 3352.5000     0.5571     9.9188
 3353.0000     0.5575     9.9135
 3353.5000     0.5578     9.9083
 3354.0000     0.6839     9.9030
 3354.5000     0.6842     9.8978
 3355.0000     0.6845     9.8925
 3355.5000     0.6849     9.8873
 3356.0000     0.6852     9.8820
 3356.5000     0.6855     9.8768
 3357.0000     0.6858     9.8715
 3357.5000     0.6861     9.8663
 3358.0000     0.6864     9.8610
 3358.5000     0.6867     9.8558
 3359.0000     0.6870     9.8505
 3359.5000     0.6874     9.8453
 3360.0000     0.6877     9.8400
 3360.5000     0.6880     9.8348
 3361.0000     0.6883     9.8295
 3361.5000     0.6886     9.8243
 3362.0000     0.6890     9.8190
 3362.5000     0.6893     9.8138
 3363.0000     0.6896     9.8085
 3363.5000     0.6899     9.8033
 3364.0000     0.8265     9.7980
 3364.5000     0.8268     9.7928
 3365.0000     0.8271     9.7875
 3365.5000     0.8274     9.7823
 3366.0000     0.8277     9.7770
 3366.5000     0.8281     9.7718
 3367.0000     0.8284     9.7665
 3367.5000     0.8287     9.7613
 3368.0000     0.8290     9.7560
 3368.5000     0.8293     9.7508
 3369.0000     0.8296     9.7455
 3369.5000     0.8299     9.7403
 3370.0000     0.5262     9.7350
 3370.5000     0.5370     9.7298
 3371.0000     0.5374     9.7245
 3371.5000     0.5377     9.7193
 3372.0000     0.5380     9.7140
 3372.5000     0.5383     9.7088
 3373.0000     0.5386     9.7035
 3373.5000     0.5389     9.6983
 3374.0000     0.5392     9.6930
 3374.5000     0.5396     9.6878
 3375.0000     0.5399     9.6825
 3375.5000     0.5402     9.6772
 3376.0000     0.5405     9.6720
 3376.5000     0.5408     9.6667
 3377.0000     0.5411     9.6615
 3377.5000     0.5415     9.6562
 3378.0000     0.5312     9.6510
 3378.5000     0.5316     9.6457
 3379.0000     0.5319     9.6405
 3379.5000     0.5322     9.6352
 3380.0000     0.5325     9.6300
 3380.5000     0.5328     9.6247
 3381.0000     0.5331     9.6195
 3381.5000     0.5335     9.6142
 3382.0000     0.5338     9.6090
 3382.5000     0.5341     9.6037
 3383.0000     0.5344     9.5985
 3383.5000     0.5347     9.5932
 3384.0000     0.6608     9.5880
 3384.5000     0.6612     9.5827
 3385.0000     0.6615     9.5775
 3385.5000     0.6618     9.5722
 3386.0000     0.6621     9.5670
 3386.5000     0.6624     9.5617
 3387.0000     0.6627     9.5565
 3387.5000     0.6630     9.5512
 3388.0000     0.6634     9.5460
 3388.5000     0.7999     9.5407
 3389.0000     0.8003     9.5355
 3389.5000     0.8006     9.5302
 3390.0000     0.8009     9.5250
 3390.5000     0.8012     9.5197
 3391.0000     0.8015     9.5145
 3391.5000     0.8018     9.5092
 3392.0000     0.7916     9.5040
 3392.5000     1.0016     9.4987
 3393.0000     1.0019     9.4935
 3393.5000     1.0022     9.4882
 3394.0000     1.0026     9.4830
 3394.5000     1.0029     9.4777
 3395.0000     1.0032     9.4725
 3395.5000     1.0035     9.4672
 3396.0000     1.0038     9.4620
 3396.5000     0.7944     9.4567
 3397.0000     0.7948     9.4515
 3397.5000     0.7951     9.4462
 3398.0000     0.7848     9.4410
 3398.5000     0.7642     9.4357
 3399.0000     0.7646     9.4305
 3399.5000     0.7649     9.4252
 3400.0000     0.7652     9.4195
 3400.5000     0.6292     9.4188
 3401.0000     0.6296     9.4180
 3401.5000     0.6193     9.4172
 3402.0000     0.6207     9.4164
 3402.5000     0.6223     9.4156
 3403.0000     0.6239     9.4149
 3403.5000     0.6255     9.4141
 3404.0000     0.6271     9.4133
 3404.5000     0.6287     9.4125
 3405.0000     0.6303     9.4117
 3405.5000     0.6319     9.4109
 3406.0000     0.6335     9.4101
 3406.5000     0.6351     9.4093
 3407.0000     0.6367     9.4085
 3407.5000     0.6383     9.4078
 3408.0000     0.6399     9.4070
 3408.5000     0.6415     9.4062
 3409.0000     0.6431     9.4054
 3409.5000     0.6447     9.4046
 3410.0000     0.6463     9.4038
 3410.5000     0.6479     9.4030
 3411.0000     0.6495     9.4022
 3411.5000     0.6511     9.4014
 3412.0000     0.6527     9.4007
 3412.5000     0.6543     9.3999
 3413.0000     0.6559     9.3991
 3413.5000     0.6575     9.3983
 3414.0000     0.6591     9.3975
 3414.5000     0.6607     9.3967
 3415.0000     0.6623     9.3959
 3415.5000     0.6639     9.3951
 3416.0000     0.6655     9.3943
 3416.5000     0.6671     9.3935
 3417.0000     0.6687     9.3928
 3417.5000     0.6703     9.3920
 3418.0000     0.7966     9.3912
 3418.5000     0.7966     9.3904
 3419.0000     0.7966     9.3896
 3419.5000     0.7966     9.3888
 3420.0000     0.7966     9.3880
 3420.5000     0.7966     9.3872
 3421.0000     0.7966     9.3864
 3421.5000     0.7966     9.3857
 3422.0000     1.3094     9.3849
 3422.5000     1.3070     9.3841
 3423.0000     1.3047     9.3833
 3423.5000     1.3023     9.3825
 3424.0000     1.0063     9.3817
 3424.5000     1.0063     9.3809
 3425.0000     1.0063     9.3801
 3425.5000     1.0063     9.3793
 3426.0000     1.0063     9.3786
 3426.5000     1.0063     9.3778
 3427.0000     1.0063     9.3770
 3427.5000     1.0063     9.3762
 3428.0000     0.7966     9.3754
 3428.5000     0.7966     9.3746
 3429.0000     0.7966     9.3738
 3429.5000     0.7966     9.3730
 3430.0000     0.7966     9.3722
 3430.5000     0.7966     9.3714
 3431.0000     0.8071     9.3707
 3431.5000     0.8071     9.3699
 3432.0000     0.8071     9.3691
 3432.5000     0.8071     9.3683
 3433.0000     0.8071     9.3675
 3433.5000     0.8281     9.3667
 3434.0000     0.6604     9.3659
 3434.5000     0.6709     9.3651
 3435.0000     0.6604     9.3643
 3435.5000     0.6499     9.3636
 3436.0000     0.6608     9.3628
 3436.5000     0.6612     9.3620
 3437.0000     0.6617     9.3612
 3437.5000     0.6621     9.3604
 3438.0000     0.6625     9.3596
 3438.5000     0.6629     9.3588
 3439.0000     0.6634     9.3580
 3439.5000     0.6638     9.3572
 3440.0000     0.6642     9.3565
 3440.5000     0.6646     9.3557
 3441.0000     0.6651     9.3549
 3441.5000     0.6655     9.3541
 3442.0000     0.6659     9.3533
 3442.5000     0.6663     9.3525
 3443.0000     0.6668     9.3517
 3443.5000     0.6672     9.3509
