~VERSION INFORMATION
 VERS.                2.0:   CWLS LOG ASCII STANDARD - VERSION 2.0
 WRAP.                 NO:   ONE LINE PER DEPTH STEP
~WELL INFORMATION
#MNEM.UNIT      DATA TYPE    INFORMATION
#----------   ------------   ------------------------------
 STRT.F           46.5000:   START DEPTH
 STOP.F          435.0000:   STOP DEPTH
 STEP.F            0.5000:   STEP LENGTH
 NULL.          -999.2500:   NO VALUE
 COMP. BROWN JOHN E&C INC:   COMPANY
 WELL. NPR 3 64-63 X 10 #64-10:   WELL
 FLD .             TEAPOT:   FIELD
 LOC .      S10 T38N R78W:   LOCATION
 CNTY.            NATRONA:   COUNTY
 STAT.            WYOMING:   STATE
 CTRY. UNITED STATES OF AMERICA:   COUNTRY
 SRVC.       Schlumberger:   SERVICE COMPANY
 DATE.        17-SEP-1980:   LOGDATE
 API .       490251132300:   API NUMBER
~CURVE INFORMATION
#MNEM.UNIT       API CODE    CURVE DESCRIPTION
#----------   ------------   ------------------------------
 DEPT.F                  :   
 GRR .GAPI   07 310 01 00:   GAMMA RAY FROM RES. LOG.
 ILD .OHMM   07 120 46 00:   INDUCTION LOG DEEP
 ILM .OHMM   07 120 44 00:   INDUCTION LOG MEDIUM
~PARAMETER INFORMATION
#MNEM.UNIT          VALUE    DESCRIPTION
#----------   ------------   ------------------------------
 PD  .                 GL:   PERMANENT DATUM
 EPD .F              5184:   ELEVATION PERMANENT DATUM
 LMF .                 KB:   LOG MEASURED FROM
 DAPD.F                10:   FEET ABOVE PERMANENT DATUM
 DMF .                 KB:   DRILLING MEASURED FROM
 EKB .F              5184:   KELLING BUSHING
 EDF .F              5183:   DRILLING FLOOR
 EGL .F              5184:   GROUND LEVEL
 DATE.        11-SEP-1980:   RUN DATE
 RUN .                  1:   RUN NUMBER
 DD  .F               455:   DEPTH DRILLER
 DL  .F               456:   DEPTH LOGGER
 BLI .F               446:   BOTTOM LOG INTERVAL
 TLI .F                48:   TOP LOG INTERVAL
 CS  .IN            8.625:   CASING SIZE
 CBD .F                52:   CASING BOTTOM DRILLER
 CBL .F                48:   CASING BOTTOM LOGGER
 BS  .IN            7.875:   BIT SIZE
 BSD .F               455:   BIT SIZE AT DEPTH
 DFT .           AIR/FOAM:   DRILLING FLUID TYPE
 MSS .           MUD TANK:   MUD SAMPLE SOURCE
 MFSS.               MEAS:   MUD FILTRATE SAMPLE SOURCE
 MCSS.               CALC:   MUD CAKE SAMPLE SOURCE
 TCS .HRS            1300:   TIME CURCULATED STOPPED
 TLAB.HRS            1400:   TIME LOGGER AT BOTTOM
 LUN .               8168:   LOGGING UNIT NUMBER
 LUL .           GILLETTE:   LOGGING UNIT LOCATION
 ENGI.          M. FISHER:   RECORDING ENGINEER
 WITN.        GARY STRONG:   WITNESSED BY
 CLNT.            A2DTECH:   CLIENT CODE
 ORIG.      2" , 5" PRINT:   ORIGIN OF DATA
 UWI .       490251132300:   UNIQUE WELL ID
 DICO. A2D Technologies, Inc.:   DIGITIZING COMPANY
~OTHER INFORMATION
~A   DEPT      GRR        ILD        ILM   
   46.5000   118.0894  -999.2500  -999.2500
   47.0000   118.9155   518.9074  -999.2500
   47.5000   118.5772   164.9211    30.1393
   48.0000   117.4884     6.5565     2.3631
   48.5000   116.1067     0.8743     0.9226
   49.0000   117.6097     0.8934     0.9693
   49.5000   121.3111     1.0152     1.1429
   50.0000   124.5887     1.0705     1.3424
   50.5000   124.2430     1.2537     1.4413
   51.0000   121.0570     1.2773     1.3927
   51.5000   118.5801     1.1791     1.3505
   52.0000   119.5513     1.1319     1.3096
   52.5000   120.7320     1.1145     1.2770
   53.0000   120.0996     1.0906     1.3627
   53.5000   117.8520     1.1080     1.3376
   54.0000   115.5145     1.1370     1.3134
   54.5000   113.1558     1.1656     1.2413
   55.0000   112.8389     1.1857     1.2125
   55.5000   114.5706     1.1768     1.1982
   56.0000   119.1600     1.1699     1.2193
   56.5000   123.6595     1.1639     1.2460
   57.0000   124.4395     1.2080     1.2758
   57.5000   121.4584     1.2463     1.3012
   58.0000   118.7745     1.2877     1.3490
   58.5000   118.3781     1.3390     1.4002
   59.0000   117.9315     1.4070     1.4594
   59.5000   117.4622     1.4785     1.5463
   60.0000   118.2083     1.5536     1.6449
   60.5000   119.8097     1.6264     1.8077
   61.0000   121.4272     1.9508     2.0508
   61.5000   123.0570     2.2722     2.4642
   62.0000   124.5325     2.7302     3.2132
   62.5000   123.4254     3.2807     4.2847
   63.0000   121.4576     3.8962     5.4901
   63.5000   116.4658     4.6487     6.8048
   64.0000   111.6247     4.6920     6.4162
   64.5000   106.7847     4.5162     5.0118
   65.0000   101.7943     4.3075     3.9147
   65.5000    98.5960     4.0245     3.0578
   66.0000    95.8018     3.5382     2.7368
   66.5000    96.5678     3.1107     2.6241
   67.0000    99.4343     2.7322     2.4243
   67.5000   102.3045     2.4743     2.2302
   68.0000   103.8207     2.1482     2.0515
   68.5000   102.1727     2.1874     1.9362
   69.0000   100.4548     2.2575     1.9033
   69.5000   100.2551     2.3422     1.9628
   70.0000   101.6708     2.4826     2.1156
   70.5000   103.1153     2.6314     2.3151
   71.0000   104.5566     2.8445     2.5764
   71.5000   103.4659     3.0884     2.8654
   72.0000    99.5347     3.5061     3.2352
   72.5000    95.4778     3.9463     3.6896
   73.0000    91.3423     4.3793     4.2122
   73.5000    90.6935     4.7172     4.6410
   74.0000    92.3972     5.0813     4.8887
   74.5000    94.0192     5.2828     5.0787
   75.0000    92.9896     5.3484     5.2179
   75.5000    91.9740     5.4148     5.3013
   76.0000    91.8551     5.4820     5.3714
   76.5000    95.9958     5.5465     5.4425
   77.0000   100.7147     5.6393     5.5574
   77.5000   105.4837     5.7290     5.7968
   78.0000   109.7824     5.8374     6.0464
   78.5000   113.6379     6.0996     6.3068
   79.0000   116.1475     6.3735     6.5784
   79.5000   118.4987     6.6517     6.8617
   80.0000   121.1187     6.9270     7.1572
   80.5000   124.9913     7.2136     7.4655
   81.0000   128.3006     7.5121     7.7874
   81.5000   127.7949     7.8230     8.0966
   82.0000   125.3801     8.1467     8.3301
   82.5000   123.8505     8.3904     8.5704
   83.0000   126.7666     8.6252     8.7749
   83.5000   129.4453     8.7458     8.8794
   84.0000   127.3302     8.6641     8.9930
   84.5000   124.0031     8.6095     8.8813
   85.0000   123.4724     8.5399     8.7620
   85.5000   127.4530     8.4597     8.6648
   86.0000   131.3048     8.3486     8.6648
   86.5000   132.3766     8.3647     8.5846
   87.0000   126.4136     8.3915     8.5843
   87.5000   120.3215     8.4184     8.5848
   88.0000   117.7964     8.4453     8.6069
   88.5000   121.0277     8.4724     8.6409
   89.0000   124.5090     8.4995     8.6750
   89.5000   126.6289     8.5267     8.7093
   90.0000   125.2610     8.5540     8.7437
   90.5000   121.9091     8.5814     8.7783
   91.0000   118.5882     8.6089     8.8129
   91.5000   117.7112     8.6364     8.8483
   92.0000   119.0158     8.6641     8.8843
   92.5000   121.8948     8.6918     8.9204
   93.0000   124.7805     8.7194     8.9566
   93.5000   127.7252     8.7458     8.9930
   94.0000   127.4226     8.8121     9.0295
   94.5000   123.1743     8.8748     9.0662
   95.0000   118.7660     8.9380     9.1099
   95.5000   116.3998     8.9966     9.1566
   96.0000   117.6805     9.0233     9.2036
   96.5000   122.4244     9.0500     9.2507
   97.0000   127.0300     9.0768     9.2982
   97.5000   130.2492     9.1037     9.3460
   98.0000   130.5515     9.1305     9.3951
   98.5000   126.7990     9.1613     9.4201
   99.0000   123.0287     9.0402     9.1973
   99.5000   122.8824     8.8985     9.0450
  100.0000   124.3351     8.5608     8.9098
  100.5000   125.7475     8.1962     8.4266
  101.0000   125.8258     7.8472     8.0945
  101.5000   125.8028     7.5131     7.7496
  102.0000   127.1795     7.1285     7.6077
  102.5000   129.4625     7.3188     7.7132
  103.0000   130.7890     7.5662     7.7712
  103.5000   127.7201     7.6455     7.8298
  104.0000   124.2327     7.6913     7.8884
  104.5000   122.5553     7.7369     7.9357
  105.0000   124.4992     7.7829     7.9808
  105.5000   126.7160     7.8292     8.0264
  106.0000   124.7465     7.8759     8.0723
  106.5000   123.3548     7.8958     8.1191
  107.0000   127.7643     7.8958     8.1191
  107.5000   135.7751     7.8959     8.1191
  108.0000   140.2390     7.8956     8.1190
  108.5000   141.8157     7.8947     8.1190
  109.0000   138.2500     7.8958     8.1176
  109.5000   134.3815     8.0337     8.1931
  110.0000   130.1515     8.1619     8.3000
  110.5000   128.7293     8.2922     8.4083
  111.0000   130.8116     8.3811     8.5179
  111.5000   132.9110     8.4374     8.6290
  112.0000   133.5139     8.4911     8.7415
  112.5000   132.1830     8.5447     8.8274
  113.0000   134.0867     8.5842     8.7330
  113.5000   139.1191     8.4748     8.6581
  114.0000   144.1689     8.3890     8.5835
  114.5000   143.2387     8.3040     8.5097
  115.0000   140.6667     8.2199     8.4366
  115.5000   138.9555     8.1367     8.3640
  116.0000   140.5455     8.1074     8.3351
  116.5000   142.2097     8.0925     8.3179
  117.0000   140.1892     8.0776     8.3007
  117.5000   137.2008     8.0627     8.2836
  118.0000   134.1855     8.0455     8.2714
  118.5000   131.7786     8.2760     8.6648
  119.0000   129.6895     8.5053     8.6864
  119.5000   127.6033     8.5053     8.7118
  120.0000   125.8867     8.5053     8.7455
  120.5000   126.8958     8.5053     8.7006
  121.0000   127.8729     8.4285     8.6229
  121.5000   128.4278     8.3526     8.5467
  122.0000   128.7273     8.2774     8.4745
  122.5000   128.9982     8.2029     8.4077
  123.0000   130.1092     8.1949     8.3486
  123.5000   131.3023     8.1949     8.3731
  124.0000   132.1360     8.1949     8.3952
  124.5000   130.5670     8.1945     8.4174
  125.0000   129.0191     8.1961     8.4266
  125.5000   127.4754     7.9523     8.2265
  126.0000   126.6938     7.8019     8.0309
  126.5000   128.5998     7.5886     7.6719
  127.0000   130.6186     7.3468     7.3289
  127.5000   134.6948     7.1127     7.0013
  128.0000   139.0672     6.8843     6.6883
  128.5000   138.6237     6.7402     6.3762
  129.0000   137.7418     6.7207     6.3350
  129.5000   138.5145     6.7031     6.3172
  130.0000   139.9732     6.6800     6.5022
  130.5000   139.8703     6.7630     6.6388
  131.0000   136.8015     6.8982     6.7781
  131.5000   130.2354     7.0361     6.9205
  132.0000   123.5124     7.1773     7.0658
  132.5000   119.4391     7.3291     7.2077
  133.0000   119.7862     7.4122     7.3083
  133.5000   123.0564     7.5001     7.4102
  134.0000   129.2761     7.5897     7.5136
  134.5000   135.4076     7.6805     7.6184
  135.0000   138.6990     7.7722     7.6787
  135.5000   138.6933     7.8235     7.5922
  136.0000   137.0122     7.7336     7.5324
  136.5000   135.9610     7.6632     7.4730
  137.0000   135.9748     7.5936     7.4141
