~VERSION INFORMATION
 VERS.                2.0:   CWLS LOG ASCII STANDARD - VERSION 2.0
 WRAP.                 NO:   ONE LINE PER DEPTH STEP
~WELL INFORMATION
#MNEM.UNIT      DATA TYPE    INFORMATION
#----------   ------------   ------------------------------
 STRT.F           20.0000:   START DEPTH
 STOP.F          436.5000:   STOP DEPTH
 STEP.F            0.5000:   STEP LENGTH
 NULL.          -999.2500:   NO VALUE
 COMP. FENIX & SCISSON INC:   COMPANY
 WELL. NPR 3 SX-10 #55-10:   WELL
 FLD .        YEAPOT DOME:   FIELD
 LOC .      S10 T38N R78W:   LOCATION
 CNTY.            NATRONA:   COUNTY
 STAT.            WYOMING:   STATE
 CTRY. UNITED STATES OF AMERICA:   COUNTRY
 SRVC.           BIRDWELL:   SERVICE COMPANY
 DATE.        06-JUN-1978:   LOGDATE
 API .       490251062900:   API NUMBER
~CURVE INFORMATION
#MNEM.UNIT       API CODE    CURVE DESCRIPTION
#----------   ------------   ------------------------------
 DEPT.F                  :   
 GRD .GAPI   45 310 01 00:   GAMMA RAY FROM DENSITY LOG
 CALD.IN     45 280 60 00:   CALIPER FROM DENSITY LOG
 RHOB.G/C3   45 350 01 00:   BULK DENSITY
 DPHI.DEC    45 890 12 00:   DENSITY POROSITY SANDSTONE
 CORR.G/C3   45 356 01 00:   DENSITY CORRECTION
 SPR .MV     05 010 01 00:   SPONTANEOUS POTENTIAL FROM RES.
 SN  .OHMM   05 040 16 00:   SHORT NORMAL 16"
 ILD .OHMM   05 120 46 00:   INDUCTION LOG DEEP
~PARAMETER INFORMATION
#MNEM.UNIT          VALUE    DESCRIPTION
#----------   ------------   ------------------------------
 PD  .                 GL:   PERMANENT DATUM
 EPD .F              5202:   ELEVATION PERMANENT DATUM
 LMF .                 KB:   LOG MEASURED FROM
 DAPD.F                 4:   FEET ABOVE PERMANENT DATUM
 DMF .                 KB:   DRILLING MEASURED FROM
 EKB .F              5206:   KELLING BUSHING
 EGL .F              5202:   GROUND LEVEL
 DATE.             6-6-78:   RUN DATE
 RUN .                  1:   RUN NUMBER
 DD  .F               425:   DEPTH DRILLER
 DL  .F               436:   DEPTH LOGGER
 BLI .F               432:   BOTTOM LOG INTERVAL
 TLI .F                40:   TOP LOG INTERVAL
 CS  .IN            8.625:   CASING SIZE
 CBD .F                40:   CASING BOTTOM DRILLER
 CBL .F                40:   CASING BOTTOM LOGGER
 BS  .IN            7.875:   BIT SIZE
 BSD .F               425:   BIT SIZE AT DEPTH
 DFT .            KCL/OIL:   DRILLING FLUID TYPE
 DFD .                8.6:   DRILLING FLUID DENSITY
 DFV .                 34:   DRILLING FLUID VISCOSITY
 DFPH.                 10:   DRILLING FLUID PH
 DFL .                7.6:   DRILLING FLUID LOSS
 MSS .                PIT:   MUD SAMPLE SOURCE
 TCS .HRS               4:   TIME CURCULATED STOPPED
 LUN .               2958:   LOGGING UNIT NUMBER
 LUL .               CASP:   LOGGING UNIT LOCATION
 ENGI.            POINTER:   RECORDING ENGINEER
 WITN.           MCGINLEY:   WITNESSED BY
 CLNT.            A2DTECH:   CLIENT CODE
 ORIG. 1", 2", 2.5", 5" PRINT:   ORIGIN OF DATA
 UWI .       490251062900:   UNIQUE WELL ID
 DICO. A2D Technologies, Inc.:   DIGITIZING COMPANY
~OTHER INFORMATION
~A   DEPT       GRD      CALD       RHOB       DPHI       CORR        SPR         SN        ILD   
# ...
  303.5000    64.1476     9.1535     1.7383     0.4014     0.1364   -34.0546    13.1719    11.9958
  304.0000    63.7116     8.8550     1.7498     0.3673     0.1630   -31.6174    13.4685    12.1278
  304.5000    63.2851     7.3696     1.9998     0.2996     0.1910   -28.5095    13.6468    12.2188
  305.0000    62.8376     8.1481     2.2005     0.1513     0.1084   -26.1657    13.0754    11.7267
  305.5000    62.4143     8.6941     2.4418     0.1542     0.0801   -25.9592    12.6535    11.2649
  306.0000    62.0740     8.1890     2.4265     0.1663     0.0517   -25.9730    12.2188    10.8213
  306.5000    62.5200     8.3022     2.4151     0.1630     0.0357   -25.9918    12.2969    10.5446
  307.0000    62.9268     8.3590     2.4218     0.1591     0.0281   -26.0083    12.3805    10.9233
  307.5000    63.4152     8.4907     2.4154     0.1617     0.0291   -26.0245    12.4657    11.2468
  308.0000    63.5303     8.5882     2.4093     0.1657     0.0295   -26.0408    12.5509    11.3998
  308.5000    63.2676     8.6904     2.4085     0.1664     0.0297   -26.0570    12.6368    11.5619
  309.0000    63.0490     8.8036     2.4104     0.1655     0.0302   -26.0732    12.7232    11.1759
  309.5000    62.8286     8.8807     2.4121     0.1647     0.0304   -26.0894    12.8102    10.7688
  310.0000    62.5839     9.0395     2.4114     0.1654     0.0308   -26.1057    12.8983    10.3765
  310.5000    62.4098     9.2509     2.4071     0.1661     0.0311   -26.1222    12.9130    10.0520
  311.0000    61.8965     9.3685     2.4072     0.1668     0.0315   -26.1387    12.9133     9.8039
  311.5000    61.2510     9.3713     2.4129     0.1648     0.0318   -26.1348    12.9129     9.5619
  312.0000    60.6074     9.3872     2.4180     0.1612     0.0321   -25.9863    12.9139     9.3259
  312.5000    59.9718     9.3885     2.4232     0.1576     0.0325   -25.8372    12.8552     9.1840
  313.0000    59.3307     9.3305     2.4284     0.1540     0.0290   -25.6881    12.7564     9.1900
  313.5000    58.6875     9.2798     2.4339     0.1504     0.0246   -25.5540    12.6580     9.1944
  314.0000    58.0564     9.2210     2.4370     0.1481     0.0201   -25.5835    12.5604     9.1988
  314.5000    57.4166     9.2038     2.4328     0.1508     0.0154   -25.6156    12.4636     9.2032
  315.0000    57.1786     9.1808     2.4288     0.1537     0.0127   -25.6469    12.3675     9.2076
  315.5000    57.0862     9.1557     2.4254     0.1560     0.0134   -25.6782    12.2718     9.2120
  316.0000    56.9936     9.1355     2.4254     0.1533     0.0137   -25.7094    12.2188     9.2164
  316.5000    56.8898     9.1226     2.4326     0.1497     0.0141   -25.7406    12.2188     9.2208
  317.0000    56.9147     9.2100     2.4413     0.1473     0.0145   -25.7718    12.2188     9.2252
  317.5000    56.9907     9.2865     2.4429     0.1473     0.0148   -25.8030    12.2188     9.2296
  318.0000    57.0454     9.2475     2.4376     0.1484     0.0152   -25.8342    12.2188     9.2340
  318.5000    57.1483     9.1676     2.4331     0.1517     0.0156   -25.8655    12.2188     9.2384
  319.0000    57.1812     9.2880     2.4285     0.1550     0.0160   -25.8967    12.2188     9.2428
  319.5000    57.1603     9.3864     2.4238     0.1583     0.0163   -25.9279    12.2188     9.2472
  320.0000    55.8275     9.3967     2.4191     0.1616     0.0168   -25.9591    12.2188     9.2516
  320.5000    54.4969     9.4014     2.4147     0.1647     0.0182   -25.9904    12.2188     9.2560
  321.0000    54.3861     9.4035     2.4097     0.1647     0.0200   -26.0216    12.2188     9.2605
  321.5000    54.9726     9.4079     2.4111     0.1647     0.0217   -26.0528    12.2188     9.2650
  322.0000    55.6092     9.4115     2.4131     0.1635     0.0234   -26.0840    12.2188     9.2694
  322.5000    56.1261     9.4149     2.4153     0.1620     0.0251   -26.1152    12.2188     9.2318
  323.0000    58.6979     9.4185     2.4174     0.1605     0.0268   -26.1465    12.2188     9.1906
  323.5000    59.4774     9.4235     2.4195     0.1590     0.0285   -26.1777    12.2188     9.1492
  324.0000    60.3900     9.4236     2.4211     0.1584     0.0302   -26.2089    12.2188     9.1081
  324.5000    61.1575     9.4323     2.4211     0.1584     0.0319   -26.2401    12.2188     9.0672
  325.0000    61.9922     9.4402     2.4212     0.1584     0.0326   -26.2715    12.2188     9.0265
  325.5000    62.7691     9.5468     2.4245     0.1570     0.0325   -26.3029    12.2188     8.9860
  326.0000    62.7833     9.5098     2.4286     0.1535     0.0325   -26.3329    12.2183     8.9458
  326.5000    62.4922     9.4744     2.4327     0.1516     0.0325   -26.3027    12.2742     8.9061
  327.0000    62.1788     9.4342     2.4330     0.1523     0.0325   -26.1717    12.3453     8.8655
  327.5000    62.0922     9.3977     2.4314     0.1530     0.0325   -26.0422    12.4169     8.7706
  328.0000    62.3727     9.4483     2.4248     0.1537     0.0325   -25.9123    12.4889     8.8265
  328.5000    62.5984     9.5021     2.4168     0.1593     0.0326   -25.7827    12.5613     8.8642
  329.0000    62.8070     9.5496     2.4089     0.1642     0.0325   -25.6534    12.6342     8.9039
  329.5000    62.3172     9.5370     2.4015     0.1691     0.0325   -25.5197    12.8479     9.0016
  330.0000    61.6103     9.5256     2.3901     0.1740     0.0327   -25.3266    13.2742     9.3366
  330.5000    60.9091     9.5112     2.3750     0.1807     0.0322   -24.6751    13.7147     9.6809
  331.0000    60.2171     9.4669     2.3602     0.1912     0.0367   -24.0278    14.1698    10.0384
  331.5000    59.5169     9.3818     2.3459     0.2017     0.0459   -23.3815    14.9416    10.4080
  332.0000    58.8187     9.2257     2.3323     0.2113     0.0545   -22.7616    15.8680    10.9096
  332.5000    58.1244     9.0639     2.3303     0.2113     0.0638   -22.7125    16.8518    11.6254
  333.0000    57.4229     8.9079     2.3342     0.2022     0.0689   -22.6871    17.8967    12.3896
  333.5000    56.7248     8.6765     2.3691     0.1864     0.0695   -22.6589    18.8748    13.2033
  334.0000    56.1024     8.4601     2.3958     0.1705     0.0708   -22.6300    19.5884    13.8204
  334.5000    56.0946     8.2353     2.4286     0.1512     0.0720   -22.6017    20.1038    13.9651
  335.0000    55.9941     8.0121     2.4238     0.1577     0.0768   -22.5760    20.4571    14.1047
  335.5000    56.9248     7.8442     2.4016     0.1722     0.0822   -22.5259    20.6575    14.2691
  336.0000    59.2480     7.8323     2.3821     0.1866     0.0869   -22.0444    20.6563    14.5171
  336.5000    61.3787     7.8159     2.3625     0.2039     0.0761   -21.5607    20.6552    14.6943
  337.0000    63.5260     7.8036     2.3417     0.2051     0.0661   -21.2707    20.6552    14.7269
  337.5000    63.2172     7.7554     2.3335     0.2081     0.0532   -21.1282    20.3070    14.7597
  338.0000    62.5185     7.7067     2.3336     0.2109     0.0524   -20.9900    19.8647    14.7924
  338.5000    61.8105     7.6609     2.3328     0.2115     0.0522   -20.8534    19.4633    14.8253
  339.0000    61.1178     7.7304     2.3322     0.2105     0.0521   -20.7187    19.1562    14.8582
  339.5000    60.8014     7.9480     2.3275     0.2097     0.0560   -20.5826    18.8537    14.8910
  340.0000    60.8562     8.1869     2.3264     0.2136     0.0638   -20.4453    18.5568    14.9243
  340.5000    60.8424     8.2896     2.3269     0.2119     0.0717   -20.3479    18.2969    14.9634
  341.0000    62.0264     8.2766     2.3331     0.2085     0.0756   -20.6678    18.1741    14.8076
  341.5000    63.6335     8.2151     2.3386     0.2051     0.0728   -20.9975    17.8273    14.6205
  342.0000    65.2784     8.1459     2.3379     0.2053     0.0709   -21.3269    17.4508    14.4356
  342.5000    66.9491     8.0745     2.3344     0.2088     0.0687   -21.2257    17.0823    14.2531
  343.0000    67.9785     8.0054     2.3310     0.2113     0.0709   -21.0923    16.7215    14.0729
  343.5000    64.9525     7.9286     2.3276     0.2115     0.0751   -20.9545    16.3684    13.8950
