~VERSION INFORMATION
 VERS.                2.0:   CWLS LOG ASCII STANDARD - VERSION 2.0
 WRAP.                 NO:   ONE LINE PER DEPTH STEP
~WELL INFORMATION
#MNEM.UNIT      DATA TYPE    INFORMATION
#----------   ------------   ------------------------------
 STRT.F          779.5000:   START DEPTH
 STOP.F         2194.0000:   STOP DEPTH
 STEP.F            0.5000:   STEP LENGTH
 NULL.          -999.2500:   NO VALUE
 COMP. LAWRENCE/ALLISON INC:   COMPANY
 WELL.        27 X #10-10:   WELL
 FLD .             TEAPOT:   FIELD
 LOC .      S10 T38N R78W:   LOCATION
 CNTY.            NATRONA:   COUNTY
 STAT.            WYOMING:   STATE
 CTRY. UNITED STATES OF AMERICA:   COUNTRY
 SRVC.            Unknown:   SERVICE COMPANY
 DATE.        21-AUG-1987:   LOGDATE
 API .       490251118900:   API NUMBER
~CURVE INFORMATION
#MNEM.UNIT       API CODE    CURVE DESCRIPTION
#----------   ------------   ------------------------------
 DEPT.F                  :   
 ROP .MIN/FT 91 810 01 00:   RATE OF DRILLING PENETRATION
 TGAS.UNITS  91 830 01 00:   TOTAL GAS FROM HOTWIRE
~PARAMETER INFORMATION
#MNEM.UNIT          VALUE    DESCRIPTION
#----------   ------------   ------------------------------
 EKB .F              5237:   KELLING BUSHING
 EGL .F              5236:   GROUND LEVEL
 DATE.        21-AUG-1987:   RUN DATE
 BLI .F              2180:   BOTTOM LOG INTERVAL
 TLI .F               780:   TOP LOG INTERVAL
 LUN .              T-148:   LOGGING UNIT NUMBER
 ENGI.            R. HUSK:   RECORDING ENGINEER
 WITN.           C. TOWER:   WITNESSED BY
 CLNT.            A2DTECH:   CLIENT CODE
 ORIG.           5" PRINT:   ORIGIN OF DATA
 UWI .       490251118900:   UNIQUE WELL ID
 DICO. A2D Technologies, Inc.:   DIGITIZING COMPANY
~OTHER INFORMATION
~A   DEPT      ROP         TGAS 
# ...
 1022.5000     0.5060   129.6900
 1023.0000     0.5054   116.6495
 1023.5000     0.5036   106.0639
 1024.0000     0.4935   103.8846
 1024.5000     0.4949   103.0165
 1025.0000     0.5032   102.5891
 1025.5000     0.5027   102.1642
 1026.0000     0.5022   102.1773
 1026.5000     0.5048   102.1877
 1027.0000     0.5084   102.1982
 1027.5000     0.5005   102.2087
 1028.0000     0.5000   102.2191
 1028.5000     0.4995   102.2299
 1029.0000     0.4989   102.2427
 1029.5000     0.4984   101.8126
 1030.0000     0.4978   101.8257
 1030.5000     0.4973   101.8362
 1031.0000     0.4968   101.8467
 1031.5000     0.4962   101.8597
 1032.0000     0.4957   101.8702
 1032.5000     0.4951   101.4410
 1033.0000     0.5019   101.4532
 1033.5000     0.4896   101.4636
 1034.0000     0.4668   101.4745
 1034.5000     0.4440   101.4872
 1035.0000     0.4297   101.4977
 1035.5000     0.4269   101.5081
 1036.0000     0.4263   101.5186
 1036.5000     0.4150   101.5292
 1037.0000     0.4145   101.5422
 1037.5000     0.4139   101.9906
 1038.0000     0.4134   101.5605
 1038.5000     0.4129   101.1330
 1039.0000     0.4123   101.5840
 1039.5000     0.4118   101.5949
 1040.0000     0.4221   101.6076
 1040.5000     0.4223   101.7862
 1041.0000     0.4226   101.9985
 1041.5000     0.4229   102.0438
 1042.0000     0.4232   102.0438
 1042.5000     0.4234   102.0438
 1043.0000     0.4237   102.0438
 1043.5000     0.4240   102.0438
 1044.0000     0.4242   102.0438
 1044.5000     0.4245   102.0438
 1045.0000     0.4248   102.0438
 1045.5000     0.4251   102.0182
 1046.0000     0.4253   101.9440
 1046.5000     0.4256   101.8698
 1047.0000     0.4259   101.7956
 1047.5000     0.4261   101.7214
 1048.0000     0.4199   101.6472
 1048.5000     0.4159   101.5730
 1049.0000     0.4234   101.4988
 1049.5000     0.4272   101.4246
 1050.0000     0.4275   101.3504
 1050.5000     0.4192   101.2762
 1051.0000     0.4064   101.2019
 1051.5000     0.4067   101.1277
 1052.0000     0.4070   101.0535
 1052.5000     0.4072   100.9793
 1053.0000     0.4183   100.9051
 1053.5000     0.4186   100.8309
 1054.0000     0.4188   100.7567
 1054.5000     0.4191   100.6825
 1055.0000     0.4194   100.6083
 1055.5000     0.4196   100.5341
 1056.0000     0.4199   100.4598
 1056.5000     0.4202   100.3856
 1057.0000     0.4205   100.3114
 1057.5000     0.4207   100.2372
 1058.0000     0.4172   100.1630
 1058.5000     0.4104   100.0888
 1059.0000     0.4107   100.0146
 1059.5000     0.4110    99.9404
 1060.0000     0.4329    99.8540
 1060.5000     0.4216    99.8815
 1061.0000     0.4103    99.9144
 1061.5000     0.4004    99.9473
 1062.0000     0.4150    99.9802
 1062.5000     0.4424   100.0131
 1063.0000     0.4847   100.0460
 1063.5000     0.5120   100.0789
 1064.0000     0.5195   100.1118
 1064.5000     0.5195   100.1447
 1065.0000     0.5195   100.1775
 1065.5000     0.5195   100.2104
 1066.0000     0.5195   100.2433
 1066.5000     0.5195   100.2762
 1067.0000     0.5195   100.3091
 1067.5000     0.5195   100.3420
 1068.0000     0.5195   100.3749
 1068.5000     0.5195   100.4078
 1069.0000     0.5195   100.4407
 1069.5000     0.5195   100.4736
 1070.0000     0.5195   100.5065
 1070.5000     0.5195   100.5394
 1071.0000     0.5195   100.5723
 1071.5000     0.5195   100.6051
 1072.0000     0.5314   100.6380
 1072.5000     0.5550   100.6709
 1073.0000     0.5904   100.7038
 1073.5000     0.6355   100.7367
 1074.0000     0.6734   100.7696
 1074.5000     0.6760   100.8025
 1075.0000     0.6534   100.8354
 1075.5000     0.6347   100.8683
 1076.0000     0.6190   100.9012
 1076.5000     0.5965   100.9341
 1077.0000     0.5791   100.9670
 1077.5000     0.5678   100.9999
 1078.0000     0.5628   101.0327
 1078.5000     0.5561   101.0656
 1079.0000     0.5448   101.0985
 1079.5000     0.5411   101.1314
 1080.0000     0.5411   101.1697
 1080.5000     0.5409   101.1696
 1081.0000     0.5406   101.1695
 1081.5000     0.5403   101.1694
 1082.0000     0.5400   101.1694
 1082.5000     0.5398   101.1693
 1083.0000     0.5395   101.1692
 1083.5000     0.5392   101.1692
 1084.0000     0.5390   101.1691
 1084.5000     0.5387   101.1690
 1085.0000     0.5384   101.1689
 1085.5000     0.5381   101.1689
 1086.0000     0.5379   101.1688
 1086.5000     0.5376   101.1687
 1087.0000     0.5373   101.1686
 1087.5000     0.5371   101.1685
 1088.0000     0.5368   101.1685
 1088.5000     0.5365   101.1684
 1089.0000     0.5362   101.1683
 1089.5000     0.5359   101.1683
 1090.0000     0.5357   101.1682
 1090.5000     0.5354   101.1681
 1091.0000     0.5352   101.1680
 1091.5000     0.5349   101.1680
 1092.0000     0.5346   101.1679
 1092.5000     0.5344   101.1679
 1093.0000     0.5341   101.1679
 1093.5000     0.5338   101.1679
 1094.0000     0.5308   101.1679
 1094.5000     0.5116   101.1679
 1095.0000     0.5053   101.6058
 1095.5000     0.4763   101.6058
 1096.0000     0.4648   101.6058
 1096.5000     0.4564   101.6058
 1097.0000     0.4562   101.6058
 1097.5000     0.4559   101.6058
 1098.0000     0.4597   102.0438
 1098.5000     0.4662   102.4818
 1099.0000     0.4659   102.4455
 1099.5000     0.4656   101.1405
 1100.0000     0.4654    99.4161
 1100.5000     0.4556    97.2361
 1101.0000     0.4382    96.3710
 1101.5000     0.4321    95.9438
 1102.0000     0.4263    95.9572
 1102.5000     0.4207    95.9679
 1103.0000     0.4265    95.9787
 1103.5000     0.4310    95.5515
 1104.0000     0.4307    95.1243
 1104.5000     0.4305    94.6936
 1105.0000     0.4302    93.8319
 1105.5000     0.4299    93.3358
 1106.0000     0.4297    92.9775
 1106.5000     0.4294    92.5503
 1107.0000     0.4291    92.5637
 1107.5000     0.4288    91.6985
 1108.0000     0.4286    91.2686
 1108.5000     0.4391    90.8414
 1109.0000     0.4388    89.5410
 1109.5000     0.4277    89.1111
 1110.0000     0.4275    88.2482
 1110.5000     0.4272    87.3835
 1111.0000     0.4269    87.3942
 1111.5000     0.4375    87.4051
 1112.0000     0.4372    87.4161
 1112.5000     0.4478    87.4291
 1113.0000     0.4475    87.4399
 1113.5000     0.4472    87.0127
 1114.0000     0.4470    87.0234
 1114.5000     0.4467    87.0342
 1115.0000     0.4464    86.6043
 1115.5000     0.4448    86.1771
 1116.0000     0.4351    86.1905
 1116.5000     0.4329    85.7633
 1117.0000     0.4237    85.7740
 1117.5000     0.4234    85.7848
 1118.0000     0.4232    85.3433
 1118.5000     0.4229    84.4452
 1119.0000     0.4195    84.0652
 1119.5000     0.4115    83.6380
 1120.0000     0.4347    83.1745
 1120.5000     0.4432    83.0945
 1121.0000     0.4426    83.0145
 1121.5000     0.4421    82.9345
 1122.0000     0.4416    82.8544
 1122.5000     0.4410    82.7744
 1123.0000     0.4405    82.6944
 1123.5000     0.4399    82.6144
 1124.0000     0.4334    82.5344
 1124.5000     0.4216    82.4544
 1125.0000     0.4097    82.3744
 1125.5000     0.3978    82.2944
 1126.0000     0.3859    82.2144
 1126.5000     0.3826    82.1344
 1127.0000     0.3928    82.0544
 1127.5000     0.3923    81.9743
 1128.0000     0.3917    81.8943
 1128.5000     0.3912    81.8283
 1129.0000     0.3907    81.8316
 1129.5000     0.3902    81.8344
 1130.0000     0.3896    81.8372
 1130.5000     0.3909    81.8400
 1131.0000     0.3994    81.8428
 1131.5000     0.3988    81.8456
 1132.0000     0.3948    81.8484
 1132.5000     0.3869    81.8512
 1133.0000     0.3819    81.8540
 1133.5000     0.3750    81.8568
 1134.0000     0.3745    81.8596
 1134.5000     0.3739    81.8624
 1135.0000     0.3734    81.8652
 1135.5000     0.3728    81.8680
 1136.0000     0.3799    81.8708
 1136.5000     0.3826    81.8736
 1137.0000     0.3819    81.8764
 1137.5000     0.3814    81.8792
 1138.0000     0.3809    81.8820
 1138.5000     0.3804    81.8848
 1139.0000     0.3799    81.8877
 1139.5000     0.3793    81.8905
 1140.0000     0.3769    81.8978
 1140.5000     0.3571    81.9197
 1141.0000     0.3571    81.9416
 1141.5000     0.3571    81.9635
 1142.0000     0.3600    81.9854
 1142.5000     0.3680    82.0073
 1143.0000     0.3680    82.0292
 1143.5000     0.3680    82.0511
