~VERSION INFORMATION
 VERS.                2.0:   CWLS LOG ASCII STANDARD - VERSION 2.0
 WRAP.                 NO:   ONE LINE PER DEPTH STEP
~WELL INFORMATION
#MNEM.UNIT      DATA TYPE    INFORMATION
#----------   ------------   ------------------------------
 STRT.F           82.0000:   START DEPTH
 STOP.F          750.0000:   STOP DEPTH
 STEP.F            0.5000:   STEP LENGTH
 NULL.          -999.2500:   NO VALUE
 COMP. U S NAVY/INTEX OIL CO:   COMPANY
 WELL.      GOVT #18-S-35:   WELL
 FLD .             TEAPOT:   FIELD
 LOC .      S35 T39N R78W:   LOCATION
 CNTY.            NATRONA:   COUNTY
 STAT.            WYOMING:   STATE
 CTRY. UNITED STATES OF AMERICA:   COUNTRY
 SRVC. Schlumberger Well Surveying Corp:   SERVICE COMPANY
 DATE.        19-JUL-1962:   LOGDATE
 API .       490250649300:   API NUMBER
~CURVE INFORMATION
#MNEM.UNIT       API CODE    CURVE DESCRIPTION
#----------   ------------   ------------------------------
 DEPT.F                  :   
 SPR .MV     05 010 01 00:   SPONTANEOUS POTENTIAL
 ILD .OHMM   05 120 46 00:   INDUCTION LOG DEEP
 CILD.MMHO   05 110 46 00:   CONDUCTIVITY INDUCTION LOG DEEP
 ASN .OHMM   05 041 16 00:   AMPLIFIED SHORT NORMAL 16"
 NEUT.NAPI   35 330 01 00:   NEUTRON GAMMA RAY
~PARAMETER INFORMATION
#MNEM.UNIT          VALUE    DESCRIPTION
#----------   ------------   ------------------------------
 PD  .                 GL:   PERMANENT DATUM
 EPD .F              5107:   ELEVATION PERMANENT DATUM
 LMF .                 KB:   LOG MEASURED FROM
 DAPD.F                 5:   FEET ABOVE PERMANENT DATUM
 DMF .                 KB:   DRILLING MEASURED FROM
 EKB .F              5112:   KELLING BUSHING
 EGL .F              5107:   GROUND LEVEL
 DATE.            7-19-62:   RUN DATE
 RUN .                  1:   RUN NUMBER
 DD  .F               745:   DEPTH DRILLER
 DL  .F               745:   DEPTH LOGGER
 BLI .F               744:   BOTTOM LOG INTERVAL
 TLI .F                80:   TOP LOG INTERVAL
 BS  .IN             6.75:   BIT SIZE
 BSD .F               745:   BIT SIZE AT DEPTH
 DFT .       OIL EMULSION:   DRILLING FLUID TYPE
 DFD .                 10:   DRILLING FLUID DENSITY
 DFV .                 46:   DRILLING FLUID VISCOSITY
 DFL .                2.9:   DRILLING FLUID LOSS
 RMS .OHMM           3.75:   RESISTIVITY MUD SAMPLE
 MST .F                87:   MUD SAMPLE TEMPERATURE
 RMF .OHMM           2.65:   RESISTIVITY MUD FILTRATE SAMPLE
 MFST.F                87:   MUD FILTRATE SAMPLE TEMPERATURE
 RMC .OHMM           3.54:   RESISTIVITY MUD CAKE
 MCST.F                87:   MUD CAKE SAMPLE TEMPERATURE
 TCS .HRS              .5:   TIME CURCULATED STOPPED
 LUN .               2503:   LOGGING UNIT NUMBER
 LUL .             CASPER:   LOGGING UNIT LOCATION
 ENGI.             DANNER:   RECORDING ENGINEER
 WITN.          JORGENSEN:   WITNESSED BY
 CLNT.            A2DTECH:   CLIENT CODE
 ORIG.       2", 5" PRINT:   ORIGIN OF DATA
 UWI .       490250649300:   UNIQUE WELL ID
 DICO. A2D Technologies, Inc.:   DIGITIZING COMPANY
~OTHER INFORMATION
~A   DEPT      SPR          ILD      CILD         ASN     NEUT   
# ...
  204.0000   -65.2906    10.0843    90.8602    12.4684  -999.2500
  204.5000   -65.2802    10.1411    89.1129    12.6061  -999.2500
  205.0000   -65.6786    10.4065    87.2093    12.7441  -999.2500
  205.5000   -66.1281    10.6703    85.1369    12.8819  -999.2500
  206.0000   -66.5284    10.9325    83.0645    13.0190  -999.2500
  206.5000   -66.6412    11.1946    80.9921    13.1604  -999.2500
  207.0000   -66.7615    11.4572    78.9197    13.4214  -999.2500
  207.5000   -66.8833    11.7183    76.8473    13.6844  -999.2500
  208.0000   -67.0043    11.9566    74.7749    13.9466  -999.2500
  208.5000   -67.0431    12.2484    72.7026    14.2087  -999.2500
  209.0000   -66.6425    12.5717    70.6302    14.4705  -999.2500
  209.5000   -66.2462    12.8946    68.5578    14.7324  -999.2500
  210.0000   -65.9094    13.2193    66.4854    14.9995  -999.2500
  210.5000   -66.1646    13.5372    64.4130    15.3966  -999.2500
  211.0000   -66.4170    13.9160    62.3406    15.8530  -999.2500
  211.5000   -66.6638    14.3862    60.2682    16.3104  -999.2500
  212.0000   -66.9237    14.8603    58.1958    16.7678  -999.2500
  212.5000   -67.5070    15.3340    56.1234    17.2250  -999.2500
  213.0000   -67.8844    15.8078    53.9314    17.6823  -999.2500
  213.5000   -67.7858    16.2932    53.8048    18.1397  -999.2500
  214.0000   -67.6966    16.4429    53.6704    18.5979  -999.2500
  214.5000   -67.6060    16.5797    53.5360    19.0541  -999.2500
  215.0000   -67.5074    16.5223    53.4016    19.1824  -999.2500
  215.5000   -67.0755    16.4636    53.2672    18.3156  -999.2500
  216.0000   -66.5838    16.4047    53.1328    17.7024  -999.2500
  216.5000   -66.7040    16.3366    52.9983    17.6851  -999.2500
  217.0000   -66.9648    16.0926    53.3693    17.7722  -999.2500
  217.5000   -67.2400    15.8537    54.3773    17.3645  -999.2500
  218.0000   -67.2666    15.6154    55.3854    16.9539  -999.2500
  218.5000   -67.2152    15.3882    56.3946    16.5439  -999.2500
  219.0000   -67.1621    15.2708    57.4082    16.3367  -999.2500
  219.5000   -67.1096    15.2488    57.8170    16.2565  -999.2500
  220.0000   -67.1067    15.2290    57.4943    16.1794  -999.2500
  220.5000   -66.8894    15.2100    57.1644    16.1023  -999.2500
  221.0000   -66.5917    15.1917    56.8344    16.0226  -999.2500
  221.5000   -66.2920    15.1664    56.5035    15.8423  -999.2500
  222.0000   -65.9924    14.9807    56.1871    15.5017  -999.2500
  222.5000   -65.6969    14.7740    56.7427    15.1633  -999.2500
  223.0000   -65.4684    13.9022    59.6998    14.7811  -999.2500
  223.5000   -65.4017    12.9403    66.2228    14.1771  -999.2500
  224.0000   -65.3271    11.9404    75.6095    13.5811  -999.2500
  224.5000   -65.0626    10.9165    84.9935    12.4896  -999.2500
  225.0000   -64.5380     9.8933    94.3830    11.3114  -999.2500
  225.5000   -63.7797     8.8765   103.7697    10.4159  -999.2500
  226.0000   -62.7945     7.9995   113.1579     9.4221  -999.2500
  226.5000   -61.8182     7.3382   122.5431     8.4824  -999.2500
  227.0000   -61.2391     6.9779   131.9299     7.9637  -999.2500
  227.5000   -61.1225     6.8723   139.5161     7.4289  -999.2500
  228.0000   -61.0053     6.7709   142.6613     7.3113  -999.2500
  228.5000   -60.8895     6.7083   144.5321     7.2468  -999.2500
  229.0000   -60.7700     6.7245   143.8091     7.2482  -999.2500
  229.5000   -60.6493     6.7395   143.0861     7.2480  -999.2500
  230.0000   -60.5283     6.7548   142.3630     7.2496  -999.2500
  230.5000   -60.4079     6.7700   141.6400     7.1678  -999.2500
  231.0000   -60.2826     6.7852   140.9170     7.0551  -999.2500
  231.5000   -60.4412     6.8003   140.5134     6.9484  -999.2500
  232.0000   -60.7383     6.8155   140.3262     6.9240  -999.2500
  232.5000   -61.0370     6.8307   140.1390     6.9896  -999.2500
  233.0000   -61.3380     6.8459   139.9518     7.0830  -999.2500
  233.5000   -61.3538     6.8611   139.7645     7.1779  -999.2500
  234.0000   -61.1562     6.8764   139.1904     7.2726  -999.2500
  234.5000   -60.9545     6.8918   137.1743     7.3252  -999.2500
  235.0000   -60.7532     6.9038   135.1582     7.3323  -999.2500
  235.5000   -60.5516     6.8745   134.5766     7.3464  -999.2500
  236.0000   -60.4109     6.8459   134.5766     7.3350  -999.2500
  236.5000   -60.3144     6.8175   135.3387     7.3166  -999.2500
  237.0000   -60.2194     6.7892   137.2209     7.2975  -999.2500
  237.5000   -60.1244     6.7608   139.1128     7.2631  -999.2500
  238.0000   -60.0293     6.7323   141.0046     7.2106  -999.2500
  238.5000   -59.9341     6.7044   142.8871     7.1582  -999.2500
  239.0000   -59.8388     6.7192   143.8256     7.1058  -999.2500
  239.5000   -59.7427     6.7454   144.2624     7.0611  -999.2500
  240.0000   -59.6629     6.7716   144.6470     7.0456  -999.2500
  240.5000   -59.7579     6.7979   142.8227     7.0625  -999.2500
  241.0000   -59.8514     6.8241   141.1269     7.0882  -999.2500
  241.5000   -59.9438     6.8502   139.4409     7.1889  -999.2500
  242.0000   -60.0361     6.8767   137.7556     7.2973  -999.2500
  242.5000   -60.1275     6.9022   136.0707     7.4258  -999.2500
  243.0000   -60.2200     6.9909   133.8893     7.5503  -999.2500
  243.5000   -60.3165     7.1101   131.5066     7.6288  -999.2500
  244.0000   -60.6711     7.2301   129.1239     7.6182  -999.2500
  244.5000   -61.0220     7.3499   126.7412     7.6143  -999.2500
  245.0000   -61.0141     7.4698   124.6867     7.6961  -999.2500
  245.5000   -60.9360     7.5903   122.9866     7.8012  -999.2500
  246.0000   -60.8567     7.7060   121.2865     7.9554  -999.2500
  246.5000   -60.7782     7.7889   119.5864     8.1090  -999.2500
  247.0000   -60.6997     7.8852   117.8863     8.1988  -999.2500
  247.5000   -60.6212     7.9825   116.1862     8.2760  -999.2500
  248.0000   -60.5423     8.0794   114.4737     8.3544  -999.2500
  248.5000   -60.4663     8.1768   113.4120     8.4038  -999.2500
  249.0000   -60.4208     8.2003   113.3949     8.4526  -999.2500
  249.5000   -60.3687     8.1633   113.4073     8.5031  -999.2500
  250.0000   -60.3160     8.1252   114.8658     8.4761  -999.2500
  250.5000   -60.2634     8.0651   116.2449     8.4161  -999.2500
  251.0000   -60.2107     7.9956   117.6240     8.3571  -999.2500
  251.5000   -60.1577     7.9259   119.0029     8.2417  -999.2500
  252.0000   -60.1048     7.8563   120.3819     8.1238  -999.2500
  252.5000   -60.0756     7.7866   121.7610     8.0322  -999.2500
  253.0000   -60.1992     7.7170   123.1400     7.9446  -999.2500
  253.5000   -60.3214     7.6472   124.5190     7.8572  -999.2500
  254.0000   -60.4428     7.5960   125.5760     7.7713  -999.2500
  254.5000   -60.5647     7.5648   125.8280     7.7060  -999.2500
  255.0000   -60.7320     7.5338   126.0801     7.6948  -999.2500
  255.5000   -61.1121     7.5095   126.3321     7.6975  -999.2500
  256.0000   -61.4905     7.5100   126.3681     7.7013  -999.2500
  256.5000   -61.5792     7.5100   125.8641     7.7047  -999.2500
  257.0000   -61.4170     7.5092   125.3600     7.7078  -999.2500
  257.5000   -61.2500     7.5434   124.8560     7.7142  -999.2500
  258.0000   -61.0713     7.5846   124.3232     7.7800  -999.2500
  258.5000   -60.5929     7.6259   123.7183     7.8462  -999.2500
  259.0000   -60.2587     7.6672   123.1135     7.9120  -999.2500
  259.5000   -60.2621     7.7084   122.5086     7.9779  -999.2500
  260.0000   -60.2611     7.7497   121.9038     8.0420  -999.2500
  260.5000   -60.2616     7.7909   121.2990     8.0771  -999.2500
  261.0000   -60.2616     7.8321   120.6941     8.0192  -999.2500
  261.5000   -60.2616     7.8734   120.0893     7.9622  -999.2500
  262.0000   -60.2616     7.9146   119.4845     7.9119  -999.2500
  262.5000   -60.2616     7.9559   118.8796     7.9562  -999.2500
  263.0000   -60.2616     7.9971   118.2748     8.0026  -999.2500
  263.5000   -60.2616     8.0385   117.6699     8.1330  -999.2500
  264.0000   -60.2616     8.0802   117.0651     8.2803  -999.2500
  264.5000   -60.2616     8.1147   116.4314     8.4263  -999.2500
