~VERSION INFORMATION
 VERS.                2.0:   CWLS LOG ASCII STANDARD - VERSION 2.0
 WRAP.                 NO:   ONE LINE PER DEPTH STEP
~WELL INFORMATION
#MNEM.UNIT      DATA TYPE    INFORMATION
#----------   ------------   ------------------------------
 STRT.F            0.5000:   START DEPTH
 STOP.F         2271.5000:   STOP DEPTH
 STEP.F            0.5000:   STEP LENGTH
 NULL.          -999.2500:   NO VALUE
 COMP. BROWN JOHN E&C INC:   COMPANY
 WELL. NPR 3 STX-11 #27-11:   WELL
 FLD .             TEAPOT:   FIELD
 LOC .      S11 T38N R78W:   LOCATION
 CNTY.            NATRONA:   COUNTY
 STAT.            WYOMING:   STATE
 CTRY. UNITED STATES OF AMERICA:   COUNTRY
 SRVC.      Dresser Atlas:   SERVICE COMPANY
 DATE.        20-JAN-1993:   LOGDATE
 API .       490251108500:   API NUMBER
~CURVE INFORMATION
#MNEM.UNIT       API CODE    CURVE DESCRIPTION
#----------   ------------   ------------------------------
 DEPT.F                  :   
 ILD .OHMM   07 120 46 00:   INDUCTION LOG DEEP
 ILM .OHMM   07 120 44 00:   INDUCTION LOG MEDIUM
 GRR .GAPI   07 310 01 00:   GAMMA RAY FROM RES. LOG.
~PARAMETER INFORMATION
#MNEM.UNIT          VALUE    DESCRIPTION
#----------   ------------   ------------------------------
 PD  .                 GL:   PERMANENT DATUM
 EPD .F              5187:   ELEVATION PERMANENT DATUM
 LMF .                 KB:   LOG MEASURED FROM
 DAPD.F                12:   FEET ABOVE PERMANENT DATUM
 DMF .                 KB:   DRILLING MEASURED FROM
 EKB .F            5198.8:   KELLING BUSHING
 EDF .F            5197.8:   DRILLING FLOOR
 EGL .F              5187:   GROUND LEVEL
 DATE.            1-20-93:   RUN DATE
 RUN .                  1:   RUN NUMBER
 DD  .F              2279:   DEPTH DRILLER
 DL  .F              2279:   DEPTH LOGGER
 BLI .F              2271:   BOTTOM LOG INTERVAL
 TLI .F               692:   TOP LOG INTERVAL
 CS  .IN            8.625:   CASING SIZE
 CBD .F               689:   CASING BOTTOM DRILLER
 CBL .F               692:   CASING BOTTOM LOGGER
 BS  .IN            7.875:   BIT SIZE
 BSD .F              2279:   BIT SIZE AT DEPTH
 DFT .                OIL:   DRILLING FLUID TYPE
 BHT .F                92:   BOTTOM HOLE TEMPERATURE
 TCS .HRS               2:   TIME CURCULATED STOPPED
 MRT .F                92:   MAXIMUM RECORDED TEMPERATURE
 LUN .            HL-6274:   LOGGING UNIT NUMBER
 LUL .             CASPER:   LOGGING UNIT LOCATION
 ENGI.             RAUTIO:   RECORDING ENGINEER
 WITN.             STRONG:   WITNESSED BY
 CLNT.            A2DTECH:   CLIENT CODE
 ORIG.  2", 5", 20" PRINT:   ORIGIN OF DATA
 UWI .       490251108500:   UNIQUE WELL ID
 DICO. A2D Technologies, Inc.:   DIGITIZING COMPANY
~OTHER INFORMATION
~A    DEPT     ILD        ILM         GRR  
# ...
 2184.5000     9.7263     9.7247   133.0816
 2185.0000     9.5321     9.3454   136.0854
 2185.5000     9.3415     9.1697   139.2580
 2186.0000     9.1697     8.9193   138.0453
 2186.5000     9.1697     9.0494   134.3540
 2187.0000     9.1697     9.2978   133.9337
 2187.5000     9.3723     9.5530   133.9547
 2188.0000     9.6511     9.8152   126.6740
 2188.5000     9.9383    10.0846   118.1559
 2189.0000    10.2435    10.1494   111.5444
 2189.5000    10.2205    10.0343   110.1886
 2190.0000    10.1968     9.9994   114.1128
 2190.5000    10.1732     9.9673   119.4763
 2191.0000    10.1494     9.9355   126.1076
 2191.5000    10.0997     9.9038   132.8886
 2192.0000    10.0374     9.8724   136.7363
 2192.5000     9.9754     9.8523   137.6676
 2193.0000     9.8121     9.8324   135.8958
 2193.5000     9.6283     9.8126   132.8739
 2194.0000     9.4479     9.7928   129.8375
 2194.5000     9.2709     9.6357   127.1478
 2195.0000     9.0972     9.3061   126.1111
 2195.5000     8.9282     9.1113   125.6923
 2196.0000     8.7872     8.9885   125.2677
 2196.5000     8.6767     8.8373   124.8076
 2197.0000     8.5960     8.9395   125.7714
 2197.5000     8.7870     9.0854   131.4065
 2198.0000     8.9617     9.3369   137.2899
 2198.5000     9.1500     9.5784   141.6910
 2199.0000     9.3422     9.8261   141.0531
 2199.5000     9.5385    10.0562   139.4855
 2200.0000     9.7389    10.1701   134.5519
 2200.5000     9.9638    10.2435   129.2309
 2201.0000     9.8324    10.0493   124.9024
 2201.5000     9.6891     9.9025   123.3740
 2202.0000     9.5469     9.7579   123.4060
 2202.5000     9.4088     9.6027   127.4681
 2203.0000     9.3405     9.6027   132.2567
 2203.5000     9.3405     9.6025   137.2255
 2204.0000     9.3405     9.6027   137.0363
 2204.5000     9.3405     9.6027   132.3982
 2205.0000     9.3405     9.5956   126.2194
 2205.5000     9.2675     9.5352   122.2005
 2206.0000     9.1676     9.4754   127.0197
 2206.5000     9.0674     9.4157   131.0030
 2207.0000     8.9767     9.3565   130.8337
 2207.5000     8.7702     9.1184   126.1421
 2208.0000     8.5695     8.8222   121.0237
 2208.5000     8.3751     8.5170   119.0404
 2209.0000     8.2373     8.4326   119.4122
 2209.5000     8.1499     8.3431   120.8213
 2210.0000     8.0634     8.2545   122.2165
 2210.5000     7.9778     8.1669   121.6711
 2211.0000     7.8931     8.0582   120.9839
 2211.5000     7.8382     8.0930   120.3158
 2212.0000     7.9199     8.1399   120.6309
 2212.5000     7.9812     8.1871   121.0118
 2213.0000     8.0429     8.2345   121.3809
 2213.5000     8.1051     8.2845   122.5524
 2214.0000     8.1678     8.3735   124.0243
 2214.5000     8.2450     8.4679   123.0475
 2215.0000     8.3482     8.5634   121.3887
 2215.5000     8.4528     8.6599   120.7640
 2216.0000     8.5588     8.7576   123.7942
 2216.5000     8.6656     8.8570   126.4945
 2217.0000     8.7557     8.9188   127.5820
 2217.5000     8.7331     8.8918   124.4001
 2218.0000     8.7135     8.8718   121.0430
 2218.5000     8.6938     8.8518   122.5869
 2219.0000     8.6742     8.8318   123.9317
 2219.5000     8.6547     8.8120   124.0777
 2220.0000     8.6352     8.7922   124.2646
 2220.5000     8.6157     8.7723   124.0030
 2221.0000     8.5960     8.7561   123.5006
 2221.5000     8.7274     8.9173   122.9979
 2222.0000     8.8629     9.0557   122.2250
 2222.5000     9.0006     9.1965   121.0296
 2223.0000     9.1404     9.3393   119.7774
 2223.5000     9.2823     9.4846   117.2861
 2224.0000     9.4265     9.6326   114.1336
 2224.5000     9.5729     9.7838   109.1401
 2225.0000     9.6027     9.7391   107.0956
 2225.5000     9.4445     9.5638   107.7469
 2226.0000     9.1051     9.2541   107.7214
 2226.5000     8.7778     8.9528   106.4340
 2227.0000     8.4623     8.6620   105.5413
 2227.5000     8.1582     8.3806   106.3492
 2228.0000     7.8382     8.1083   107.1392
 2228.5000     7.8382     8.0333   106.8928
 2229.0000     7.8056     8.0019   106.3027
 2229.5000     7.7736     7.9713   106.8599
 2230.0000     7.7417     7.9407   105.4036
 2230.5000     7.7099     7.9102   102.8388
 2231.0000     7.6783     7.8798   100.1979
 2231.5000     7.6468     7.8494   101.3599
 2232.0000     7.6155     7.8191   103.8128
 2232.5000     7.5842     7.7895   104.6388
 2233.0000     7.5541     7.7662   105.2666
 2233.5000     7.6752     7.9150   107.7160
 2234.0000     7.8187     8.1056   109.8958
 2234.5000     8.0540     8.3916   109.5981
 2235.0000     8.2941     8.6757   108.0928
 2235.5000     8.5419     8.7806   106.6040
 2236.0000     8.7972     9.0434   105.1096
 2236.5000     9.0604     9.5262   103.6155
 2237.0000     9.4265     9.6027   102.1252
 2237.5000     9.3539     9.6027   100.8701
 2238.0000     9.2372     9.6027   100.3638
 2238.5000     9.0854     9.5190   100.4949
 2239.0000     9.1697     9.2547   100.8959
 2239.5000     9.1463     9.2703   102.3051
 2240.0000     9.1190     9.2941   105.5685
 2240.5000     9.0919     9.3180   109.0296
 2241.0000     9.0648     9.3405   112.2266
 2241.5000     9.0378     9.3118   112.4449
 2242.0000     9.0108     9.2565   110.8942
 2242.5000     8.7956     9.2610   106.9517
 2243.0000     8.4958     8.4609   105.0381
 2243.5000     8.2057     8.1985   108.5530
 2244.0000     8.0450     8.1908   112.4900
 2244.5000     8.0180     8.1770   115.3952
 2245.0000     7.9915     8.1633   118.7833
 2245.5000     7.9646     8.1496   122.4238
 2246.0000     7.9379     8.1359   124.2610
 2246.5000     7.9112     8.1222   120.8232
 2247.0000     7.8847     8.1086   114.8527
 2247.5000     7.8582     8.0950   109.0342
 2248.0000     7.8318     8.0815   103.7758
 2248.5000     7.8056     8.0678   106.4081
 2249.0000     7.7793     8.0582   109.3571
 2249.5000     7.7662     8.1361   111.4465
 2250.0000     7.8898     8.1967   111.2470
 2250.5000     7.9735     8.2578   111.0824
 2251.0000     8.0581     8.3193   111.5110
 2251.5000     8.1330     8.3613   112.4171
 2252.0000     8.1183     8.3436   113.3388
 2252.5000     8.1054     8.3302   114.2305
 2253.0000     8.0923     8.3169   118.6364
 2253.5000     8.0792     8.3036  -999.2500
 2254.0000     8.0664     8.2855  -999.2500
 2254.5000     8.0582     8.3634  -999.2500
 2255.0000     8.2470     8.5058  -999.2500
 2255.5000     8.4229     8.7522  -999.2500
 2256.0000     8.7610     9.1680  -999.2500
 2256.5000     9.2547     9.5145  -999.2500
 2257.0000     8.9599     9.3150  -999.2500
 2257.5000     8.4946     8.8002  -999.2500
 2258.0000     8.0536     7.8448  -999.2500
 2258.5000     7.6354     6.6884  -999.2500
 2259.0000     7.2389     6.1988  -999.2500
 2259.5000     6.8631     5.9977  -999.2500
 2260.0000     6.5067     5.9727  -999.2500
 2260.5000     6.1689     5.8769  -999.2500
 2261.0000     5.9019     5.7825  -999.2500
 2261.5000     5.7039     5.6898  -999.2500
 2262.0000     5.5127     5.5984  -999.2500
 2262.5000     5.4187     5.5708  -999.2500
 2263.0000     5.4332     5.5708  -999.2500
 2263.5000     5.4430     5.5708  -999.2500
 2264.0000     5.4527     5.5707  -999.2500
 2264.5000     5.4625     5.5698  -999.2500
 2265.0000     5.5405     5.8004  -999.2500
 2265.5000     5.7582     6.0584  -999.2500
 2266.0000     5.9844     6.3272  -999.2500
 2266.5000     6.2196     6.6079  -999.2500
 2267.0000     6.4640     6.9013  -999.2500
 2267.5000     6.7179     7.2135  -999.2500
 2268.0000     6.9819     7.5515  -999.2500
 2268.5000     7.1472     7.9109  -999.2500
 2269.0000     6.9839     7.4629  -999.2500
 2269.5000     6.9031     7.1472  -999.2500
 2270.0000     6.8233     7.0171  -999.2500
 2270.5000     6.7622     7.0963  -999.2500
 2271.0000     6.7622     7.1623  -999.2500
 2271.5000  -999.2500     7.1951  -999.2500
