~VERSION INFORMATION
 VERS.                2.0:   CWLS LOG ASCII STANDARD - VERSION 2.0
 WRAP.                 NO:   ONE LINE PER DEPTH STEP
~WELL INFORMATION
#MNEM.UNIT      DATA TYPE    INFORMATION
#----------   ------------   ------------------------------
 STRT.F            3.0000:   START DEPTH
 STOP.F         1011.0000:   STOP DEPTH
 STEP.F            0.5000:   STEP LENGTH
 NULL.          -999.2500:   NO VALUE
 COMP. BROWN JOHN E&C INC:   COMPANY
 WELL. NPR 3 SHX-38 #2-35:   WELL
 FLD .             TEAPOT:   FIELD
 LOC .      S35 T39N R78W:   LOCATION
 CNTY.            NATRONA:   COUNTY
 STAT.            WYOMING:   STATE
 CTRY. UNITED STATES OF AMERICA:   COUNTRY
 SRVC.     Atlas Wireline:   SERVICE COMPANY
 DATE.        15-NOV-1991:   LOGDATE
 API .       490252248100:   API NUMBER
~CURVE INFORMATION
#MNEM.UNIT       API CODE    CURVE DESCRIPTION
#----------   ------------   ------------------------------
 DEPT.F                  :   
 GRR .GAPI   07 310 01 00:   GAMMA RAY
 RILD.OHMM   07 120 46 00:   INDUCTION LOG DEEP RESISTIVITY
 RILM.OHMM   07 120 44 00:   INDUCTION LOG MEDIUM RESISTIVITY
~PARAMETER INFORMATION
#MNEM.UNIT          VALUE    DESCRIPTION
#----------   ------------   ------------------------------
 PD  .                 GL:   PERMANENT DATUM
 EPD .F              5119:   ELEVATION PERMANENT DATUM
 LMF .                 KB:   LOG MEASURED FROM
 DAPD.F                11:   FEET ABOVE PERMANENT DATUM
 DMF .                 KB:   DRILLING MEASURED FROM
 EKB .F              5120:   KELLING BUSHING
 EGL .F              5119:   GROUND LEVEL
 DATE.        15-NOV-1991:   RUN DATE
 RUN .                  1:   RUN NUMBER
 DD  .F              1015:   DEPTH DRILLER
 DL  .F              1017:   DEPTH LOGGER
 BLI .F              1015:   BOTTOM LOG INTERVAL
 CS  .IN            8.625:   CASING SIZE
 CBD .F                60:   CASING BOTTOM DRILLER
 CBL .F                60:   CASING BOTTOM LOGGER
 BS  .IN            7.875:   BIT SIZE
 BSD .F              1015:   BIT SIZE AT DEPTH
 DFT .                AIR:   DRILLING FLUID TYPE
 LUN .            HL-6272:   LOGGING UNIT NUMBER
 LUL .         CASPER, WY:   LOGGING UNIT LOCATION
 ENGI.             ZIFGER:   RECORDING ENGINEER
 WITN.         MR. STRONG:   WITNESSED BY
 CLNT.            A2DTECH:   CLIENT CODE
 ORIG.           5" PRINT:   ORIGIN OF DATA
 UWI .       490252248100:   UNIQUE WELL ID
 DICO. A2D Technologies, Inc.:   DIGITIZING COMPANY
~OTHER INFORMATION
~A    DEPT      GRR      RILD       RILM   
# ...
  913.0000   102.5922    10.0970    10.0142
  913.5000   105.0321    10.1028    10.0218
  914.0000   107.7755    10.0389    10.0295
  914.5000   109.6145    10.0465    10.0371
  915.0000   111.4821    10.0545    10.0447
  915.5000   113.3433     9.9897    10.0525
  916.0000   114.1973     9.9984    10.0602
  916.5000   113.3013    10.0053    10.0679
  917.0000   113.0068    10.0122    10.0053
  917.5000   113.0218     9.9477    10.0133
  918.0000   114.5513     9.9563     9.9509
  918.5000   116.3842     9.9632     9.8911
  919.0000   117.9137     9.8990     9.8986
  919.5000   118.8361     9.9076     9.9062
  920.0000   117.9377     9.9145     9.8429
  920.5000   116.4292     9.8523     9.7819
  921.0000   117.3547     9.8591     9.7912
  921.5000   120.7051     9.8659     9.7987
  922.0000   123.1450     9.8040     9.8061
  922.5000   124.3710     9.8108     9.8136
  923.0000   122.5620     9.7480     9.8211
  923.5000   121.3596     9.6882     9.8286
  924.0000   120.1578     9.6950     9.8360
  924.5000   121.0806     9.6341     9.7732
  925.0000   124.1275     9.6410     9.5781
  925.5000   126.2640     9.5819     9.4543
  926.0000   123.1563     9.5886     9.3939
  926.5000   120.1761     9.5268     9.3357
  927.0000   120.8376     9.5350     9.3446
  927.5000   121.4561     9.4736     9.3517
  928.0000   116.0082     9.4142     9.3589
  928.5000   115.4132     9.4223     9.3007
  929.0000   114.5148     9.3616     9.3079
  929.5000   116.0442     9.3029     9.3150
  930.0000   117.5737     9.2446     9.2573
  930.5000   119.1031     9.1243     9.1999
  931.0000   119.4497     9.0040     9.1429
  931.5000   117.9122     8.9459     9.0801
  932.0000   116.7102     8.8898     8.9591
  932.5000   116.7424     8.7741     8.7881
  933.0000   118.6040     8.6584     8.6126
  933.5000   120.4268     8.5428     8.3835
  934.0000   120.7041     8.3147     8.1590
  934.5000   122.2360     8.1479     7.9389
  935.0000   124.6759     7.9290     7.7278
  935.5000   125.5954     7.7159     7.5208
  936.0000   124.6969     7.5086     7.3706
  936.5000   125.3189     7.3063     7.1233
  937.0000   129.2763     7.0588     6.8365
  937.5000   131.7132     6.7682     6.5155
  938.0000   128.3898     6.4413     6.1236
  938.5000   127.7918     5.8570     5.5969
  939.0000   131.4487     4.2835     4.4803
  939.5000   139.9585     4.2263     4.0381
  940.0000   149.0751     4.3195     3.9845
  940.5000   160.3163     4.4140     4.1298
  941.0000   164.8806     4.5105     4.3703
  941.5000   165.5760     4.6740     4.8224
  942.0000   152.4615     4.9460     5.3213
  942.5000   129.7118     5.2704     5.9960
  943.0000   123.0268     5.6951     6.7093
  943.5000   118.7922     6.4624     7.2501
  944.0000   120.4371     7.3329     7.7799
  944.5000   123.8299     7.9794     8.0062
  945.0000   125.8294     7.9849     8.1249
  945.5000   126.1449     7.9904     8.1311
  946.0000   127.0674     8.2225     8.1982
  946.5000   129.8108     8.4023     8.4977
  947.0000   134.6786     8.6463     8.7388
  947.5000   141.0639     8.8355     8.8685
  948.0000   144.4143     8.9659     9.0014
  948.5000   141.6949     9.0983     9.0082
  949.0000   138.0650     9.2327     9.1418
  949.5000   134.1316     9.3690     9.2773
  950.0000   131.1087     9.4412     9.4807
  950.5000   128.6928     9.5806     9.6887
  951.0000   127.4909     9.7272     9.9012
  951.5000   128.4133     9.8734     9.9087
  952.0000   132.0672    10.0115     9.9857
  952.5000   133.9001    10.0887    10.1337
  953.0000   134.2317    10.1679    10.1414
  953.5000   126.9439    10.3369    10.2297
  954.0000   118.1183    10.2746    10.2390
  954.5000   115.4352    10.2850    10.2482
  955.0000   119.1504    10.2229    10.2575
  955.5000   129.9973    10.1617    10.3386
  956.0000   135.5046    10.1741    10.2759
  956.5000   130.0538    10.1840    10.3573
  957.0000   127.6379    10.2653    10.3666
  957.5000   127.3434    10.2753    10.3760
  958.0000   127.6619    10.2836    10.4581
  958.5000   127.3674    10.2953    10.5409
  959.0000   127.0759    10.3053    10.4769
  959.5000   126.4809    10.3153    10.4866
  960.0000   125.2819    10.2510    10.4961
  960.5000   123.1695    10.2635    10.4323
  961.0000   121.6640    10.2020    10.3565
  961.5000   121.6760    10.1384    10.1657
  962.0000   122.5517    10.0100    10.1019
  962.5000   123.0675     9.9476     9.9038
  963.0000   123.9962     9.7508     9.7731
  963.5000   125.2283     9.5603     9.5148
  964.0000   126.1570     9.4369     9.3893
  964.5000   126.7821     9.3151     9.1412
  965.0000   128.6212     9.1948     9.0227
  965.5000   131.0674     9.0739     8.9036
  966.0000   131.3890     8.9568     8.7882
  966.5000   134.1386     8.7818     8.6158
  967.0000   137.7987     8.6684     8.5041
  967.5000   139.9413     8.4970     8.3355
  968.0000   138.4420     8.3873     8.2274
  968.5000   136.0323     8.2790     8.1757
  969.0000   133.9260     8.1702     8.0715
  969.5000   133.0292     8.0105     7.9668
  970.0000   137.6042     7.9606     7.9185
  970.5000   140.9608     7.9145     7.8688
  971.0000   142.7999     7.8674     7.8211
  971.5000   142.5146     7.8750     7.8300
  972.0000   141.6178     7.7732     7.7808
  972.5000   141.0290     7.6197     7.6816
  973.0000   141.0517     7.5213     7.5820
  973.5000   141.3734     7.4241     7.4837
  974.0000   141.6951     7.3283     7.3866
  974.5000   144.7481     7.2338     7.3415
  975.0000   149.0152     7.1404     7.2466
  975.5000   150.8497     7.0473     7.2025
  976.0000   145.4097     6.9553     7.1589
  976.5000   143.9104     6.7722     7.0661
  977.0000   144.8390     6.6382     6.9745
  977.5000   145.4642     6.5481     6.7888
  978.0000   145.7859     6.5133     6.7476
  978.5000   144.8936     6.5198     6.7068
  979.0000   142.4838     6.4806     6.6198
  979.5000   140.0741     6.3969     6.5321
  980.0000   138.8783     6.2719     6.3099
  980.5000   139.2000     6.1479     6.0585
  981.0000   141.9496     5.9427     5.8551
  981.5000   144.3957     5.8252     5.7434
  982.0000   146.2348     5.7500     5.6689
  982.5000   146.5565     5.6757     5.6346
  983.0000   146.8781     5.6813     5.6409
  983.5000   148.1103     5.6868     5.6855
  984.0000   149.3424     5.7322     5.7305
  984.5000   150.5745     5.7780     5.8570
  985.0000   149.9857     5.9061     6.0704
  985.5000   147.5760     6.1219     6.3800
  986.0000   144.2558     6.4799     6.8473
  986.5000   139.7216     6.9069     7.2976
  987.0000   137.3119     7.3108     7.7235
  987.5000   134.5986     7.7384     8.0610
  988.0000   138.2587     8.0773     8.2390
  988.5000   140.4013     8.2563     8.2464
  989.0000   141.0265     8.3223     8.1395
  989.5000   139.8300     8.2704     8.0339
  990.0000   138.3314     8.2208     7.9297
  990.5000   137.1356     8.1716     7.8799
  991.0000   141.7062     8.0661     7.8322
  991.5000   145.6697     8.0178     7.7847
  992.0000   147.2053     7.9162     7.7935
  992.5000   145.4026     7.9239     7.8005
  993.0000   143.3242     7.8764     7.8076
  993.5000  -999.2500     7.8841     7.8146
  994.0000  -999.2500     7.8918     7.8217
  994.5000  -999.2500     7.8994     7.8835
  995.0000  -999.2500     7.9625     7.8907
  995.5000  -999.2500     8.0824     7.9531
  996.0000  -999.2500     8.0902     8.0160
  996.5000  -999.2500     8.1549     8.0794
  997.0000  -999.2500     8.1628     8.0867
  997.5000  -999.2500     8.1707     8.0375
  998.0000  -999.2500     8.0651     7.9889
  998.5000  -999.2500     7.9058     7.7221
  999.0000  -999.2500     7.8036     7.2586
  999.5000  -999.2500     7.6493     6.8707
 1000.0000  -999.2500     7.4459     6.6411
 1000.5000  -999.2500     7.1954     6.6789
 1001.0000  -999.2500     6.9553     6.6348
 1001.5000  -999.2500     6.7223     6.4543
 1002.0000  -999.2500     6.4519     5.9789
 1002.5000  -999.2500     6.1450     5.4999
 1003.0000  -999.2500     5.7205     4.9759
 1003.5000  -999.2500     5.0064     4.1538
