~VERSION INFORMATION
 VERS.                2.0:   CWLS LOG ASCII STANDARD - VERSION 2.0
 WRAP.                 NO:   ONE LINE PER DEPTH STEP
~WELL INFORMATION
#MNEM.UNIT      DATA TYPE    INFORMATION
#----------   ------------   ------------------------------
 STRT.F           88.0000:   START DEPTH
 STOP.F          919.0000:   STOP DEPTH
 STEP.F            0.5000:   STEP LENGTH
 NULL.          -999.2500:   NO VALUE
 COMP. U S NAVY-INTEX OIL:   COMPANY
 WELL. RES 3 TEAPOT DOM #51S-11:   WELL
 FLD .             TEAPOT:   FIELD
 LOC .      S11 T38N R78W:   LOCATION
 CNTY.            NATRONA:   COUNTY
 STAT.            WYOMING:   STATE
 CTRY. UNITED STATES OF AMERICA:   COUNTRY
 SRVC.      NL McCullough:   SERVICE COMPANY
 DATE.        08-AUG-1961:   LOGDATE
 API .       490250638400:   API NUMBER
~CURVE INFORMATION
#MNEM.UNIT       API CODE    CURVE DESCRIPTION
#----------   ------------   ------------------------------
 DEPT.F                  :   
 NEUT.CPS    35 330 30 00:   NEUTRON
 GRN .MG/TON 35 310 01 00:   GAMMA RAY
~PARAMETER INFORMATION
#MNEM.UNIT          VALUE    DESCRIPTION
#----------   ------------   ------------------------------
 PD  .                 GL:   PERMANENT DATUM
 EPD .F              5176:   ELEVATION PERMANENT DATUM
 LMF .                 KB:   LOG MEASURED FROM
 DAPD.F                 6:   FEET ABOVE PERMANENT DATUM
 DMF .                 KB:   DRILLING MEASURED FROM
 EKB .F              5182:   KELLING BUSHING
 EGL .F              5176:   GROUND LEVEL
 DATE.           8-8-1961:   RUN DATE
 RUN .                  1:   RUN NUMBER
 DD  .F               920:   DEPTH DRILLER
 DL  .F             920.5:   DEPTH LOGGER
 BLI .F               919:   BOTTOM LOG INTERVAL
 TLI .F                90:   TOP LOG INTERVAL
 BSD .F               920:   BIT SIZE AT DEPTH
 DFT .       OIL EMULSION:   DRILLING FLUID TYPE
 DFD .                  9:   DRILLING FLUID DENSITY
 TCS .HRS               2:   TIME CURCULATED STOPPED
 ENGI.            JACKSON:   RECORDING ENGINEER
 WITN.          JORGENSEN:   WITNESSED BY
 CLNT.            A2DTECH:   CLIENT CODE
 ORIG.      2" & 5" PRINT:   ORIGIN OF DATA
 UWI .       490250638400:   UNIQUE WELL ID
 DICO. A2D Technologies, Inc.:   DIGITIZING COMPANY
~OTHER INFORMATION
~A   DEPT     NEUT          GRN 
# ...
  452.5000   403.9841     6.6259
  453.0000   409.8312     6.6451
  453.5000   413.3848     6.7318
  454.0000   414.5770     6.7168
  454.5000   414.8855     6.4145
  455.0000   416.6039     6.3368
  455.5000   417.8471     6.4501
  456.0000   404.2289     6.4808
  456.5000   397.4131     6.4502
  457.0000   399.9617     6.4155
  457.5000   408.7028     6.3968
  458.0000   412.0092     6.3967
  458.5000   412.4445     6.3965
  459.0000   383.7205     6.3963
  459.5000   381.9173     6.4285
  460.0000   364.0483     6.4719
  460.5000   355.9982     6.2745
  461.0000   360.2334     6.2668
  461.5000   378.3410     6.2590
  462.0000   384.4661     6.2588
  462.5000   393.0320     6.2644
  463.0000   400.1865     6.4270
  463.5000   398.4326     6.5989
  464.0000   389.2752     6.6377
  464.5000   383.5124     6.5843
  465.0000   378.2094     6.5713
  465.5000   372.9037     6.6220
  466.0000   376.8132     6.4701
  466.5000   384.5480     6.3368
  467.0000   380.3988     6.2463
  467.5000   386.4237     6.1510
  468.0000   402.6686     6.1205
  468.5000   403.5308     6.1203
  469.0000   394.6749     6.1831
  469.5000   408.3270     6.5679
  470.0000   410.4985     6.6889
  470.5000   405.5699     6.6726
  471.0000   400.6412     6.5643
  471.5000   399.4398     6.3243
  472.0000   399.8512     6.2316
  472.5000   402.0940     6.2375
  473.0000   403.8898     6.3542
  473.5000   405.9101     6.4150
  474.0000   406.0171     6.4373
  474.5000   402.9019     6.4419
  475.0000   396.7145     6.4238
  475.5000   392.0377     6.4292
  476.0000   378.2490     6.4634
  476.5000   363.4241     6.4669
  477.0000   360.6874     6.3909
  477.5000   357.0935     6.4101
  478.0000   353.5475     6.4764
  478.5000   349.6292     6.5422
  479.0000   338.8095     7.1079
  479.5000   331.5864     7.2399
  480.0000   356.2454     7.0030
  480.5000   378.3795     6.9741
  481.0000   392.7109     7.0043
  481.5000   396.6452     6.9618
  482.0000   396.4486     6.5912
  482.5000   373.7726     6.4954
  483.0000   370.6320     6.5857
  483.5000   371.4663     6.6645
  484.0000   379.9088     6.7529
  484.5000   386.5622     6.6611
  485.0000   387.2734     6.5326
  485.5000   385.4424     6.5971
  486.0000   372.1292     6.6907
  486.5000   370.1725     6.7446
  487.0000   369.0710     6.8425
  487.5000   372.8266     6.9141
  488.0000   389.6276     6.9642
  488.5000   395.7514     6.9776
  489.0000   408.2673     7.1327
  489.5000   421.4435     7.2115
  490.0000   411.2538     7.2511
  490.5000   404.9157     7.2821
  491.0000   407.0870     7.3101
  491.5000   409.6854     7.3411
  492.0000   411.5811     7.3878
  492.5000   411.1613     7.2918
  493.0000   422.4675     7.1878
  493.5000   427.2093     7.1446
  494.0000   428.4751     7.0172
  494.5000   425.4308     6.7344
  495.0000   428.9418     6.7587
  495.5000   449.5653     6.8687
  496.0000   456.4956     6.8555
  496.5000   458.1885     6.7627
  497.0000   460.8368     6.7566
  497.5000   470.2606     6.8019
  498.0000   487.5377     6.6427
  498.5000   490.9905     6.5249
  499.0000   485.8377     6.4904
  499.5000   475.8246     6.5919
  500.0000   478.4037     6.7633
  500.5000   486.5381     6.9300
  501.0000   487.4091     6.7477
  501.5000   482.1338     6.5420
  502.0000   480.1562     6.3302
  502.5000   480.0416     6.2007
  503.0000   482.2683     6.1322
  503.5000   487.7301     6.5720
  504.0000   496.3149     6.6336
  504.5000   503.7021     6.6209
  505.0000   488.4036     6.4043
  505.5000   489.7395     6.2193
  506.0000   495.3523     6.1075
  506.5000   498.8959     6.0462
  507.0000   499.6348     6.1173
  507.5000   492.0493     6.1984
  508.0000   489.7583     6.7712
  508.5000   487.6550     7.0072
  509.0000   480.6382     7.0336
  509.5000   482.3523     7.0169
  510.0000   494.9396     7.0243
  510.5000   506.3051     6.9708
  511.0000   510.7516     6.7236
  511.5000   466.9122     6.3863
  512.0000   459.3353     6.2605
  512.5000   463.2744     6.3099
  513.0000   466.8304     6.5530
  513.5000   458.0484     6.6140
  514.0000   437.3252     6.6658
  514.5000   414.6795     6.6842
  515.0000   410.7126     6.6401
  515.5000   407.7872     6.3617
  516.0000   406.1028     6.3998
  516.5000   401.6323     6.5433
  517.0000   395.9792     6.6657
  517.5000   378.4198     6.7695
  518.0000   365.3604     7.0509
  518.5000   365.3361     7.0866
  519.0000   365.3097     6.9822
  519.5000   363.0128     6.8294
  520.0000   352.4169     6.7041
  520.5000   346.3474     6.5098
  521.0000   357.4743     6.6536
  521.5000   365.3159     7.0837
  522.0000   371.9454     7.1831
  522.5000   376.1391     7.0798
  523.0000   366.5080     6.8742
  523.5000   369.9423     6.9303
  524.0000   382.0646     7.0910
  524.5000   384.6544     7.1390
  525.0000   395.9551     7.0756
  525.5000   428.8000     6.8503
  526.0000   438.1980     6.5958
  526.5000   435.8347     6.5236
  527.0000   417.7563     6.7054
  527.5000   401.6794     6.6582
  528.0000   394.5923     6.4066
  528.5000   391.2394     6.1526
  529.0000   388.9501     6.0976
  529.5000   388.1693     6.3022
  530.0000   396.4501     6.3328
  530.5000   412.4987     6.3503
  531.0000   416.0331     6.4077
  531.5000   415.9579     6.3826
  532.0000   407.6759     6.1948
  532.5000   423.5042     6.1774
  533.0000   422.9281     6.3738
  533.5000   406.8388     6.5356
  534.0000   382.0396     6.5867
  534.5000   381.1100     6.4896
  535.0000   400.7148     6.3498
  535.5000   416.3259     6.2280
  536.0000   418.7926     6.2158
  536.5000   386.2826     6.3491
  537.0000   372.8175     6.6747
  537.5000   365.7161     6.9637
  538.0000   369.6932     7.0537
  538.5000   376.8163     6.9961
  539.0000   417.8738     6.8022
  539.5000   420.5954     6.7908
  540.0000   401.9637     6.8740
  540.5000   399.9610     6.8893
  541.0000   394.9882     6.9342
  541.5000   382.2445     7.0285
  542.0000   386.5507     7.1160
  542.5000   393.7126     6.9260
  543.0000   388.2051     6.8249
  543.5000   370.0566     6.7658
  544.0000   363.9868     6.6974
  544.5000   359.3543     6.3479
  545.0000   363.9353     6.1054
  545.5000   382.0320     6.1593
  546.0000   376.2676     6.3447
  546.5000   363.0117     6.6131
  547.0000   355.8735     6.6633
  547.5000   349.2639     6.6885
  548.0000   334.3181     6.7594
  548.5000   333.8783     6.8523
  549.0000   343.4808     6.9230
  549.5000   356.8949     6.9678
  550.0000   327.1651     7.0288
  550.5000   320.5921     7.0776
  551.0000   325.9299     7.1263
  551.5000   354.0743     7.1722
  552.0000   384.7097     6.7443
  552.5000   387.4554     6.4587
  553.0000   396.0653     6.8833
  553.5000   423.0779     6.9505
  554.0000   423.8865     6.9891
  554.5000   423.7676     7.0004
  555.0000   425.7180     7.0038
  555.5000   428.3365     6.9504
  556.0000   396.5817     6.8461
  556.5000   393.2740     6.8286
  557.0000   393.5115     6.8043
  557.5000   398.3315     6.7644
  558.0000   429.2604     6.5851
  558.5000   433.4630     6.7127
  559.0000   429.3085     6.7746
  559.5000   417.5499     6.7916
  560.0000   422.8097     6.8437
  560.5000   430.3232     6.9482
  561.0000   434.8398     6.8469
  561.5000   433.6694     6.7201
  562.0000   405.1840     6.7805
  562.5000   364.5163     6.8031
  563.0000   369.4781     6.8636
  563.5000   389.3917     6.9926
  564.0000   392.8399     7.0225
  564.5000   388.0679     6.6732
  565.0000   368.1619     6.6578
  565.5000   364.5126     6.6421
  566.0000   355.8254     6.5386
  566.5000   334.0923     6.5206
  567.0000   338.2249     6.7479
  567.5000   349.1489     6.8039
  568.0000   363.4746     6.8744
  568.5000   371.8694     7.0355
  569.0000   372.4849     7.1671
  569.5000   372.4584     7.2038
  570.0000   372.4320     7.1265
  570.5000   371.9399     7.1188
  571.0000   357.9546     6.9130
  571.5000   353.3573     6.8512
  572.0000   350.9775     6.8292
  572.5000   340.8287     6.8244
  573.0000   334.5042     6.8861
  573.5000   337.1503     7.0408
