~VERSION INFORMATION
 VERS.                2.0:   CWLS LOG ASCII STANDARD - VERSION 2.0
 WRAP.                 NO:   ONE LINE PER DEPTH STEP
~WELL INFORMATION
#MNEM.UNIT      DATA TYPE    INFORMATION
#----------   ------------   ------------------------------
 STRT.F           14.0000:   START DEPTH
 STOP.F          608.0000:   STOP DEPTH
 STEP.F            0.1000:   STEP LENGTH
 NULL.          -999.2500:   NO VALUE
 COMP. FENIX & SCISSON INC:   COMPANY
 WELL. NAVAL PETROLEUM RESERVE 3 S-15 #72-15:   WELL
 FLD .             TEAPOT:   FIELD
 LOC .      S15 T38N R78W:   LOCATION
 CNTY.            NATRONA:   COUNTY
 STAT.            WYOMING:   STATE
 CTRY. UNITED STATES OF AMERICA:   COUNTRY
 SRVC.           BIRDWELL:   SERVICE COMPANY
 DATE.        21-JUL-1978:   LOGDATE
 API .       490251067300:   API NUMBER
~CURVE INFORMATION
#MNEM.UNIT       API CODE    CURVE DESCRIPTION
#----------   ------------   ------------------------------
 DEPT.F                  :   
 ILD .OHMM   05 120 46 00:   INDUCTION LOG DEEP
 SN  .OHMM   05 040 16 00:   SHORT NORMAL 16"
 SPR .MV     05 010 01 00:   SPONTANEOUS POTENTIAL FROM RES.
 CALD.IN     45 280 60 00:   CALIPER FROM DENSITY LOG
 DPHI.DEC    45 890 12 00:   DENSITY POROSITY SANDSTONE
 DRHO.G/C3   45 356 01 00:   DENSITY CORRECTION
 GRD .GAPI   45 310 01 00:   GAMMA RAY FROM DENSITY LOG
 RHOB.G/C3   45 350 01 00:   BULK DENSITY
~PARAMETER INFORMATION
#MNEM.UNIT          VALUE    DESCRIPTION
#----------   ------------   ------------------------------
 PD  .                 GL:   PERMANENT DATUM
 EPD .F              5238:   ELEVATION PERMANENT DATUM
 LMF .                 KB:   LOG MEASURED FROM
 DAPD.F                 4:   FEET ABOVE PERMANENT DATUM
 DMF .                 KB:   DRILLING MEASURED FROM
 EKB .F              5242:   KELLING BUSHING
 EGL .F              5238:   GROUND LEVEL
 DATE.        21-JUL-1978:   RUN DATE
 RUN .                  1:   RUN NUMBER
 DD  .F               597:   DEPTH DRILLER
 DL  .F               615:   DEPTH LOGGER
 BLI .F               608:   BOTTOM LOG INTERVAL
 TLI .F                35:   TOP LOG INTERVAL
 CS  .IN            8.625:   CASING SIZE
 CBD .F                40:   CASING BOTTOM DRILLER
 CBL .F                35:   CASING BOTTOM LOGGER
 BS  .IN            7.875:   BIT SIZE
 BSD .F               597:   BIT SIZE AT DEPTH
 DFT .                KCL:   DRILLING FLUID TYPE
 DFD .                8.6:   DRILLING FLUID DENSITY
 DFV .                 33:   DRILLING FLUID VISCOSITY
 DFPH.                9.0:   DRILLING FLUID PH
 MSS .            MUD PIT:   MUD SAMPLE SOURCE
 MFSS.               MEAS:   MUD FILTRATE SAMPLE SOURCE
 MCSS.               MEAS:   MUD CAKE SAMPLE SOURCE
 BHT .F                74:   BOTTOM HOLE TEMPERATURE
 TCS .HRS               2:   TIME CURCULATED STOPPED
 MRT .F                74:   MAXIMUM RECORDED TEMPERATURE
 LUN .               2958:   LOGGING UNIT NUMBER
 LUL .             CASPER:   LOGGING UNIT LOCATION
 ENGI.             MILLER:   RECORDING ENGINEER
 WITN.           MCGINLEY:   WITNESSED BY
 CLNT.            A2DTECH:   CLIENT CODE
 ORIG.           5" PRINT:   ORIGIN OF DATA
 UWI .       490251067300:   UNIQUE WELL ID
 DICO. A2D Technologies, Inc.:   DIGITIZING COMPANY
~OTHER INFORMATION
~A   DEPT      ILD         SN        SPR       CALD       DPHI       DRHO         GRD      RHOB   
# ...
  597.2000     8.1513     8.1803   -15.8921     7.8847     0.1144     0.0297    86.7495     2.4934
  597.3000     8.1513     8.1423   -15.8921     7.9493     0.1144     0.0309    86.5927     2.4929
  597.4000     8.1513     8.1235   -15.8921     7.9651     0.1139     0.0309    86.4688     2.4923
  597.5000     8.1513     8.1233   -15.9420     7.9366     0.1132     0.0318    86.4505     2.4914
  597.6000     8.1513     8.1231   -16.0030     7.9005     0.1125     0.0330    86.6964     2.4904
  597.7000     8.1427     8.1228   -16.0420     7.8722     0.1118     0.0343    86.9821     2.4904
  597.8000     8.1313     8.1226   -16.0420     7.8404     0.1113     0.0354    87.3951     2.4892
  597.9000     8.1199     8.1224   -16.0420     7.8033     0.1105     0.0354    87.7360     2.4889
  598.0000     8.1084     8.1327   -16.0420     7.7712     0.1101     0.0364    87.9820     2.4888
  598.1000     8.0952     8.1554   -16.0420     7.7464     0.1096     0.0376    88.2486     2.4890
  598.2000     8.0952     8.1780   -16.0420     7.7207     0.1090     0.0388    88.6383     2.4896
  598.3000     8.0952     8.1778   -16.0420     7.6969     0.1083     0.0401    88.8706     2.4902
  598.4000     8.0952     8.1776   -16.0420     7.6721     0.1081     0.0413    89.1166     2.4917
  598.5000     8.0952     8.1774   -16.0420     7.6537     0.1074     0.0413    89.4854     2.4932
  598.6000     8.0952     8.1698   -16.0420     7.6342     0.1070     0.0422    89.9102     2.4945
  598.7000     8.0952     8.1466   -16.0420     7.5986     0.1067     0.0434    90.1623     2.4957
  598.8000     8.0952     8.1203   -16.0420     7.5842     0.1062     0.0443    90.5954     2.4971
  598.9000     8.0952     8.1202   -16.0420     7.5738     0.1060     0.0444    90.7987     2.4981
  599.0000     8.0952     8.1199   -16.0420     7.5538     0.1055     0.0473    91.0446     2.4989
  599.1000     8.0952     8.1197   -16.0420     7.5290     0.1050     0.0473    91.1970     2.4993
  599.2000     8.0952     8.1195   -16.0420     7.5042     0.1048     0.0480    91.1964     2.4990
  599.3000     8.0952     8.1192   -16.0420     7.4780     0.1048     0.0488    91.1957     2.4970
  599.4000     8.0889     8.1190   -16.0420     7.4779     0.1048     0.0489    91.1952     2.4947
  599.5000     8.0776     8.1188   -16.0420     7.4690     0.1051     0.0503    91.1946     2.4927
  599.6000     8.0662     8.1186   -16.0420     7.4566     0.1053     0.0502    91.1940     2.4912
  599.7000     8.0549     8.1184   -16.0420     7.4474     0.1052     0.0511    91.1934     2.4899
  599.8000     8.0436     8.1181   -16.0420     7.4473     0.1050     0.0523    91.1928     2.4887
  599.9000     8.0395     8.1179   -16.0420     7.4472     0.1047     0.0532    91.1920     2.4880
  600.0000     8.0395     8.1177   -16.0420     7.4673     0.1042     0.0532    91.1916     2.4895
  600.1000     8.0395     8.1175   -16.0420     7.4773     0.1040     0.0532    91.0450     2.4906
  600.2000     8.0395     8.1172   -16.0420     7.4862     0.1035     0.0551    90.7069     2.4917
  600.3000     8.0395     8.1170   -16.0420     7.5108     0.1032     0.0562    89.6576     2.4934
  600.4000     8.0395     8.1168   -16.0420     7.5374     0.1028     0.0566    85.0051     2.4947
  600.5000     8.0395     8.1166   -16.0420     7.5486     0.1024     0.0578    85.3455     2.4964
  600.6000     8.0395     8.1163   -16.0420     7.5695     0.1018     0.0592    85.6286     2.4982
  600.7000     8.0395     8.1161   -16.0420     7.5882     0.1014     0.0592    85.9331     2.4998
  600.8000     8.0395     8.1159   -16.0420     7.6065     0.1009     0.0592    86.3024     2.5010
  600.9000     8.0030     8.1157   -16.0420     7.6429     0.1004     0.0592    86.6715     2.5022
  601.0000     7.9842     8.1154   -16.0420     7.6552     0.0999     0.0592    87.1130     2.5040
  601.1000     7.9842     8.1152   -16.0420     7.6772     0.0991     0.0592    87.4101     2.5059
  601.2000     7.9842     8.1150   -16.0420     7.7018     0.0989     0.0591    87.8510     2.5074
  601.3000     7.9842     8.1148   -16.0420     7.7221     0.0984     0.0591    88.3435     2.5086
  601.4000     7.9842     8.1145   -16.0420     7.7359     0.0981     0.0585    88.7864     2.5098
  601.5000     7.9543     8.1143   -16.0420     7.7630     0.0979     0.0576    88.9200     2.5119
  601.6000     7.9292     8.1141   -16.0420     7.7740     0.0980     0.0576    88.9195     2.5135
  601.7000     7.9292     8.1139   -16.0420     7.7862     0.0988     0.0561    88.4958     2.5149
  601.8000     7.9292     8.1136   -16.1379     7.7985     0.0995     0.0561    87.9358     2.5164
  601.9000     7.9292     8.1134   -16.1919     7.8107     0.1003     0.0561    87.4420     2.5182
  602.0000     7.9292     8.1132   -16.1919     7.8230     0.1011     0.0561    86.9484     2.5201
  602.1000     7.9292     8.1130   -16.1919     7.8229     0.1017     0.0561    86.4546     2.5213
  602.2000     7.9292     8.1127   -16.1919     7.8228     0.1024     0.0561    85.9609     2.5234
  602.3000     7.9262     8.1125   -16.1919     7.8227     0.1034     0.0572    85.1865     2.5261
  602.4000     7.8747     8.1123   -16.1919     7.8226     0.1038     0.0584    84.3275     2.5285
  602.5000     7.8747     8.1121   -16.1919     7.8225     0.1038     0.0602    83.7407     2.5291
  602.6000     7.8747     8.1118   -16.1919     7.8224     0.1034     0.0626    83.3327     2.5261
  602.7000     7.8578     8.1116   -16.1919     7.8223     0.1027     0.0651    82.9997     2.5202
  602.8000     7.8205     8.1114   -16.1919     7.8222     0.1021     0.0699    82.7958     2.5135
  602.9000     7.8205     8.1112   -16.1919     7.8169     0.1015     0.0739    82.6719     2.5083
  603.0000     7.8205     8.1110   -16.1919     7.8069     0.1008     0.0782    82.5480     2.5051
  603.1000     7.8205     8.1107   -16.1919     7.8069     0.1001     0.0819    82.4247     2.5051
  603.2000     7.8205     8.1105   -16.1919     7.7947     0.0994     0.0834    82.5480     2.5073
  603.3000     7.8205     8.1412   -16.1919     7.7916     0.0988     0.0890    82.6707     2.5089
  603.4000     7.8205     8.1663   -16.1919     7.7849     0.0979     0.0911    82.9998     2.5101
  603.5000     7.8205     8.1661   -16.1919     7.7763     0.0987     0.0935    83.4098     2.5116
  603.6000     7.8205     8.1658   -16.1919     7.7762     0.1006     0.0955    83.6558     2.5141
  603.7000     7.8205     8.1656   -16.1919     7.7761     0.1026     0.0965    83.9293     2.5165
  603.8000     7.8062     8.1654   -16.1919     7.7760     0.1034     0.0950    84.3666     2.5185
  603.9000     7.7624     8.1652   -16.2279     7.7720     0.1036     0.0903    85.1863     2.5203
  604.0000     7.7132     8.1649   -16.2685     7.7658     0.1032     0.0854    86.2259     2.5227
  604.1000     7.7132     8.1647   -16.3092     7.7606     0.1025     0.0812    87.2816     2.5263
  604.2000     7.6856     8.1645   -16.3418     7.7605     0.1015     0.0772    88.1496     2.5298
  604.3000     7.6425     8.1643   -16.3418     7.7486     0.1005     0.0723    89.0063     2.5314
  604.4000     7.6075     8.1640   -16.3418     7.7453     0.0995     0.0665    89.5095     2.5324
  604.5000     7.6075     8.1638   -16.3418     7.7452     0.0986     0.0625    88.7310     2.5330
  604.6000     7.6075     8.1636   -16.3418     7.7451     0.0976     0.0583    87.9526     2.5336
  604.7000     7.5765     8.1634   -16.3418     7.7442     0.0967     0.0551    87.1742     2.5343
  604.8000     7.5551     8.1631   -16.3418     7.7298     0.0960     0.0523    86.3957     2.5343
  604.9000     7.5437     8.1629   -16.3418     7.7297     0.0952     0.0469    85.6173     2.5343
  605.0000     7.5031     8.1627   -16.3418     7.7221     0.0943     0.0447    84.8389     2.5337
  605.1000     7.5031     8.1625   -16.3418     7.7144     0.0933     0.0423  -999.2500     2.5323
  605.2000     7.5031     8.1639   -16.3858     7.7143     0.0924     0.0404  -999.2500     2.5304
