~VERSION INFORMATION
 VERS.                2.0:   CWLS LOG ASCII STANDARD - VERSION 2.0
 WRAP.                 NO:   ONE LINE PER DEPTH STEP
~WELL INFORMATION
#MNEM.UNIT      DATA TYPE    INFORMATION
#----------   ------------   ------------------------------
 STRT.F           32.0000:   START DEPTH
 STOP.F          456.0000:   STOP DEPTH
 STEP.F            0.5000:   STEP LENGTH
 NULL.          -999.2500:   NO VALUE
 COMP. LAWRENCE/ALLISON INC:   COMPANY
 WELL.    52-62 SX #10-10:   WELL
 FLD .             TEAPOT:   FIELD
 LOC .      S10 T38N R78W:   LOCATION
 CNTY.            NATRONA:   COUNTY
 STAT.            WYOMING:   STATE
 CTRY. UNITED STATES OF AMERICA:   COUNTRY
 SRVC.           Gearhart:   SERVICE COMPANY
 DATE.        06-AUG-1987:   LOGDATE
 API .       490251116500:   API NUMBER
~CURVE INFORMATION
#MNEM.UNIT       API CODE    CURVE DESCRIPTION
#----------   ------------   ------------------------------
 DEPT.F                  :   
 GRR .GAPI   07 310 01 00:   GAMMA RAY
 RILD.OHMM   07 120 46 00:   INDUCTION LOG DEEP RESISTIVITY
 RILM.OHMM   07 120 44 00:   INDUCTION LOG MEDIUM RESISTIVITY
 RLL .OHMM   07 220 00 00:   LATEROLOG RESISTIVITY
~PARAMETER INFORMATION
#MNEM.UNIT          VALUE    DESCRIPTION
#----------   ------------   ------------------------------
 PD  .                 GL:   PERMANENT DATUM
 EPD .F              5173:   ELEVATION PERMANENT DATUM
 LMF .                 KB:   LOG MEASURED FROM
 DAPD.F                 8:   FEET ABOVE PERMANENT DATUM
 DMF .                 KB:   DRILLING MEASURED FROM
 EKB .F              5181:   KELLING BUSHING
 EDF .F              5180:   DRILLING FLOOR
 EGL .F              5173:   GROUND LEVEL
 DATE.        06-AUG-1987:   RUN DATE
 RUN .                  1:   RUN NUMBER
 DD  .F               455:   DEPTH DRILLER
 DL  .F               456:   DEPTH LOGGER
 BLI .F               448:   BOTTOM LOG INTERVAL
 TLI .F                30:   TOP LOG INTERVAL
 CS  .IN            8.625:   CASING SIZE
 CBD .F                48:   CASING BOTTOM DRILLER
 CBL .F                48:   CASING BOTTOM LOGGER
 BS  .IN            7.875:   BIT SIZE
 BSD .F               455:   BIT SIZE AT DEPTH
 DFT .          OIL/WATER:   DRILLING FLUID TYPE
 DFD .               10.2:   DRILLING FLUID DENSITY
 DFV .                 40:   DRILLING FLUID VISCOSITY
 MSS .           MUD TANK:   MUD SAMPLE SOURCE
 RMS .OHMM            .22:   RESISTIVITY MUD SAMPLE
 MST .F                70:   MUD SAMPLE TEMPERATURE
 RMF .OHMM            .17:   RESISTIVITY MUD FILTRATE SAMPLE
 MFST.F                70:   MUD FILTRATE SAMPLE TEMPERATURE
 RMC .OHMM            .30:   RESISTIVITY MUD CAKE
 MCST.F                70:   MUD CAKE SAMPLE TEMPERATURE
 MFSS.              CHART:   MUD FILTRATE SAMPLE SOURCE
 TCS .HRS            1600:   TIME CURCULATED STOPPED
 TLAB.HRS            1807:   TIME LOGGER AT BOTTOM
 LUN .               7597:   LOGGING UNIT NUMBER
 LUL .           GILLETTE:   LOGGING UNIT LOCATION
 ENGI.         WEATHERMON:   RECORDING ENGINEER
 WITN.              FIVAS:   WITNESSED BY
 CLNT.            A2DTECH:   CLIENT CODE
 ORIG.           5" PRINT:   ORIGIN OF DATA
 UWI .       490251116500:   UNIQUE WELL ID
 DICO. A2D Technologies, Inc.:   DIGITIZING COMPANY
~OTHER INFORMATION
~A   DEPT       GRR      RILD       RILM        RLL   
# ...
  178.0000   121.0472     5.2955     4.7775     5.8875
  178.5000   116.2871     5.3731     4.8130     5.9727
  179.0000   111.7416     5.4537     4.9165     6.1016
  179.5000   108.7181     5.7271     5.1643     6.2333
  180.0000   106.6027     6.0164     5.4626     6.4125
  180.5000   108.1506     6.3645     5.7380     6.7366
  181.0000   110.6065     6.7328     5.9904     6.9855
  181.5000   114.2802     7.0238     6.3316     7.3319
  182.0000   119.8782     7.3273     6.5586     7.5955
  182.5000   116.4575     7.5381     6.8413     7.8138
  183.0000   112.5208     7.7696     7.0866     8.0384
  183.5000   109.8017     7.9790     7.4960     8.3274
  184.0000   109.2084     8.0948     7.6571     8.5071
  184.5000   108.3210     8.1553     7.7674     8.5106
  185.0000   108.6460     8.1015     7.8792     8.5148
  185.5000   108.9711     8.0490     7.8825     8.4590
  186.0000   109.9421     7.9422     7.7752     8.2862
  186.5000   110.8441     7.7780     7.6174     8.0059
  187.0000   110.8647     7.5720     7.4615     7.8973
  187.5000   110.5758     7.4698     7.3100     7.9013
  188.0000   111.5149     7.3698     7.1610     7.7378
  188.5000   113.0576     7.2712     7.0637     7.5305
  189.0000   115.2091     7.2755     6.9135     7.4290
  189.5000   117.0563     7.1780     6.7797     7.4328
  190.0000   116.7326     6.9840     6.6874     7.4358
  190.5000   114.9719     6.7889     6.5061     7.3357
  191.0000   113.1660     6.3412     6.1121     7.2368
  191.5000   112.5779     5.9583     5.6625     6.8930
  192.0000   113.2073     5.9190     5.1372     6.3679
  192.5000   116.5765     6.0057     4.8245     5.8359
  193.0000   116.6616     5.8027     4.7942     5.5988
  193.5000   112.0274     5.6458     4.9320     5.6010
  194.0000   106.1999     5.7683     5.1089     5.6821
  194.5000   105.3959     6.1447     5.4418     6.0110
  195.0000   107.8570     6.5916     5.9191     6.5390
  195.5000   108.1820     7.0217     6.3934     7.0251
  196.0000   106.9851     7.4280     6.7627     7.4736
  196.5000   105.7829     7.6988     7.1037     7.6884
  197.0000   110.6793     7.8079     7.3078     7.8543
  197.5000   116.5247     7.8115     7.4130     7.8575
  198.0000   119.8539     7.7600     7.5197     7.8052
  198.5000   117.1392     7.8736     7.5222     7.7547
  199.0000   113.8112     8.0439     7.5248     7.8704
  199.5000   112.0054     8.1607     7.5273     8.2078
  200.0000   111.4121     8.1078     7.5826     8.4437
  200.5000   112.0467     8.1679     7.5842     8.3875
  201.0000   111.1541     8.1719     7.6926     8.2178
  201.5000   109.9432     8.1176     7.7481     8.1639
  202.0000   108.7083     8.0645     7.7496     8.2244
  202.5000   107.2445     8.0685     7.6438     8.2278
  203.0000   108.4841     8.0718     7.5921     8.1738
  203.5000   110.6325     8.0751     7.5937     8.2353
  204.0000   113.6942     8.0791     7.6488     8.2386
  204.5000   114.6250     8.0824     7.7039     8.2420
  205.0000   114.9470     8.1422     7.7594     8.2453
  205.5000   114.6602     8.0881     7.7610     8.2486
  206.0000   114.9865     8.0351     7.7625     8.2520
  206.5000   115.3085     8.0392     7.7641     8.3133
  207.0000   115.9349     8.0425     7.8201     8.3174
  207.5000   114.7348     8.0465     7.7672     8.3791
  208.0000   112.6215     8.0497     7.7690     8.4412
  208.5000   110.4921     8.1093     7.7165     8.5038
  209.0000   109.9169     8.1126     7.6643     8.4472
  209.5000   111.1565     8.2299     7.5600     8.3926
  210.0000   112.6961     8.2332     7.3534     8.2758
  210.5000   113.3225     8.0056     6.8592     8.0556
  211.0000   113.3401     7.5792     6.3043     7.7824
  211.5000   113.6621     7.1710     6.0521     7.5184
  212.0000   113.9884     6.8321     6.2249     7.2634
  212.5000   115.2236     6.7396     6.4024     7.0173
  213.0000   115.8500     6.6034     6.5850     7.3718
  213.5000   115.5588     6.4244     6.4050     7.4257
  214.0000   115.5807     6.1163     5.8917     7.2747
  214.5000   115.2939     5.6718     5.6032     6.8350
  215.0000   114.3582     5.3663     4.7479     6.2795
  215.5000   113.2025     5.2935     4.2472     5.7454
  216.0000   114.1333     5.2962     3.9893     5.5888
  216.5000   114.7597     5.3354     4.3388     5.6309
  217.0000   113.8640     5.3749     4.6859     5.8333
  217.5000   112.0551     5.5011     4.9941     6.2577
  218.0000   109.9138     5.8493     5.3901     6.9515
  218.5000   110.8769     6.4516     5.8620     7.5672
  219.0000   110.8945     7.0175     6.3752     7.7803
  219.5000   109.0856     7.2694     6.7426     7.6755
  220.0000   106.6678     7.4260     7.0323     7.6244
  220.5000   106.3480     7.4290     7.1325     7.6817
  221.0000   107.3445     7.3291     7.0351     7.7386
  221.5000   110.0735     7.1311     6.8432     7.7418
  222.0000   111.6131     6.7942     6.4730     7.7450
  222.5000   111.9351     6.3835     6.1656     7.3792
  223.0000   112.2571     6.0396     5.5930     6.5558
  223.5000   112.2746     5.7543     4.8655     5.9063
  224.0000   113.2136     5.6343     4.6996     5.8670
  224.5000   114.7494     5.4846     4.7668     5.8699
  225.0000   115.3714     5.4874     4.8686     5.9549
  225.5000   114.1757     5.5280     4.9381     6.0898
  226.0000   112.6712     5.7264     5.1502     6.3027
  226.5000   111.4711     6.0573     5.4470     6.5751
  227.0000   110.5753     6.3629     5.8012     6.8592
  227.5000   109.9442     6.7369     6.1915     7.2057
  228.0000   109.0929     7.1202     6.7197     7.5697
  228.5000   108.8017     7.4794     7.1566     8.0094
  229.0000   109.7369     7.8021     7.4122     8.4722
  229.5000   110.0588     7.9702     7.6236     8.7157
  230.0000   109.1632     8.1419     7.7864     8.7803
  230.5000   107.3262     8.0881     7.8985     8.7839
  231.0000   106.1541     8.0922     7.9547     8.7874
  231.5000   106.4805     8.1521     7.9563     8.7297
  232.0000   107.4113     8.0395     8.0697     8.7334
  232.5000   108.6465     7.9351     8.1279     8.7377
  233.0000   109.5773     7.9383     8.1295     8.8025
  233.5000   110.2040     7.9415     8.1312     8.8061
  234.0000   108.7036     7.9447     8.0763     8.7474
  234.5000   106.5903     8.0035     8.0783     8.7519
  235.0000   106.2990     8.0067     8.0799     8.8168
  235.5000   107.8430     8.0661     8.0815     8.7589
  236.0000   109.3827     8.1834     8.0832     8.8248
  236.5000   109.0918     8.1867     8.1414     8.8902
  237.0000   107.2913     8.2473     8.2001     9.0189
  237.5000   106.0912     8.2506     8.3171     9.1494
  238.0000   104.8911     8.2540     8.4360     9.0891
  238.5000   104.2955     8.2573     8.5563     9.0937
  239.0000   104.9262     8.2032     8.6179     9.1611
  239.5000   106.1615     8.0937     8.6196     9.2291
  240.0000   107.3973     7.8743     8.5019     9.2975
  240.5000   108.0275     7.5547     8.2022     9.3664
  241.0000   108.0450     7.0488     6.9476     9.0437
  241.5000   107.7538     6.6227     5.7961     7.4977
  242.0000   107.4669     6.2224     4.7684     6.5230
  242.5000   106.5753     6.0905     4.4790     6.3011
  243.0000   106.2608     6.0562     4.7373     6.3485
  243.5000   105.0931     6.2306     5.0454     6.6692
  244.0000   103.5886     6.5907     5.5255     7.2550
  244.5000   101.4752     7.0694     6.2227     8.0686
  245.0000   100.2708     7.6360     6.8626     9.0798
  245.5000   101.5104     8.4256     7.3600     9.5385
  246.0000   103.6915     9.3213     8.0787     9.6766
  246.5000   105.8073     9.8963     8.8280     9.6805
  247.0000   105.2160    10.1096     9.3367     9.6844
  247.5000   104.3247    10.3997     9.7379     9.6883
  248.0000   103.1202    10.7730     9.8767     9.6978
  248.5000   101.6201    11.1597    10.0175     9.7651
  249.0000   100.4160    11.8939    10.1623     9.8375
  249.5000   101.0508    12.9310    10.5237     9.9799
  250.0000   101.3684    13.7740    10.8995    10.1953
  250.5000    98.9550    14.4688    11.4474    10.9370
