~VERSION INFORMATION
 VERS.                2.0:   CWLS LOG ASCII STANDARD - VERSION 2.0
 WRAP.                 NO:   ONE LINE PER DEPTH STEP
~WELL INFORMATION
#MNEM.UNIT      DATA TYPE    INFORMATION
#----------   ------------   ------------------------------
 STRT.F           32.0000:   START DEPTH
 STOP.F          697.0000:   STOP DEPTH
 STEP.F            0.5000:   STEP LENGTH
 NULL.          -999.2500:   NO VALUE
 COMP.    FENIX & SCISSON:   COMPANY
 WELL.      NPR-3 #81S3-3:   WELL
 FLD .        TEAPOT DOME:   FIELD
 LOC .       S3 T38N R78W:   LOCATION
 CNTY.            NATRONA:   COUNTY
 STAT.            WYOMING:   STATE
 CTRY. UNITED STATES OF AMERICA:   COUNTRY
 SRVC.           BIRDWELL:   SERVICE COMPANY
 DATE.        11-JAN-1978:   LOGDATE
 API .       490251055400:   API NUMBER
~CURVE INFORMATION
#MNEM.UNIT       API CODE    CURVE DESCRIPTION
#----------   ------------   ------------------------------
 DEPT.F                  :   
 ILD .OHMM   05 120 46 00:   INDUCTION LOG DEEP
 SN  .OHMM   05 040 16 00:   SHORT NORMAL 16"
 SPR .MV     05 010 01 00:   SPONTANEOUS POTENTIAL FROM RES.
 CALD.IN     45 280 60 00:   CALIPER FROM DENSITY LOG
 DPHI.DEC    45 890 12 00:   DENSITY POROSITY SANDSTONE
 DRHO.G/C3   45 356 01 00:   DENSITY CORRECTION
 GRD .GAPI   45 310 01 00:   GAMMA RAY FROM DENSITY LOG
 RHOB.G/C3   45 350 01 00:   BULK DENSITY
~PARAMETER INFORMATION
#MNEM.UNIT          VALUE    DESCRIPTION
#----------   ------------   ------------------------------
 PD  .                 GL:   PERMANENT DATUM
 EPD .F              5119:   ELEVATION PERMANENT DATUM
 LMF .                 KB:   LOG MEASURED FROM
 DAPD.F                 4:   FEET ABOVE PERMANENT DATUM
 DMF .                 KB:   DRILLING MEASURED FROM
 EKB .F              5123:   KELLING BUSHING
 EGL .F              5119:   GROUND LEVEL
 DATE.        11-JAN-1978:   RUN DATE
 RUN .                  1:   RUN NUMBER
 DD  .F               695:   DEPTH DRILLER
 DL  .F               704:   DEPTH LOGGER
 BLI .F               697:   BOTTOM LOG INTERVAL
 TLI .F                40:   TOP LOG INTERVAL
 CS  .IN            8.625:   CASING SIZE
 CBD .F                40:   CASING BOTTOM DRILLER
 CBL .F                40:   CASING BOTTOM LOGGER
 BS  .IN            7.875:   BIT SIZE
 BSD .F               695:   BIT SIZE AT DEPTH
 DFT .                KCL:   DRILLING FLUID TYPE
 DFD .                8.6:   DRILLING FLUID DENSITY
 DFV .                 31:   DRILLING FLUID VISCOSITY
 DFPH.                9.5:   DRILLING FLUID PH
 DFL .                7.6:   DRILLING FLUID LOSS
 MSS .           FLOWLINE:   MUD SAMPLE SOURCE
 RMS .OHMM           0.32:   RESISTIVITY MUD SAMPLE
 MST .F                62:   MUD SAMPLE TEMPERATURE
 RMF .OHMM           0.32:   RESISTIVITY MUD FILTRATE SAMPLE
 MFST.F                62:   MUD FILTRATE SAMPLE TEMPERATURE
 RMC .OHMM            0.8:   RESISTIVITY MUD CAKE
 MCST.F                63:   MUD CAKE SAMPLE TEMPERATURE
 MFSS.               MEAS:   MUD FILTRATE SAMPLE SOURCE
 MCSS.               MEAS:   MUD CAKE SAMPLE SOURCE
 TCS .HRS               2:   TIME CURCULATED STOPPED
 LUN .               2958:   LOGGING UNIT NUMBER
 LUL .             CASPER:   LOGGING UNIT LOCATION
 ENGI.           REYNOLDS:   RECORDING ENGINEER
 WITN.         HARRINGTON:   WITNESSED BY
 CLNT.            A2DTECH:   CLIENT CODE
 ORIG.           5" PRINT:   ORIGIN OF DATA
 UWI .       490251055400:   UNIQUE WELL ID
 DICO. A2D Technologies, Inc.:   DIGITIZING COMPANY
~OTHER INFORMATION
~A   DEPT      ILD         SN        SPR       CALD       DPHI       DRHO         GRD      RHOB   
# ...
  356.0000    11.9183    11.9176   -40.3761     8.7056     0.0917     0.0871    84.5349     2.4932
  356.5000    11.9208    11.9193   -40.3701     8.7086     0.0900     0.0899    82.9044     2.4956
  357.0000    11.9233    11.9209   -40.3642     8.7116     0.0883     0.0932    82.1659     2.4978
  357.5000    11.9258    11.9226   -40.5076     8.7147     0.0895     0.0974    84.7105     2.4962
  358.0000    11.9282    11.9242   -40.6981     8.7173     0.0913     0.0990    87.4019     2.4956
  358.5000    12.0137    11.9259   -40.5459     8.7180     0.0874     0.0990    89.3482     2.5044
  359.0000    12.0162    11.9275   -40.3937     8.7188     0.0817     0.0951    87.8668     2.5101
  359.5000    12.0187    11.9292   -40.0922     8.7195     0.0783     0.0936    85.0440     2.5116
  360.0000    12.1049    12.0137   -39.7908     8.7203     0.0771     0.0922    84.3055     2.5145
  360.5000    12.2765    12.0989   -39.7879     8.7210     0.0792     0.0938    86.7011     2.5168
  361.0000    12.3645    12.1846   -39.7849     8.7068     0.0849     0.0953    87.1571     2.5003
  361.5000    12.6271    12.1863   -39.7820     8.7076     0.0852     0.0954    87.1659     2.4996
  362.0000    12.7176    12.2727   -39.7791     8.6768     0.0882     0.0969    88.2180     2.4981
  362.5000    12.8088    12.3597   -39.9254     8.6495     0.0896     0.0970    88.2762     2.4974
  363.0000    12.9006    12.6436   -39.9224     8.6354     0.0836     0.0971    87.3416     2.4997
  363.5000    12.9592    12.6465   -40.0688     8.6065     0.0821     0.0986    85.1150     2.5044
  364.0000    12.9960    12.7370   -40.2143     8.5924     0.0830     0.1017    84.8057     2.5022
  364.5000    12.9980    12.7396   -40.2114     8.5904     0.0860     0.1048    86.3250     2.4930
  365.0000    12.9905    12.7422   -40.3585     8.5639     0.0904     0.1123    87.8241     2.4908
  365.5000    12.9841    12.8334   -40.5048     8.5498     0.1000     0.1244    88.8763     2.4810
  366.0000    12.9777    12.8360   -40.5011     8.5356     0.1144     0.1410    87.4943     2.4585
  366.5000    12.9713    12.8386   -40.1997     8.5215     0.1189     0.1501    85.1237     2.4480
  367.0000    12.9649    12.8413   -39.5997     8.5073     0.1186     0.1532    84.8790     2.4488
  367.5000    12.9585    12.7553   -38.7012     8.5083     0.1154     0.1592    86.7760     2.4548
  368.0000    12.9521    12.7580   -38.2505     8.5090     0.1099     0.1668    89.5189     2.4601
  368.5000    12.9457    12.7611   -38.2476     8.5097     0.1123     0.1684    88.3355     2.4594
  369.0000    12.9393    12.7638   -38.6924     8.5253     0.1179     0.1700    87.4502     2.4527
  369.5000    12.9354    12.7664   -38.8388     8.5261     0.1239     0.1836    87.7571     2.4354
  370.0000    12.9387    12.7690   -38.5373     8.5288     0.1326     0.2363    88.2109     2.4219
  370.5000    12.9414    12.7716   -38.2358     8.5275     0.1488     0.2544    86.4336     2.3949
  371.0000    12.9440    12.7742   -38.0836     8.5283     0.1572     0.2529    85.5483     2.3919
  371.5000    12.8566    12.7768   -38.2300     8.5290     0.1541     0.2515    86.0042     2.4340
  372.0000    12.8599    12.7794   -38.8233     8.5446     0.1396     0.2515    87.2054     2.4949
  372.5000    12.7730    12.6932   -39.1196     8.5454     0.1040     0.2516    89.5987     2.4732
  373.0000    12.7762    12.6964   -39.2660     8.5610     0.0908     0.2471    89.4586     2.5018
  373.5000    12.6905    12.6113   -39.4123     8.5917     0.0748     0.2156    88.8713     2.5069
  374.0000    12.4318    12.3546   -39.7079     8.6073     0.0595     0.1811    89.1782     2.5514
  374.5000    11.9275    11.9366   -39.8542     8.6229     0.0556     0.1676    89.7832     2.5680
  375.0000    11.8469    11.7748   -40.0005     8.6236     0.0547     0.1556    90.0902     2.5515
  375.5000    11.7681    11.6960   -40.1468     8.6393     0.0597     0.1196    89.9500     2.5500
  376.0000    11.7705    11.6176   -40.1431     8.6549     0.0504     0.0911    77.5900     2.5545
  376.5000    11.6915    11.5398   -40.2896     8.6705     0.0534     0.0851    83.8582     2.5568
  377.0000    11.6131    11.4625   -40.2865     8.6712     0.0606     0.0728    86.4006     2.5448
  377.5000    11.4555    11.3858   -40.4328     8.6720     0.0678     0.0548    83.1308     2.5253
  378.0000    11.4579    11.3887   -40.7383     8.6727     0.0660     0.0477    82.8394     2.5366
  378.5000    11.3810    11.2343   -41.0240     8.6734     0.0873     0.0463    82.8504     2.5201
  379.0000    11.0689    11.0821   -40.8711     8.6742     0.0954     0.0479    82.4122     2.4991
  379.5000    10.6904    10.8564   -40.8681     8.6749     0.0836     0.0569    81.8250     2.5014
  380.0000    10.3967    10.7087   -40.8652     8.6756     0.0848     0.0796    84.5164     2.4984
  380.5000    10.1814    10.5636   -41.0122     8.6763     0.1013     0.0766    88.2510     2.4774
  381.0000     9.9862    10.4204   -41.4571     8.6771     0.1091     0.0406    91.3896     2.4773
  381.5000     9.9192    10.2083   -41.6034     8.6778     0.0793     0.0361    92.2926     2.5138
  382.0000     9.7846    10.0704   -41.3012     8.6786     0.0684     0.0362    90.9602     2.5049
  382.5000     9.8552    10.0725   -41.1490     8.6793     0.0887     0.0362    89.1807     2.4971
  383.0000    10.0645    10.2151   -41.1461     8.6801     0.0862     0.0363    87.9973     2.4980
  383.5000    10.3497    10.5042   -41.4424     8.6808     0.0838     0.0379    87.6781     2.5016
  384.0000    10.6430    10.8014   -41.7373     8.6841     0.0826     0.0409    89.0583     2.5025
  384.5000    10.8690    10.9650   -41.7343     8.6973     0.0887     0.0440    89.5142     2.4904
  385.0000    10.9469    11.1099   -41.8806     8.6981     0.0928     0.0471    89.8212     2.4890
  385.5000    10.9492    11.1122   -41.8876     8.6988     0.0936     0.0501    90.2822     2.4912
  386.0000    10.9514    11.1144   -42.0240     8.6995     0.0951     0.0517    89.7794     2.4928
  386.5000    10.9537    11.1940   -42.1703     8.7003     0.0942     0.0535    86.5246     2.4906
  387.0000    10.9559    11.1184   -42.4651     8.7010     0.0942     0.0548    85.6838     2.4891
  387.5000    10.9582    11.1213   -42.4622     8.7166     0.0944     0.0564    86.1649     2.4883
  388.0000    10.9604    11.1235   -42.6092     8.7023     0.0896     0.0549    86.7469     2.4951
  388.5000    10.8869    11.0490   -42.4563     8.7032     0.0833     0.0550    86.9026     2.4989
  389.0000    10.8892    11.0513   -42.4534     8.7039     0.0869     0.0551    85.8705     2.4997
  389.5000    10.8161    10.9767   -42.1519     8.6898     0.0854     0.0476    85.4300     2.5028
  390.0000    10.7436    10.8285   -41.8505     8.6905     0.0856     0.0416    86.6334     2.5073
  390.5000    10.6715    10.7560   -41.9976     8.6615     0.0853     0.0417    87.6855     2.5073
  391.0000    10.5999    10.6102   -41.9939     8.6622     0.0889     0.0403    88.1414     2.5005
  391.5000    10.4561    10.4664   -42.1403     8.6481     0.0997     0.0388    89.4916     2.4914
  392.0000     9.7580    10.2533   -42.8835     8.6488     0.0970     0.0374    91.8849     2.4841
  392.5000     8.6745    10.0445   -42.5821     8.6496     0.0949     0.0374    93.3841     2.4879
  393.0000     8.0390     9.8293   -42.5791     8.6503     0.0981     0.0405    92.2007     2.4804
  393.5000     7.6596     9.4420   -42.7453     8.6510     0.1113     0.0466    91.6135     2.4564
  394.0000     7.5030     8.9349   -43.3188     8.6518     0.1200     0.0527    91.3243     2.4377
  394.5000     7.5050     8.5730   -43.4659     8.6525     0.1254     0.0496    91.1819     2.4287
  395.0000     7.6114     8.3981   -43.3129     8.6534     0.1254     0.0468    90.1498     2.4272
  395.5000     7.6659     8.5766   -43.0115     8.6542     0.1227     0.0483    87.1780     2.4475
  396.0000     7.7746     8.7584   -42.7101     8.6549     0.1091     0.0484    91.0617     2.4814
