~VERSION INFORMATION
 VERS.                2.0:   CWLS LOG ASCII STANDARD - VERSION 2.0
 WRAP.                 NO:   ONE LINE PER DEPTH STEP
~WELL INFORMATION
#MNEM.UNIT      DATA TYPE    INFORMATION
#----------   ------------   ------------------------------
 STRT.F            2.0000:   START DEPTH
 STOP.F          518.0000:   STOP DEPTH
 STEP.F            0.5000:   STEP LENGTH
 NULL.          -999.2500:   NO VALUE
 COMP. LAWRENCE/ALLISON INC:   COMPANY
 WELL.    54-51 SX #10-10:   WELL
 FLD .             TEAPOT:   FIELD
 LOC .      S10 T38N R78W:   LOCATION
 CNTY.            NATRONA:   COUNTY
 STAT.            WYOMING:   STATE
 CTRY. UNITED STATES OF AMERICA:   COUNTRY
 SRVC.            Unknown:   SERVICE COMPANY
 DATE.        14-AUG-1984:   LOGDATE
 API .       490251098800:   API NUMBER
~CURVE INFORMATION
#MNEM.UNIT       API CODE    CURVE DESCRIPTION
#----------   ------------   ------------------------------
 DEPT.F                  :   
 CALD.IN     45 280 60 00:   CALIPER
 DEN .G/C3   45 350 01 00:   COMPENSATED BULK DENSTIY
 CORR.G/C3   45 356 01 00:   DENSITY CORRECTION
 CNC .DEC    42 890 03 00:   NEUTRON POROSITY SANDSTONE
 PORD.DEC    45 890 12 00:   POROSITY DENSITY SANDSTONE
 GRR .GAPI   07 310 01 00:   GAMMA RAY FROM RES. LOG.
 RFOC.OHMM   07 220 04 00:   RESISTIVITY FOCUSED LOG
 RILD.OHMM   07 120 46 00:   INDUCTION LOG DEEP RESISTIVITY
 RILM.OHMM   07 120 44 00:   INDUCTION LOG MEDIUM RESISTIVITY
 AC  .US/F   60 520 00 00:   ACOUSTIC SONIC
 SPR .MV     07 010 01 00:   SPONTANEOUS POTENTIAL
~PARAMETER INFORMATION
#MNEM.UNIT          VALUE    DESCRIPTION
#----------   ------------   ------------------------------
 PD  .                 GL:   PERMANENT DATUM
 EPD .F              5197:   ELEVATION PERMANENT DATUM
 LMF .                 GL:   LOG MEASURED FROM
 DMF .                 GL:   DRILLING MEASURED FROM
 EGL .F              5197:   GROUND LEVEL
 DATE.        14-AUG-1984:   RUN DATE
 RUN .                  1:   RUN NUMBER
 DD  .F               530:   DEPTH DRILLER
 DL  .F               520:   DEPTH LOGGER
 BLI .F               518:   BOTTOM LOG INTERVAL
 CS  .IN            9.625:   CASING SIZE
 CBD .F                40:   CASING BOTTOM DRILLER
 CBL .F                42:   CASING BOTTOM LOGGER
 BS  .IN            7.875:   BIT SIZE
 BSD .F               530:   BIT SIZE AT DEPTH
 DFT .          KCL WATER:   DRILLING FLUID TYPE
 MSS .           FLOWLINE:   MUD SAMPLE SOURCE
 RMS .OHMM            .19:   RESISTIVITY MUD SAMPLE
 MST .F                80:   MUD SAMPLE TEMPERATURE
 RMB .OHMM            .17:   RESISTIVITY MUD AT BHT
 BHT .F                90:   BOTTOM HOLE TEMPERATURE
 TCS .HRS               4:   TIME CURCULATED STOPPED
 MRT .F                90:   MAXIMUM RECORDED TEMPERATURE
 LUN .               6274:   LOGGING UNIT NUMBER
 LUL .               GLTE:   LOGGING UNIT LOCATION
 ENGI.             RAUTIO:   RECORDING ENGINEER
 WITN.              FIVAS:   WITNESSED BY
 CLNT.            A2DTECH:   CLIENT CODE
 ORIG.       2", 5" PRINT:   ORIGIN OF DATA
 UWI .       490251098800:   UNIQUE WELL ID
 DICO. A2D Technologies, Inc.:   DIGITIZING COMPANY
~OTHER INFORMATION
~A    DEPT    CALD        DEN       CORR        CNC       PORD         GRR      RFOC       RILD       RILM         AC        SPR   
# ...
  398.5000     8.2651     2.4879     0.0378     0.2506     0.1133    77.7070    12.0704    11.5855    10.7936    90.5383    70.4824
  399.0000     8.2640     2.4952     0.0405     0.2565     0.1108    76.6877    11.9187    11.3661    10.6297    90.7305    70.1660
  399.5000     8.2630     2.4854     0.0351     0.2623     0.1164    76.2716    11.7052    11.1510    10.4682    90.9229    69.8497
  400.0000     8.2619     2.4739     0.0299     0.2675     0.1208    76.1048    11.4957    10.9398    10.3250    91.0955    69.5332
  400.5000     8.2609     2.4700     0.0245     0.2595     0.1251    77.4227    11.2899    10.7327    10.3250    91.2877    69.2167
  401.0000     8.2598     2.4691     0.0231     0.2523     0.1250    81.5602    11.0880    10.2116     9.7710    91.4648    68.9042
  401.5000     8.2588     2.4685     0.0201     0.2522     0.1248    85.5212    10.8902     9.6810     9.3330    91.7940    68.6680
  402.0000     8.2577     2.4708     0.0171     0.2653     0.1238    87.3682    10.7135     8.9362     8.3038    92.5198    68.1652
  402.5000     8.2567     2.4739     0.0151     0.2735     0.1207    87.0619    10.6088     8.0176     7.4572    93.2455    67.5882
  403.0000     8.2556     2.4752     0.0130     0.2751     0.1208    86.6730    10.3576     7.1918     6.6998    93.9713    67.0098
  403.5000     8.2546     2.4720     0.0186     0.2771     0.1227    89.3355     9.7820     6.4503     6.0194    97.5700    66.4318
  404.0000     8.2535     2.4451     0.0248     0.2900     0.1382    95.5566     7.9368     5.8905     5.4014   101.6725    65.8524
  404.5000     8.2525     2.4135     0.0310     0.2932     0.1613   101.6620     5.9823     5.3795     5.0873   105.7750    65.3234
  405.0000     8.2522     2.3882     0.0372     0.2964     0.1757   107.6982     5.0911     5.6298     5.2922   107.3134    65.5722
  405.5000     8.2531     2.3826     0.0359     0.2879     0.1719   108.6074     5.0446     6.2126     5.6410   104.2351    65.8753
  406.0000     8.2539     2.4259     0.0298     0.2686     0.1540    96.1683     6.8534     6.8557     6.0139    99.6082    66.1770
  406.5000     8.2548     2.4606     0.0237     0.2511     0.1159    87.1089     9.8057     7.5653     6.5423    94.9813    66.4781
  407.0000     8.2556     2.4974     0.0176     0.2498     0.1087    85.2445    12.0695     8.3484     7.2947    90.3123    66.7788
  407.5000     8.2564     2.4997     0.0130     0.2484     0.1082    86.0544    11.8643     9.1162     8.1342    89.9007    67.0794
  408.0000     8.2573     2.5005     0.0130     0.2470     0.1078    86.6676    11.6256     9.6304     9.0028    90.0859    67.3827
  408.5000     8.2581     2.4944     0.0130     0.2469     0.1105    84.2667    11.3917    10.2336    10.3209    90.5953    67.5239
  409.0000     8.2590     2.4876     0.0123     0.2474     0.1133    82.0379    11.2146    10.5676    10.3052    90.4781    67.5800
  409.5000     8.2598     2.4808     0.0097     0.2479     0.1161    81.2327    11.3205    10.7435    10.2738    90.3547    67.6345
  410.0000     8.2606     2.4740     0.0072     0.2483     0.1217    81.7779    11.4246    10.9224    10.2348    90.2313    67.6806
  410.5000     8.2615     2.4673     0.0050     0.2488     0.1239    84.0690    11.5295    11.1047    10.4451    90.3193    67.8585
  411.0000     8.2623     2.4741     0.0102     0.2508     0.1197    86.4021    11.6342    11.3076    10.8013    90.5444    68.0640
  411.5000     8.2632     2.4848     0.0161     0.2530     0.1150    85.5174    11.8917    11.5389    11.1697    90.6973    68.2721
  412.0000     8.2640     2.4954     0.0140     0.2552     0.1104    84.1452    12.1509    11.7751    11.4378    90.2865    68.4770
  412.5000     8.2648     2.4939     0.0039     0.2555     0.1116    84.0030    12.4160    12.0155    11.6379    89.8372    68.6224
  413.0000     8.2657     2.4882    -0.0041     0.2540     0.1144    84.6464    12.6872    12.2607    11.8416    89.3885    68.7652
  413.5000     8.2665     2.4893     0.0049     0.2524     0.1135    85.3061    12.9641    12.5110    12.0487    88.9398    68.9083
  414.0000     8.2674     2.4921     0.0236     0.2482     0.1118    85.5707    13.2471    12.7664    12.2596    88.5148    69.0515
  414.5000     8.2682     2.4929     0.0337     0.2429     0.1101    85.5611    13.5363    13.0269    12.4741    88.1152    69.1946
  415.0000     8.2690     2.4866     0.0207     0.2376     0.1139    86.0154    13.7004    13.2928    12.6271    87.7157    69.3378
  415.5000     8.2699     2.4802     0.0083     0.2320     0.1185    86.3608    13.8300    13.4036    12.7636    87.3162    69.4809
  416.0000     8.2707     2.4754     0.0068     0.2308     0.1198    85.7653    13.9609    13.5405    12.9017    86.9745    69.6240
  416.5000     8.2716     2.4829     0.0065     0.2422     0.1146    84.1094    14.0929    13.6788    13.0412    86.8100    69.7673
  417.0000     8.2710     2.4907     0.0063     0.2461     0.1098    82.4692    14.2262    13.8186    13.1823    86.6632    69.9109
  417.5000     8.2683     2.4974     0.0060     0.2471     0.1086    80.8336    14.3608    13.9597    13.3249    86.5398    70.0568
  418.0000     8.2655     2.4882     0.0058     0.2480     0.1119    79.1893    14.5027    14.1080    13.4749    86.7551    70.1779
  418.5000     8.2627     2.4778     0.0055     0.2488     0.1221    78.7819    14.4605    14.1445    13.5704    87.0445    70.3007
  419.0000     8.2600     2.4716     0.0053     0.2476     0.1243    79.3333    14.4165    14.1829    13.6712    87.3365    70.4243
  419.5000     8.2572     2.4685     0.0050     0.2425     0.1257    79.8906    14.3701    14.2213    13.7726    87.5786    70.5470
  420.0000     8.2545     2.4680     0.0069     0.2377     0.1263    80.4696    14.4369    14.2596    13.8745    87.5081    70.6182
  420.5000     8.2517     2.4678     0.0095     0.2304     0.1251    81.2180    14.5272    14.2981    13.9772    87.3731    70.3728
  421.0000     8.2490     2.4701     0.0121     0.2252     0.1239    82.0864    14.6180    14.3368    14.1086    87.3909    70.1241
  421.5000     8.2462     2.4724     0.0147     0.2306     0.1227    81.5736    14.7095    14.3701    14.0373    87.5248    69.8693
  422.0000     8.2434     2.4725     0.0071     0.2440     0.1227    81.1020    14.7715    14.3124    13.9404    87.6405    69.7004
  422.5000     8.2407     2.4713    -0.0009     0.2414     0.1218    80.6326    14.5494    14.2332    13.8442    87.8325    69.5295
  423.0000     8.2379     2.4784     0.0054     0.2381     0.1190    80.1613    14.3701    14.1545    13.7486    88.0240    69.3575
  423.5000     8.2352     2.4836     0.0070     0.2424     0.1169    79.6482    14.3034    14.0763    13.6536    88.2156    69.1852
  424.0000     8.2324     2.4839     0.0034     0.2476     0.1188    78.1884    14.2388    13.9985    13.5593    88.2120    69.0129
  424.5000     8.2328     2.4784     0.0120     0.2412     0.1190    76.5585    14.2388    13.9211    13.4755    88.0099    68.8407
  425.0000     8.2335     2.4797     0.0220     0.2340     0.1171    76.7724    14.2400    13.7253    13.3747    87.7000    68.6676
  425.5000     8.2342     2.4865     0.0320     0.2347     0.1153    77.9416    14.2373    13.7881    13.2639    87.3583    68.4969
  426.0000     8.2349     2.4876     0.0285     0.2438     0.1147    79.0616    14.5223    13.8784    13.1540    87.1144    68.4490
  426.5000     8.2356     2.4840     0.0115     0.2495     0.1172    79.5825    14.7464    13.9694    13.0451    87.2969    68.3913
  427.0000     8.2363     2.4806    -0.0050     0.2446     0.1196    79.3739    14.4230    13.7876    12.9371    87.6163    68.3338
  427.5000     8.2370     2.4776    -0.0010     0.2404     0.1201    80.2605    14.0402    13.5743    12.8300    87.9356    68.2760
  428.0000     8.2377     2.4799     0.0137     0.2417     0.1179    82.5553    13.6676    13.3643    12.7531    88.3343    68.2181
  428.5000     8.2384     2.4885     0.0281     0.2436     0.1123    84.8997    13.4755    13.1576    12.5269    88.8279    68.1602
