~VERSION INFORMATION
 VERS.                2.0:   CWLS LOG ASCII STANDARD - VERSION 2.0
 WRAP.                 NO:   ONE LINE PER DEPTH STEP
~WELL INFORMATION
#MNEM.UNIT      DATA TYPE    INFORMATION
#----------   ------------   ------------------------------
 STRT.F            0.0000:   START DEPTH
 STOP.F          500.0000:   STOP DEPTH
 STEP.F            0.5000:   STEP LENGTH
 NULL.          -999.2500:   NO VALUE
 COMP. Fluor Daniel (NPOSR) Inc:   COMPANY
 WELL.  NPR ##3 72-4-X-10:   WELL
 FLD .             TEAPOT:   FIELD
 LOC .      S10 T38N R78W:   LOCATION
 CNTY.            NATRONA:   COUNTY
 STAT.            WYOMING:   STATE
 CTRY. UNITED STATES OF AMERICA:   COUNTRY
 SRVC.      Western Atlas:   SERVICE COMPANY
 DATE.        28-APR-1996:   LOGDATE
 API .       490252278000:   API NUMBER
~CURVE INFORMATION
#MNEM.UNIT       API CODE    CURVE DESCRIPTION
#----------   ------------   ------------------------------
 DEPT.F                  :   
 GRR .GAPI   07 310 01 00:   GAMMA RAY FROM RES. LOG.
 RILD.OHMM   07 120 46 00:   INDUCTION LOG DEEP RESISTIVITY
 RILM.OHMM   07 120 44 00:   INDUCTION LOG MEDIUM RESISTIVITY
~PARAMETER INFORMATION
#MNEM.UNIT          VALUE    DESCRIPTION
#----------   ------------   ------------------------------
 PD  .                 GL:   PERMANENT DATUM
 EPD .F            5165.5:   ELEVATION PERMANENT DATUM
 LMF .                 KB:   LOG MEASURED FROM
 DAPD.F                10:   FEET ABOVE PERMANENT DATUM
 DMF .                 KB:   DRILLING MEASURED FROM
 EKB .F            5175.5:   KELLING BUSHING
 EDF .F            5174.5:   DRILLING FLOOR
 EGL .F            5165.5:   GROUND LEVEL
 DATE.        28-APR-1996:   RUN DATE
 RUN .                  1:   RUN NUMBER
 DD  .F               505:   DEPTH DRILLER
 DL  .F               506:   DEPTH LOGGER
 BLI .F               497:   BOTTOM LOG INTERVAL
 CS  .IN            9.625:   CASING SIZE
 CBD .F                95:   CASING BOTTOM DRILLER
 CBL .F                96:   CASING BOTTOM LOGGER
 BS  .IN             8.75:   BIT SIZE
 BSD .F               505:   BIT SIZE AT DEPTH
 DFT .                AIR:   DRILLING FLUID TYPE
 MRT .F                80:   MAXIMUM RECORDED TEMPERATURE
 LUN .            HL-6530:   LOGGING UNIT NUMBER
 LUL .             CASPER:   LOGGING UNIT LOCATION
 ENGI.             RAUTIO:   RECORDING ENGINEER
 WITN.              HARDY:   WITNESSED BY
 CLNT.            A2DTECH:   CLIENT CODE
 ORIG.       2", 5" PRINT:   ORIGIN OF DATA
 UWI .       490252278000:   UNIQUE WELL ID
 DICO. A2D Technologies, Inc.:   DIGITIZING COMPANY
~OTHER INFORMATION
~A    DEPT      GRR      RILD       RILM   
# ...
  273.0000   145.4206     4.9656     5.1163
  273.5000   141.5384     4.7570     4.7192
  274.0000   142.5687     4.6207     4.3824
  274.5000   156.1489     4.4878     4.3830
  275.0000   160.6831     4.4227     4.3785
  275.5000   155.0055     4.4477     4.5968
  276.0000   148.6269     4.4640     4.9075
  276.5000   148.9046     4.7544     5.1849
  277.0000   150.3968     5.0929     5.4896
  277.5000   150.0182     5.4554     5.7992
  278.0000   147.6022     5.8437     6.1254
  278.5000   142.5863     6.1699     6.4699
  279.0000   138.8945     6.3446     6.7271
  279.5000   139.7706     6.5241     6.8027
  280.0000   140.6354     6.6970     6.8790
  280.5000   139.3465     6.8546     6.9563
  281.0000   137.5963     6.9135     7.0346
  281.5000   137.1864     6.9565     7.0970
  282.0000   137.8498     6.9998     7.1362
  282.5000   139.3940     7.0568     7.1753
  283.0000   139.5503     7.0816     7.2135
  283.5000   137.4494     7.0098     7.1652
  284.0000   137.3279     6.9518     7.1075
  284.5000   141.1288     6.8943     7.0503
  285.0000   141.7422     6.8373     6.9935
  285.5000   141.2307     6.7622     6.8882
  286.0000   141.1680     6.7814     6.9147
  286.5000   141.1620     6.8101     6.9454
  287.0000   140.8916     6.8264     6.9763
  287.5000   139.7172     6.7636     7.0072
  288.0000   138.0356     6.3354     7.0165
  288.5000   134.2256     5.7907     5.9331
  289.0000   130.1140     5.2153     5.2178
  289.5000   130.9493     4.7619     4.5888
  290.0000   137.7405     4.6262     4.1082
  290.5000   151.6927     4.5054     4.3448
  291.0000   160.6633     4.5205     4.6114
  291.5000   154.2079     4.5336     4.8941
  292.0000   139.9681     4.5472     5.1944
  292.5000   125.8848     4.7182     5.5193
  293.0000   123.2300     5.1686     5.9719
  293.5000   127.3754     5.6537     6.4715
  294.0000   133.2284     6.1526     6.8528
  294.5000   135.9359     6.6385     7.0816
  295.0000   133.2547     6.7622     7.0816
  295.5000   129.1703     6.7622     7.0235
  296.0000   129.4019     6.7622     6.9827
  296.5000   130.4918     6.8249     6.9520
  297.0000   131.5413     6.9409     7.3795
  297.5000   130.9341     7.3531     7.9250
  298.0000   126.9018     8.0017     8.5040
  298.5000   119.1684     8.6927     9.3509
  299.0000   108.9993     9.5570    10.5170
  299.5000    96.4608    10.6004    11.8181
  300.0000    83.9778    11.7534    13.6383
  300.5000    71.0819    13.1303    15.6871
  301.0000    64.7988    14.1511    16.1006
  301.5000    60.4857    15.1422    16.1006
  302.0000    60.5104    15.6609    15.8947
  302.5000    68.5132    15.4762    15.6156
  303.0000    76.9179    15.1372    15.3413
  303.5000    80.3583    14.8056    15.0719
  304.0000    79.5643    14.4789    14.6812
  304.5000    77.9812    14.2775    14.4127
  305.0000    76.8155    14.2807    14.6069
  305.5000    73.6948    14.3191    14.9506
  306.0000    71.1038    14.3859    15.3023
  306.5000    70.5022    14.4529    15.5171
  307.0000    69.4648    14.5463    15.4043
  307.5000    67.9344    14.5085    15.2927
  308.0000    67.3609    14.4473    15.1820
  308.5000    67.7573    14.4127    15.0720
  309.0000    70.4748    14.5358    14.9629
  309.5000    76.8441    14.6556    14.8173
  310.0000    81.6575    14.7743    15.0447
  310.5000    83.6809    14.9397    15.3985
  311.0000    81.2205    15.1997    15.7609
  311.5000    79.3889    15.4681    16.1318
  312.0000    78.2125    15.6609    16.5120
  312.5000    79.6556    16.1452    16.9028
  313.0000    79.3298    16.6000    17.4950
  313.5000    78.9423    17.0164    17.3132
  314.0000    78.5689    16.9537    17.2463
  314.5000    78.2819    16.8981    17.1750
  315.0000    79.0725    16.8609    17.2743
  315.5000    81.0974    17.0105    17.3832
  316.0000    82.0159    17.1750    17.4944
  316.5000    81.7963    17.0653    17.2871
  317.0000    82.3864    16.9216    17.0703
  317.5000    84.7782    16.8046    16.8568
  318.0000    85.3321    16.7061    16.6462
  318.5000    85.4899    16.4214    16.4382
  319.0000    86.6792    15.9527    16.2328
  319.5000    86.9365    15.8534    16.0310
  320.0000    86.2031    15.7309    15.9150
  320.5000    83.8222    15.6492    15.8296
  321.0000    82.9776    15.5969    15.7431
  321.5000    84.8183    15.5455    15.6572
  322.0000    89.2533    15.4941    15.5717
  322.5000    92.5614    15.4426    15.4867
  323.0000    93.9819    15.3913    15.4032
  323.5000    94.4632    15.2642    15.3174
  324.0000    95.2166    15.1013    15.2004
  324.5000    96.0250    14.9547    15.0827
  325.0000    96.8516    14.8538    14.9664
  325.5000    95.4732    14.7620    14.8491
  326.0000    92.6299    14.6812    14.8173
  326.5000    93.4029    14.5463    14.8861
  327.0000    95.1030    14.6538    14.9386
  327.5000    93.4301    14.7472    14.9913
  328.0000    90.1338    14.8428    15.0442
  328.5000    88.1769    14.9390    15.0974
  329.0000    89.1433    15.0358    15.1507
  329.5000    91.5366    15.1333    15.2041
  330.0000    96.3873    15.2330    15.2578
  330.5000    99.4467    15.2639    15.3117
  331.0000    99.8561    15.2945    15.3657
  331.5000    99.1215    15.3254    15.4199
  332.0000    98.3860    15.3569    15.4744
  332.5000    97.6439    15.3734    15.5171
  333.0000    97.0080    15.2673    15.3770
  333.5000    97.6122    15.1923    15.2630
  334.0000    99.7057    15.1175    15.1498
  334.5000    98.9882    15.0432    15.0375
  335.0000    94.6046    14.9691    14.9260
  335.5000    93.6704    14.8955    14.8153
  336.0000    95.4313    14.8222    14.7055
  336.5000    97.8080    14.7492    14.5965
  337.0000    99.9755    14.6766    14.4882
  337.5000   101.6172    14.6044    14.4127
  338.0000   103.0434    14.5325    14.5331
  338.5000   102.4350    14.4610    14.5210
  339.0000   100.7619    14.4127    14.5089
  339.5000    99.2863    14.4604    14.4969
  340.0000    99.0943    14.4970    14.4848
  340.5000    99.3940    14.5336    14.4728
  341.0000    99.6780    14.5702    14.4608
  341.5000   100.5257    14.6067    14.4488
  342.0000   102.9161    14.6429    14.4369
  342.5000   103.6468    14.6809    14.4251
  343.0000    98.9861    14.5764    14.4126
  343.5000    94.1448    14.4692    14.3620
  344.0000    90.7706    14.3634    14.3106
  344.5000    91.4657    14.2803    14.2594
  345.0000    93.8063    14.3609    14.2085
  345.5000    95.1247    14.4127    14.1578
  346.0000    96.1756    14.2555    14.1072
  346.5000    96.4299    14.1285    14.0568
  347.0000    96.8242    14.0027    14.0066
  347.5000    97.7598    13.8780    13.9567
  348.0000    96.8331    13.7627    13.8856
  348.5000    95.4024    14.1423    14.0086
  349.0000    95.4841    14.5265    14.1579
  349.5000    97.8023    14.9211    15.0452
  350.0000    98.7892    15.3265    16.3750
  350.5000    91.3493    15.7428    17.9861
  351.0000    83.2603    15.9815    18.4911
  351.5000    74.9528    16.0385    18.3822
  352.0000    68.4810    16.1006    17.7543
  352.5000    68.2902    15.7638    16.7011
  353.0000    73.1371    15.3058    15.7104
  353.5000    79.5091    14.9230    14.7784
  354.0000    85.9611    14.4134    13.9017
  354.5000    90.9277    13.9212    13.3725
  355.0000    94.9118    13.4419    13.1169
  355.5000   100.6067    13.1368    12.9018
  356.0000   101.7530    13.1116    12.9018
  356.5000    98.8682    13.0913    13.0214
  357.0000    96.0538    13.0696    12.9312
  357.5000    96.0810    13.0480    12.8648
  358.0000    97.0131    13.0268    12.7987
  358.5000    96.8246    12.9830    12.7709
  359.0000    94.6454    12.8790    12.6971
  359.5000    92.1450    12.7754    12.6238
  360.0000    90.5353    12.6729    12.5509
  360.5000    90.9673    12.5712    12.4784
  361.0000    93.7360    12.4862    12.4064
  361.5000    97.9943    12.4062    12.3348
  362.0000   102.1025    12.3266    12.2635
  362.5000   102.9208    12.2475    12.1927
  363.0000   102.8432    12.1690    12.1223
  363.5000   102.5794    12.0909    12.0523
