~VERSION INFORMATION
 VERS.                2.0:   CWLS LOG ASCII STANDARD - VERSION 2.0
 WRAP.                 NO:   ONE LINE PER DEPTH STEP
~WELL INFORMATION
#MNEM.UNIT      DATA TYPE    INFORMATION
#----------   ------------   ------------------------------
 STRT.F           36.0000:   START DEPTH
 STOP.F          521.0000:   STOP DEPTH
 STEP.F            0.5000:   STEP LENGTH
 NULL.          -999.2500:   NO VALUE
 COMP. FENIX & SCISSON INC:   COMPANY
 WELL.        NPR-3 #36-3:   WELL
 FLD .             TEAPOT:   FIELD
 LOC .       S3 T38N R78W:   LOCATION
 CNTY.            NATRONA:   COUNTY
 STAT.            WYOMING:   STATE
 CTRY. UNITED STATES OF AMERICA:   COUNTRY
 SRVC.            Unknown:   SERVICE COMPANY
 DATE.        09-JUL-1978:   LOGDATE
 API .       490251066200:   API NUMBER
~CURVE INFORMATION
#MNEM.UNIT       API CODE    CURVE DESCRIPTION
#----------   ------------   ------------------------------
 DEPT.F                  :   
 CALD.IN     45 280 60 00:   CALIPER FROM DENSITY LOG
 GRD .GAPI   45 310 01 00:   GAMMA RAY FROM DENSITY LOG
 CORR.G/C3   45 356 01 00:   DENSITY CORRECTION
 DPHI.DEC    45 890 12 00:   DENSITY POROSITY SANDSTONE
 RHOB.G/C3   45 350 01 00:   BULK DENSITY
 SPR .MV     07 010 01 00:   SPONTANEOUS POTENTIAL
 ILD .OHMM   07 120 46 00:   INDUCTION LOG DEEP
 SN  .OHMM   07 040 16 00:   SHORT NORMAL 16"
~PARAMETER INFORMATION
#MNEM.UNIT          VALUE    DESCRIPTION
#----------   ------------   ------------------------------
 PD  .                 GL:   PERMANENT DATUM
 EPD .F              5216:   ELEVATION PERMANENT DATUM
 LMF .                 KB:   LOG MEASURED FROM
 DAPD.F                 4:   FEET ABOVE PERMANENT DATUM
 DMF .                 KB:   DRILLING MEASURED FROM
 EKB .F              5220:   KELLING BUSHING
 EGL .F              5216:   GROUND LEVEL
 DATE.        09-JUL-1978:   RUN DATE
 RUN .                  1:   RUN NUMBER
 DD  .F               520:   DEPTH DRILLER
 DL  .F               524:   DEPTH LOGGER
 BLI .F               519:   BOTTOM LOG INTERVAL
 TLI .F                50:   TOP LOG INTERVAL
 CS  .IN            8.625:   CASING SIZE
 CBD .F                40:   CASING BOTTOM DRILLER
 BS  .IN            7.875:   BIT SIZE
 BSD .F               520:   BIT SIZE AT DEPTH
 DFT .                KCL:   DRILLING FLUID TYPE
 DFD .                8.6:   DRILLING FLUID DENSITY
 DFV .                 32:   DRILLING FLUID VISCOSITY
 DFPH.                9.5:   DRILLING FLUID PH
 DFL .               14.4:   DRILLING FLUID LOSS
 MSS .           FLOWLINE:   MUD SAMPLE SOURCE
 RMS .OHMM           0.24:   RESISTIVITY MUD SAMPLE
 MST .F                70:   MUD SAMPLE TEMPERATURE
 RMF .OHMM           0.24:   RESISTIVITY MUD FILTRATE SAMPLE
 MFST.F                70:   MUD FILTRATE SAMPLE TEMPERATURE
 RMC .OHMM           0.42:   RESISTIVITY MUD CAKE
 MCST.F                72:   MUD CAKE SAMPLE TEMPERATURE
 MFSS.               MEAS:   MUD FILTRATE SAMPLE SOURCE
 BHT .F                80:   BOTTOM HOLE TEMPERATURE
 TCS .HRS               3:   TIME CURCULATED STOPPED
 MRT .F                80:   MAXIMUM RECORDED TEMPERATURE
 LUN .               2958:   LOGGING UNIT NUMBER
 LUL .               CASP:   LOGGING UNIT LOCATION
 ENGI.             MILLER:   RECORDING ENGINEER
 WITN.           MCGINLEY:   WITNESSED BY
 CLNT.            A2DTECH:   CLIENT CODE
 ORIG.           5" PRINT:   ORIGIN OF DATA
 UWI .       490251066200:   UNIQUE WELL ID
 DICO. A2D Technologies, Inc.:   DIGITIZING COMPANY
~OTHER INFORMATION
~A   DEPT     CALD        GRD       CORR       DPHI       RHOB        SPR        ILD         SN   
# ...
  481.5000     8.0034    73.2923     0.0077     0.1524     2.4650   -23.3883    11.6948    10.7868
  482.0000     8.0039    75.8346     0.0033     0.1587     2.4651   -24.2879    11.6909    10.7832
  482.5000     8.0045    75.9903    -0.0011     0.1536     2.4725   -24.7376    11.6869    10.7796
  483.0000     8.0051    75.7010     0.0020     0.1529     2.4687   -24.7376    11.6025    10.7016
  483.5000     8.0057    75.5608     0.0035     0.1517     2.4726   -24.5877    11.4394    10.6950
  484.0000     8.0063    78.4034     0.0036     0.1493     2.4741   -24.5877    11.4356    10.6205
  484.5000     8.0069    79.7513     0.0022     0.1520     2.4637   -24.5877    11.4317    10.6161
  485.0000     8.0075    77.9740    -0.0052     0.1597     2.4525   -24.5877    11.3492    10.6126
  485.5000     8.0080    72.7667    -0.0082     0.1630     2.4548   -24.5877    11.1896    10.5358
  486.0000     7.9939    66.6652    -0.0066     0.1564     2.4668   -25.0375    11.1088    10.4596
  486.5000     7.9645    66.2248    -0.0047     0.1558     2.4654   -25.0375    10.8772    10.3122
  487.0000     7.9502    69.6635    -0.0019     0.1556     2.4676   -25.0375    10.7234    10.2376
  487.5000     7.9360    70.2807    -0.0019     0.1522     2.4766   -25.0375    10.4999    10.1635
  488.0000     7.9366    69.6811    -0.0003     0.1464     2.4700   -25.0375    10.2810    10.0203
  488.5000     7.9223    69.8571     0.0013     0.1458     2.4775   -25.1874     9.9974     9.8784
  489.0000     7.9228    72.8803     0.0014     0.1491     2.4759   -25.1874     9.7890     9.6720
  489.5000     7.9383    74.1788     0.0029     0.1511     2.4731   -25.3598     9.5849     9.4700
  490.0000     7.9538    74.0383     0.0015     0.1466     2.4813   -26.2369     9.4502     9.2722
  490.5000     7.9693    74.0493     0.0016     0.1490     2.4627   -26.3868     9.3174     9.0785
  491.0000     7.9997    74.2072    -0.0014     0.1591     2.4612   -26.2369     9.1231     8.7665
  491.5000     8.0153    74.6631    -0.0073     0.1708     2.4209   -26.2369     8.8055     8.5242
  492.0000     8.0010    77.6525    -0.0087     0.1827     2.4179   -26.2369     8.4879     8.1655
  492.5000     7.9569    81.0891    -0.0011     0.1833     2.4172   -26.3868     7.8280     7.6244
  493.0000     7.9540    85.8669     0.0109     0.1847     2.4150   -26.3868     7.2027     7.0628
  493.5000     7.9432    92.5821     0.0156     0.1922     2.4009   -26.8366     6.6274     6.4525
  494.0000     7.9287    94.6774     0.0257     0.1835     2.4293   -26.8366     6.2688     6.4059
  494.5000     7.9593    93.9410     0.0606     0.1505     2.4951   -26.0870     6.2241     6.5836
  495.0000     8.0642    89.4789     0.0472     0.1280     2.5131   -25.0375     6.3518     7.0533
  495.5000     7.8412    78.9065     0.0188     0.1192     2.5236   -24.2879     6.4380     7.4526
  496.0000     7.8865    73.1031     0.0174     0.1252     2.5167   -24.1379     6.6620     7.9911
  496.5000     7.8424    73.1119     0.0010     0.1362     2.4979   -23.9880     7.0389     8.6519
  497.0000     7.7683    73.5678    -0.0005     0.1352     2.4893   -23.6593     7.5153     9.4208
  497.5000     7.7392    77.7869     0.0041     0.1313     2.5021   -23.6773     9.0191     9.7494
  498.0000     7.8292    79.5469     0.0057     0.1307     2.4969   -23.5401    10.0700    10.0199
  498.5000     7.8447    79.6289     0.0058     0.1373     2.4932   -22.9497    11.0127    10.2978
  499.0000     7.8280    81.6530     0.0058     0.1429     2.4850   -22.3626    11.0862    10.4388
  499.5000     7.7864    81.9599     0.0074     0.1480     2.4790   -22.0745    10.9295    10.5801
  500.0000     7.8465    76.7523     0.0075     0.1530     2.4649   -21.9377    10.6851    10.6597
  500.5000     7.7724    77.3558     0.0150     0.1545     2.4694   -21.9521    10.0567    10.6963
  501.0000     7.7728    81.8341     0.0376     0.1518     2.4732   -21.9667    10.1264    10.7261
  501.5000     7.7880    82.5866     0.0498     0.1590     2.4516   -21.8333    10.2673    10.9490
  502.0000     7.8033    82.7430     0.0686     0.1512     2.4830   -21.8477    10.4892    11.1017
  502.5000     7.8633    82.4523     0.1349     0.1365     2.5272   -21.8622    11.0781    11.4136
  503.0000     8.4598    80.3733     0.1472     0.1353     2.5438   -21.5704    11.3101    11.7341
  503.5000     8.4452    79.4846     0.0769     0.1413     2.4899   -21.5885    11.5470    11.9805
  504.0000     8.3264    81.4312     0.0425     0.1377     2.5012   -21.4516    12.1192    12.1475
  504.5000     8.1454    81.7348     0.0246     0.1353     2.4935   -21.4697    12.7198    12.0637
  505.0000     7.9980    81.5946     0.0008     0.1442     2.4862   -21.4841    12.3632    11.9805
  505.5000     7.9680    81.4533     0.0068     0.1424     2.4902   -21.4985    12.2879    11.9805
  506.0000     7.9528    81.4606     0.0129     0.1367     2.4977   -21.5130    12.6322    12.0637
  506.5000     7.9258    82.8093     0.0055     0.1446     2.4828   -21.5280    13.3501    12.2344
  507.0000     7.9113    84.4560     0.0010     0.1482     2.4731   -21.5455    13.8194    12.3170
  507.5000     7.9118    83.9543     0.0041     0.1516     2.4709   -21.7112    14.0117    12.3170
  508.0000     7.9121    77.6951     0.0117     0.1552     2.4613   -21.7256    14.0117    12.3170
  508.5000     7.9125    74.3169     0.0118     0.1599     2.4569   -21.7401    13.8194    12.3170
  509.0000     7.9278    73.3099     0.0133     0.1641     2.4532   -21.7549    13.6298    12.3170
  509.5000     7.9729    72.5721     0.0149     0.1587     2.4659   -21.9238    13.4427    12.3170
  510.0000     8.0030    72.5795     0.0195     0.1447     2.4795   -21.9383    13.3501    12.3170
  510.5000     8.0630    72.7359     0.0028     0.1524     2.4705   -21.9527    13.4427    12.3170
  511.0000     7.8547    75.2767    -0.0014     0.1530     2.4713   -21.9671    13.4427    12.3170
  511.5000     7.8849    76.0293     0.0002     0.1494     2.4774   -21.9819    13.4427    12.3170
  512.0000     7.8406    76.3347     0.0003     0.1443     2.4879   -21.9996    13.4427    12.3170
  512.5000     7.7366    78.8756     0.0004     0.1415     2.4887   -22.0141    13.4427    12.4026
  513.0000     7.6774    75.6042     0.0020     0.1369     2.4895   -21.8736    13.5359    12.4026
  513.5000     7.6777    76.5058     0.0095     0.1335     2.4949   -21.8916    13.5359    12.4026
  514.0000     7.6781    72.3596     0.0156     0.1323     2.5031   -21.9062    13.5359    12.4026
  514.5000     7.6785  -999.2500     0.0141     0.1305     2.5070   -21.9241    13.5359    12.4026
  515.0000     7.6788  -999.2500     0.0157     0.1284     2.5124   -21.9386    13.4427    12.4026
  515.5000     7.6792  -999.2500     0.0158     0.1272     2.5077   -21.9530    13.3501    12.4026
  516.0000     7.6796  -999.2500     0.0159     0.1346     2.4981   -21.9674    13.2582    12.3170
  516.5000     7.6632  -999.2500     0.0159     0.1331     2.5048   -21.9819    13.2582    12.3170
  517.0000     7.6207  -999.2500     0.0175     0.1286     2.5146   -21.9999    12.8968    12.2320
  517.5000     7.6211  -999.2500     0.0176     0.1232     2.5177   -22.0144    12.4589    12.0637
  518.0000     7.6215  -999.2500     0.0160     0.1211     2.5192   -22.0288    12.1192    12.0637
  518.5000  -999.2500  -999.2500     0.0083     0.1282     2.5088   -22.0432    11.9529    12.0637
  519.0000  -999.2500  -999.2500    -0.0016     0.1374     2.4962   -22.0577    11.9529    12.0637
  519.5000  -999.2500  -999.2500    -0.0001     0.1408     2.4917  -999.2500  -999.2500  -999.2500
  520.0000  -999.2500  -999.2500     0.0045     0.1312     2.5052  -999.2500  -999.2500  -999.2500
  520.5000  -999.2500  -999.2500     0.0091     0.1258     2.5135  -999.2500  -999.2500  -999.2500
  521.0000  -999.2500  -999.2500     0.0048     0.1282     2.5090  -999.2500  -999.2500  -999.2500
