~VERSION INFORMATION
 VERS.                2.0:   CWLS LOG ASCII STANDARD - VERSION 2.0
 WRAP.                 NO:   ONE LINE PER DEPTH STEP
~WELL INFORMATION
#MNEM.UNIT      DATA TYPE    INFORMATION
#----------   ------------   ------------------------------
 STRT.F           40.0000:   START DEPTH
 STOP.F          596.0000:   STOP DEPTH
 STEP.F            0.5000:   STEP LENGTH
 NULL.          -999.2500:   NO VALUE
 COMP. FENIX & SCISSON INC:   COMPANY
 WELL. SX-15 N.O.R. #3 #51-15:   WELL
 FLD .             TEAPOT:   FIELD
 LOC .      S15 T38N R78W:   LOCATION
 CNTY.            NATRONA:   COUNTY
 STAT.            WYOMING:   STATE
 CTRY. UNITED STATES OF AMERICA:   COUNTRY
 SRVC.              Welex:   SERVICE COMPANY
 DATE.        12-MAR-1977:   LOGDATE
 API .       490251031100:   API NUMBER
~CURVE INFORMATION
#MNEM.UNIT       API CODE    CURVE DESCRIPTION
#----------   ------------   ------------------------------
 DEPT.F                  :   
 GRD .GAPI   45 310 01 00:   GAMMA RAY FROM DENSITY LOG
 CALD.IN     45 280 60 00:   CALIPER FROM DENSITY LOG
 CORR.G/C3   45 356 01 00:   DENSITY CORRECTION
 RHOB.G/C3   45 350 01 00:   BULK DENSITY
 DPOR.DEC    45 890 12 00:   DENSITY POROSITY SANDSTONE
 SGRD.OHMM   07 220 05 00:   SHALLOW GUARD RESISTIVITY
 ILD .OHMM   07 120 46 00:   INDUCTION LOG DEEP
 ILM .OHMM   07 120 44 00:   INDUCTION LOG MEDIUM
 SPR .MV     07 010 01 00:   SPONTANEOUS POTENTIAL
~PARAMETER INFORMATION
#MNEM.UNIT          VALUE    DESCRIPTION
#----------   ------------   ------------------------------
 PD  .                 GL:   PERMANENT DATUM
 EPD .F              5221:   ELEVATION PERMANENT DATUM
 LMF .                 GL:   LOG MEASURED FROM
 DMF .                 GL:   DRILLING MEASURED FROM
 EGL .F              5221:   GROUND LEVEL
 DATE.            3-12-77:   RUN DATE
 RUN .                  1:   RUN NUMBER
 DD  .F               600:   DEPTH DRILLER
 DL  .F               597:   DEPTH LOGGER
 BLI .F               596:   BOTTOM LOG INTERVAL
 TLI .F                45:   TOP LOG INTERVAL
 CS  .IN            8.625:   CASING SIZE
 CBD .F                46:   CASING BOTTOM DRILLER
 CBL .F                45:   CASING BOTTOM LOGGER
 BS  .IN            7.875:   BIT SIZE
 BSD .F               600:   BIT SIZE AT DEPTH
 DFT .            KCL-MUD:   DRILLING FLUID TYPE
 DFD .                8.9:   DRILLING FLUID DENSITY
 DFV .                 34:   DRILLING FLUID VISCOSITY
 MSS .            MUD PIT:   MUD SAMPLE SOURCE
 RMS .OHMM            .68:   RESISTIVITY MUD SAMPLE
 MST .F                40:   MUD SAMPLE TEMPERATURE
 RMF .OHMM            .57:   RESISTIVITY MUD FILTRATE SAMPLE
 MFST.F                40:   MUD FILTRATE SAMPLE TEMPERATURE
 RMC .OHMM            .78:   RESISTIVITY MUD CAKE
 MCST.F                40:   MUD CAKE SAMPLE TEMPERATURE
 MFSS.           MEASURED:   MUD FILTRATE SAMPLE SOURCE
 MCSS.           MEASURED:   MUD CAKE SAMPLE SOURCE
 RMB .OHMM            .41:   RESISTIVITY MUD AT BHT
 BHT .F                65:   BOTTOM HOLE TEMPERATURE
 TCS .HRS               3:   TIME CURCULATED STOPPED
 MRT .F                65:   MAXIMUM RECORDED TEMPERATURE
 LUN .                716:   LOGGING UNIT NUMBER
 LUL .             VERNAL:   LOGGING UNIT LOCATION
 ENGI.           CALLAHAN:   RECORDING ENGINEER
 WITN.         STUEBINGER:   WITNESSED BY
 CLNT.            A2DTECH:   CLIENT CODE
 ORIG.       2", 5" PRINT:   ORIGIN OF DATA
 UWI .       490251031100:   UNIQUE WELL ID
 DICO. A2D Technologies, Inc.:   DIGITIZING COMPANY
~OTHER INFORMATION
~A   DEPT       GRD        CALD     CORR       RHOB       DPOR       SGRD        ILD        ILM        SPR   
# ...
  295.5000   126.1803     7.9232     0.0399     2.4880     0.1083    12.1077     8.4480     9.5514   -63.7725
  296.0000   125.6170     7.9239     0.0363     2.4827     0.1110    12.0189     8.3467     9.3329   -63.7725
  296.5000   125.0481     7.9245     0.0319     2.4622     0.1169    11.9307     8.2536     9.2116   -63.7725
  297.0000   124.7315     7.9252     0.0273     2.4507     0.1228    11.8432     8.2153     9.1056   -63.7725
  297.5000   125.0251     7.9259     0.0207     2.4415     0.1288    11.7563     8.1715     9.0008   -63.7725
  298.0000   123.4060     7.9266     0.0166     2.4411     0.1328    11.6701     8.1280     8.8274   -63.7725
  298.5000   121.5257     7.9273     0.0214     2.4411     0.1276    11.5322     8.0847     8.6255   -63.7725
  299.0000   121.1135     7.9279     0.0262     2.4412     0.1284    11.2684     8.0416     8.4282   -63.7725
  299.5000   121.1742     7.9286     0.0312     2.4412     0.1293    10.8345     7.7639     8.2354   -63.7725
  300.0000   121.0623     7.9293     0.0350     2.4384     0.1338    10.3433     7.3976     7.9492   -63.7725
  300.5000   120.3750     7.9300     0.0234     2.4130     0.1420     9.8743     7.0487     7.4545   -63.7725
  301.0000   119.7082     7.9307     0.0130     2.3908     0.1542     9.4267     6.7144     6.9931   -63.7725
  301.5000   119.0417     7.9313     0.0029     2.3771     0.1681     8.9723     6.3799     6.5591   -63.7725
  302.0000   118.3738     7.9320    -0.0056     2.3634     0.1782     8.3590     5.9588     6.1519   -63.7725
  302.5000   117.7101     7.9327     0.0035     2.3468     0.1839     7.7876     5.4310     5.7719   -63.7725
  303.0000   117.2183     7.9334     0.0126     2.3518     0.1869     7.2552     4.9490     5.2887   -63.7725
  303.5000   117.2523     7.9336     0.0217     2.3570     0.1897     6.7384     4.5097     4.7564   -63.7725
  304.0000   117.7077     7.9326     0.0185     2.3349     0.1928     5.9193     4.1094     4.2771   -63.7725
  304.5000   118.1519     7.9316     0.0143     2.3108     0.2036     5.1690     3.7448     3.8461   -63.7725
  305.0000   118.5919     7.9306     0.0101     2.2869     0.2187     4.5139     3.4124     3.4586   -63.7725
  305.5000   119.0240     7.9296     0.0113     2.2623     0.2350     3.9418     3.1061     3.1061   -63.7727
  306.0000   119.4484     7.9286     0.0174     2.2422     0.2463     3.4377     3.0757     3.0884   -63.7743
  306.5000   120.3127     7.9276     0.0382     2.2708     0.2347     3.6945     3.0452     3.0780   -63.6934
  307.0000   122.6275     7.9266     0.0415     2.2989     0.2191     4.0335     3.0217     3.4084   -63.5916
  307.5000   124.8861     7.9256     0.0441     2.3463     0.1992     4.9840     3.1602     3.6669   -63.4893
  308.0000   127.1299     7.9246     0.0392     2.4056     0.1644     6.9915     3.2808     3.9451   -63.3872
  308.5000   129.3708     7.9236     0.0335     2.4020     0.1493     6.1747     3.4564     4.2853   -63.2851
  309.0000   131.4588     7.9226     0.0278     2.4113     0.1451     5.9773     3.8424     4.8046   -63.1830
  309.5000   132.1781     7.9216     0.0221     2.4216     0.1409     8.5416     4.2677     5.3880   -63.0809
  310.0000   132.8408     7.9207     0.0187     2.4319     0.1367     9.4778     4.7404     5.7782   -62.9788
  310.5000   133.5055     7.9197     0.0213     2.4399     0.1325     9.3908     5.2655     6.0299   -62.8767
  311.0000   134.1716     7.9187     0.0237     2.4354     0.1304     9.1343     5.6346     6.2347   -62.7744
  311.5000   134.8680     7.9177     0.0261     2.4340     0.1392     8.8969     5.9276     6.4469   -62.6718
  312.0000   135.0563     7.9167     0.0286     2.4417     0.1396     8.6442     6.1449     6.5521   -62.5780
  312.5000   134.8005     7.9157     0.0310     2.4493     0.1280     8.8504     6.1449     6.4836   -62.6068
  313.0000   134.5363     7.9147     0.0335     2.4500     0.1227     9.0885     6.1449     6.4645   -62.6388
  313.5000   134.2766     7.9137     0.0334     2.4415     0.1266     9.3331     6.1449     6.4514   -62.6703
  314.0000   134.0135     7.9127     0.0306     2.4334     0.1356     9.6541     6.0468     6.4384   -62.7018
  314.5000   133.7048     7.9117     0.0280     2.4252     0.1400     8.8731     5.8623     6.2338   -62.7330
  315.0000   132.9519     7.9107     0.0292     2.4228     0.1400     7.4976     5.6037     5.8700   -62.7658
  315.5000   132.2189     7.9097     0.0524     2.4354     0.1317     5.5013     5.6295     5.5274   -62.7228
  316.0000   131.4881     7.9087     0.0684     2.4534     0.1090     7.3180     5.6773     5.2252   -62.6495
  316.5000   131.3588     7.9077     0.0565     2.4536     0.1112     8.2536     5.7080     5.1102   -62.5751
  317.0000   131.6790     7.9067     0.0539     2.4522     0.1154     7.1790     5.4901     5.4010   -62.5006
  317.5000   132.0038     7.9057     0.0554     2.4679     0.1183     6.2018     5.3022     5.6251   -62.4263
  318.0000   132.2301     7.9047     0.0542     2.4898     0.1084     9.2192     5.3344     5.8142   -62.3519
  318.5000   132.0188     7.9037     0.0403     2.5051     0.1046     8.9764     5.4775     6.0526   -62.2775
  319.0000   131.8167     7.9027     0.0402     2.5018     0.1054     8.5676     5.6978     6.3038   -62.2032
  319.5000   131.6205     7.9017     0.0402     2.4989     0.1060     8.8880     5.9269     6.5636   -62.1288
  320.0000   131.5423     7.9008     0.0375     2.4961     0.1067     9.4602     6.1652     7.0149   -62.0544
  320.5000   131.9648     7.8998     0.0344     2.4932     0.1074    10.0649     6.4132     7.5339   -61.9800
  321.0000   132.3764     7.8988     0.0372     2.4902     0.1081    10.4769     6.6711     7.7908   -61.9057
  321.5000   132.8002     7.8978     0.0401     2.4895     0.1087    10.7672     6.9274     7.9045   -61.8313
  322.0000   132.3575     7.8968     0.0374     2.4894     0.1094    11.0655     7.1666     8.0229   -61.7569
  322.5000   131.8870     7.8958     0.0347     2.4864     0.1121    11.2923     7.4035     8.1430   -61.6826
  323.0000   132.5477     7.8948     0.0321     2.4748     0.1150    11.2149     7.6483     8.2629   -61.6080
  323.5000   133.2257     7.8938     0.0313     2.4730     0.1179    11.1538     7.8815     8.4776   -61.5507
  324.0000   133.9046     7.8950     0.0360     2.4710     0.1177    11.0929     7.7801     8.7987   -61.5048
  324.5000   134.5844     7.8962     0.0353     2.4642     0.1167    10.9051     7.6848     8.9677   -61.4591
  325.0000   135.2674     7.8974     0.0296     2.4577     0.1206    10.7043     7.5904     8.3686   -61.4135
  325.5000   136.3317     7.8986     0.0235     2.4497     0.1251    10.5072     7.4714     8.2536   -61.3679
  326.0000   138.0042     7.8999     0.0302     2.4595     0.1218    10.3137     7.2889     8.2536   -61.3223
  326.5000   139.6614     7.9011     0.0400     2.4723     0.1150    10.1110     7.1117     8.2536   -61.2766
  327.0000   140.5634     7.9023     0.0375     2.4684     0.1135     9.9263     6.9274     8.2536   -61.2310
  327.5000   140.2086     7.9035     0.0331     2.4627     0.1198     9.7332     6.6435     8.0689   -61.1854
  328.0000   139.9059     7.9047     0.0268     2.4571     0.1272     9.5433     6.3522     7.5451   -61.1397
  328.5000   140.5505     7.9059     0.0205     2.4513     0.1223     9.3570     6.0731     7.2914   -61.0941
  329.0000   140.4413     7.9071     0.0172     2.4451     0.1264     9.1747     5.8059     7.2072   -61.0485
  329.5000   140.1312     7.9083     0.0219     2.4455     0.1352     8.9964     5.5537     7.1240   -61.0028
  330.0000   140.5268     7.9096     0.0241     2.4461     0.1295     8.7820     5.3533     6.9315   -60.9572
  330.5000   141.0478     7.9108     0.0240     2.4416     0.1248     8.3785     6.3127     6.2725   -60.9115
  331.0000   140.3817     7.9120     0.0312     2.4364     0.1314     7.4286     6.2080     5.6762   -60.8661
  331.5000   139.6539     7.9132     0.0412     2.4402     0.1344     6.5948     6.0600     5.1365   -60.8212
