~VERSION INFORMATION
 VERS.                2.0:   CWLS LOG ASCII STANDARD - VERSION 2.0
 WRAP.                 NO:   ONE LINE PER DEPTH STEP
~WELL INFORMATION
#MNEM.UNIT      DATA TYPE    INFORMATION
#----------   ------------   ------------------------------
 STRT.F          714.0000:   START DEPTH
 STOP.F         1640.0000:   STOP DEPTH
 STEP.F            0.5000:   STEP LENGTH
 NULL.          -999.2500:   NO VALUE
 COMP. BROWN JOHN E&C INC:   COMPANY
 WELL. NPR 3 STX-15 #83-15:   WELL
 FLD .             TEAPOT:   FIELD
 LOC .      S15 T38N R78W:   LOCATION
 CNTY.            NATRONA:   COUNTY
 STAT.            WYOMING:   STATE
 CTRY. UNITED STATES OF AMERICA:   COUNTRY
 SRVC.            Unknown:   SERVICE COMPANY
 DATE.        30-AUG-1991:   LOGDATE
 API .       490251111300:   API NUMBER
~CURVE INFORMATION
#MNEM.UNIT       API CODE    CURVE DESCRIPTION
#----------   ------------   ------------------------------
 DEPT.F                  :   
 TGAS.UNITS  91 830 01 00:   TOTAL GAS FROM HOTWIRE
 C1  .VF     91 831 01 00:   METHANE
 C2  .VF     91 832 01 00:   ETHANE
 C3  .VF     91 833 01 00:   PROPANE
 C4  .VF     91 834 01 00:   BUTANE
 ROP .MIN/FT 91 810 01 00:   RAT OF DRILLING PENETRATION
~PARAMETER INFORMATION
#MNEM.UNIT          VALUE    DESCRIPTION
#----------   ------------   ------------------------------
 EKB .F              5265:   KELLING BUSHING
 EGL .F              5255:   GROUND LEVEL
 DATE.            5-30-91:   RUN DATE
 DD  .F              1626:   DEPTH DRILLER
 TCS .HRS            1200:   TIME CURCULATED STOPPED
 TLAB.HRS            1815:   TIME LOGGER AT BOTTOM
 ENGI.               HUSK:   RECORDING ENGINEER
 WITN.              TOWER:   WITNESSED BY
 CLNT.            A2DTECH:   CLIENT CODE
 ORIG.           5" PRINT:   ORIGIN OF DATA
 UWI .       490251111300:   UNIQUE WELL ID
 DICO. A2D Technologies, Inc.:   DIGITIZING COMPANY
~OTHER INFORMATION
~A   DEPT     TGAS         C1         C2         C3         C4          ROP 
# ...
 1026.0000   685.1130   414.1026  -999.2500     7.8372     1.3750     1.0094
 1026.5000   685.0364   414.1026  -999.2500     7.8330     1.3750     1.0094
 1027.0000   684.9598   414.1026  -999.2500     7.8289     1.3750     1.0094
 1027.5000   684.8832   414.1026  -999.2500     7.8247     1.3750     1.0094
 1028.0000   684.8066   414.1026  -999.2500     7.8205     1.3750     1.0094
 1028.5000   684.7300   414.1026  -999.2500     7.8164     1.3750     1.0094
 1029.0000   684.6534   414.1026  -999.2500     7.8122     1.3750     1.0094
 1029.5000   684.5768   414.1026  -999.2500     7.8080     1.3750     1.0094
 1030.0000   684.5002   414.1026  -999.2500     7.8039     1.3750     1.0094
 1030.5000   684.4236   414.1026  -999.2500     7.7997     1.3750     1.0094
 1031.0000   684.3470   414.1026  -999.2500     7.7955     1.3750     1.0094
 1031.5000   684.2704   414.1026  -999.2500     7.7913     1.3750     1.0094
 1032.0000   684.1938   414.1026  -999.2500     7.7872     1.3750     1.0094
 1032.5000   684.1172   414.1026  -999.2500     7.7830     1.3750     1.0094
 1033.0000   684.0405   414.1026  -999.2500     7.7789     1.3750     1.0094
 1033.5000   683.9639   414.1026  -999.2500     7.7747     1.3750     1.0094
 1034.0000   683.8873   414.1026  -999.2500     7.7705     1.3750     1.0094
 1034.5000   683.8107   414.1026  -999.2500     7.7663     1.3750     1.0094
 1035.0000   683.7341   414.1026  -999.2500     7.7622     1.3750     1.0094
 1035.5000   683.6575   414.1026  -999.2500     7.7580     1.3750     1.0094
 1036.0000   683.5809   414.1026  -999.2500     7.7538     1.3750     1.0094
 1036.5000   683.5043   414.1026  -999.2500     7.7497     1.3750     1.0094
 1037.0000   683.4277   414.1026  -999.2500     7.7455     1.3750     1.0094
 1037.5000   683.3511   414.1026  -999.2500     7.7413     1.3750     1.0094
 1038.0000   683.2745   414.1026  -999.2500     7.7372     1.3729     1.0094
 1038.5000   683.1979   414.1026  -999.2500     7.7330     1.3654     1.0094
 1039.0000   683.1213   414.1026  -999.2500     7.7288     1.3579     1.0094
 1039.5000   683.0447   414.1026  -999.2500     7.7246     1.3505     1.0094
 1040.0000   682.9681   414.1026  -999.2500     7.7205     1.3431     1.0094
 1040.5000   682.8915   414.1026  -999.2500     7.7163     1.3356     1.0094
 1041.0000   682.8148   414.1026  -999.2500     7.7122     1.3282     1.0094
 1041.5000   682.7382   414.1026  -999.2500     7.7080     1.3208     1.0094
 1042.0000   682.6616   414.1026  -999.2500     7.7038     1.3133     1.0094
 1042.5000   682.5850   414.1026  -999.2500     7.6996     1.3059     1.0094
 1043.0000   682.5084   414.1026  -999.2500     7.6955     1.2985     1.0094
 1043.5000   682.4318   414.1026  -999.2500     7.6913     1.2911     1.0094
 1044.0000   682.3552   414.1026  -999.2500     7.6871     1.2836     1.0094
 1044.5000   682.2786   414.1026  -999.2500     7.6831     1.2762     1.0094
 1045.0000   682.2020   414.1025  -999.2500     7.6829     1.2688     1.0094
 1045.5000   682.1254   414.1024  -999.2500     7.6829     1.2613     1.0094
 1046.0000   682.0488   414.1026  -999.2500     7.6829     1.2539     1.0088
 1046.5000   681.9722   414.1143  -999.2500     7.6829     1.2465     1.0076
 1047.0000   681.8956   414.1741  -999.2500     7.6829     1.2391     1.0064
 1047.5000   681.8190   414.2326  -999.2500     7.6829     1.2316     1.0052
 1048.0000   681.7423   414.2910  -999.2500     7.6829     1.2242     1.0040
 1048.5000   681.6657   414.3493  -999.2500     7.6829     1.2168     1.0028
 1049.0000   681.5891   414.4077  -999.2500     7.6829     1.2093     1.0016
 1049.5000   681.5125   414.4661  -999.2500     7.6829     1.2019     1.0005
 1050.0000   681.4359   414.5244  -999.2500     7.6829     1.1945     0.9992
 1050.5000   681.3593   414.5828  -999.2500     7.6829     1.1870     0.9981
 1051.0000   681.2827   414.6412  -999.2500     7.6829     1.1796     0.9969
 1051.5000   681.2061   414.6996  -999.2500     7.6829     1.1722     0.9957
 1052.0000   681.1295   414.7579  -999.2500     7.6829     1.1648     0.9945
 1052.5000   681.0529   414.8163  -999.2500     7.6829     1.1573     0.9933
 1053.0000   680.9763   414.8747  -999.2500     7.6829     1.1499     0.9921
 1053.5000   680.8997   414.9330  -999.2500     7.6829     1.1425     0.9909
 1054.0000   680.8231   414.9914  -999.2500     7.6829     1.1350     0.9897
 1054.5000   680.7465   415.0498  -999.2500     7.6829     1.1279     0.9885
 1055.0000   680.6699   415.1082  -999.2500     7.6829     1.0997     0.9873
 1055.5000   680.5932   415.1665  -999.2500     7.6829     1.0615     0.9862
 1056.0000   680.5166   415.2249  -999.2500     7.6829     1.0229     0.9847
 1056.5000   680.4407   415.2833  -999.2500     7.6829     0.9843     0.9674
 1057.0000   680.3657   415.3416  -999.2500     7.6829     0.9457     0.9074
 1057.5000   680.2906   415.4000  -999.2500     7.6829     0.9071     0.8481
 1058.0000   680.2154   415.4584  -999.2500     7.6829     0.8685     0.7881
 1058.5000   680.1403   415.5168  -999.2500     7.6829     0.8299     0.7718
 1059.0000   680.0651   415.5751  -999.2500     7.6829     0.7914     0.7722
 1059.5000   679.9899   415.6335  -999.2500     7.6829     0.7528     0.7730
 1060.0000   679.9147   415.6919  -999.2500     7.6829     0.7142     0.7737
 1060.5000   679.8396   415.7502  -999.2500     7.6829     0.6757     0.7743
 1061.0000   679.7644   415.8086  -999.2500     7.6829     0.6359     0.7750
 1061.5000   679.6893   415.8670  -999.2500     7.6830     0.6577     0.7757
 1062.0000   679.6141   415.9254  -999.2500     7.6793     0.7034     0.7764
 1062.5000   679.5389   415.9837  -999.2500     7.6742     0.7499     0.7771
 1063.0000   679.4637   416.0421  -999.2500     7.6690     0.7965     0.7777
 1063.5000   679.3886   416.1005  -999.2500     7.6638     0.8430     0.7784
 1064.0000   679.3134   416.1588  -999.2500     7.6587     0.8895     0.7791
 1064.5000   679.2382   416.2172  -999.2500     7.6535     0.9360     0.7797
 1065.0000   679.1631   416.2756  -999.2500     7.6484     0.9825     0.7804
 1065.5000   679.0879   416.3340  -999.2500     7.6432     1.0290     0.7811
 1066.0000   679.0128   416.3923  -999.2500     7.6381     1.0755     0.7818
 1066.5000   678.9376   416.4507  -999.2500     7.6329     1.1220     0.7825
 1067.0000   678.8624   416.5090  -999.2500     7.6278     1.1685     0.7831
 1067.5000   678.7872   416.5673  -999.2500     7.6226     1.2149     0.7838
 1068.0000   678.7121   416.6261  -999.2500     7.6175     1.2615     0.7845
 1068.5000   678.6369   416.7117  -999.2500     7.6123     1.3079     0.7852
 1069.0000   678.5618   416.8674  -999.2500     7.6071     1.3544     0.7858
 1069.5000   678.4866   417.0219  -999.2500     7.6020     1.4009     0.7865
 1070.0000   678.4114   417.1764  -999.2500     7.5968     1.4474     0.7872
 1070.5000   678.3362   417.3309  -999.2500     7.5917     1.4940     0.7879
 1071.0000   678.2611   417.4853  -999.2500     7.5865     1.5406     0.7886
 1071.5000   678.1859   417.6398  -999.2500     7.5814     1.5870     0.7892
 1072.0000   678.1108   417.7943  -999.2500     7.5762     1.6228     0.7899
 1072.5000   678.0356   417.9487  -999.2500     7.5711     1.6026     0.7906
 1073.0000   677.9604   418.1032  -999.2500     7.5659     1.5833     0.7912
 1073.5000   677.8853   418.2577  -999.2500     7.5607     1.5641     0.7919
 1074.0000   677.8101   418.4121  -999.2500     7.5556     1.5450     0.7926
 1074.5000   677.7349   418.5666  -999.2500     7.5504     1.5259     0.7933
 1075.0000   677.6597   418.7210  -999.2500     7.5453     1.5067     0.7940
 1075.5000   677.5846   418.8755  -999.2500     7.5401     1.4876     0.7946
 1076.0000   677.5094   419.0300  -999.2500     7.5349     1.4685     0.7953
 1076.5000   677.4343   419.1847  -999.2500     7.5298     1.4493     0.7960
 1077.0000   677.3591   419.3276  -999.2500     7.5246     1.4302     0.7967
 1077.5000   677.2839   419.4662  -999.2500     7.5195     1.4110     0.7973
