~VERSION INFORMATION
 VERS.                2.0:   CWLS LOG ASCII STANDARD - VERSION 2.0
 WRAP.                 NO:   ONE LINE PER DEPTH STEP
~WELL INFORMATION
#MNEM.UNIT      DATA TYPE    INFORMATION
#----------   ------------   ------------------------------
 STRT.F          550.0000:   START DEPTH
 STOP.F         2078.5000:   STOP DEPTH
 STEP.F            0.5000:   STEP LENGTH
 NULL.          -999.2500:   NO VALUE
 COMP. BROWN JOHN E&C INC:   COMPANY
 WELL. 58-61 STX-10 #58-10:   WELL
 FLD .             TEAPOT:   FIELD
 LOC .      S10 T38N R78W:   LOCATION
 CNTY.            NATRONA:   COUNTY
 STAT.            WYOMING:   STATE
 CTRY. UNITED STATES OF AMERICA:   COUNTRY
 SRVC.            Unknown:   SERVICE COMPANY
 DATE.        07-SEP-1991:   LOGDATE
 API .       490251108000:   API NUMBER
~CURVE INFORMATION
#MNEM.UNIT       API CODE    CURVE DESCRIPTION
#----------   ------------   ------------------------------
 DEPT.F                  :   
 ROP .MIN/FT 91 810 01 00:   RAT OF DRILLING PENETRATION
 TGAS.UNITS  91 830 01 00:   TOTAL GAS FROM HOTWIRE
~PARAMETER INFORMATION
#MNEM.UNIT          VALUE    DESCRIPTION
#----------   ------------   ------------------------------
 EKB .F              5216:   KELLING BUSHING
 EGL .F              5206:   GROUND LEVEL
 DATE.             9-7-91:   RUN DATE
 DD  .F              2079:   DEPTH DRILLER
 TCS .HRS            1815:   TIME CURCULATED STOPPED
 TLAB.HRS            1930:   TIME LOGGER AT BOTTOM
 ENGI.         HUSK/TOWER:   RECORDING ENGINEER
 WITN.             HENDRY:   WITNESSED BY
 CLNT.            A2DTECH:   CLIENT CODE
 ORIG.           5" PRINT:   ORIGIN OF DATA
 UWI .       490251108000:   UNIQUE WELL ID
 DICO. A2D Technologies, Inc.:   DIGITIZING COMPANY
~OTHER INFORMATION
~A   DEPT        ROP       TGAS 
# ...
 1886.5000     0.5665     4.4863
 1887.0000     0.5559     4.4782
 1887.5000     0.5436     4.4702
 1888.0000     0.5302     4.4621
 1888.5000     0.5168     4.4540
 1889.0000     0.5034     4.4460
 1889.5000     0.4901     4.4379
 1890.0000     0.4767     4.4298
 1890.5000     0.4633     4.4218
 1891.0000     0.4500     4.4137
 1891.5000     0.4366     4.4057
 1892.0000     0.4233     4.3976
 1892.5000     0.4090     4.3895
 1893.0000     0.3953     4.3815
 1893.5000     0.4264     4.3734
 1894.0000     0.4715     4.3653
 1894.5000     0.5169     4.3573
 1895.0000     0.5621     4.3492
 1895.5000     0.6077     4.3411
 1896.0000     0.6545     4.3331
 1896.5000     0.6666     4.3250
 1897.0000     0.6771     4.3169
 1897.5000     0.6878     4.3089
 1898.0000     0.6989     4.3008
 1898.5000     0.7167     4.2927
 1899.0000     0.7551     4.2847
 1899.5000     0.7927     4.2766
 1900.0000     0.8306     4.2686
 1900.5000     0.8729     4.2605
 1901.0000     0.9145     4.2517
 1901.5000     0.9559     4.2674
 1902.0000     0.9974     4.2918
 1902.5000     1.0206     4.3165
 1903.0000     1.0287     4.3411
 1903.5000     1.0367     4.3658
 1904.0000     1.0444     4.3904
 1904.5000     1.0522     4.4150
 1905.0000     1.0601     4.4397
 1905.5000     1.0679     4.4643
 1906.0000     1.0782     4.4889
 1906.5000     1.0979     4.5135
 1907.0000     1.1175     4.5382
 1907.5000     1.1379     4.5628
 1908.0000     1.1454     4.5874
 1908.5000     1.1481     4.6121
 1909.0000     1.1507     4.6367
 1909.5000     1.1533     4.6613
 1910.0000     1.1559     4.6860
 1910.5000     1.1602     4.7106
 1911.0000     1.1649     4.7352
 1911.5000     1.1695     4.7599
 1912.0000     1.1739     4.7845
 1912.5000     1.1785     4.8091
 1913.0000     1.1598     4.8337
 1913.5000     1.1267     4.8584
 1914.0000     1.0937     4.8830
 1914.5000     1.0355     4.9076
 1915.0000     0.9646     4.9323
 1915.5000     0.8936     4.9569
 1916.0000     0.8226     4.9815
 1916.5000     0.7515     5.0062
 1917.0000     0.6804     5.0308
 1917.5000     0.6683     5.0554
 1918.0000     0.6834     5.0800
 1918.5000     0.7154     5.1047
 1919.0000     0.7826     5.1293
 1919.5000     0.8798     5.1539
 1920.0000     0.9771     5.1786
 1920.5000     1.0740     5.2033
 1921.0000     1.1709     5.2280
 1921.5000     1.2675     5.2495
 1922.0000     1.3598     5.2410
 1922.5000     1.3300     5.2323
 1923.0000     1.2655     5.2239
 1923.5000     1.2008     5.2155
 1924.0000     1.1362     5.2071
 1924.5000     1.0715     5.1986
 1925.0000     1.0065     5.1902
 1925.5000     0.9528     5.1818
 1926.0000     0.9063     5.1734
 1926.5000     0.8596     5.1650
 1927.0000     0.8128     5.1565
 1927.5000     0.7658     5.1481
 1928.0000     0.7190     5.1397
 1928.5000     0.7723     5.1313
 1929.0000     0.8451     5.1229
 1929.5000     0.9191     5.1145
 1930.0000     0.9547     5.1060
 1930.5000     0.8792     5.0976
 1931.0000     0.7487     5.0892
 1931.5000     0.6176     5.0808
 1932.0000     0.4844     5.0724
 1932.5000     0.4421     5.0639
 1933.0000     0.4228     5.0555
 1933.5000     0.4043     5.0471
 1934.0000     0.3857     5.0387
 1934.5000     0.3671     5.0303
 1935.0000     0.3475     5.0219
 1935.5000     0.3581     5.0134
 1936.0000     0.4307     5.0050
 1936.5000     0.5128     4.9966
 1937.0000     0.5958     4.9882
 1937.5000     0.6785     4.9798
 1938.0000     0.6810     4.9713
 1938.5000     0.6791     4.9629
 1939.0000     0.6777     4.9545
 1939.5000     0.6764     4.9461
 1940.0000     0.6751     4.9377
 1940.5000     0.6738     4.9292
 1941.0000     0.6725     4.9208
 1941.5000     0.6711     4.9124
 1942.0000     0.6698     4.9040
 1942.5000     0.6743     4.8956
 1943.0000     0.7157     4.8871
 1943.5000     0.7567     4.8787
 1944.0000     0.7612     4.8703
 1944.5000     0.6901     4.8619
 1945.0000     0.6215     4.8535
 1945.5000     0.5536     4.8451
 1946.0000     0.5057     4.8366
 1946.5000     0.5632     4.8282
 1947.0000     0.6720     4.8198
 1947.5000     0.7803     4.8114
 1948.0000     0.8600     4.8030
 1948.5000     0.7708     4.7945
 1949.0000     0.6512     4.7861
 1949.5000     0.5442     4.7777
 1950.0000     0.5438     4.7693
 1950.5000     0.5726     4.7609
 1951.0000     0.6836     4.7526
 1951.5000     0.7912     4.7320
 1952.0000     0.8983     4.7067
 1952.5000     0.9922     4.6813
 1953.0000     1.0069     4.6560
 1953.5000     1.0035     4.6306
 1954.0000     0.9597     4.6052
 1954.5000     0.8930     4.5799
 1955.0000     0.8267     4.5546
 1955.5000     0.7603     4.5292
 1956.0000     0.6938     4.5038
 1956.5000     0.6267     4.4785
 1957.0000     0.5586     4.4531
 1957.5000     0.5561     4.4278
 1958.0000     0.5897     4.4024
 1958.5000     0.6262     4.3771
 1959.0000     0.6632     4.3517
 1959.5000     0.7035     4.3264
 1960.0000     0.6932     4.3010
 1960.5000     0.6659     4.2757
 1961.0000     0.6417     4.2503
 1961.5000     0.6185     4.2249
 1962.0000     0.6805     4.1996
 1962.5000     0.7467     4.1742
 1963.0000     0.8131     4.1489
 1963.5000     0.8789     4.1235
 1964.0000     0.8724     4.0982
 1964.5000     0.8441     4.0728
 1965.0000     0.8164     4.0475
 1965.5000     0.7839     4.0221
 1966.0000     0.7678     3.9968
 1966.5000     0.7707     3.9714
 1967.0000     0.8551     3.9461
 1967.5000     0.9442     3.9207
 1968.0000     1.0219     3.8953
 1968.5000     1.0046     3.8700
 1969.0000     0.9861     3.8447
 1969.5000     0.9671     3.8193
 1970.0000     0.9464     3.7939
 1970.5000     0.9653     3.7686
 1971.0000     0.9879     3.7450
 1971.5000     1.0078     3.7267
 1972.0000     0.9783     3.7083
 1972.5000     0.9431     3.6899
 1973.0000     0.9075     3.6715
 1973.5000     0.8723     3.6531
 1974.0000     0.8474     3.6347
 1974.5000     0.8736     3.6164
 1975.0000     0.8988     3.5980
 1975.5000     0.9242     3.5796
 1976.0000     0.9547     3.5612
 1976.5000     0.9439     3.5428
 1977.0000     0.9228     3.5244
 1977.5000     0.9019     3.5060
 1978.0000     0.8810     3.4876
 1978.5000     0.8602     3.4692
 1979.0000     0.8395     3.4509
 1979.5000     0.8165     3.4325
 1980.0000     0.8316     3.4141
 1980.5000     0.8711     3.3957
 1981.0000     0.9113     3.3773
 1981.5000     0.9515     3.3589
 1982.0000     0.9917     3.3405
 1982.5000     1.0318     3.3221
 1983.0000     1.0720     3.3037
 1983.5000     1.1128     3.2854
 1984.0000     1.1289     3.2670
 1984.5000     1.1334     3.2486
 1985.0000     1.1034     3.2302
 1985.5000     1.0517     3.2118
 1986.0000     0.9983     3.1934
 1986.5000     0.9451     3.1750
 1987.0000     0.8919     3.1566
 1987.5000     0.8391     3.1382
 1988.0000     0.8367     3.1198
 1988.5000     0.8610     3.1014
 1989.0000     0.8851     3.0831
 1989.5000     0.9092     3.0647
 1990.0000     0.9298     3.0463
 1990.5000     0.8551     3.0279
 1991.0000     0.7580     3.0095
 1991.5000     0.6610     2.9911
 1992.0000     0.5647     2.9727
 1992.5000     0.4919     2.9543
 1993.0000     0.4940     2.9359
 1993.5000     0.5267     2.9176
 1994.0000     0.5961     2.8992
 1994.5000     0.6654     2.8808
 1995.0000     0.7349     2.8624
 1995.5000     0.8043     2.8440
 1996.0000     0.8738     2.8256
 1996.5000     0.9432     2.8072
 1997.0000     1.0127     2.7888
 1997.5000     1.0822     2.7704
 1998.0000     1.1428     2.7520
 1998.5000     1.1566     2.7336
 1999.0000     1.1687     2.7153
 1999.5000     1.1689     2.6969
 2000.0000     1.1599     2.6785
 2000.5000     1.1499     2.6601
 2001.0000     1.1400     2.6417
 2001.5000     1.1302     2.6233
 2002.0000     1.1180     2.6049
 2002.5000     1.0910     2.5865
 2003.0000     1.0672     2.5681
 2003.5000     1.0439     2.5498
 2004.0000     1.0207     2.5314
 2004.5000     0.9975     2.5130
 2005.0000     0.9740     2.4946
 2005.5000     0.9423     2.4762
 2006.0000     0.8793     2.4578
 2006.5000     0.8164     2.4394
 2007.0000     0.8070     2.4210
 2007.5000     0.8627     2.4026
