~VERSION INFORMATION
 VERS.                2.0:   CWLS LOG ASCII STANDARD - VERSION 2.0
 WRAP.                 NO:   ONE LINE PER DEPTH STEP
~WELL INFORMATION
#MNEM.UNIT      DATA TYPE    INFORMATION
#----------   ------------   ------------------------------
 STRT.F           85.5000:   START DEPTH
 STOP.F         1080.5000:   STOP DEPTH
 STEP.F            0.5000:   STEP LENGTH
 NULL.          -999.2500:   NO VALUE
 COMP.         U.S.  NAVY:   COMPANY
 WELL.  N.P.R. #3 #67-S-2:   WELL
 FLD .             TEAPOT:   FIELD
 LOC .       S2 T38N R78W:   LOCATION
 CNTY.            NATRONA:   COUNTY
 STAT.            WYOMING:   STATE
 CTRY. UNITED STATES OF AMERICA:   COUNTRY
 SRVC.       Schlumberger:   SERVICE COMPANY
 DATE.        20-JUL-1964:   LOGDATE
 API .       490250639700:   API NUMBER
~CURVE INFORMATION
#MNEM.UNIT       API CODE    CURVE DESCRIPTION
#----------   ------------   ------------------------------
 DEPT.F                  :   
 GR  .GAPI   30 310 01 00:   GAMMA RAY
 DT  .US/F   60 520 33 00:   INTERVAL TRANSIT TIME
 SPR .MV     06 010 01 00:   SPONTANEOUS POTENTIAL
 CILD.MMHO   06 110 46 00:   CONDUCTIVITY INDUCTION LOG DEEP
 ASN .OHMM   06 041 16 00:   AMPLIFIED SHORT NORMAL 16"
 ILD .OHMM   06 120 46 00:   INDUCTION LOG DEEP
~PARAMETER INFORMATION
#MNEM.UNIT          VALUE    DESCRIPTION
#----------   ------------   ------------------------------
 PD  .                 GL:   PERMANENT DATUM
 EPD .F              5207:   ELEVATION PERMANENT DATUM
 LMF .                 KB:   LOG MEASURED FROM
 DAPD.F                 5:   FEET ABOVE PERMANENT DATUM
 DMF .                 KB:   DRILLING MEASURED FROM
 EKB .F              5212:   KELLING BUSHING
 EGL .F              5207:   GROUND LEVEL
 DATE.          7-20-1964:   RUN DATE
 RUN .                  1:   RUN NUMBER
 DD  .F              1080:   DEPTH DRILLER
 DL  .F              1081:   DEPTH LOGGER
 BLI .F              1080:   BOTTOM LOG INTERVAL
 TLI .F                86:   TOP LOG INTERVAL
 CS  .IN            8.625:   CASING SIZE
 CBD .F                10:   CASING BOTTOM DRILLER
 BS  .IN             6.75:   BIT SIZE
 BSD .F              1080:   BIT SIZE AT DEPTH
 DFT .            GEL-OIL:   DRILLING FLUID TYPE
 DFD .                9.5:   DRILLING FLUID DENSITY
 DFV .                 43:   DRILLING FLUID VISCOSITY
 MSS .           FLOWLINE:   MUD SAMPLE SOURCE
 RMS .OHMM           1.85:   RESISTIVITY MUD SAMPLE
 MST .F                83:   MUD SAMPLE TEMPERATURE
 RMF .OHMM           1.29:   RESISTIVITY MUD FILTRATE SAMPLE
 MFST.F                83:   MUD FILTRATE SAMPLE TEMPERATURE
 RMC .OHMM           2.49:   RESISTIVITY MUD CAKE
 MCST.F                83:   MUD CAKE SAMPLE TEMPERATURE
 MFSS.                 FP:   MUD FILTRATE SAMPLE SOURCE
 MCSS.                 FP:   MUD CAKE SAMPLE SOURCE
 TCS .HRS               2:   TIME CURCULATED STOPPED
 LUN .               4507:   LOGGING UNIT NUMBER
 LUL .               CSPR:   LOGGING UNIT LOCATION
 ENGI.             DANNER:   RECORDING ENGINEER
 WITN.          JORGENSEN:   WITNESSED BY
 CLNT.            A2DTECH:   CLIENT CODE
 ORIG.           2" PRINT:   ORIGIN OF DATA
 UWI .       490250639700:   UNIQUE WELL ID
 DICO. A2D Technologies, Inc.:   DIGITIZING COMPANY
~OTHER INFORMATION
~A   DEPT       GR         DT        SPR       CILD        ASN        ILD   
# ...
  605.5000    55.8482   104.2850   -22.4270   155.4573     7.3245     6.5475
  606.0000    53.5556   103.5612   -22.2507   152.3941     7.3875     6.6233
  606.5000    51.3377   102.8374   -22.0757   149.9004     7.4499     6.6235
  607.0000    48.0150   102.1021   -21.8994   150.4227     7.5130     6.6233
  607.5000    44.6469   102.0320   -21.7554   150.8632     7.5755     6.5789
  608.0000    48.9124   102.0963   -21.8392   151.3037     7.6386     6.5411
  608.5000    47.9199   101.0389   -21.9118   151.7441     7.6591     6.5034
  609.0000    56.7866   100.2002   -21.9830   153.3083     7.5485     6.4657
  609.5000    60.1590   100.2002   -22.0555   155.4428     7.4531     6.4279
  610.0000    51.6632   100.2002   -22.1268   157.5774     7.3583     6.3903
  610.5000    44.1718   100.2002   -22.1269   159.7119     7.2630     6.3524
  611.0000    49.3548   100.6068   -22.0870   161.8465     7.1815     6.3149
  611.5000    59.4846   101.4959   -22.0479   163.9810     7.1572     6.2769
  612.0000    59.0313   102.0986   -22.0081   165.8367     7.1362     6.2395
  612.5000    58.1651   102.3311   -21.9688   164.5561     7.1150     6.2250
  613.0000    56.9685   102.5044   -21.9291   163.4234     7.0939     6.2254
  613.5000    55.8075   102.4894   -21.8897   162.2908     7.0728     6.3878
  614.0000    54.6722   102.4390   -21.8500   159.6248     7.0516     6.5335
  614.5000    54.2997   102.2378   -21.8105   155.9910     7.0305     6.6784
  615.0000    54.8911   101.6336   -21.7709   152.3572     7.1833     6.8240
  615.5000    46.9142   101.0294   -21.7725   148.7234     7.4509     6.9691
  616.0000    48.7541   100.4252   -21.8018   145.0896     7.6483     7.1146
  616.5000    50.3132    99.8210   -21.8311   141.4558     7.7983     7.2597
  617.0000    44.8053    99.2168   -21.8604   139.9402     7.9478     7.3075
  617.5000    45.3707    98.6126   -21.8897   139.9402     8.0976     7.2856
  618.0000    52.9924    98.2057   -21.9189   140.7513     8.2367     7.2635
  618.5000    60.1142    98.2297   -21.9482   142.1671     8.2566     7.2416
  619.0000    54.9739    98.2537   -21.9774   143.5828     8.2368     7.2208
  619.5000    52.1731    98.2777   -22.0068   144.9203     8.1286     7.0109
  620.0000    51.5346    98.4115   -22.0359   149.4522     8.0269     6.8126
  620.5000    53.3120    99.2248   -22.0653   153.7467     7.9247     6.6146
  621.0000    43.6140   100.0382   -22.0944   157.8685     7.7796     6.4164
  621.5000    48.3904   100.3017   -22.1238   159.4148     7.5968     6.3250
  622.0000    51.8139   100.1338   -22.1521   160.8988     7.4207     6.2565
  622.5000    45.3233   100.6763   -22.1160   162.3885     7.4001     6.2516
  623.0000    48.0137   101.4334   -22.0807   163.8416     7.2709     6.3011
  623.5000    41.8991   101.5038   -22.0457   162.9782     7.1434     6.3617
  624.0000    46.5929   101.3449   -22.0105   162.1258     7.0824     6.4324
  624.5000    44.8372   101.0202   -21.9755   161.2789     7.1884     6.5032
  625.0000    52.0102   100.5989   -21.9402   159.3602     7.2948     6.5739
  625.5000    48.3738   100.1793   -21.9052   156.3895     7.3999     6.6447
  626.0000    53.3170   100.1307   -21.8700   153.4148     7.5061     6.7154
  626.5000    49.2731   100.1712   -21.8349   150.4437     7.5894     6.7862
  627.0000    46.3792   100.0881   -21.7998   148.4574     7.6505     6.8569
  627.5000    48.7799    99.5846   -21.7647   147.5341     7.7109     6.9276
  628.0000    50.3302    99.4790   -21.7296   146.6081     7.7718     6.9983
  628.5000    47.6500    99.5996   -21.6945   145.6847     7.8324     7.0690
  629.0000    45.6708   100.2115   -21.6593   144.7588     7.8932     7.1397
  629.5000    50.0180   100.7990   -21.6242   143.8351     7.9539     7.2105
  630.0000    49.3151   101.3864   -21.5891   142.9084     8.0176     7.2812
  630.5000    49.9062   101.8018   -21.5539   141.9323     8.0365     7.3204
  631.0000    51.4211   101.3845   -21.5188   143.0126     8.0562     7.2912
  631.5000    52.9318   100.9929   -21.4837   144.1561     8.0761     7.2251
  632.0000    51.7987   100.6013   -21.4485   145.2996     8.0972     7.1591
  632.5000    46.1341   100.2931   -21.4134   146.4431     8.0790     7.0931
  633.0000    51.1929   100.0718   -21.3782   147.5866     8.0591     7.0271
  633.5000    58.1104    99.8497   -21.3813   148.7301     8.0378     6.9610
  634.0000    63.5606    99.7898   -21.4377   149.8736     7.9199     6.8950
  634.5000    68.7018   100.0968   -21.4942   151.0171     7.7912     6.8290
  635.0000    73.5102   100.4047   -21.5506   152.1606     7.6623     6.7630
  635.5000    72.5963   100.7104   -21.6071   153.3041     7.5201     6.6969
  636.0000    72.4678   101.0161   -21.6635   154.4476     7.4806     6.6310
  636.5000    68.0634   101.3218   -21.7201   155.5911     7.4367     6.5649
  637.0000    62.4461   101.2358   -21.7360   156.8725     7.3926     6.5314
  637.5000    68.2183   101.0067   -21.6867   156.2915     7.3487     6.5501
  638.0000    62.1892   101.0975   -21.6373   155.6308     7.3210     6.5693
  638.5000    58.8960   101.4482   -21.5879   154.9701     7.3900     6.5879
  639.0000    57.0804   101.4595   -21.5385   154.3094     7.4692     6.6071
  639.5000    58.7436   101.2077   -21.4890   153.6487     7.5485     6.6255
  640.0000    61.9843   101.1962   -21.4397   152.9881     7.6277     6.6448
  640.5000    63.1609   101.4014   -21.3902   152.3274     7.7070     6.6632
  641.0000    57.4465   101.1886   -21.3578   151.6667     7.7646     6.6826
  641.5000    53.7034   100.9728   -21.3967   151.0060     7.7804     6.7010
  642.0000    53.2407   100.7570   -21.4433   150.3453     7.7963     6.7236
  642.5000    54.5845   100.5413   -21.4898   149.6846     7.8121     6.8226
  643.0000    62.5287   100.9089   -21.5364   148.9044     7.8281     6.8231
  643.5000    58.8013   101.4124   -21.5828   147.8967     7.8616     6.8745
  644.0000    51.1811   101.7366   -21.6294   146.6664     7.9340     6.9384
  644.5000    54.3750   101.4489   -21.6758   145.4362     8.0061     7.0013
  645.0000    56.1044   101.1612   -21.7224   144.2059     8.0786     7.0652
  645.5000    61.4304   101.1734   -21.7689   142.9756     8.1505     7.1282
  646.0000    59.9976   101.5440   -21.8154   141.7453     8.2231     7.1920
  646.5000    58.6792   100.9147   -21.8619   140.5152     8.2951     7.2551
  647.0000    60.5070   100.2853   -21.9084   139.2848     8.3677     7.3188
  647.5000    69.8253    99.8192   -21.9548   138.0547     8.4560     7.3820
  648.0000    68.7575    99.3786   -22.0014   136.8243     8.4503     7.4456
  648.5000    67.8747    98.9316   -22.0478   135.5944     8.4420     7.5089
  649.0000    77.6627    99.2705   -22.0944   134.3637     8.4366     7.5725
  649.5000    73.1211    99.9704   -22.1409   133.1340     8.5823     7.6279
  650.0000    77.0862   100.6690   -22.1874   131.9032     8.7752     7.6612
  650.5000    72.6982   101.3013   -22.2339   130.9765     8.9673     7.6940
  651.0000    74.1981   100.8312   -22.2805   130.4817     9.1137     7.7274
  651.5000    70.8462   100.3037   -22.3269   130.0860     9.0971     7.7601
  652.0000    63.9468    99.7762   -22.3735   129.6886     9.0842     7.7935
  652.5000    70.1819    99.5587   -22.4198   129.2931     9.0708     7.8262
  653.0000    69.7701    99.5063   -22.4665   128.9841     9.0577     7.8596
  653.5000    72.3099    99.7129   -22.5128   127.2553     9.0445     7.8923
  654.0000    72.7848    99.9635   -22.5497   125.8395     9.0340     7.9188
  654.5000    70.7105    99.5886   -22.6251   124.4237     9.2151     8.0703
  655.0000    67.9600    99.0883   -22.6877   123.0080     9.3643     8.1962
  655.5000    63.0035    98.6956   -22.7499   121.5922     9.5139     8.3213
  656.0000    69.5782    98.7468   -22.8125   120.1764     9.6629     8.4472
  656.5000    61.7228    98.5155   -22.8747   118.7607     9.8127     8.5723
  657.0000    53.6342    97.7980   -22.9373   117.3449     9.9616     8.6981
