~VERSION INFORMATION
 VERS.                2.0:   CWLS LOG ASCII STANDARD - VERSION 2.0
 WRAP.                 NO:   ONE LINE PER DEPTH STEP
~WELL INFORMATION
#MNEM.UNIT      DATA TYPE    INFORMATION
#----------   ------------   ------------------------------
 STRT.F            2.0000:   START DEPTH
 STOP.F          832.0000:   STOP DEPTH
 STEP.F            0.5000:   STEP LENGTH
 NULL.          -999.2500:   NO VALUE
 COMP. U S NAVY-INTEX OIL:   COMPANY
 WELL.        NPR #46-S-2:   WELL
 FLD .             TEAPOT:   FIELD
 LOC .       S2 T38N R78W:   LOCATION
 CNTY.            NATRONA:   COUNTY
 STAT.            WYOMING:   STATE
 CTRY. UNITED STATES OF AMERICA:   COUNTRY
 SRVC.      NL McCullough:   SERVICE COMPANY
 DATE.        13-AUG-1961:   LOGDATE
 API .       490250641500:   API NUMBER
~CURVE INFORMATION
#MNEM.UNIT       API CODE    CURVE DESCRIPTION
#----------   ------------   ------------------------------
 DEPT.F                  :   
 GR  .MG/TON 35 310 30 00:   GAMMA RAY
 NEUT.NAPI   35 330 01 00:   NEUTRON
~PARAMETER INFORMATION
#MNEM.UNIT          VALUE    DESCRIPTION
#----------   ------------   ------------------------------
 PD  .                 GL:   PERMANENT DATUM
 EPD .F              5150:   ELEVATION PERMANENT DATUM
 LMF .                 KB:   LOG MEASURED FROM
 DAPD.F                 6:   FEET ABOVE PERMANENT DATUM
 DMF .                 KB:   DRILLING MEASURED FROM
 EKB .F              5156:   KELLING BUSHING
 EGL .F              5150:   GROUND LEVEL
 DATE.        13-AUG-1961:   RUN DATE
 RUN .                  1:   RUN NUMBER
 DD  .F               830:   DEPTH DRILLER
 DL  .F               834:   DEPTH LOGGER
 BLI .F             832.5:   BOTTOM LOG INTERVAL
 BS  .IN            7.875:   BIT SIZE
 BSD .F               830:   BIT SIZE AT DEPTH
 DFT .       OIL EMULSION:   DRILLING FLUID TYPE
 DFD .                9.5:   DRILLING FLUID DENSITY
 TCS .HRS               1:   TIME CURCULATED STOPPED
 LUN .               1296:   LOGGING UNIT NUMBER
 ENGI.            JACKSON:   RECORDING ENGINEER
 WITN.          JORGENSEN:   WITNESSED BY
 CLNT.            A2DTECH:   CLIENT CODE
 ORIG.        2" 5" PRINT:   ORIGIN OF DATA
 UWI .       490250641500:   UNIQUE WELL ID
 DICO. A2D Technologies, Inc.:   DIGITIZING COMPANY
~OTHER INFORMATION
~A    DEPT        GR     NEUT   
    2.0000     3.1678  -999.2500
    2.5000     3.8734  -999.2500
    3.0000     4.0642  -999.2500
    3.5000     4.3136  -999.2500
    4.0000     4.5566  -999.2500
    4.5000     5.0571  -999.2500
    5.0000     5.4322  -999.2500
    5.5000     5.5976  -999.2500
    6.0000     6.0140  -999.2500
    6.5000     6.0516  -999.2500
    7.0000     6.0398  -999.2500
    7.5000     5.9777  -999.2500
    8.0000     5.8642  -999.2500
    8.5000     5.7765  -999.2500
    9.0000     5.7624  -999.2500
    9.5000     5.8002  -999.2500
   10.0000     5.8162  -999.2500
   10.5000     5.7811  -999.2500
   11.0000     5.8158  -999.2500
   11.5000     5.7922  -999.2500
   12.0000     5.7567  -999.2500
   12.5000     5.9210  -999.2500
   13.0000     5.9213  -999.2500
   13.5000     5.9382  -999.2500
   14.0000     6.1157  -999.2500
   14.5000     6.2421  -999.2500
   15.0000     6.2951  -999.2500
   15.5000     6.2836  -999.2500
   16.0000     6.3537  -999.2500
   16.5000     6.7208  -999.2500
   17.0000     6.8573  -999.2500
   17.5000     6.9747  -999.2500
   18.0000     6.9021  -999.2500
   18.5000     6.7823  -999.2500
   19.0000     6.6701  -999.2500
   19.5000     6.5503  -999.2500
   20.0000     6.4843  -999.2500
   20.5000     6.5892  -999.2500
   21.0000     6.6340  -999.2500
   21.5000     6.7759  -999.2500
   22.0000     6.7644  -999.2500
   22.5000     6.6572  -999.2500
   23.0000     6.6948  -999.2500
   23.5000     6.6651  -999.2500
   24.0000     6.5389  -999.2500
   24.5000     6.5118  -999.2500
   25.0000     6.4600  -999.2500
   25.5000     6.3088  -999.2500
   26.0000     6.2339  -999.2500
   26.5000     6.1604  -999.2500
   27.0000     6.1458  -999.2500
   27.5000     6.2111  -999.2500
   28.0000     6.3029  -999.2500
   28.5000     6.1378  -999.2500
   29.0000     6.0995  -999.2500
   29.5000     5.9548  -999.2500
   30.0000     5.8773  -999.2500
   30.5000     5.8647  -999.2500
   31.0000     5.8722  -999.2500
   31.5000     5.9600  -999.2500
   32.0000     6.2159  -999.2500
   32.5000     6.2506  -999.2500
   33.0000     6.2686  -999.2500
   33.5000     6.2803  -999.2500
   34.0000     6.2926  -999.2500
   34.5000     6.3291  -999.2500
   35.0000     6.3743  -999.2500
   35.5000     6.5532  -999.2500
   36.0000     6.6998  -999.2500
   36.5000     6.7951  -999.2500
   37.0000     6.8447  -999.2500
   37.5000     6.7606  -999.2500
   38.0000     6.4476  -999.2500
   38.5000     6.3226  -999.2500
   39.0000     6.2852  -999.2500
   39.5000     6.3395  -999.2500
   40.0000     6.5390  -999.2500
   40.5000     6.6444  -999.2500
   41.0000     6.7801  -999.2500
   41.5000     6.8308  -999.2500
   42.0000     6.8850  -999.2500
   42.5000     6.7309  -999.2500
   43.0000     6.5864  -999.2500
   43.5000     6.4761  -999.2500
   44.0000     6.4442  -999.2500
   44.5000     6.5064  -999.2500
   45.0000     6.5820  -999.2500
   45.5000     6.6850  -999.2500
   46.0000     6.7101  -999.2500
   46.5000     6.6538  -999.2500
   47.0000     6.5972  -999.2500
   47.5000     6.6488  -999.2500
   48.0000     6.7804  -999.2500
   48.5000     6.9112  -999.2500
   49.0000     7.0185  -999.2500
   49.5000     7.2202  -999.2500
   50.0000     7.2797  -999.2500
   50.5000     7.2237  -999.2500
   51.0000     7.0617  -999.2500
   51.5000     7.1438  -999.2500
   52.0000     7.2137  -999.2500
   52.5000     7.1744  -999.2500
   53.0000     7.1152  -999.2500
   53.5000     7.0856  -999.2500
   54.0000     7.0702  -999.2500
   54.5000     7.0223  -999.2500
   55.0000     6.9225  -999.2500
   55.5000     6.8976  -999.2500
   56.0000     6.8933  -999.2500
   56.5000     6.9412  -999.2500
   57.0000     6.9879  -999.2500
   57.5000     7.0507  -999.2500
   58.0000     7.1435  -999.2500
   58.5000     7.1854  -999.2500
   59.0000     7.1590  -999.2500
   59.5000     6.9955  -999.2500
   60.0000     6.8957  -999.2500
   60.5000     6.9840  -999.2500
   61.0000     7.0080  -999.2500
   61.5000     6.8519  -999.2500
   62.0000     6.9117  -999.2500
   62.5000     7.0686  -999.2500
   63.0000     7.0983  -999.2500
   63.5000     7.0109  -999.2500
   64.0000     6.7640  -999.2500
   64.5000     6.7265  -999.2500
   65.0000     6.7645  -999.2500
   65.5000     6.9207  -999.2500
   66.0000     7.0366  -999.2500
   66.5000     7.1231  -999.2500
   67.0000     7.0859  -999.2500
   67.5000     7.0119  -999.2500
   68.0000     7.0588  -999.2500
   68.5000     7.0537  -999.2500
   69.0000     7.0203  -999.2500
   69.5000     6.9914  -999.2500
   70.0000     7.0169  -999.2500
   70.5000     7.0860  -999.2500
   71.0000     7.1173  -999.2500
   71.5000     7.1559  -999.2500
   72.0000     7.0886  -999.2500
   72.5000     7.0206  -999.2500
   73.0000     7.0003  -999.2500
   73.5000     6.9731  -999.2500
   74.0000     6.9189  -999.2500
   74.5000     6.8629  -999.2500
   75.0000     6.9729  -999.2500
   75.5000     7.0540  -999.2500
   76.0000     7.0956  -999.2500
   76.5000     7.1440  -999.2500
   77.0000     7.1757  -999.2500
   77.5000     7.1893  -999.2500
   78.0000     7.1747  -999.2500
   78.5000     7.1503  -999.2500
   79.0000     7.1231  -999.2500
   79.5000     7.1406  -999.2500
   80.0000     7.1838  -999.2500
   80.5000     7.2581  -999.2500
   81.0000     7.3545  -999.2500
   81.5000     7.4614  -999.2500
   82.0000     7.4901  -999.2500
   82.5000     7.5001  -999.2500
   83.0000     7.5055  -999.2500
   83.5000     7.5058  -999.2500
   84.0000     7.5050  -999.2500
   84.5000     7.4915  -999.2500
   85.0000     7.4714  -999.2500
   85.5000     7.4325  -999.2500
   86.0000     7.3855  -999.2500
   86.5000     7.2800  -999.2500
   87.0000     7.0385  -999.2500
   87.5000     6.9232  -999.2500
   88.0000     6.8419  -999.2500
   88.5000     6.6857  -999.2500
   89.0000     6.5765  -999.2500
   89.5000     6.2203  -999.2500
   90.0000     5.9657  -999.2500
   90.5000     5.7463  -999.2500
   91.0000     5.6325  -999.2500
   91.5000     5.5740  -999.2500
   92.0000     5.5288  -999.2500
   92.5000     5.5029  -999.2500
   93.0000     5.4828  -999.2500
   93.5000     5.4477  -999.2500
   94.0000     5.3777  -999.2500
   94.5000     5.2769  -999.2500
   95.0000     5.2081  1075.0649
   95.5000     5.1618   889.7080
   96.0000     5.1288   569.4980
   96.5000     5.1023   224.0359
   97.0000     5.0471   192.8638
   97.5000     4.9875   179.8358
   98.0000     4.9477   182.1989
   98.5000     4.9291   184.3628
   99.0000     4.9294   184.3800
   99.5000     4.9458   181.4568
  100.0000     4.9747   173.1634
  100.5000     5.0025   167.2938
  101.0000     5.0572   174.0180
  101.5000     5.1785   183.7045
  102.0000     5.2853   187.4163
  102.5000     5.3190   188.2301
  103.0000     5.3321   186.7494
  103.5000     5.3717   184.3128
  104.0000     5.3988   179.2810
  104.5000     5.4020   173.4108
  105.0000     5.3652   159.5703
  105.5000     5.3364   143.3453
  106.0000     5.3528   139.1604
  106.5000     5.3884   138.1258
  107.0000     5.4058   142.0889
  107.5000     5.4411   143.5907
  108.0000     5.4986   147.1676
  108.5000     5.6083   149.7926
  109.0000     5.7178   150.1940
  109.5000     5.7404   147.2140
  110.0000     5.6662   143.2284
  110.5000     5.4393   137.4967
  111.0000     5.3727   143.8080
  111.5000     5.2498   148.1584
  112.0000     5.2133   148.0379
  112.5000     5.1895   144.3654
  113.0000     5.1613   138.2208
  113.5000     5.1864   133.3883
  114.0000     5.5642   128.9055
  114.5000     5.6644   119.6263
  115.0000     5.7300   107.6462
  115.5000     5.7515   100.1638
  116.0000     5.8426   122.6711
  116.5000     5.9912   139.5877
  117.0000     6.0543   150.4351
  117.5000     6.0209   150.7621
  118.0000     5.8274   147.9160
  118.5000     5.6162   144.4845
  119.0000     5.5895   144.8226
  119.5000     5.6495   146.1245
  120.0000     5.6299   151.2743
  120.5000     5.5309   159.3104
  121.0000     5.6300   169.2963
  121.5000     5.6432   174.2454
  122.0000     5.6510   181.0695
  122.5000     5.6873   185.0848
  123.0000     5.6963   185.2973
