~VERSION INFORMATION
 VERS.                2.0:   CWLS LOG ASCII STANDARD - VERSION 2.0
 WRAP.                 NO:   ONE LINE PER DEPTH STEP
~WELL INFORMATION
#MNEM.UNIT      DATA TYPE    INFORMATION
#----------   ------------   ------------------------------
 STRT.F           53.0000:   START DEPTH
 STOP.F         4152.0000:   STOP DEPTH
 STEP.F            0.5000:   STEP LENGTH
 NULL.          -999.2500:   NO VALUE
 COMP. DEPARTMENT OF ENERGY:   COMPANY
 WELL. RES 3 TEAPOT #11-STX-11:   WELL
 FLD . TEAPOT NAVAL RESERVE:   FIELD
 LOC .      S11 T38N R78W:   LOCATION
 CNTY.            NATRONA:   COUNTY
 STAT.            WYOMING:   STATE
 CTRY. UNITED STATES OF AMERICA:   COUNTRY
 SRVC.       Schlumberger:   SERVICE COMPANY
 DATE.        24-JUL-1975:   LOGDATE
 API .       490251025200:   API NUMBER
~CURVE INFORMATION
#MNEM.UNIT       API CODE    CURVE DESCRIPTION
#----------   ------------   ------------------------------
 DEPT.F                  :   
 SPR .MV     07 010 01 00:   SPONTANEOUS POTENTIAL
 ILD .OHMM   07 120 46 00:   INDUCTION LOG DEEP
 ILM .OHMM   07 120 44 00:   INDUCTION LOG MEDIUM
 LL8 .OHMM   07 220 08 00:   LATEROLOG-8 RES.
 DPOR.DEC    45 890 12 00:   DENSITY POROSITY SANDSTONE
 NPOR.DEC    42 890 03 00:   NEUTRON POROSITY SANDSTONE
 RHOB.G/C3   45 350 01 00:   BULK DENSITY
 CORR.G/C3   45 356 01 00:   DENSITY CORRECTION
 GRD .GAPI   45 310 01 00:   GAMMA RAY FROM DENSITY LOG
 CALD.IN     45 280 60 00:   CALIPER FROM DENSITY LOG
~PARAMETER INFORMATION
#MNEM.UNIT          VALUE    DESCRIPTION
#----------   ------------   ------------------------------
 PD  .                 GL:   PERMANENT DATUM
 EPD .F              5165:   ELEVATION PERMANENT DATUM
 LMF .                 KB:   LOG MEASURED FROM
 DAPD.F                13:   FEET ABOVE PERMANENT DATUM
 DMF .                 KB:   DRILLING MEASURED FROM
 EKB .F              5178:   KELLING BUSHING
 EGL .F              5165:   GROUND LEVEL
 DATE.            7-24-75:   RUN DATE
 RUN .                  1:   RUN NUMBER
 DD  .F              4150:   DEPTH DRILLER
 DL  .F              4154:   DEPTH LOGGER
 BLI .F              4152:   BOTTOM LOG INTERVAL
 TLI .F              1800:   TOP LOG INTERVAL
 CS  .IN            8.625:   CASING SIZE
 CBD .F               625:   CASING BOTTOM DRILLER
 CBL .F               627:   CASING BOTTOM LOGGER
 BS  .IN            7.875:   BIT SIZE
 BSD .F              4150:   BIT SIZE AT DEPTH
 DFT .                FGM:   DRILLING FLUID TYPE
 DFD .                9.5:   DRILLING FLUID DENSITY
 DFV .                 85:   DRILLING FLUID VISCOSITY
 MSS .           FLOWLINE:   MUD SAMPLE SOURCE
 RMS .OHMM           1.34:   RESISTIVITY MUD SAMPLE
 MST .F                91:   MUD SAMPLE TEMPERATURE
 RMF .OHMM           1.17:   RESISTIVITY MUD FILTRATE SAMPLE
 MFST.F                91:   MUD FILTRATE SAMPLE TEMPERATURE
 MFSS.                  M:   MUD FILTRATE SAMPLE SOURCE
 RMB .OHMM            .94:   RESISTIVITY MUD AT BHT
 BHT .F               130:   BOTTOM HOLE TEMPERATURE
 TCS .HRS            1230:   TIME CURCULATED STOPPED
 TLAB.HRS            1900:   TIME LOGGER AT BOTTOM
 MRT .F               132:   MAXIMUM RECORDED TEMPERATURE
 LUN .               7680:   LOGGING UNIT NUMBER
 LUL .               CSPR:   LOGGING UNIT LOCATION
 ENGI.             FRENCH:   RECORDING ENGINEER
 WITN.             CARTER:   WITNESSED BY
 CLNT.            A2DTECH:   CLIENT CODE
 ORIG.       2", 5" PRINT:   ORIGIN OF DATA
 UWI .       490251025200:   UNIQUE WELL ID
 DICO. A2D Technologies, Inc.:   DIGITIZING COMPANY
~OTHER INFORMATION
~A   DEPT      SPR          ILD        ILM       LL8      DPOR       NPOR       RHOB       CORR        GRD       CALD   
# ...
 2632.5000  -999.2500  -999.2500  -999.2500  -999.2500     0.0604     0.2681     2.5652     0.0035   192.6131    10.8003
 2633.0000  -999.2500  -999.2500  -999.2500  -999.2500     0.0533     0.2590     2.5872     0.0037   189.9743    10.7894
 2633.5000  -999.2500  -999.2500  -999.2500  -999.2500     0.0437     0.2566     2.5692    -0.0026   185.3647    10.7773
 2634.0000  -999.2500  -999.2500  -999.2500  -999.2500     0.0487     0.2542     2.5514    -0.0099   185.2689    10.7651
 2634.5000  -999.2500  -999.2500  -999.2500  -999.2500     0.0586     0.2482     2.5417    -0.0101   186.1921    10.7528
 2635.0000  -999.2500  -999.2500  -999.2500  -999.2500     0.0616     0.2418     2.5502    -0.0033   185.8383    10.7405
 2635.5000  -999.2500  -999.2500  -999.2500  -999.2500     0.0603     0.2367     2.5645     0.0010   188.0985    10.7284
 2636.0000  -999.2500  -999.2500  -999.2500  -999.2500     0.0556     0.2391     2.5751     0.0129   188.9649    10.7212
 2636.5000  -999.2500  -999.2500  -999.2500  -999.2500     0.0501     0.2415     2.5883     0.0256   189.0039    10.7301
 2637.0000  -999.2500  -999.2500  -999.2500  -999.2500     0.0421     0.2440     2.5963     0.0193   189.9708    10.7386
 2637.5000  -999.2500  -999.2500  -999.2500  -999.2500     0.0360     0.2466     2.5775     0.0088   191.6946    10.7470
 2638.0000  -999.2500  -999.2500  -999.2500  -999.2500     0.0401     0.2443     2.5699     0.0016   191.1107    10.7554
 2638.5000  -999.2500  -999.2500  -999.2500  -999.2500     0.0459     0.2417     2.5667     0.0030   192.1763    10.7594
 2639.0000  -999.2500  -999.2500  -999.2500  -999.2500     0.0474     0.2391     2.5710     0.0047   193.3339    10.7595
 2639.5000  -999.2500  -999.2500  -999.2500  -999.2500     0.0488     0.2381     2.5608    -0.0021   193.4553    10.7595
 2640.0000  -999.2500  -999.2500  -999.2500  -999.2500     0.0485     0.2399     2.5566    -0.0014   193.7856    10.7595
 2640.5000  -999.2500  -999.2500  -999.2500  -999.2500     0.0552     0.2371     2.5652     0.0042   192.9922    10.7595
 2641.0000  -999.2500  -999.2500  -999.2500  -999.2500     0.0552     0.2399     2.5754     0.0094   190.1463    10.7595
 2641.5000  -999.2500  -999.2500  -999.2500  -999.2500     0.0493     0.2423     2.5817     0.0121   185.7554    10.7595
 2642.0000  -999.2500  -999.2500  -999.2500  -999.2500     0.0446     0.2377     2.5913     0.0150   181.3567    10.7596
 2642.5000  -999.2500  -999.2500  -999.2500  -999.2500     0.0399     0.2326     2.5859     0.0222   178.4822    10.7593
 2643.0000  -999.2500  -999.2500  -999.2500  -999.2500     0.0375     0.2274     2.5970     0.0307   180.3277    10.7497
 2643.5000  -999.2500  -999.2500  -999.2500  -999.2500     0.0393     0.2223     2.6235     0.0392   182.4636    10.7395
 2644.0000  -999.2500  -999.2500  -999.2500  -999.2500     0.0248     0.2183     2.6322     0.0459   183.5255    10.7293
 2644.5000  -999.2500  -999.2500  -999.2500  -999.2500     0.0109     0.2214     2.6070     0.0349   185.6272    10.7200
 2645.0000  -999.2500  -999.2500  -999.2500  -999.2500     0.0173     0.2246     2.5894     0.0251   187.4153    10.7295
 2645.5000  -999.2500  -999.2500  -999.2500  -999.2500     0.0289     0.2277     2.5775     0.0253   186.7354    10.7398
 2646.0000  -999.2500  -999.2500  -999.2500  -999.2500     0.0437     0.2292     2.5734     0.0246   185.6899    10.7500
 2646.5000  -999.2500  -999.2500  -999.2500  -999.2500     0.0456     0.2267     2.5709     0.0205   188.0232    10.7588
 2647.0000  -999.2500  -999.2500  -999.2500  -999.2500     0.0478     0.2303     2.5629     0.0165   192.7374    10.7465
 2647.5000  -999.2500  -999.2500  -999.2500  -999.2500     0.0499     0.2343     2.5611     0.0116   200.5982    10.7337
 2648.0000  -999.2500  -999.2500  -999.2500  -999.2500     0.0512     0.2413     2.5462     0.0057   202.0643    10.7211
 2648.5000  -999.2500  -999.2500  -999.2500  -999.2500     0.0565     0.2484     2.5315     0.0015   198.2094    10.7085
 2649.0000  -999.2500  -999.2500  -999.2500  -999.2500     0.0672     0.2556     2.5362     0.0039   194.0860    10.6958
 2649.5000  -999.2500  -999.2500  -999.2500  -999.2500     0.0716     0.2598     2.5546     0.0037   190.1263    10.6830
 2650.0000  -999.2500  -999.2500  -999.2500  -999.2500     0.0693     0.2606     2.5528     0.0015   188.7529    10.6842
 2650.5000  -999.2500  -999.2500  -999.2500  -999.2500     0.0646     0.2635     2.5556     0.0086   187.9174    10.6908
 2651.0000  -999.2500  -999.2500  -999.2500  -999.2500     0.0604     0.2666     2.5617     0.0167   186.6741    10.6975
 2651.5000  -999.2500  -999.2500  -999.2500  -999.2500     0.0582     0.2741     2.5681     0.0255   184.3945    10.7043
 2652.0000  -999.2500  -999.2500  -999.2500  -999.2500     0.0560     0.2816     2.5687     0.0244   182.6475    10.7111
 2652.5000  -999.2500  -999.2500  -999.2500  -999.2500     0.0538     0.2862     2.5625     0.0147   181.2964    10.7185
 2653.0000  -999.2500  -999.2500  -999.2500  -999.2500     0.0531     0.2764     2.5616     0.0130   182.6180    10.6986
 2653.5000  -999.2500  -999.2500  -999.2500  -999.2500     0.0558     0.2692     2.5610     0.0131   181.9128    10.6714
 2654.0000  -999.2500  -999.2500  -999.2500  -999.2500     0.0586     0.2619     2.5587     0.0106   180.2077    10.6440
 2654.5000  -999.2500  -999.2500  -999.2500  -999.2500     0.0592     0.2547     2.5679     0.0073   182.4082    10.6167
 2655.0000  -999.2500  -999.2500  -999.2500  -999.2500     0.0541     0.2514     2.5757     0.0104   184.2472    10.5892
 2655.5000  -999.2500  -999.2500  -999.2500  -999.2500     0.0490     0.2541     2.5692     0.0064   185.6122    10.5737
 2656.0000  -999.2500  -999.2500  -999.2500  -999.2500     0.0476     0.2589     2.5586     0.0024   188.8443    10.5648
 2656.5000  -999.2500  -999.2500  -999.2500  -999.2500     0.0536     0.2637     2.5486     0.0019   190.5205    10.5560
 2657.0000  -999.2500  -999.2500  -999.2500  -999.2500     0.0598     0.2686     2.5479     0.0026   188.8775    10.5474
 2657.5000  -999.2500  -999.2500  -999.2500  -999.2500     0.0624     0.2711     2.5633     0.0038   187.3662    10.5376
 2658.0000  -999.2500  -999.2500  -999.2500  -999.2500     0.0565     0.2661     2.5627     0.0103   188.9494    10.5054
 2658.5000  -999.2500  -999.2500  -999.2500  -999.2500     0.0574     0.2658     2.5661     0.0195   191.3516    10.4737
 2659.0000  -999.2500  -999.2500  -999.2500  -999.2500     0.0574     0.2695     2.5614     0.0177   191.1190    10.4422
 2659.5000  -999.2500  -999.2500  -999.2500  -999.2500     0.0540     0.2730     2.5553     0.0173   188.8435    10.4107
 2660.0000  -999.2500  -999.2500  -999.2500  -999.2500     0.0580     0.2765     2.5488     0.0155   186.7566    10.3794
 2660.5000  -999.2500  -999.2500  -999.2500  -999.2500     0.0630     0.2799     2.5340     0.0115   184.4839    10.3431
 2661.0000  -999.2500  -999.2500  -999.2500  -999.2500     0.0699     0.2810     2.5177     0.0093   174.6583    10.2968
 2661.5000  -999.2500  -999.2500  -999.2500  -999.2500     0.0809     0.2802     2.4959     0.0096   161.2734    10.2337
 2662.0000  -999.2500  -999.2500  -999.2500  -999.2500     0.0919     0.2726     2.4713     0.0110   142.8591    10.0848
 2662.5000  -999.2500  -999.2500  -999.2500  -999.2500     0.1029     0.2553     2.4567     0.0162   132.1762     9.9366
 2663.0000  -999.2500  -999.2500  -999.2500  -999.2500     0.1138     0.2369     2.4594     0.0225   128.3748     9.8532
 2663.5000  -999.2500  -999.2500  -999.2500  -999.2500     0.1176     0.2115     2.4666     0.0264   128.7919     9.8432
 2664.0000  -999.2500  -999.2500  -999.2500  -999.2500     0.1135     0.2169     2.4502     0.0205   123.6922     9.8159
 2664.5000  -999.2500  -999.2500  -999.2500  -999.2500     0.1210     0.2222     2.4289     0.0225   118.6905     9.7641
 2665.0000  -999.2500  -999.2500  -999.2500  -999.2500     0.1357     0.2276     2.4201     0.0306   114.1164     9.7421
 2665.5000  -999.2500  -999.2500  -999.2500  -999.2500     0.1380     0.2326     2.4273     0.0384   115.2860     9.7307
