~VERSION INFORMATION
 VERS.                2.0:   CWLS LOG ASCII STANDARD - VERSION 2.0
 WRAP.                 NO:   ONE LINE PER DEPTH STEP
~WELL INFORMATION
#MNEM.UNIT      DATA TYPE    INFORMATION
#----------   ------------   ------------------------------
 STRT.F          376.0000:   START DEPTH
 STOP.F         2400.0000:   STOP DEPTH
 STEP.F            0.5000:   STEP LENGTH
 NULL.          -999.2500:   NO VALUE
 COMP. LAWRENCE/ALLISON INC:   COMPANY
 WELL.        55 X #15-15:   WELL
 FLD .            WILDCAT:   FIELD
 LOC .      S15 T38N R78W:   LOCATION
 CNTY.            NATRONA:   COUNTY
 STAT.            WYOMING:   STATE
 CTRY. UNITED STATES OF AMERICA:   COUNTRY
 SRVC.            Unknown:   SERVICE COMPANY
 DATE.        12-APR-1988:   LOGDATE
 API .       490251119800:   API NUMBER
~CURVE INFORMATION
#MNEM.UNIT       API CODE    CURVE DESCRIPTION
#----------   ------------   ------------------------------
 DEPT.F                  :   
 GR  .GAPI   30 310 01 00:   GAMMA RAY
 TGAS.UNITS  91 830 01 00:   TOTAL GAS UNIT
 ROP .FT/HR  91 810 01 00:   RATE OF DRILLING PENETRATION
~PARAMETER INFORMATION
#MNEM.UNIT          VALUE    DESCRIPTION
#----------   ------------   ------------------------------
 PD  .                 GL:   PERMANENT DATUM
 EPD .F              5293:   ELEVATION PERMANENT DATUM
 LMF .                 GL:   LOG MEASURED FROM
 DMF .                 KB:   DRILLING MEASURED FROM
 EKB .F              5304:   KELLING BUSHING
 EGL .F              5293:   GROUND LEVEL
 DATE.        12-APR-1988:   RUN DATE
 RUN .                  1:   RUN NUMBER
 DD  .F              2400:   DEPTH DRILLER
 DL  .F               851:   DEPTH LOGGER
 BLI .F               846:   BOTTOM LOG INTERVAL
 TLI .F               372:   TOP LOG INTERVAL
 CS  .IN                7:   CASING SIZE
 CBL .F               890:   CASING BOTTOM LOGGER
 BSD .F              2400:   BIT SIZE AT DEPTH
 DFT .              WATER:   DRILLING FLUID TYPE
 TCS .HRS               1:   TIME CURCULATED STOPPED
 ENGI.          BANGERTER:   RECORDING ENGINEER
 WITN.             NORHAN:   WITNESSED BY
 CLNT.            A2DTECH:   CLIENT CODE
 ORIG.           5" PRINT:   ORIGIN OF DATA
 UWI .       490251119800:   UNIQUE WELL ID
 DICO. A2D Technologies, Inc.:   DIGITIZING COMPANY
~OTHER INFORMATION
~A   DEPT        GR      TGAS        ROP   
# ...
 1013.0000  -999.2500     0.9549     0.3394
 1013.5000  -999.2500     0.9625     0.3398
 1014.0000  -999.2500     0.9715     0.3401
 1014.5000  -999.2500     0.9789     0.3405
 1015.0000  -999.2500     0.9864     0.3409
 1015.5000  -999.2500     0.9928     0.3412
 1016.0000  -999.2500     1.0012     0.3417
 1016.5000  -999.2500     1.0080     0.3421
 1017.0000  -999.2500     1.0161     0.3424
 1017.5000  -999.2500     1.0235     0.3428
 1018.0000  -999.2500     1.0310     0.3432
 1018.5000  -999.2500     1.0384     0.3341
 1019.0000  -999.2500     1.0308     0.3345
 1019.5000  -999.2500     0.6743     0.3349
 1020.0000  -999.2500     0.6836     0.3352
 1020.5000  -999.2500     0.6910     0.3356
 1021.0000  -999.2500     0.6985     0.3360
 1021.5000  -999.2500     1.0848     0.3364
 1022.0000  -999.2500     1.0923     0.3368
 1022.5000  -999.2500     1.0989     0.3465
 1023.0000  -999.2500     1.1071     0.3469
 1023.5000  -999.2500     1.1141     0.3473
 1024.0000  -999.2500     1.1220     0.3571
 1024.5000  -999.2500     1.1293     0.3763
 1025.0000  -999.2500     1.1368     0.3955
 1025.5000  -999.2500     1.1444     0.4053
 1026.0000  -999.2500     1.1520     0.3962
 1026.5000  -999.2500     1.1610     0.3966
 1027.0000  -999.2500     1.1672     0.3970
 1027.5000  -999.2500     1.1747     0.3974
 1028.0000  -999.2500     1.1833     0.3978
 1028.5000  -999.2500     1.1907     0.3887
 1029.0000  -999.2500     1.1981     0.3891
 1029.5000  -999.2500     1.2051     0.3895
 1030.0000  -999.2500     1.2130     0.3804
 1030.5000  -999.2500     1.2204     0.3808
 1031.0000  -999.2500     1.2279     0.3812
 1031.5000  -999.2500     1.2354     0.3816
 1032.0000  -999.2500     1.2429     0.3820
 1032.5000  -999.2500     1.2520     0.3823
 1033.0000  -999.2500     1.2594     0.3827
 1033.5000  -999.2500     1.2669     0.3831
 1034.0000  -999.2500     1.2743     0.3835
 1034.5000  -999.2500     1.2817     0.3838
 1035.0000  -999.2500     1.2892     0.3842
 1035.5000  -999.2500     1.2966     0.3846
 1036.0000  -999.2500     0.9232     0.3849
 1036.5000  -999.2500     0.5536     0.3853
 1037.0000  -999.2500     0.5610     0.3763
 1037.5000  -999.2500     0.1895     0.3766
 1038.0000  -999.2500     0.1971     0.3677
 1038.5000  -999.2500     0.0000     0.3681
 1039.0000  -999.2500     0.0000     0.3684
 1039.5000  -999.2500     0.0000     0.3688
 1040.0000  -999.2500     0.0000     0.3692
 1040.5000  -999.2500     0.0000     0.3695
 1041.0000  -999.2500     0.0000     0.3699
 1041.5000  -999.2500     0.0000     0.3703
 1042.0000  -999.2500     0.2582     0.3706
 1042.5000  -999.2500     0.2656     0.3710
 1043.0000  -999.2500     0.2731     0.3714
 1043.5000  -999.2500     0.6594     0.3718
 1044.0000  -999.2500     0.6669     0.3721
 1044.5000  -999.2500     0.6745     0.3725
 1045.0000  -999.2500     0.3028     0.3729
 1045.5000  -999.2500     0.3121     0.3827
 1046.0000  -999.2500     0.3195     0.3925
 1046.5000  -999.2500     0.3269     0.3929
 1047.0000  -999.2500     0.7133     0.3933
 1047.5000  -999.2500     0.7200     0.3936
 1048.0000  -999.2500     0.7282     0.3940
 1048.5000  -999.2500     1.1146     0.3944
 1049.0000  -999.2500     1.5009     0.3948
 1049.5000  -999.2500     1.5084     0.3951
 1050.0000  -999.2500     1.8947     0.3955
 1050.5000  -999.2500     2.2813     0.3959
 1051.0000  -999.2500     2.3192     0.3962
 1051.5000  -999.2500     2.7208     0.3966
 1052.0000  -999.2500     3.0632     0.3970
 1052.5000  -999.2500     3.4495     0.3974
 1053.0000  -999.2500     3.4570     0.3978
 1053.5000  -999.2500     3.0836     0.3982
 1054.0000  -999.2500     3.0929     0.3986
 1054.5000  -999.2500     2.7214     0.3989
 1055.0000  -999.2500     2.4631     0.4087
 1055.5000  -999.2500     2.3571     0.4185
 1056.0000  -999.2500     1.9857     0.4189
 1056.5000  -999.2500     1.2353     0.4097
 1057.0000  -999.2500     0.8638     0.3819
 1057.5000  -999.2500     0.4941     0.3635
 1058.0000  -999.2500     0.1226     0.3450
 1058.5000  -999.2500     0.1300     0.3454
 1059.0000  -999.2500     0.1375     0.3458
 1059.5000  -999.2500     0.1440     0.3461
 1060.0000  -999.2500     0.1523     0.3466
 1060.5000  -999.2500     0.1598     0.3470
 1061.0000  -999.2500     0.1672     0.3567
 1061.5000  -999.2500     0.1746     0.3665
 1062.0000  -999.2500     0.1820     0.3763
 1062.5000  -999.2500     0.1895     0.3767
 1063.0000  -999.2500     0.1971     0.3771
 1063.5000  -999.2500     0.5836     0.3774
 1064.0000  -999.2500     0.5926     0.3778
 1064.5000  -999.2500     0.6000     0.3782
 1065.0000  -999.2500     0.6074     0.3691
 1065.5000  -999.2500     0.6149     0.3695
 1066.0000  -999.2500     0.6223     0.3699
 1066.5000  -999.2500     1.0087     0.3702
 1067.0000  -999.2500     1.1520     0.3706
 1067.5000  -999.2500     1.4021     0.3710
 1068.0000  -999.2500     1.4099     0.3714
 1068.5000  -999.2500     1.7962     0.3718
 1069.0000  -999.2500     1.8038     0.3701
 1069.5000  -999.2500     1.8114     0.3537
 1070.0000  -999.2500     1.8204     0.3541
 1070.5000  -999.2500     1.8279     0.3450
 1071.0000  -999.2500     1.8353     0.3454
 1071.5000  -999.2500     1.4638     0.3458
 1072.0000  -999.2500     1.4712     0.3462
 1072.5000  -999.2500     1.0997     0.3465
 1073.0000  -999.2500     1.1065     0.3469
 1073.5000  -999.2500     1.1141     0.3473
 1074.0000  -999.2500     1.1217     0.3529
 1074.5000  -999.2500     1.1293     0.3574
 1075.0000  -999.2500     1.1368     0.3578
 1075.5000  -999.2500     1.1444     0.3583
 1076.0000  -999.2500     1.1520     0.3680
 1076.5000  -999.2500     1.1596     0.3778
 1077.0000  -999.2500     1.1672     0.3782
 1077.5000  -999.2500     1.1747     0.3786
 1078.0000  -999.2500     1.1833     0.3789
 1078.5000  -999.2500     1.1899     0.3793
 1079.0000  -999.2500     1.1981     0.3797
 1079.5000  -999.2500     1.2056     0.3801
 1080.0000  -999.2500     1.2130     0.3616
 1080.5000  -999.2500     1.2202     0.3431
 1081.0000  -999.2500     1.2278     0.3435
 1081.5000  -999.2500     1.2354     0.3439
 1082.0000  -999.2500     1.2429     0.3443
 1082.5000  -999.2500     1.2505     0.3447
 1083.0000  -999.2500     1.2594     0.3545
 1083.5000  -999.2500     1.2657     0.3549
 1084.0000  -999.2500     1.2743     0.3552
 1084.5000  -999.2500     1.2817     0.3556
 1085.0000  -999.2500     1.2884     0.3654
 1085.5000  -999.2500     1.2966     0.3658
 1086.0000  -999.2500     1.3036     0.3661
 1086.5000  -999.2500     1.3112     0.3665
 1087.0000  -999.2500     1.3189     0.3669
 1087.5000  -999.2500     1.3263     0.3578
 1088.0000  -999.2500     1.3339     0.3582
 1088.5000  -999.2500     1.3415     0.3483
 1089.0000  -999.2500     1.3505     0.3292
 1089.5000  -999.2500     1.3567     0.3123
 1090.0000  -999.2500     1.3653     0.3127
 1090.5000  -999.2500     0.9919     0.3131
 1091.0000  -999.2500     1.0012     0.3134
 1091.5000  -999.2500     1.0087     0.3138
 1092.0000  -999.2500     1.3950     0.3236
 1092.5000  -999.2500     1.4025     0.3240
 1093.0000  -999.2500     1.4099     0.3243
 1093.5000  -999.2500     1.4173     0.3247
 1094.0000  -999.2500     1.4248     0.3345
 1094.5000  -999.2500     1.4324     0.3348
 1095.0000  -999.2500     1.4415     0.3352
 1095.5000  -999.2500     1.4476     0.3356
 1096.0000  -999.2500     1.4552     0.3360
 1096.5000  -999.2500     1.4638     0.3364
 1097.0000  -999.2500     1.4703     0.3368
 1097.5000  -999.2500     1.4779     0.3371
 1098.0000  -999.2500     1.4861     0.3375
 1098.5000  -999.2500     1.4935     0.3379
 1099.0000  -999.2500     1.5009     0.3289
 1099.5000  -999.2500     1.5084     0.3292
 1100.0000  -999.2500     1.5158     0.3390
 1100.5000  -999.2500     2.6547     0.3299
 1101.0000  -999.2500     2.6566     0.3490
 1101.5000  -999.2500     2.6585     0.3587
 1102.0000  -999.2500     2.6604     0.3590
 1102.5000  -999.2500     2.6623     0.3593
 1103.0000  -999.2500     2.6640     0.3689
 1103.5000  -999.2500     2.6662     0.3692
