~VERSION INFORMATION
 VERS.                2.0:   CWLS LOG ASCII STANDARD - VERSION 2.0
 WRAP.                 NO:   ONE LINE PER DEPTH STEP
~WELL INFORMATION
#MNEM.UNIT      DATA TYPE    INFORMATION
#----------   ------------   ------------------------------
 STRT.F            2.5000:   START DEPTH
 STOP.F          548.0000:   STOP DEPTH
 STEP.F            0.5000:   STEP LENGTH
 NULL.          -999.2500:   NO VALUE
 COMP. LAWRENCE/ALLISON INC:   COMPANY
 WELL.    55-61 SX #10-10:   WELL
 FLD .           N.P.R #3:   FIELD
 LOC .      S10 T38N R78W:   LOCATION
 CNTY.            NATRONA:   COUNTY
 STAT.            WYOMING:   STATE
 CTRY. UNITED STATES OF AMERICA:   COUNTRY
 SRVC.            Unknown:   SERVICE COMPANY
 DATE.        05-SEP-1984:   LOGDATE
 API .       490251098100:   API NUMBER
~CURVE INFORMATION
#MNEM.UNIT       API CODE    CURVE DESCRIPTION
#----------   ------------   ------------------------------
 DEPT.F                  :   
 GRR .GAPI   07 310 01 00:   GAMMA RAY FROM RES
 SPR .MV     07 010 01 00:   SPONTANEOUS POTENTIAL
 RFOC.OHMM   07 220 04 00:   RESISTIVITY FOCUSED LOG
 RILD.OHMM   07 120 46 00:   INDUCTION LOG DEEP RESISTIVITY
 RILM.OHMM   07 120 44 00:   INDUCTION LOG MEDIUM RESISTIVITY
 CALD.IN     45 280 60 00:   CALIPER FROM DENSITY LOG
 DEN .G/C3   45 350 01 00:   COMPENSATED BULK DENSTIY
 CNC .DEC    42 890 03 00:   NEUTRON POROSITY SANDSTONE
 PORD.DEC    45 890 12 00:   POROSITY DENSITY SANDSTONE
 CORR.G/C3   45 356 01 00:   DENSITY CORRECTION
 AC  .US/F   60 520 00 00:   ACCOUSTIC SONIC
~PARAMETER INFORMATION
#MNEM.UNIT          VALUE    DESCRIPTION
#----------   ------------   ------------------------------
 PD  .                 GL:   PERMANENT DATUM
 EPD .F              5191:   ELEVATION PERMANENT DATUM
 LMF .                 KB:   LOG MEASURED FROM
 DAPD.F                12:   FEET ABOVE PERMANENT DATUM
 DMF .                 KB:   DRILLING MEASURED FROM
 EKB .F              5203:   KELLING BUSHING
 EGL .F              5191:   GROUND LEVEL
 DATE.         5-SEP-1984:   RUN DATE
 RUN .                  1:   RUN NUMBER
 DD  .F               540:   DEPTH DRILLER
 DL  .F               550:   DEPTH LOGGER
 BLI .F               548:   BOTTOM LOG INTERVAL
 CS  .IN            8.625:   CASING SIZE
 CBD .F                42:   CASING BOTTOM DRILLER
 CBL .F                54:   CASING BOTTOM LOGGER
 BS  .IN            7.875:   BIT SIZE
 BSD .F               540:   BIT SIZE AT DEPTH
 DFT .        KCL POLYMER:   DRILLING FLUID TYPE
 MSS .           FLOWLINE:   MUD SAMPLE SOURCE
 RMS .OHMM            .79:   RESISTIVITY MUD SAMPLE
 MST .F                74:   MUD SAMPLE TEMPERATURE
 RMF .OHMM            .59:   RESISTIVITY MUD FILTRATE SAMPLE
 MFST.F                74:   MUD FILTRATE SAMPLE TEMPERATURE
 RMC .OHMM            .99:   RESISTIVITY MUD CAKE
 MCST.F                74:   MUD CAKE SAMPLE TEMPERATURE
 MFSS.               CALC:   MUD FILTRATE SAMPLE SOURCE
 MCSS.               CALC:   MUD CAKE SAMPLE SOURCE
 RMB .OHMM            .65:   RESISTIVITY MUD AT BHT
 BHT .F                90:   BOTTOM HOLE TEMPERATURE
 TCS .HRS               3:   TIME CURCULATED STOPPED
 MRT .F                90:   MAXIMUM RECORDED TEMPERATURE
 LUN .               6274:   LOGGING UNIT NUMBER
 LUL .               GLTE:   LOGGING UNIT LOCATION
 ENGI.             RAUTIO:   RECORDING ENGINEER
 WITN.            JOHNSON:   WITNESSED BY
 CLNT.            A2DTECH:   CLIENT CODE
 ORIG. 2", 2.5", 5" PRINT:   ORIGIN OF DATA
 UWI .       490251098100:   UNIQUE WELL ID
 DICO. A2D Technologies, Inc.:   DIGITIZING COMPANY
~OTHER INFORMATION
~A    DEPT      GRR       SPR       RFOC       RILD       RILM       CALD        DEN        CNC       PORD       CORR         AC   
# ...
  368.5000    80.8940   -49.7920    13.7350    14.8410    13.9800     7.9270     2.4240     0.2430     0.1540    -0.0010    88.3820
  369.0000    80.1210   -50.0050    13.7600    14.8280    13.9800     7.9270     2.4330     0.2390     0.1490    -0.0020    88.3100
  369.5000    78.1130   -50.0890    13.7850    14.8150    13.9800     7.9270     2.4410     0.2390     0.1440     0.0100    88.2390
  370.0000    76.5300   -50.2260    13.8110    14.8010    13.9800     7.9270     2.4420     0.2460     0.1420     0.0180    88.1670
  370.5000    76.7030   -50.3640    13.8360    14.7880    13.9800     7.9270     2.4420     0.2510     0.1430    -0.0070    88.1080
  371.0000    77.4550   -50.5010    13.8520    14.7710    13.9810     7.9270     2.4420     0.2490     0.1400    -0.0090    88.1970
  371.5000    78.3600   -50.6380    13.8060    14.7750    13.8970     7.9270     2.4540     0.2470     0.1360     0.0060    88.2740
  372.0000    79.1310   -50.7750    13.7280    14.6110    13.7890     7.9270     2.4620     0.2440     0.1300     0.0250    88.3510
  372.5000    80.2840   -50.9120    13.6510    14.4480    13.6820     7.9270     2.4580     0.2470     0.1330     0.0390    88.4280
  373.0000    82.4030   -51.0490    13.5730    14.2850    13.5750     7.9270     2.4500     0.2540     0.1370     0.0360    88.5060
  373.5000    82.9690   -51.1860    13.4950    14.1220    13.4690     7.9260     2.4440     0.2580     0.1410     0.0320    88.4510
  374.0000    81.0950   -51.3220    13.4170    13.9580    13.3620     7.9240     2.4480     0.2530     0.1390     0.0290    88.3960
  374.5000    78.3890   -51.4600    13.3390    13.7950    13.2550     7.9220     2.4570     0.2440     0.1340     0.0230    88.3400
  375.0000    78.0820   -51.6240    13.2610    13.6320    13.1480     7.9200     2.4660     0.2400     0.1290     0.0150    88.2850
  375.5000    79.2730   -51.8450    13.0740    13.5870    13.0410     7.9180     2.4680     0.2490     0.1270     0.0060    88.2290
  376.0000    80.4300   -51.9520    12.9840    13.5700    12.9350     7.9160     2.4640     0.2590     0.1290    -0.0020    88.1740
  376.5000    80.5540   -52.0560    12.8950    13.5540    12.8280     7.9150     2.4600     0.2670     0.1320    -0.0100    88.1080
  377.0000    79.8340   -52.1580    12.8060    13.5380    12.7210     7.9130     2.4610     0.2670     0.1300    -0.0060    87.9040
  377.5000    80.0920   -52.2590    12.7530    13.5210    12.5210     7.9110     2.4630     0.2650     0.1290     0.0220    87.6540
  378.0000    80.3610   -52.3600    12.8330    13.5050    12.5360     7.9090     2.4650     0.2590     0.1290     0.0310    87.4040
  378.5000    80.5860   -52.4620    12.9330    13.4880    12.5620     7.9070     2.4600     0.2480     0.1310     0.0170    87.1120
  379.0000    80.3100   -52.5630    13.0320    13.4750    12.5870     7.9080     2.4550     0.2460     0.1340     0.0040    87.3050
  379.5000    80.0040   -52.6650    13.1090    13.4750    12.6120     7.9090     2.4540     0.2480     0.1330    -0.0030    87.7550
  380.0000    79.6990   -52.7700    12.9650    13.4750    12.6370     7.9100     2.4590     0.2510     0.1310     0.0130    88.2050
  380.5000    79.3920   -52.9020    12.9050    13.4750    12.5660     7.9110     2.4640     0.2540     0.1290     0.0220    88.6550
  381.0000    79.0790   -53.0380    12.8450    13.4750    12.4970     7.9120     2.4620     0.2560     0.1300     0.0120    88.8800
  381.5000    79.2490   -53.1760    12.7860    13.4750    12.4280     7.9130     2.4550     0.2540     0.1330     0.0080    88.8240
  382.0000    79.9050   -53.3120    12.7260    13.4260    12.3590     7.9150     2.4510     0.2520     0.1360     0.0110    88.7680
  382.5000    81.1840   -53.4470    12.6670    13.3100    12.2890     7.9160     2.4460     0.2510     0.1390     0.0010    88.7050
  383.0000    81.7580   -53.5840    12.6070    13.1940    12.2200     7.9170     2.4420     0.2490     0.1410     0.0010    88.7630
  383.5000    81.7860   -54.1240    12.5470    13.0790    12.1510     7.9180     2.4400     0.2470     0.1420     0.0060    88.8880
  384.0000    81.7890   -54.6990    12.4880    12.9630    12.0820     7.9190     2.4390     0.2460     0.1420     0.0070    89.0130
  384.5000    81.9910   -55.1740    12.4280    12.8470    12.0130     7.9200     2.4380     0.2430     0.1430    -0.0060    89.0450
  385.0000    82.8560   -55.1930    12.3760    12.7310    11.9440     7.9210     2.4410     0.2410     0.1420     0.0050    88.8300
  385.5000    84.6600   -55.2200    12.2460    12.6150    11.8750     7.9220     2.4440     0.2400     0.1410     0.0010    88.6160
  386.0000    87.5850   -55.2500    12.1170    12.4990    11.7810     7.9230     2.4440     0.2400     0.1400    -0.0030    88.5060
  386.5000    90.9610   -55.2810    11.9870    12.3840    11.6260     7.9240     2.4450     0.2420     0.1400    -0.0070    88.5060
  387.0000    88.4820   -55.3090    11.8570    12.2680    11.4710     7.9250     2.4480     0.2440     0.1380    -0.0100    88.7570
  387.5000    85.2360   -55.3230    11.7280    12.1810    11.3170     7.9260     2.4490     0.2460     0.1380    -0.0130    89.0380
  388.0000    82.4500   -55.8930    11.5980    11.9440    11.1620     7.9270     2.4500     0.2450     0.1380    -0.0130    89.3190
  388.5000    81.8230   -56.4400    11.4690    11.7190    11.0070     7.9270     2.4530     0.2400     0.1360     0.0000    89.6010
  389.0000    82.9670   -56.9950    11.3390    11.4930    10.8520     7.9270     2.4570     0.2400     0.1330     0.0130    89.8820
  389.5000    83.4510   -57.4370    11.2100    11.2680    10.6970     7.9420     2.4510     0.2430     0.1330     0.0190    90.1630
  390.0000    83.6510   -57.7080    11.0800    11.0420    10.5540     8.0180     2.4440     0.2510     0.1380     0.0130    90.7020
  390.5000    84.0810   -57.9800    10.9160    10.8040    10.3250     7.9980     2.4420     0.2590     0.1420     0.0070    91.4790
  391.0000    84.8310   -58.2520    10.7110    10.5640    10.0960     7.9290     2.4520     0.2610     0.1390     0.0030    92.2570
  391.5000    85.8860   -58.5270    10.5060    10.3250     9.8670     7.9270     2.4620     0.2610     0.1300     0.0060    93.0880
  392.0000    88.1510   -59.0020    10.3010    10.0850     9.6380     7.9270     2.4650     0.2600     0.1270     0.0100    93.1910
  392.5000    87.9130   -59.4760    10.0960     9.8620     9.4080     7.9270     2.4660     0.2590     0.1260     0.0050    93.3020
  393.0000    86.3910   -59.9510     9.8910     8.9980     8.8780     7.9360     2.4680     0.2600     0.1260    -0.0050    93.4130
  393.5000    84.9520   -60.4210     9.6860     8.1910     8.0930     7.9450     2.4650     0.2710     0.1260    -0.0160    93.8330
  394.0000    86.2690   -60.5400     9.4810     7.3840     7.3080     7.9400     2.4530     0.2820     0.1340    -0.0260    94.6810
  394.5000    88.3270   -60.5970     9.1590     6.8260     6.5840     7.9340     2.4260     0.2940     0.1490    -0.0190    97.8800
  395.0000    93.3160   -60.6520     8.3210     6.3460     6.2500     7.9260     2.3990     0.2950     0.1650     0.0050   100.6570
  395.5000   101.8710   -60.6890     7.2520     6.1920     5.8430     7.9190     2.3710     0.2940     0.1800     0.0320   104.6410
  396.0000   104.7230   -60.9800     5.6320     6.1740     6.1450     7.9120     2.3620     0.2930     0.1900     0.0270   104.0760
  396.5000    99.4430   -61.4040     6.0680     6.2310     6.5870     7.9070     2.4000     0.2810     0.1730     0.0210   100.7690
  397.0000    90.6660   -61.8310     7.4130     6.4030     7.0290     7.9070     2.4510     0.2710     0.1470     0.0150    96.7690
  397.5000    82.6320   -62.4740     8.7580     6.8030     7.4710     7.9070     2.4900     0.2600     0.1220     0.0090    93.4880
  398.0000    80.6720   -63.1470    10.5160     7.3560     7.9510     7.9070     2.5040     0.2520     0.1070     0.0020    91.3880
  398.5000    80.2100   -63.8210    10.4990     8.2830     8.8240     7.9070     2.5120     0.2560     0.1010    -0.0030    90.1000
