~VERSION INFORMATION
 VERS.                2.0:   CWLS LOG ASCII STANDARD - VERSION 2.0
 WRAP.                 NO:   ONE LINE PER DEPTH STEP
~WELL INFORMATION
#MNEM.UNIT      DATA TYPE    INFORMATION
#----------   ------------   ------------------------------
 STRT.F           36.0000:   START DEPTH
 STOP.F          493.0000:   STOP DEPTH
 STEP.F            0.5000:   STEP LENGTH
 NULL.          -999.2500:   NO VALUE
 COMP.    FENIX & SCISSON:   COMPANY
 WELL.       NPR #68-S-10:   WELL
 FLD .             TEAPOT:   FIELD
 LOC .      S10 T38N R78W:   LOCATION
 CNTY.            NATRONA:   COUNTY
 STAT.            WYOMING:   STATE
 CTRY. UNITED STATES OF AMERICA:   COUNTRY
 SRVC.              Welex:   SERVICE COMPANY
 DATE.        18-APR-1977:   LOGDATE
 API .       490251033500:   API NUMBER
~CURVE INFORMATION
#MNEM.UNIT       API CODE    CURVE DESCRIPTION
#----------   ------------   ------------------------------
 DEPT.F                  :   
 SPR .MV     07 010 01 00:   SPONTANEOUS POTENTIAL
 ILD .OHMM   07 120 46 00:   INDUCTION LOG DEEP
 ILM .OHMM   07 120 44 00:   INDUCTION LOG MEDIUM
 SGRD.OHMM   07 221 05 00:   SHALLOW SHORT GUARD RESISTIVITY
 CALD.IN     45 280 60 00:   CALIPER FROM DENSITY LOG
 GRD .GAPI   45 310 01 00:   GAMMA RAY FROM DENSITY LOG
 CORR.G/C3   45 356 01 00:   DENSITY CORRECTION
 RHOB.G/C3   45 350 01 00:   BULK DENSITY
 DPHI.DEC    45 890 12 00:   DENSITY POROSITY SANDSTONE
~PARAMETER INFORMATION
#MNEM.UNIT          VALUE    DESCRIPTION
#----------   ------------   ------------------------------
 PD  .                 GL:   PERMANENT DATUM
 EPD .F              5198:   ELEVATION PERMANENT DATUM
 LMF .                 GL:   LOG MEASURED FROM
 DMF .                 GL:   DRILLING MEASURED FROM
 EGL .F              5198:   GROUND LEVEL
 DATE.        18-APR-1977:   RUN DATE
 RUN .                  1:   RUN NUMBER
 DD  .F               505:   DEPTH DRILLER
 DL  .F               492:   DEPTH LOGGER
 BLI .F               490:   BOTTOM LOG INTERVAL
 TLI .F                32:   TOP LOG INTERVAL
 CS  .IN            8.625:   CASING SIZE
 CBD .F                40:   CASING BOTTOM DRILLER
 CBL .F                42:   CASING BOTTOM LOGGER
 BS  .IN            7.875:   BIT SIZE
 BSD .F               505:   BIT SIZE AT DEPTH
 DFT .            KCL MUD:   DRILLING FLUID TYPE
 DFV .                 36:   DRILLING FLUID VISCOSITY
 MSS .           FLOWLINE:   MUD SAMPLE SOURCE
 RMS .OHMM           2.46:   RESISTIVITY MUD SAMPLE
 MST .F                52:   MUD SAMPLE TEMPERATURE
 RMF .OHMM           2.30:   RESISTIVITY MUD FILTRATE SAMPLE
 MFST.F                52:   MUD FILTRATE SAMPLE TEMPERATURE
 RMC .OHMM           2.66:   RESISTIVITY MUD CAKE
 MCST.F                52:   MUD CAKE SAMPLE TEMPERATURE
 MFSS.               MEAS:   MUD FILTRATE SAMPLE SOURCE
 MCSS.               MEAS:   MUD CAKE SAMPLE SOURCE
 RMB .OHMM           1.97:   RESISTIVITY MUD AT BHT
 BHT .F                65:   BOTTOM HOLE TEMPERATURE
 TCS .HRS            0400:   TIME CURCULATED STOPPED
 MRT .F                65:   MAXIMUM RECORDED TEMPERATURE
 LUN .               8611:   LOGGING UNIT NUMBER
 LUL .             CASPER:   LOGGING UNIT LOCATION
 ENGI.               DOAK:   RECORDING ENGINEER
 WITN.            R. LYON:   WITNESSED BY
 CLNT.            A2DTECH:   CLIENT CODE
 ORIG.           5" PRINT:   ORIGIN OF DATA
 UWI .       490251033500:   UNIQUE WELL ID
 DICO. A2D Technologies, Inc.:   DIGITIZING COMPANY
~OTHER INFORMATION
~A   DEPT      SPR        ILD        ILM       SGRD         CALD       GRD      CORR       RHOB       DPHI   
# ...
  364.5000   -41.7288    16.0503    16.5340    24.7082     7.9359    81.8725     0.0329     2.4524     0.1185
  365.0000   -41.7139    16.1716    16.6601    23.8848     7.9374    81.2937     0.0300     2.4488     0.1218
  365.5000   -41.4031    15.7413    16.7842    23.7316     7.9389    82.3517     0.0272     2.4316     0.1290
  366.0000   -41.2403    15.3224    15.4641    24.5844     7.9404    82.8145     0.0243     2.4048     0.1406
  366.5000   -41.0774    14.9147    15.2602    24.5998     7.9419    82.8309     0.0214     2.3922     0.1508
  367.0000   -40.7667    14.5155    15.6986    24.1107     7.9434    81.8056     0.0216     2.3900     0.1526
  367.5000   -40.6038    14.1293    16.1490    23.4649     7.9449    80.7804     0.0248     2.4005     0.1447
  368.0000   -40.5889    13.6609    15.4822    22.6865     7.9464    81.9872     0.0309     2.4186     0.1336
  368.5000   -40.5740    13.1152    14.7713    22.0824     7.9479    84.2357     0.0356     2.4284     0.1276
  369.0000   -40.5622    13.0311    14.3915    23.8360     7.9494    85.5914     0.0403     2.4404     0.1228
  369.5000   -40.5473    13.0413    15.2188    22.8831     7.9509    86.5007     0.0434     2.4517     0.1180
  370.0000   -40.5325    13.0495    15.5479    22.3979     7.9375    87.8563     0.0451     2.4555     0.1197
  370.5000   -40.5177    13.4230    15.0312    22.1100     7.9388    88.3191     0.0452     2.4406     0.1239
  371.0000   -40.5029    13.9029    14.1361    22.1487     7.9402    87.7403     0.0439     2.4377     0.1242
  371.5000   -40.4881    14.7010    14.9487    22.8260     7.9566    86.8638     0.0440     2.4363     0.1248
  372.0000   -40.4734    15.7609    15.9174    23.9349     7.9432    85.5409     0.0442     2.4304     0.1265
  372.5000   -40.4585    17.0142    16.8324    24.1068     7.9447    86.8966     0.0443     2.4177     0.1334
  373.0000   -40.2957    18.2409    18.0472    24.7973     7.9462    88.2522     0.0445     2.4133     0.1391
  373.5000   -39.9849    19.9650    19.3498    30.1048     7.9477    86.7805     0.0446     2.4067     0.1420
  374.0000   -39.5262    21.5527    20.6037    32.0906     7.9343    83.8207     0.0448     2.3955     0.1435
  374.5000   -39.0675    22.6623    22.8661    31.9053     7.9358    82.2002     0.0464     2.3859     0.1486
  375.0000   -38.4609    22.3086    25.9076    39.4815     7.9373    81.0261     0.0466     2.3785     0.1551
  375.5000   -38.0022    22.4088    24.6991    38.6952     7.9239    79.5544     0.0467     2.3658     0.1677
  376.0000   -37.6915    24.8649    26.3042    38.9889     7.8807    76.7434     0.0423     2.3524     0.1752
  376.5000   -37.3807    26.9893    31.0627    52.4988     7.8523    73.6348     0.0348     2.3450     0.1829
  377.0000   -37.3658    28.3087    34.7122    46.7140     7.8240    72.7583     0.0269     2.3354     0.1883
  377.5000   -37.3509    26.6211    35.7083    43.0266     7.8255    71.5842     0.0218     2.3280     0.1921
  378.0000   -37.0401    26.2629    37.5013    39.0869     7.8270    70.2613     0.0174     2.3243     0.1891
  378.5000   -36.8773    27.9733    38.3056    41.3325     7.8136    69.5336     0.0191     2.3393     0.1726
  379.0000   -36.7145    30.1978    37.8070    89.0015     7.8151    69.5500     0.0282     2.3589     0.1573
  379.5000   -36.6996    32.9224    39.9803    96.7501     7.8166    69.7152     0.0374     2.4031     0.1345
  380.0000   -36.6847    34.4705    36.8293    56.1103     7.8032    70.3268     0.0465     2.4316     0.1240
  380.5000   -36.6697    30.2546    38.9654    41.4363     7.8047    70.6408     0.0512     2.4406     0.1237
  381.0000   -36.6548    28.0611    41.1850    42.3300     7.8062    71.4013     0.0544     2.4310     0.1272
  381.5000   -36.6399    28.0787    37.6783    44.4540     7.8077    73.5010     0.0575     2.4243     0.1305
  382.0000   -36.6250    30.7327    33.0723    48.3242     7.8092    75.7495     0.0622     2.4169     0.1341
  382.5000   -36.6101    32.2735    29.4328    52.1700     7.8255    77.4028     0.0638     2.4073     0.1373
  383.0000   -36.5952    32.2938    21.7420    40.7143     7.8717    77.8656     0.0670     2.4141     0.1343
  383.5000   -36.5803    31.4344    20.0284    40.1748     7.9030    77.5844     0.0701     2.4224     0.1301
  384.0000   -36.5654    30.5980    20.6032    40.5283     7.9045    76.7079     0.0733     2.4314     0.1250
  384.5000   -36.5505    29.9900    24.1631    41.0680     7.8613    77.3195     0.0780     2.4450     0.1199
  385.0000   -36.5356    29.1920    23.8486    41.0929     7.8330    78.2288     0.0796     2.4592     0.1129
  385.5000   -36.5236    27.8331    25.0460    40.5157     7.8047    76.7570     0.0736     2.4623     0.1135
  386.0000   -36.5089    25.9939    27.2268    40.5505     7.7913    76.0294     0.0633     2.4512     0.1243
  386.5000   -36.4941    25.8273    28.0033    40.5715     7.7928    75.3017     0.0575     2.4296     0.1314
  387.0000   -36.4797    25.3181    25.8008    40.0967     7.7943    75.1693     0.0515     2.4132     0.1383
  387.5000   -36.6127    24.4749    24.6015    39.2535     7.8107    75.9297     0.0458     2.4065     0.1434
  388.0000   -36.5976    22.8576    24.9607    37.4246     7.8122    77.4342     0.0444     2.4014     0.1463
  388.5000   -36.5828    22.0667    26.0338    37.7102     7.8286    78.7899     0.0431     2.3947     0.1505
  389.0000   -36.7160    21.9548    26.7809    35.7034     7.8450    80.4432     0.0386     2.3880     0.1565
  389.5000   -36.7010    22.5836    24.6702    34.0339     7.8464    82.2452     0.0329     2.3806     0.1621
  390.0000   -36.6861    23.4125    24.0113    36.0006     7.8479    81.0712     0.0298     2.3732     0.1636
  390.5000   -36.6712    24.0602    25.2176    37.4184     7.8494    79.0042     0.0240     2.3711     0.1648
  391.0000   -36.6563    24.0763    24.8506    34.2394     7.8509    76.3420     0.0183     2.3704     0.1660
  391.5000   -36.6414    22.7967    23.7094    36.7268     7.8524    74.7215     0.0152     2.3690     0.1671
  392.0000   -36.6265    22.0375    22.9391    35.2719     7.8688    73.2498     0.0111     2.3675     0.1674
  392.5000   -36.6116    21.8993    22.1807    36.2980     7.9001    76.0935     0.0098     2.3669     0.1653
  393.0000   -36.7484    21.6126    22.0433    37.6031     7.9016    77.8956     0.0084     2.3722     0.1628
  393.5000   -36.7297    21.6267    22.0589    35.6271     7.9329    79.4001     0.0070     2.3685     0.1679
  394.0000   -36.7148    22.2458    22.6920    33.9801     7.9195    78.6725     0.0072     2.3574     0.1718
  394.5000   -36.8479    23.3611    23.9964    33.5398     7.8614    78.2424     0.0058     2.3522     0.1736
  395.0000   -36.8330    24.8732    25.3757    35.2476     7.8480    78.4076     0.0060     2.3590     0.1717
  395.5000   -36.8180    25.9407    27.0201    35.2841     7.8047    79.0192     0.0076     2.3636     0.1699
  396.0000   -36.8031    24.7332    25.4111    34.8269     7.7913    79.7797     0.0048     2.3577     0.1720
  396.5000   -36.9399    23.5819    23.8980    33.4560     7.7928    81.4329     0.0034     2.3637     0.1696
  397.0000   -37.2208    22.9508    23.2596    31.6897     7.8092    81.1517     0.0036     2.3668     0.1686
  397.5000   -37.2022    22.9688    24.7630    32.8376     7.8405    79.2336     0.0038     2.3564     0.1722
  398.0000   -37.3390    22.6682    24.6130    33.5601     7.8420    76.7202     0.0024     2.3497     0.1731
  398.5000   -37.4683    20.5941    23.3088    31.5695     7.8882    78.2247     0.0026     2.3633     0.1697
  399.0000   -37.6050    20.4621    22.3809    31.3765     7.9195    81.2172     0.0027     2.3723     0.1640
  399.5000   -37.8860    20.4781    22.7113    31.8543     7.9359    83.0193     0.0044     2.3709     0.1643
  400.0000   -37.8671    20.3501    22.4183    31.2332     7.9523    84.0774     0.0075     2.3709     0.1655
  400.5000   -38.2945    19.9441    21.5259    27.8005     7.9334    86.0284     0.0076     2.3681     0.1669
