~VERSION INFORMATION
 VERS.                2.0:   CWLS LOG ASCII STANDARD - VERSION 2.0
 WRAP.                 NO:   ONE LINE PER DEPTH STEP
~WELL INFORMATION
#MNEM.UNIT      DATA TYPE    INFORMATION
#----------   ------------   ------------------------------
 STRT.F           32.0000:   START DEPTH
 STOP.F          502.0000:   STOP DEPTH
 STEP.F            0.5000:   STEP LENGTH
 NULL.          -999.2500:   NO VALUE
 COMP.    FENIX & SCISSON:   COMPANY
 WELL. NPR # #3 65-36-SX-3-FP:   WELL
 FLD .             TEAPOT:   FIELD
 LOC .       S3 T38N R78W:   LOCATION
 CNTY.            NATRONA:   COUNTY
 STAT.            WYOMING:   STATE
 CTRY. UNITED STATES OF AMERICA:   COUNTRY
 SRVC.              Welex:   SERVICE COMPANY
 DATE.        15-JUN-1980:   LOGDATE
 API .       490251082600:   API NUMBER
~CURVE INFORMATION
#MNEM.UNIT       API CODE    CURVE DESCRIPTION
#----------   ------------   ------------------------------
 DEPT.F                  :   
 CALD.IN     45 280 60 00:   CALIPER FROM DENSITY LOG
 CORR.G/C3   45 356 01 00:   DENSITY CORRECTION
 DPHI.DEC    45 890 12 00:   DENSITY POROSITY SANDSTONE
 GRD .GAPI   45 310 01 00:   GAMMA RAY FROM DENSITY LOG
 RHOB.G/C3   45 350 01 00:   BULK DENSITY
 NPHI.DEC    42 890 03 00:   NEUTRON POROSITY SANDSTONE
 ILD .OHMM   07 120 46 00:   INDUCTION LOG DEEP
 ILM .OHMM   07 120 44 00:   INDUCTION LOG MEDIUM
 SGRD.OHMM   07 220 05 00:   SHALLOW GUARD RESISTIVITY
 SPR .MV     07 010 01 00:   SPONTANEOUS POTENTIAL FROM RES.
~PARAMETER INFORMATION
#MNEM.UNIT          VALUE    DESCRIPTION
#----------   ------------   ------------------------------
 PD  .                 GL:   PERMANENT DATUM
 EPD .F              5159:   ELEVATION PERMANENT DATUM
 LMF .                 KB:   LOG MEASURED FROM
 DAPD.F                 5:   FEET ABOVE PERMANENT DATUM
 DMF .                 KB:   DRILLING MEASURED FROM
 EKB .F              5164:   KELLING BUSHING
 EGL .F              5159:   GROUND LEVEL
 DATE.            6-15-80:   RUN DATE
 RUN .                  1:   RUN NUMBER
 DD  .F               505:   DEPTH DRILLER
 DL  .F               504:   DEPTH LOGGER
 BLI .F               502:   BOTTOM LOG INTERVAL
 TLI .F                30:   TOP LOG INTERVAL
 BS  .IN            9.875:   BIT SIZE
 BSD .F               505:   BIT SIZE AT DEPTH
 DFT .             2% KCL:   DRILLING FLUID TYPE
 DFD .                9.4:   DRILLING FLUID DENSITY
 DFV .                 51:   DRILLING FLUID VISCOSITY
 DFPH.                 12:   DRILLING FLUID PH
 DFL .                5.6:   DRILLING FLUID LOSS
 MSS .           FLOWLINE:   MUD SAMPLE SOURCE
 RMS .OHMM            .36:   RESISTIVITY MUD SAMPLE
 MST .F                65:   MUD SAMPLE TEMPERATURE
 RMF .OHMM            .29:   RESISTIVITY MUD FILTRATE SAMPLE
 MFST.F                65:   MUD FILTRATE SAMPLE TEMPERATURE
 RMC .OHMM            .42:   RESISTIVITY MUD CAKE
 MCST.F                65:   MUD CAKE SAMPLE TEMPERATURE
 MFSS.           MEASURED:   MUD FILTRATE SAMPLE SOURCE
 MCSS.           MEASURED:   MUD CAKE SAMPLE SOURCE
 RMB .OHMM            .32:   RESISTIVITY MUD AT BHT
 BHT .F                74:   BOTTOM HOLE TEMPERATURE
 TCS .HRS               2:   TIME CURCULATED STOPPED
 MRT .F                74:   MAXIMUM RECORDED TEMPERATURE
 LUN .               1892:   LOGGING UNIT NUMBER
 LUL .             CASPER:   LOGGING UNIT LOCATION
 ENGI.               REIN:   RECORDING ENGINEER
 WITN.              AMEND:   WITNESSED BY
 CLNT.            A2DTECH:   CLIENT CODE
 ORIG.       2", 5" PRINT:   ORIGIN OF DATA
 UWI .       490251082600:   UNIQUE WELL ID
 DICO. A2D Technologies, Inc.:   DIGITIZING COMPANY
~OTHER INFORMATION
~A   DEPT     CALD       CORR       DPHI        GRD       RHOB       NPHI         ILD         ILM       SGRD      SPR   
# ...
  434.0000     9.9935     0.0732     0.1155    99.6524     2.4623     0.3001     5.2488     5.5970     8.7612   -35.1522
  434.5000    10.0094     0.0673     0.1185   101.2867     2.4489     0.2940     5.2841     5.6736    12.7095   -34.4386
  435.0000    10.0252     0.0508     0.1199   101.3569     2.4452     0.2883     5.4683     5.8304    12.9717   -33.7250
  435.5000    10.0261     0.0463     0.1166    96.5906     2.4455     0.2847     5.7839     6.1278    12.9684   -32.8687
  436.0000    10.0271     0.0480     0.1037    93.6527     2.4604     0.2822     6.1881     6.5968    12.8751   -32.2984
  436.5000    10.0283     0.0662     0.0895    91.3047     2.4926     0.2816     6.7205     7.2135    12.9617   -31.5847
  437.0000    10.0294     0.0845     0.0787    90.7236     2.5247     0.2810     7.1987     7.8878    13.0471   -31.0143
  437.5000    10.0278     0.1012     0.0786    91.4759     2.5330     0.2804     7.9403     8.8657    13.3163   -30.5873
  438.0000    10.0164     0.1089     0.0708    93.7002     2.5458     0.2803     8.5490     9.5617    13.0395   -30.5903
  438.5000    10.0177     0.1057     0.0711    94.8920     2.5481     0.2806     9.0944     9.8271    12.9465   -30.4501
  439.0000    10.0038     0.1031     0.0689    95.4939     2.5474     0.2809     9.3473    10.0292    12.9432   -30.4530
  439.5000     9.9901     0.1062     0.0689    95.6503     2.5535     0.2811     9.4097    10.0954    12.9398   -30.1696
  440.0000     9.9823     0.1124     0.0700    94.3377     2.5498     0.2814     9.4730    10.0927    12.9356   -30.1146
  440.5000     9.9774     0.1019     0.0751    93.3171     2.5416     0.2808     9.5366    10.0901    13.0226   -30.0311
  441.0000     9.9785     0.0990     0.0795    92.7390     2.5312     0.2783     9.7336    10.3335    13.1790   -30.0345
  441.5000     9.9795     0.1022     0.0822    92.6004     2.5215     0.2762     9.8724    10.5108    13.4714   -30.1805
  442.0000     9.9805     0.0796     0.0836    93.0577     2.5133     0.2753    10.0018    10.6540    13.7494   -30.1838
  442.5000     9.9816     0.0599     0.0977    96.1670     2.5009     0.2754     9.9994    10.8738    13.7449   -30.0426
  443.0000     9.9826     0.0648     0.0988    95.5889     2.4932     0.2791     9.9974    10.8703    13.7414   -30.0459
  443.5000     9.9836     0.0921     0.0865    94.4208     2.5202     0.2803     9.9268    10.7921    13.6434   -29.9054
  444.0000     9.9847     0.1058     0.0780    91.1879     2.5308     0.2788     9.8562    10.7893    13.8293   -29.9087
  444.5000     9.9857     0.1044     0.0780    91.0493     2.5308     0.2775     9.8545    10.7125    14.2110   -30.0547
  445.0000    10.0015     0.1076     0.0768    91.8016     2.5369     0.2874    10.1275    10.6360    14.8073   -30.0574
  445.5000    10.0173     0.1137     0.0767    93.2884     2.5407     0.2904    10.1256    10.6326    14.6008   -30.0602
  446.0000    10.0183     0.0987     0.0782    95.8047     2.5265     0.2906    10.1236    10.6299    14.3971   -30.0630
  446.5000    10.0341     0.0807     0.0856    92.9047     2.5206     0.2891    10.1216    10.6271    14.1953   -30.0662
  447.0000    10.0499     0.0763     0.0937    91.8461     2.4974     0.2870    10.2601    10.6243    14.0942   -30.0076
  447.5000    10.0509     0.0764     0.0999    92.3599     2.4937     0.2876    10.3291    10.7684    13.9937   -29.9283
  448.0000    10.0201     0.0766     0.1029    94.0138     2.4863     0.2881    10.3266    10.8408    14.0869   -29.0721
  448.5000     9.9790     0.0767     0.1061    96.0354     2.4819     0.2851    10.2537    10.9123    14.4760   -27.6421
  449.0000     9.9803     0.0783     0.1055    96.7847     2.4827     0.2815    10.3935    11.0609    14.7747   -27.0717
  449.5000     9.9813     0.0784     0.1033    98.1160     2.4850     0.2772    10.5357    11.2108    14.8731   -27.2178
  450.0000     9.9971     0.0831     0.1078    99.5190     2.4731     0.2763    10.6678    11.2854    14.9721   -27.6509
  450.5000    10.0080     0.0650     0.1123   101.0184     2.4537     0.2790    10.6342    11.3606    14.7097   -28.2613
  451.0000    10.0198     0.0620     0.1038   101.6691     2.4552     0.2799    10.6006    11.2788    14.5302   -28.7909
  451.5000    10.0292     0.0940     0.0927    98.1404     2.4882     0.2780    10.5671    11.4329    13.7713   -28.7875
  452.0000    10.0006     0.0987     0.0860    95.1209     2.5085     0.2771    10.5335    11.4292    13.5792   -28.7421
  452.5000    10.0015     0.1079     0.0845    94.1544     2.5145     0.2762    10.4999    11.5053    13.7651   -28.6395
  453.0000     9.9874     0.1110     0.0835    93.4452     2.5191     0.2755    10.4663    11.5023    14.0546   -28.7794
  453.5000     9.9736     0.1096     0.0892    93.4543     2.5214     0.2752    10.4328    11.4993    14.7379   -28.7765
  454.0000     9.9747     0.0961     0.0990    93.3136     2.4975     0.2764    10.3992    11.4955    14.9396   -28.7733
  454.5000     9.9756     0.0630     0.1008    92.7346     2.4916     0.2805    10.3765    11.4925    14.4287   -28.9146
  455.0000     9.9617     0.0632     0.1007    91.2686     2.4811     0.2813    10.3039    11.4106    14.6252   -29.3410
  455.5000     9.9625     0.0663     0.0975    90.6876     2.4932     0.2816     9.9535    11.0973    14.6204   -29.4981
  456.0000     9.9635     0.0936     0.0852    90.5487     2.5090     0.2801     9.8838    10.8573    14.6171   -29.9086
  456.5000     9.9496     0.0998     0.0841    90.8529     2.5180     0.2821     9.9509    10.7150    14.6128   -29.9052
  457.0000     9.9504     0.0818     0.0901    91.4518     2.5083     0.2878     9.9493    10.7123    14.6090   -29.9025
  457.5000     9.9515     0.0788     0.0906    93.5257     2.5061     0.2857    10.0168    10.7843    14.1094   -29.6012
  458.0000     9.9522     0.0760     0.0930    94.7123     2.5047     0.2808    10.0155    10.7807    13.4412   -29.3234
  458.5000     9.9532     0.0640     0.1016    90.8887     2.4831     0.2826     9.9451    10.7032    12.8046   -29.0341
  459.0000     9.9540     0.0475     0.0977    90.6004     2.4854     0.2848     9.6733    10.5539    12.6260   -29.0314
  459.5000     9.9549     0.0370     0.1021    91.2015     2.5011     0.2858     9.4090    10.4786    12.5359   -29.0287
  460.0000     9.9558     0.0356     0.1030    92.3904     2.4787     0.2855     9.2789    10.2615    12.5319   -29.0258
  460.5000     9.9568     0.0428     0.0943    93.2843     2.4908     0.2831     9.1504     9.9791    12.7034   -29.0635
  461.0000     9.9575     0.0676     0.0948    93.2933     2.4991     0.2818     9.1492     9.8399    12.7880   -29.3071
  461.5000     9.9584     0.0647     0.0945    93.8922     2.4946     0.2839     9.0227     9.7698    12.6058   -29.5998
  462.0000     9.9611     0.0648     0.0911    95.0810     2.4977     0.2865     8.9587     9.7001    12.2618   -30.1600
  462.5000     9.9937     0.0861     0.0818    96.4174     2.5165     0.2886     8.7748     9.6303    12.0907   -30.4441
  463.0000    10.0201     0.0832     0.0896    97.0163     2.5233     0.2904     8.7736     9.6278    11.6780   -30.7283
  463.5000    10.0209     0.0652     0.0907    97.1728     2.5001     0.2927     8.8332     9.6925    11.4360   -30.7249
  464.0000    10.0218     0.0623     0.0852    96.5895     2.5174     0.2984     8.8320     9.7564    11.4323   -30.7215
  464.5000    10.0227     0.0775     0.0822    96.3034     2.5219     0.3002     8.8096     9.8213    11.5084   -31.0053
  465.0000    10.0236     0.0777     0.0822    96.3520     2.5220     0.2982     8.7870     9.7507    11.5054   -31.1459
  465.5000    10.0245     0.0838     0.0776    98.3077     2.5245     0.2983     8.7676     9.6812    11.5024   -31.1433
  466.0000    10.0254     0.1020     0.0773   100.1809     2.5378     0.2947     8.7665     9.5461    11.6003   -31.1945
  466.5000    10.0263     0.0810     0.0847   100.6185     2.5276     0.2937     8.7051     9.4108    12.0648   -31.6199
  467.0000    10.0124     0.0691     0.0904   101.0679     2.5136     0.2946     8.6439     9.1539    12.0609   -32.1379
