~VERSION INFORMATION
 VERS.                2.0:   CWLS LOG ASCII STANDARD - VERSION 2.0
 WRAP.                 NO:   ONE LINE PER DEPTH STEP
~WELL INFORMATION
#MNEM.UNIT      DATA TYPE    INFORMATION
#----------   ------------   ------------------------------
 STRT.F           22.0000:   START DEPTH
 STOP.F          500.0000:   STOP DEPTH
 STEP.F            0.5000:   STEP LENGTH
 NULL.          -999.2500:   NO VALUE
 COMP.    FENIX & SCISSON:   COMPANY
 WELL.      NPR-3 #65S3-3:   WELL
 FLD .             teapot:   FIELD
 LOC .       S3 T38N R78W:   LOCATION
 CNTY.            NATRONA:   COUNTY
 STAT.            WYOMING:   STATE
 CTRY. UNITED STATES OF AMERICA:   COUNTRY
 SRVC.           BIRDWELL:   SERVICE COMPANY
 DATE.        07-JAN-1978:   LOGDATE
 API .       490251055200:   API NUMBER
~CURVE INFORMATION
#MNEM.UNIT       API CODE    CURVE DESCRIPTION
#----------   ------------   ------------------------------
 DEPT.F                  :   
 ILD .OHMM   05 120 46 00:   INDUCTION LOG DEEP
 SN  .OHMM   05 040 16 00:   SHORT NORMAL 16"
 SPR .MV     05 010 01 00:   SPONTANEOUS POTENTIAL FROM RES.
 CALD.IN     45 280 60 00:   CALIPER FROM DENSITY LOG
 DPHI.DEC    45 890 12 00:   DENSITY POROSITY SANDSTONE
 DRHO.G/C3   45 356 01 00:   DENSITY CORRECTION
 GRD .GAPI   45 310 01 00:   GAMMA RAY FROM DENSITY LOG
 RHOB.G/C3   45 350 01 00:   BULK DENSITY
~PARAMETER INFORMATION
#MNEM.UNIT          VALUE    DESCRIPTION
#----------   ------------   ------------------------------
 PD  .                 GL:   PERMANENT DATUM
 EPD .F              5156:   ELEVATION PERMANENT DATUM
 LMF .                 KB:   LOG MEASURED FROM
 DAPD.F                 4:   FEET ABOVE PERMANENT DATUM
 DMF .                 KB:   DRILLING MEASURED FROM
 EKB .F              5160:   KELLING BUSHING
 EGL .F              5156:   GROUND LEVEL
 DATE.        07-JAN-1978:   RUN DATE
 RUN .                  1:   RUN NUMBER
 DD  .F               500:   DEPTH DRILLER
 DL  .F               502:   DEPTH LOGGER
 BLI .F               500:   BOTTOM LOG INTERVAL
 TLI .F                30:   TOP LOG INTERVAL
 CS  .IN            8.625:   CASING SIZE
 CBD .F                40:   CASING BOTTOM DRILLER
 CBL .F                40:   CASING BOTTOM LOGGER
 BS  .IN            7.875:   BIT SIZE
 BSD .F               500:   BIT SIZE AT DEPTH
 DFT .                KCL:   DRILLING FLUID TYPE
 DFD .                8.6:   DRILLING FLUID DENSITY
 DFV .                 33:   DRILLING FLUID VISCOSITY
 DFPH.                9.0:   DRILLING FLUID PH
 DFL .                7.6:   DRILLING FLUID LOSS
 MSS .           FLOWLINE:   MUD SAMPLE SOURCE
 RMS .OHMM           0.23:   RESISTIVITY MUD SAMPLE
 MST .F                60:   MUD SAMPLE TEMPERATURE
 RMF .OHMM            2.2:   RESISTIVITY MUD FILTRATE SAMPLE
 MFST.F                60:   MUD FILTRATE SAMPLE TEMPERATURE
 RMC .OHMM            3.4:   RESISTIVITY MUD CAKE
 MCST.F                60:   MUD CAKE SAMPLE TEMPERATURE
 MFSS.               MEAS:   MUD FILTRATE SAMPLE SOURCE
 MCSS.               MEAS:   MUD CAKE SAMPLE SOURCE
 RMB .OHMM            1.9:   RESISTIVITY MUD AT BHT
 BHT .F                71:   BOTTOM HOLE TEMPERATURE
 TCS .HRS               8:   TIME CURCULATED STOPPED
 MRT .F                71:   MAXIMUM RECORDED TEMPERATURE
 LUN .               2958:   LOGGING UNIT NUMBER
 LUL .             CASPER:   LOGGING UNIT LOCATION
 ENGI.            POINTER:   RECORDING ENGINEER
 WITN.      DAVE MCGINLEY:   WITNESSED BY
 CLNT.            A2DTECH:   CLIENT CODE
 ORIG.           5" PRINT:   ORIGIN OF DATA
 UWI .       490251055200:   UNIQUE WELL ID
 DICO. A2D Technologies, Inc.:   DIGITIZING COMPANY
~OTHER INFORMATION
~A   DEPT      ILD         SN        SPR       CALD       DPHI       DRHO         GRD      RHOB   
# ...
  265.0000     7.8774    12.6392   -40.4275     8.0523     0.0930     0.0106   103.4028     2.5033
  265.5000     7.8712    12.6273   -40.9125     8.0523     0.0918     0.0137   101.3145     2.5003
  266.0000     8.0276    12.6153   -40.0201     8.0522     0.0837     0.0227   101.0714     2.4876
  266.5000     8.0777    12.6034   -40.1963     8.0522     0.0792     0.0273   101.9643     2.4974
  267.0000     8.0114    12.5915   -40.3726     8.0521     0.0759     0.0303   102.8571     2.5071
  267.5000     8.0033    12.5796   -40.2436     8.0521     0.0789     0.0318   103.1548     2.5132
  268.0000     7.9952    12.5673   -40.7311     8.0520     0.0758     0.0303   103.1548     2.5154
  268.5000     7.9871    12.5528   -41.0601     8.0520     0.0782     0.0251   103.1548     2.5162
  269.0000     7.9788    12.5409   -41.2364     8.0519     0.0824     0.0206   103.1548     2.5132
  269.5000     8.0268    12.5291   -41.4127     8.0519     0.0851     0.0206   103.1548     2.5035
  270.0000     8.0749    12.5172   -41.4363     8.0518     0.0860     0.0198   102.2619     2.5005
  270.5000     8.4095    12.5054   -41.4599     8.0518     0.0882     0.0183   100.7738     2.5005
  271.0000     8.6387    12.4066   -41.4840     8.0517     0.0914     0.0153    99.2857     2.5006
  271.5000     8.8126    12.4818   -41.5131     8.0516     0.0930     0.0137    98.3929     2.4901
  272.0000     8.8654    12.4670   -41.5367     8.0516     0.0951     0.0124    98.0952     2.4886
  272.5000     8.9808    12.4552   -41.7130     8.0515     0.1010     0.0116    98.0952     2.4871
  273.0000     8.7837    12.5336   -41.8893     8.0515     0.1039     0.0124    99.5833     2.4797
  273.5000     8.3565    12.6065   -41.7543     8.0514     0.1051     0.0169   101.9643     2.4707
  274.0000     7.4143    12.4199   -41.9365     8.0514     0.1072     0.0237   104.6429     2.4692
  274.5000     6.1780    12.1509   -41.9603     8.0513     0.1123     0.0328   106.4286     2.4677
  275.0000     6.0439    11.5603   -41.9837     8.0513     0.1195     0.0373   107.0238     2.4602
  275.5000     6.0801    10.7502   -41.8547     8.0512     0.1327     0.0336   107.0238     2.4483
  276.0000     6.0315    10.0322   -41.7256     8.0512     0.1495     0.0162   105.8333     2.4295
  276.5000     6.0240     9.9529   -41.4439     8.0511     0.1768    -0.0403   104.0476     2.3883
  277.0000     6.0180    10.1540   -40.8628     8.0511     0.1735    -0.0478    98.6905     2.3576
  277.5000     6.0555    10.4318   -40.1230     8.0510     0.1171    -0.0041    96.9048     2.3477
  278.0000     6.4398    11.5718   -39.8413     8.0510     0.0933     0.0050    98.6905     2.4221
  278.5000     7.3968    12.2251   -40.0183     8.0509     0.0912     0.0095    96.0119     2.4829
  279.0000     8.4368    13.2810   -38.8257     8.0509     0.0903     0.0118    93.6310     2.4882
  279.5000     9.1880    14.1291   -38.5440     8.0508     0.0924     0.0111    93.3333     2.4912
  280.0000    10.1627    14.6173   -38.5676     8.0060     0.0942     0.0126    95.1190     2.4905
  280.5000    10.4424    15.0306   -38.1332     8.0064     0.0957     0.0134    96.0119     2.4845
  281.0000    10.2847    15.4242   -37.6929     7.9921     0.0984     0.0149    95.1190     2.4838
  281.5000     9.9916    15.6300   -37.4171     7.9934     0.1022     0.0164    93.3333     2.4838
  282.0000    10.0514    15.8349   -37.1354     7.9946     0.1052     0.0194    91.2500     2.4831
  282.5000    10.3254    16.0424   -36.7069     7.9958     0.1085     0.0232    89.1667     2.4737
  283.0000    10.8502    16.4773   -36.1199     7.9971     0.1115     0.0270    86.1905     2.4626
  283.5000    11.4386    16.9280   -35.2274     7.9983     0.1157     0.0316    82.6190     2.4529
  284.0000    11.9991    17.6519   -34.4877     7.9996     0.1229     0.0414    76.3690     2.4422
  284.5000    12.8532    18.6267   -33.7480     8.0008     0.1361     0.0565    67.1429     2.4287
  285.0000    13.9616    19.5413   -33.0082     8.0020     0.1505     0.0640    63.2738     2.4167
  285.5000    15.8141    20.6445   -32.4158     8.0033     0.1637     0.0535    64.7619     2.3982
  286.0000    18.4192    21.3578   -31.0766     8.0045     0.1871     0.0248    65.9524     2.3707
  286.5000    19.9042    21.9420   -29.7262     8.0057     0.1896     0.0196    65.9524     2.3197
  287.0000    20.4102    22.3853   -28.8338     8.0070     0.1829     0.0166    66.2500     2.3280
  287.5000    20.3845    22.8375   -28.5462     8.0082     0.1709     0.0133    67.7381     2.3468
  288.0000    20.6501    23.6480   -28.2645     8.0094     0.1540     0.0453    69.5238     2.3693
  288.5000    21.3616    24.6084   -27.9886     8.0107     0.1657     0.0340    69.5387     2.3881
  289.0000    22.4082    24.9309   -27.8595     8.0119     0.1979     0.0302    67.7381     2.3656
  289.5000    22.7002    25.4346   -27.5779     8.0132     0.2138     0.0265    67.7381     2.3251
  290.0000    22.9959    25.5947   -27.3020     8.0144     0.2234     0.0084    68.9286     2.2951
  290.5000    23.1335    25.7496   -27.1671     8.0156     0.2282     0.0122    70.7192     2.2741
  291.0000    22.4684    26.0813   -26.8913     8.0169     0.2242     0.0205    71.0119     2.2644
  291.5000    21.9808    26.2388   -26.6036     8.0181     0.2059     0.0235    70.1042     2.2779
  292.0000    21.8059    26.3915   -26.3219     8.0193     0.1951     0.0227    68.9286     2.3170
  292.5000    21.9372    26.5513   -26.5041     8.0206     0.1963     0.0160    70.7390     2.3215
  293.0000    22.6923    27.0941   -26.3751     8.0218     0.1996     0.0160    71.9048     2.3178
  293.5000    23.8490    27.6350   -26.0933     8.0230     0.1929     0.0168    70.6796     2.3185
  294.0000    25.8503    27.9971   -26.1229     8.0243     0.1965     0.0137    69.4444     2.3201
  294.5000    26.9351    28.5637   -26.1465     8.0255     0.2007     0.0098    67.3958     2.3231
  295.0000    27.0963    29.3440   -26.4754     8.0267     0.2025    -0.0007    67.1429     2.3111
  295.5000    27.0621    29.7286   -26.6458     8.0280     0.2013    -0.0013    67.7381     2.3074
  296.0000    27.0348    29.6934   -26.5221     8.0292     0.1941     0.0091    67.4405     2.3119
  296.5000    27.0075    29.8803   -26.3936     8.0305     0.1538     0.0163    66.8452     2.3502
  297.0000    28.4135    29.8450   -26.2646     8.0317     0.1526     0.0229    67.4405     2.3847
  297.5000    30.9815    29.8168   -25.5308     8.0329     0.1532     0.0418    67.4405     2.3907
  298.0000    32.9562    29.7886   -24.9378     8.0342     0.1580     0.0493    66.5476     2.3885
  298.5000    34.1004    29.7604   -24.5093     8.0354     0.2000     0.0365    65.9524     2.3773
  299.0000    33.5854    29.9406   -24.5329     8.0366     0.2162     0.0222    65.6548     2.3533
  299.5000    32.8564    30.1219   -24.7092     8.0379     0.2384     0.0011    66.5476     2.2881
  300.0000    32.1433    30.3043   -25.0409     8.0389     0.2483    -0.0026    68.6319     2.2386
  300.5000    29.7308    29.2315   -24.2898     8.0389     0.2592     0.0020    70.7270     2.2168
  301.0000    28.6803    28.9923   -24.1534     8.0389     0.2409     0.0065    71.9291     2.2319
  301.5000    27.8607    28.7613   -24.0170     8.0389     0.2192     0.0030    72.5361     2.2605
  302.0000    27.2539    28.3336   -24.1901     8.0389     0.2078     0.0066    72.5478     2.2808
  302.5000    26.6604    28.1079   -24.8171     8.0389     0.1876     0.0202    71.3591     2.3221
  303.0000    26.2623    27.4973   -24.9863     8.0389     0.1738     0.0248    69.8926     2.3447
  303.5000    26.0506    27.2783   -25.0295     8.0389     0.1732     0.0218    69.9048     2.3530
  304.0000    25.6556    26.8701   -25.6334     8.0389     0.1774     0.0226    70.5142     2.3471
  304.5000    25.6278    26.4463   -26.1077     8.0389     0.1858     0.0249    71.4187     2.3351
  305.0000    25.4220    26.0728   -26.2767     8.0389     0.1870     0.0242    73.2161     2.3344
