~VERSION INFORMATION
 VERS.                2.0:   CWLS LOG ASCII STANDARD - VERSION 2.0
 WRAP.                 NO:   ONE LINE PER DEPTH STEP
~WELL INFORMATION
#MNEM.UNIT      DATA TYPE    INFORMATION
#----------   ------------   ------------------------------
 STRT.F            4.0000:   START DEPTH
 STOP.F          544.0000:   STOP DEPTH
 STEP.F            0.5000:   STEP LENGTH
 NULL.          -999.2500:   NO VALUE
 COMP. LAWRENCE/ALLISON INC:   COMPANY
 WELL.    72-15 SX #10-10:   WELL
 FLD .             NPR #3:   FIELD
 LOC .      S10 T38N R78W:   LOCATION
 CNTY.            NATRONA:   COUNTY
 STAT.            WYOMING:   STATE
 CTRY. UNITED STATES OF AMERICA:   COUNTRY
 SRVC.           Gearhart:   SERVICE COMPANY
 DATE.        09-JUN-1986:   LOGDATE
 API .       490251107600:   API NUMBER
~CURVE INFORMATION
#MNEM.UNIT       API CODE    CURVE DESCRIPTION
#----------   ------------   ------------------------------
 DEPT.F                  :   
 ILD .OHMM   07 120 46 00:   INDUCTION LOG DEEP
 ILM .OHMM   07 120 44 00:   INDUCTION LOG MEDIUM
 GRR .GAPI   07 310 01 00:   GAMMA RAY FROM RES. LOG.
~PARAMETER INFORMATION
#MNEM.UNIT          VALUE    DESCRIPTION
#----------   ------------   ------------------------------
 PD  .                 GL:   PERMANENT DATUM
 EPD .F              5172:   ELEVATION PERMANENT DATUM
 LMF .                 KB:   LOG MEASURED FROM
 DMF .                 KB:   DRILLING MEASURED FROM
 EGL .F              5172:   GROUND LEVEL
 DATE.             6-9-86:   RUN DATE
 RUN .                  1:   RUN NUMBER
 DD  .F               530:   DEPTH DRILLER
 DL  .F               552:   DEPTH LOGGER
 BLI .F               543:   BOTTOM LOG INTERVAL
 TLI .F                42:   TOP LOG INTERVAL
 CS  .IN            8.625:   CASING SIZE
 CBD .F                42:   CASING BOTTOM DRILLER
 CBL .F                42:   CASING BOTTOM LOGGER
 BS  .IN            7.875:   BIT SIZE
 BSD .F               530:   BIT SIZE AT DEPTH
 DFT .               FOAM:   DRILLING FLUID TYPE
 MSS .               TANK:   MUD SAMPLE SOURCE
 RMB .OHMM            .26:   RESISTIVITY MUD AT BHT
 BHT .F                70:   BOTTOM HOLE TEMPERATURE
 TCS .HRS            0200:   TIME CURCULATED STOPPED
 TLAB.HRS            0327:   TIME LOGGER AT BOTTOM
 MRT .F                70:   MAXIMUM RECORDED TEMPERATURE
 LUN .               7609:   LOGGING UNIT NUMBER
 LUL .           GILLETTE:   LOGGING UNIT LOCATION
 ENGI.         WEATHERMON:   RECORDING ENGINEER
 WITN.              FIVAS:   WITNESSED BY
 CLNT.            A2DTECH:   CLIENT CODE
 ORIG.       2", 5" PRINT:   ORIGIN OF DATA
 UWI .       490251107600:   UNIQUE WELL ID
 DICO. A2D Technologies, Inc.:   DIGITIZING COMPANY
~OTHER INFORMATION
~A    DEPT     ILD        ILM         GRR  
    4.0000  -999.2500  -999.2500    83.3671
    4.5000  -999.2500  -999.2500    80.8846
    5.0000  -999.2500  -999.2500    75.8577
    5.5000  -999.2500  -999.2500    71.8276
    6.0000  -999.2500  -999.2500    66.7892
    6.5000  -999.2500  -999.2500    63.5062
    7.0000  -999.2500  -999.2500    62.0405
    7.5000  -999.2500  -999.2500    60.5583
    8.0000  -999.2500  -999.2500    58.4896
    8.5000  -999.2500  -999.2500    55.0170
    9.0000  -999.2500  -999.2500    53.2352
    9.5000  -999.2500  -999.2500    52.9726
   10.0000  -999.2500  -999.2500    54.1265
   10.5000  -999.2500  -999.2500    55.4324
   11.0000  -999.2500  -999.2500    59.0571
   11.5000  -999.2500  -999.2500    62.8002
   12.0000  -999.2500  -999.2500    66.0429
   12.5000  -999.2500  -999.2500    64.2105
   13.0000  -999.2500  -999.2500    62.0841
   13.5000  -999.2500  -999.2500    61.4677
   14.0000  -999.2500  -999.2500    63.3329
   14.5000  -999.2500  -999.2500    65.1608
   15.0000  -999.2500  -999.2500    66.8455
   15.5000  -999.2500  -999.2500    68.3380
   16.0000  -999.2500  -999.2500    70.5629
   16.5000  -999.2500  -999.2500    72.8809
   17.0000  -999.2500  -999.2500    74.6279
   17.5000  -999.2500  -999.2500    75.0911
   18.0000  -999.2500  -999.2500    74.7252
   18.5000  -999.2500  -999.2500    73.6511
   19.0000  -999.2500  -999.2500    73.6080
   19.5000  -999.2500  -999.2500    74.8217
   20.0000  -999.2500  -999.2500    76.6552
   20.5000  -999.2500  -999.2500    78.5062
   21.0000  -999.2500  -999.2500    80.3556
   21.5000  -999.2500  -999.2500    82.2139
   22.0000  -999.2500  -999.2500    83.4171
   22.5000  -999.2500  -999.2500    84.2079
   23.0000  -999.2500  -999.2500    84.9950
   23.5000  -999.2500  -999.2500    85.7704
   24.0000  -999.2500  -999.2500    86.0014
   24.5000  -999.2500  -999.2500    85.9748
   25.0000  -999.2500  -999.2500    84.2353
   25.5000  -999.2500  -999.2500    82.4901
   26.0000  -999.2500  -999.2500    81.0105
   26.5000  -999.2500  -999.2500    84.9878
   27.0000  -999.2500  -999.2500    89.8881
   27.5000  -999.2500  -999.2500    92.5542
   28.0000  -999.2500  -999.2500    89.2008
   28.5000  -999.2500  -999.2500    86.2085
   29.0000  -999.2500  -999.2500    87.5971
   29.5000  -999.2500  -999.2500    89.2068
   30.0000  -999.2500  -999.2500    88.5514
   30.5000  -999.2500  -999.2500    86.5067
   31.0000  -999.2500  -999.2500    84.5480
   31.5000  -999.2500  -999.2500    87.5682
   32.0000  -999.2500  -999.2500    94.2407
   32.5000  -999.2500  -999.2500   100.2094
   33.0000  -999.2500  -999.2500   102.3270
   33.5000  -999.2500  -999.2500   100.7022
   34.0000  -999.2500  -999.2500    99.0462
   34.5000  -999.2500  -999.2500    98.0213
   35.0000  -999.2500  -999.2500    97.7301
   35.5000  -999.2500  -999.2500    98.0125
   36.0000  -999.2500  -999.2500    99.3093
   36.5000  -999.2500  -999.2500   100.0851
   37.0000  -999.2500  -999.2500    97.4321
   37.5000  -999.2500  -999.2500    94.7608
   38.0000  -999.2500  -999.2500    96.2588
   38.5000  -999.2500  -999.2500    99.2706
   39.0000  -999.2500  -999.2500    99.9145
   39.5000  -999.2500  -999.2500    97.9973
   40.0000  -999.2500  -999.2500    96.1399
   40.5000  -999.2500  -999.2500    95.1503
   41.0000  -999.2500  -999.2500    94.2000
   41.5000  -999.2500  -999.2500    91.8300
   42.0000 100659.6797     8.5382    89.5296
   42.5000 100659.6797     8.7561    87.7845
   43.0000 101604.3594     9.4730    88.2580
   43.5000   525.4141    10.3164    94.2932
   44.0000    32.2078    11.6887   101.1814
   44.5000    10.2545    11.0364   108.0690
   45.0000     6.7252    10.1778   114.0124
   45.5000     5.8010     8.9449   119.9197
   46.0000     5.8010     7.8663   125.8146
   46.5000     6.2372     6.9226   129.6600
   47.0000     6.9967     6.2957   127.6817
   47.5000     8.7808     6.0219   124.4772
   48.0000    11.0200     6.4624   123.2080
   48.5000    11.6887     7.1121   121.8845
   49.0000    10.7247     7.8238   122.0699
   49.5000     9.9408     8.3648   122.1974
   50.0000     9.2094     8.5143   121.0765
   50.5000     8.9986     8.3100   116.7580
   51.0000     8.8927     8.0969   112.4760
   51.5000     8.7774     7.8879   111.3826
   52.0000     8.6632     7.6846   113.3128
   52.5000     8.5288     7.3957   116.0841
   53.0000     8.3478     7.4126   116.7220
   53.5000     8.1714     7.4443   118.4098
   54.0000     7.9987     7.4762   123.1170
   54.5000     7.8221     7.5082   128.1661
   55.0000     7.8356     7.5403   129.6347
   55.5000     7.8498     7.5726   125.7304
   56.0000     7.8639     7.6059   120.6470
   56.5000     7.8782     7.6523   115.6007
   57.0000     7.8924     7.7003   113.9771
   57.5000     8.0260     7.7494   112.8505
   58.0000     8.1954     7.8528   114.3362
   58.5000     8.3683     7.9591   121.9951
   59.0000     8.5449     8.0667   125.6396
   59.5000     8.7252     8.1758   123.4034
   60.0000     8.9094     8.3439   120.5940
   60.5000     9.0974     8.5288   122.2525
   61.0000     9.2438     8.7179   124.7349
   61.5000     9.3652     8.9114   121.5468
   62.0000     9.4882     9.1091   117.4687
   62.5000     9.6066     9.3418   113.3247
   63.0000     9.5811     9.2942   111.6165
   63.5000     9.5511     9.2213   112.4246
   64.0000     9.5212     9.1492   113.9147
   64.5000     9.4915     9.0778   116.6451
   65.0000     9.4618     9.0070   117.7223
   65.5000     9.4288     8.9573   117.1170
   66.0000     9.5077     8.9107   117.2882
   66.5000     9.5975     8.8643   118.0215
   67.0000     9.6885     8.8313   119.3941
   67.5000     9.7866     8.8316   120.3508
   68.0000     9.9198     8.9024   121.0857
   68.5000    10.1077     9.0028   121.5289
   69.0000    10.2995     9.1041   119.8583
   69.5000    10.4950     9.2065   117.4230
   70.0000    10.6941     9.3761   115.4805
   70.5000    10.8970     9.7460   113.8275
   71.0000    11.0777    10.1306   114.3371
   71.5000    11.2526    10.5473   115.5370
   72.0000    11.4413    10.7604   116.6438
   72.5000    11.6530    10.9875   115.2362
   73.0000    11.8687    11.2194   113.2114
   73.5000    12.0883    11.4563   111.7595
   74.0000    12.3120    11.6976   111.4541
   74.5000    12.5398    11.9234   113.3746
   75.0000    12.7719    12.1382   115.3215
   75.5000    13.0082    12.3568   116.1487
   76.0000    13.1978    12.5795   115.5970
   76.5000    13.4391    12.8061   113.8175
   77.0000    13.6818    13.0368   111.5700
   77.5000    13.9289    13.2716   109.3062
   78.0000    14.1804    13.5107   106.9883
   78.5000    14.3624    13.7541   105.5734
   79.0000    14.5321    14.0890   105.2883
   79.5000    14.7633    14.0059   106.1478
   80.0000    14.7014    13.8731   107.0761
   80.5000    14.6075    13.7432   107.3841
   81.0000    14.5142    13.6148   105.5147
   81.5000    14.4215    13.4862   103.6131
   82.0000    14.2920    13.3545   101.5217
   82.5000    14.0699    13.2179   103.6932
   83.0000    13.8513    13.0836   106.9864
   83.5000    13.6360    12.9507   109.5193
   84.0000    13.4444    12.7138   109.7770
   84.5000    13.3868    12.7270   107.2545
   85.0000    13.3201    12.7416   104.7785
   85.5000    13.2547    12.7563   102.6661
   86.0000    13.1978    12.7709   103.2424
   86.5000    13.3260    12.7855   104.2420
   87.0000    13.4403    12.8002   104.4685
   87.5000    13.5556    12.8146   101.9736
   88.0000    13.7003    12.8312    97.7423
   88.5000    13.5406    12.7680    93.5312
   89.0000    13.4829    12.6826    93.3329
   89.5000    13.3660    12.5956    95.6804
   90.0000    13.1511    12.3720    97.3941
   90.5000    12.9398    12.1466    96.9410
   91.0000    12.7318    11.9253    96.8998
   91.5000    12.5272    11.7070    99.6307
   92.0000    12.3259    11.5658   102.3198
   92.5000    12.1673    11.5288   104.7814
   93.0000    12.0360    11.4931   104.0420
   93.5000    11.9091    11.4572   103.2559
   94.0000    11.8652    11.4214   103.8523
   94.5000    11.8224    11.3857   106.1347
