~VERSION INFORMATION
 VERS.                2.0:   CWLS LOG ASCII STANDARD - VERSION 2.0
 WRAP.                 NO:   ONE LINE PER DEPTH STEP
~WELL INFORMATION
#MNEM.UNIT      DATA TYPE    INFORMATION
#----------   ------------   ------------------------------
 STRT.F           99.0000:   START DEPTH
 STOP.F          750.0000:   STOP DEPTH
 STEP.F            0.5000:   STEP LENGTH
 NULL.          -999.2500:   NO VALUE
 COMP. U S NAVY/INTEX OIL CO:   COMPANY
 WELL.    NRP #3 #43-S-11:   WELL
 FLD .             TEAPOT:   FIELD
 LOC .      S11 T38N R78W:   LOCATION
 CNTY.            NATRONA:   COUNTY
 STAT.            WYOMING:   STATE
 CTRY. UNITED STATES OF AMERICA:   COUNTRY
 SRVC.       Schlumberger:   SERVICE COMPANY
 DATE.        12-JUL-1962:   LOGDATE
 API .       490250636100:   API NUMBER
~CURVE INFORMATION
#MNEM.UNIT       API CODE    CURVE DESCRIPTION
#----------   ------------   ------------------------------
 DEPT.F                  :   
 SPR .MV     05 010 01 00:   SPONTANEOUS POTENTIAL FROM RES.
 CILD.MMHO   05 110 46 00:   CONDUCTIVITY INDUCTION LOG DEEP
 ILD .OHMM   05 120 46 00:   INDUCTION LOG DEEP
 ASN .OHMM   05 041 16 00:   AMPLIFIED SHORT NORMAL 16"
 GR  .GAPI   30 310 01 00:   GAMMA RAY
~PARAMETER INFORMATION
#MNEM.UNIT          VALUE    DESCRIPTION
#----------   ------------   ------------------------------
 EPD .F              5177:   ELEVATION PERMANENT DATUM
 LMF .                 KB:   LOG MEASURED FROM
 DAPD.F                 5:   FEET ABOVE PERMANENT DATUM
 DMF .                 KB:   DRILLING MEASURED FROM
 EKB .F              5182:   KELLING BUSHING
 EGL .F              5177:   GROUND LEVEL
 DATE.          7-12-1962:   RUN DATE
 RUN .                  1:   RUN NUMBER
 DD  .F               750:   DEPTH DRILLER
 DL  .F               751:   DEPTH LOGGER
 BLI .F               750:   BOTTOM LOG INTERVAL
 TLI .F               100:   TOP LOG INTERVAL
 CBD .F                10:   CASING BOTTOM DRILLER
 BS  .IN             6.75:   BIT SIZE
 BSD .F               750:   BIT SIZE AT DEPTH
 DFT .           OIL EMUL:   DRILLING FLUID TYPE
 DFD .               10.2:   DRILLING FLUID DENSITY
 DFV .                 40:   DRILLING FLUID VISCOSITY
 DFL .                4.6:   DRILLING FLUID LOSS
 RMS .OHMM            5.2:   RESISTIVITY MUD SAMPLE
 MST .F                82:   MUD SAMPLE TEMPERATURE
 RMF .OHMM            3.7:   RESISTIVITY MUD FILTRATE SAMPLE
 MFST.F                82:   MUD FILTRATE SAMPLE TEMPERATURE
 RMC .OHMM            5.8:   RESISTIVITY MUD CAKE
 MCST.F                80:   MUD CAKE SAMPLE TEMPERATURE
 TCS .HRS              .5:   TIME CURCULATED STOPPED
 LUN .               2523:   LOGGING UNIT NUMBER
 LUL .               CSPR:   LOGGING UNIT LOCATION
 ENGI.           ELLERMAN:   RECORDING ENGINEER
 WITN.          JORGENSON:   WITNESSED BY
 CLNT.            A2DTECH:   CLIENT CODE
 ORIG.       2", 5" PRINT:   ORIGIN OF DATA
 UWI .       490250636100:   UNIQUE WELL ID
 DICO. A2D Technologies, Inc.:   DIGITIZING COMPANY
~OTHER INFORMATION
~A   DEPT      SPR       CILD        ILD          ASN       GR   
# ...
  221.0000   -59.1051   163.9920     4.8777     5.4934  -999.2500
  221.5000   -58.1563   165.2074     4.8675     5.4262  -999.2500
  222.0000   -57.1917   166.2025     4.8572     5.4182  -999.2500
  222.5000   -57.0144   167.1977     4.8470     5.4458  -999.2500
  223.0000   -57.0137   168.1928     4.8367     5.4733  -999.2500
  223.5000   -57.0014   169.1880     4.8265     5.5012  -999.2500
  224.0000   -56.7265   170.1831     4.8162     5.5262  -999.2500
  224.5000   -56.4341   171.1782     4.8060     5.5144  -999.2500
  225.0000   -57.1141   172.1734     4.7957     5.4615  -999.2500
  225.5000   -57.4547   173.1685     4.7854     5.4109  -999.2500
  226.0000   -56.7707   174.1637     4.7748     5.3585  -999.2500
  226.5000   -56.6640   175.0251     4.7656     5.3108  -999.2500
  227.0000   -55.9129   174.7777     4.8210     5.2840  -999.2500
  227.5000   -54.6255   173.0859     4.8821     5.2860  -999.2500
  228.0000   -55.3522   171.3974     4.9431     5.2969  -999.2500
  228.5000   -56.5583   169.7021     5.0036     5.4796  -999.2500
  229.0000   -56.9497   167.4023     5.0669     5.7046  -999.2500
  229.5000   -56.6614   164.6538     5.1912     5.7508  -999.2500
  230.0000   -56.4872   162.0313     5.3180     5.7469  -999.2500
  230.5000   -57.4407   157.9533     5.4411     5.8507  -999.2500
  231.0000   -57.8307   153.0939     5.6779     5.9524  -999.2500
  231.5000   -57.8708   148.2139     5.9315     6.0537  -999.2500
  232.0000   -57.9131   143.3338     6.1881     6.1124  -999.2500
  232.5000   -57.9555   138.4538     6.2927     6.1262  -999.2500
  233.0000   -57.9957   134.9047     6.3304     6.1203  -999.2500
  233.5000   -57.8704   135.4931     6.3672     5.9581  -999.2500
  234.0000   -57.4593   136.3390     6.3190     5.7904  -999.2500
  234.5000   -57.0517   137.1849     6.2425     5.7110  -999.2500
  235.0000   -56.6434   137.9137     6.0417     5.6630  -999.2500
  235.5000   -56.4317   143.8485     5.8183     5.5820  -999.2500
  236.0000   -56.9430   150.4853     5.4586     5.4236  -999.2500
  236.5000   -57.3892   163.3822     4.4616     5.1283  -999.2500
  237.0000   -56.8750   206.0140     3.4154     4.8396  -999.2500
  237.5000   -56.2284   251.1325     2.3638     4.3529  -999.2500
  238.0000   -54.5618   307.0166     1.7560     3.8677  -999.2500
  238.5000   -54.9372   363.1212     1.4219     3.3846  -999.2500
  239.0000   -55.5565   425.1154     0.7854     2.9251  -999.2500
  239.5000   -55.1213   491.0933     0.4477     2.8028  -999.2500
  240.0000   -54.6908   504.8846     0.4210     2.6907  -999.2500
  240.5000   -54.7343   563.4117     0.3956     2.5901  -999.2500
  241.0000   -55.4641   597.6716     0.3700     2.4952  -999.2500
  241.5000   -56.1892   548.8208     0.4064     2.5177  -999.2500
  242.0000   -56.8961   490.9500     0.6408     2.7777  -999.2500
  242.5000   -57.1632   394.6841     1.2713     2.9122  -999.2500
  243.0000   -57.0030   396.6901     2.3073     3.0937  -999.2500
  243.5000   -56.8521   292.1565     3.2985     3.7800  -999.2500
  244.0000   -57.0109   224.0321     5.3187     4.8934  -999.2500
  244.5000   -57.2839   155.9679     7.6750     6.1204  -999.2500
  245.0000   -57.5613   119.4584     9.3925     6.9503  -999.2500
  245.5000   -57.8447    96.0181    10.6782     7.3867  -999.2500
  246.0000   -58.1697    82.7482    11.9821     7.8278  -999.2500
  246.5000   -58.1534    80.7422    11.6021     8.1595  -999.2500
  247.0000   -57.7500    87.3707    10.8556     8.0244  -999.2500
  247.5000   -57.3555    93.8960     9.5064     7.9018  -999.2500
  248.0000   -56.9483    99.9317     8.1550     7.7624  -999.2500
  248.5000   -56.5131   129.8872     6.8100     7.4715  -999.2500
  249.0000   -55.0664   158.9214     5.5480     6.7305  -999.2500
  249.5000   -55.3436   179.1543     4.8540     6.0159  -999.2500
  250.0000   -56.5832   197.0913     4.2653     5.3001  -999.2500
  250.5000   -56.0303   201.1033     4.2835     4.8624  -999.2500
  251.0000   -55.3820   203.1093     4.3111     4.7867  -999.2500
  251.5000   -54.7391   203.7753     4.3384     4.7978  -999.2500
  252.0000   -55.7509   203.1093     4.4908     5.0783  -999.2500
  252.5000   -57.8647   186.0582     5.4072     6.0142  -999.2500
  253.0000   -59.0187   159.9799     6.3246     6.9591  -999.2500
  253.5000   -58.7847   139.1019     7.2376     7.4847  -999.2500
  254.0000   -58.4795   117.6298     8.0699     7.7292  -999.2500
  254.5000   -58.5490   103.3722     8.5002     7.9672  -999.2500
  255.0000   -58.9000   101.2353     8.9389     8.1934  -999.2500
  255.5000   -59.2492    99.0984     9.3787     8.3736  -999.2500
  256.0000   -59.5989    96.9614     9.8185     8.5518  -999.2500
  256.5000   -59.9493    94.7843    10.2584     8.7965  -999.2500
  257.0000   -60.2881    91.5921    10.6985     9.0708  -999.2500
  257.5000   -60.6403    87.8664    11.1390     9.3469  -999.2500
  258.0000   -60.3483    84.1344    11.5765     9.6234  -999.2500
  258.5000   -60.0289    84.1429    11.8716     9.9126  -999.2500
  259.0000   -59.7039    84.5821    11.7950     9.8978  -999.2500
  259.5000   -59.4543    85.0279    11.7248     9.7866  -999.2500
  260.0000   -60.0758    85.4747    11.6545     9.8637  -999.2500
  260.5000   -60.6353    85.7573    11.5848     9.9555  -999.2500
  261.0000   -60.5206    85.3153    11.5137    10.1718  -999.2500
  261.5000   -60.1753    84.5223    11.5496    10.4251  -999.2500
  262.0000   -60.1064    83.7293    11.6613    10.6768  -999.2500
  262.5000   -60.7404    82.9363    11.7741    10.9098  -999.2500
  263.0000   -60.9980    82.1433    11.8870    11.0956  -999.2500
  263.5000   -60.8748    81.3531    11.9998    11.2418  -999.2500
  264.0000   -60.7427    80.7339    12.1126    11.3850  -999.2500
  264.5000   -60.6756    80.1393    12.2253    11.5283  -999.2500
  265.0000   -60.9701    79.1773    12.3381    11.6718  -999.2500
  265.5000   -61.8001    78.2297    12.4510    11.8152  -999.2500
  266.0000   -61.8290    76.7302    12.5632    11.9585  -999.2500
  266.5000   -61.8247    76.0694    12.6695    12.1022  -999.2500
  267.0000   -61.8237    75.3230    12.9053    12.2514  -999.2500
  267.5000   -61.8237    74.5767    13.1480    12.3406  -999.2500
  268.0000   -61.8240    73.8303    13.3913    12.4462  -999.2500
  268.5000   -61.8224    73.0840    13.6340    12.5508  -999.2500
  269.0000   -61.8322    72.3376    13.8768    12.6558  -999.2500
  269.5000   -61.3339    71.4639    14.1195    12.7596  -999.2500
  270.0000   -60.6378    69.9502    14.3622    12.8599  -999.2500
  270.5000   -60.0107    68.4365    14.6042    13.1591  -999.2500
  271.0000   -61.0364    66.9229    14.8416    13.4539  -999.2500
  271.5000   -62.1712    65.4092    15.3038    13.7485  -999.2500
  272.0000   -62.1416    63.8955    15.8114    14.0423  -999.2500
  272.5000   -61.9653    62.3819    16.3205    14.3362  -999.2500
  273.0000   -61.8275    60.8682    16.7970    14.6298  -999.2500
  273.5000   -62.1823    59.3545    16.9254    14.9238  -999.2500
  274.0000   -62.4230    57.8409    17.0410    15.2207  -999.2500
  274.5000   -62.5362    56.3272    17.1580    15.4066  -999.2500
  275.0000   -62.7533    54.6640    17.2762    15.4260  -999.2500
  275.5000   -63.4789    54.6640    17.4000    15.4445  -999.2500
  276.0000   -64.1995    55.7813    17.2245    15.4657  -999.2500
  276.5000   -64.9257    57.0117    16.9758    15.4867  -999.2500
  277.0000   -65.2433    58.2407    16.7263    15.4972  -999.2500
  277.5000   -65.0826    59.4687    16.4772    15.3734  -999.2500
  278.0000   -64.6945    60.6966    16.2282    15.1530  -999.2500
  278.5000   -63.7513    61.9245    15.9792    14.9318  -999.2500
  279.0000   -63.0229    63.1524    15.7303    14.7104  -999.2500
  279.5000   -63.5619    64.3802    15.4812    14.4892  -999.2500
  280.0000   -64.6872    65.6081    15.2321    14.2679  -999.2500
  280.5000   -65.2115    66.8360    14.9854    14.0467  -999.2500
  281.0000   -64.3026    68.0639    14.7799    13.8284  -999.2500
  281.5000   -63.2828    69.2917    14.5311    13.5937  -999.2500
