~VERSION INFORMATION
 VERS.                2.0:   CWLS LOG ASCII STANDARD - VERSION 2.0
 WRAP.                 NO:   ONE LINE PER DEPTH STEP
~WELL INFORMATION
#MNEM.UNIT      DATA TYPE    INFORMATION
#----------   ------------   ------------------------------
 STRT.F            0.0000:   START DEPTH
 STOP.F          814.0000:   STOP DEPTH
 STEP.F            0.5000:   STEP LENGTH
 NULL.          -999.2500:   NO VALUE
 COMP.   FLUOR DANIEL INC:   COMPANY
 WELL. NAVAL PETROLEUM RESERVE 3 SHX- #1-34:   WELL
 FLD .          N.P.R. #3:   FIELD
 LOC .      S34 T39N R78W:   LOCATION
 CNTY.            NATRONA:   COUNTY
 STAT.            WYOMING:   STATE
 CTRY. UNITED STATES OF AMERICA:   COUNTRY
 SRVC.      Western Atlas:   SERVICE COMPANY
 DATE.        24-JAN-1995:   LOGDATE
 API .       490252269400:   API NUMBER
~CURVE INFORMATION
#MNEM.UNIT       API CODE    CURVE DESCRIPTION
#----------   ------------   ------------------------------
 DEPT.F                  :   
 GRR .GAPI   07 310 01 00:   GAMMA RAY FROM RES. LOG.
 RILD.OHMM   07 120 46 00:   INDUCTION LOG DEEP RESISTIVITY
 RILM.OHMM   07 120 44 00:   INDUCTION LOG MEDIUM RESISTIVITY
~PARAMETER INFORMATION
#MNEM.UNIT          VALUE    DESCRIPTION
#----------   ------------   ------------------------------
 PD  .                 GL:   PERMANENT DATUM
 EPD .F              5089:   ELEVATION PERMANENT DATUM
 LMF .                 KB:   LOG MEASURED FROM
 DAPD.F                10:   FEET ABOVE PERMANENT DATUM
 DMF .                 KB:   DRILLING MEASURED FROM
 EKB .F              5099:   KELLING BUSHING
 EDF .F              5098:   DRILLING FLOOR
 EGL .F              5089:   GROUND LEVEL
 DATE.        24-JAN-1995:   RUN DATE
 RUN .                  1:   RUN NUMBER
 DD  .F               826:   DEPTH DRILLER
 DL  .F               824:   DEPTH LOGGER
 BLI .F               817:   BOTTOM LOG INTERVAL
 CS  .IN            9.625:   CASING SIZE
 CBD .F                95:   CASING BOTTOM DRILLER
 CBL .F                94:   CASING BOTTOM LOGGER
 BS  .IN             8.75:   BIT SIZE
 BSD .F               826:   BIT SIZE AT DEPTH
 DFT .                AIR:   DRILLING FLUID TYPE
 MRT .F                90:   MAXIMUM RECORDED TEMPERATURE
 LUN .            HL 6321:   LOGGING UNIT NUMBER
 LUL .         FT. MORGAN:   LOGGING UNIT LOCATION
 ENGI.  MARSHALL BENFIELD:   RECORDING ENGINEER
 WITN.        GARY STRONG:   WITNESSED BY
 CLNT.            A2DTECH:   CLIENT CODE
 ORIG.           5" PRINT:   ORIGIN OF DATA
 UWI .       490252269400:   UNIQUE WELL ID
 DICO. A2D Technologies, Inc.:   DIGITIZING COMPANY
~OTHER INFORMATION
~A    DEPT      GRR      RILD       RILM   
# ...
  546.0000   137.1261     4.8583     4.9062
  546.5000   135.8816     5.0991     5.1502
  547.0000   135.8704     5.3518     5.4064
  547.5000   137.9473     5.6171     5.6754
  548.0000   137.4913     5.8955     5.9577
  548.5000   132.8148     6.1878     6.2511
  549.0000   129.4443     6.4798     6.5399
  549.5000   134.2955     6.7533     6.8160
  550.0000   139.0090     6.8519     6.9127
  550.5000   142.4829     6.7703     6.8328
  551.0000   140.1003     6.6841     6.7455
  551.5000   136.4773     6.6006     6.6619
  552.0000   133.5057     6.4335     6.4932
  552.5000   138.3468     6.2753     6.3336
  553.0000   143.2223     6.1211     6.1778
  553.5000   144.2903     5.9706     6.0261
  554.0000   141.7338     5.8238     5.8779
  554.5000   139.7482     5.6937     5.7465
  555.0000   141.6186     5.4518     5.4483
  555.5000   143.3077     5.1951     5.1352
  556.0000   144.0610     4.9505     4.8401
  556.5000   145.1771     4.7175     4.5620
  557.0000   147.8629     4.6038     4.4780
  557.5000   150.5682     4.6897     4.7319
  558.0000   149.9284     4.8102     4.9727
  558.5000   147.9982     4.9338     5.2258
  559.0000   145.2963     5.0465     5.4917
  559.5000   142.6177     5.2916     5.7712
  560.0000   141.5293     5.5716     6.0650
  560.5000   144.1418     5.8691     6.2771
  561.0000   147.1213     6.1839     6.4303
  561.5000   148.6751     6.5376     6.6006
  562.0000   148.0031     6.5766     6.6456
  562.5000   148.6576     6.6275     6.6951
  563.0000   150.2660     6.6789     6.7450
  563.5000   150.0365     6.7306     6.7955
  564.0000   145.7970     6.7861     6.8496
  564.5000   141.6456     6.7694     6.8325
  565.0000   139.2245     6.7469     6.8095
  565.5000   138.2002     6.7245     6.7869
  566.0000   141.1947     6.7022     6.7644
  566.5000   145.8249     6.6799     6.7419
  567.0000   147.8964     6.6616     6.7237
  567.5000   148.6888     6.6089     6.6701
  568.0000   152.8737     6.5558     6.6166
  568.5000   157.4045     6.5398     6.6005
  569.0000   156.4367     6.5399     6.6484
  569.5000   154.5781     6.5401     6.6913
  570.0000   150.4943     6.5399     6.7237
  570.5000   145.3535     6.5399     6.6006
  571.0000   144.3168     6.4087     6.3612
  571.5000   146.2737     6.0307     5.9347
  572.0000   147.0837     5.6749     5.4798
  572.5000   146.0073     5.3401     5.0606
  573.0000   150.1678     5.0029     4.6465
  573.5000   156.6495     4.9394     4.5615
  574.0000   160.6473     4.8718     4.6516
  574.5000   159.6666     4.8238     4.8095
  575.0000   157.0498     4.7795     4.9728
  575.5000   154.4015     4.8452     5.1416
  576.0000   152.0593     4.8927     5.3162
  576.5000   149.6823     4.9401     5.3867
  577.0000   147.7906     4.9569     4.8781
  577.5000   147.5673     4.7284     4.5477
  578.0000   146.3994     4.5645     4.2396
  578.5000   144.8714     4.4355     4.0081
  579.0000   144.0967     4.4514     4.0685
  579.5000   144.0837     4.4693     4.3287
  580.0000   145.2175     4.4780     4.6056
  580.5000   143.9613     4.5323     4.9002
  581.0000   141.0530     4.6465     5.1435
  581.5000   138.2459     4.9764     5.3913
  582.0000   140.3316     5.3430     5.6440
  582.5000   142.6570     5.7365     5.9086
  583.0000   140.3531     6.0740     6.1304
  583.5000   139.1311     6.0740     6.1304
  584.0000   140.1219     6.0310     6.0879
  584.5000   138.0332     5.9124     5.8751
  585.0000   134.5993     5.6028     5.4420
  585.5000   131.1096     5.2666     5.0430
  586.0000   130.9240     4.9500     4.6733
  586.5000   136.7919     4.7771     4.4765
  587.0000   143.8481     4.7771     4.3960
  587.5000   150.9428     4.7771     4.6568
  588.0000   153.9288     4.7771     4.8980
  588.5000   150.7795     4.8691     5.1519
  589.0000   146.4594     5.0898     5.4367
  589.5000   142.1544     5.4211     5.7611
  590.0000   137.6794     5.7740     6.1296
  590.5000   136.6933     6.1498     6.5217
  591.0000   136.9955     6.5501     6.9768
  591.5000   133.3038     6.9768     7.0416
  592.0000   129.3649     6.9910     7.0559
  592.5000   131.9960     7.0286     7.0938
  593.0000   135.0506     7.0416     7.1069
  593.5000   136.5421     7.0539     7.1194
  594.0000   133.4738     7.0932     7.1591
  594.5000   130.2504     7.1328     7.1990
  595.0000   127.0208     7.1726     7.2392
  595.5000   123.7775     7.2126     7.2796
  596.0000   120.6038     7.2395     7.3070
  596.5000   120.5242     7.2174     7.2704
  597.0000   124.7495     7.1885     7.2227
  597.5000   129.9373     7.1596     7.1751
  598.0000   131.5433     7.1310     7.1284
  598.5000   132.0744     7.1064     7.1064
  599.0000   132.6585     7.1450     7.1338
  599.5000   132.8672     7.1945     7.1646
  600.0000   132.6015     7.2395     7.3354
  600.5000   133.5268     7.3425     7.5912
  601.0000   135.0683     7.4585     7.8713
  601.5000   133.7004     7.5120     7.8660
  602.0000   125.0518     6.8209     7.8730
  602.5000   122.0109     6.2727     6.8795
  603.0000   122.9275     5.7677     6.1081
  603.5000   122.8868     5.3027     5.4231
  604.0000   125.5580     5.0962     4.7142
  604.5000   138.8595     5.0962     4.3960
  605.0000   151.6542     5.0962     4.8770
  605.5000   159.9689     5.0962     5.2581
  606.0000   152.5690     5.2881     5.6689
  606.5000   137.7106     5.5692     6.1747
  607.0000   129.6502     6.1646     6.8681
  607.5000   127.4618     6.8236     7.6392
  608.0000   126.3807     7.5531     8.4970
  608.5000   125.3137     8.3651     8.8710
  609.0000   124.2317     8.8770     8.8865
  609.5000   123.4130     8.8495     8.9020
  610.0000   124.9045     8.8242     8.9175
  610.5000   126.9745     8.8012     8.9331
  611.0000   127.5749     8.7894     8.9449
  611.5000   127.5703     9.1635     9.1202
  612.0000   128.5261     9.8795     9.9098
  612.5000   127.9193    10.6515    10.8504
  613.0000   121.1320    11.4837    11.8805
  613.5000   109.4901    12.1445    13.0094
  614.0000    97.1216    12.7210    14.2411
  614.5000    84.7266    13.1974    15.4416
  615.0000    74.1824    14.0254    15.6716
  615.5000    73.0608    14.8861    15.7772
  616.0000    74.8237    15.7296    15.8756
  616.5000    75.0500    15.8212    16.2626
  617.0000    75.0587    15.9208    16.7149
  617.5000    75.6291    16.0223    17.0933
  618.0000    76.2651    16.1256    17.0933
  618.5000    76.9990    16.1716    17.0933
  619.0000    77.9033    16.7771    17.0933
  619.5000    78.8132    17.3875    17.7384
  620.0000    79.8149    18.0201    18.5924
  620.5000    78.6471    18.6758    19.4889
  621.0000    75.9139    19.3552    20.4206
  621.5000    70.5231    19.5812    21.0434
  622.0000    65.1493    19.7761    21.3657
  622.5000    59.9639    19.9728    21.7092
  623.0000    60.7382    20.1856    21.9427
  623.5000    67.4948    19.7206    21.1682
  624.0000    70.5628    19.2322    20.3672
  624.5000    70.2582    18.7559    19.5968
  625.0000    71.2356    18.2914    18.8588
  625.5000    75.3658    17.8384    18.4073
  626.0000    79.4172    17.4120    18.1339
  626.5000    81.0727    17.0933    17.8646
  627.0000    80.7669    16.9361    17.5993
  627.5000    79.5365    16.9361    17.2519
  628.0000    78.2934    16.9361    17.4676
  628.5000    77.3262    16.9525    17.7127
  629.0000    76.4928    17.0858    17.9612
  629.5000    76.3899    17.2546    18.2132
  630.0000    76.5786    17.1523    18.5782
  630.5000    75.6322    16.8902    18.3586
  631.0000    73.7710    16.6316    17.8151
  631.5000    73.2652    16.3770    17.2856
  632.0000    74.1610    16.1262    16.7732
  632.5000    75.9949    15.8793    16.2759
  633.0000    79.8991    15.6362    15.8334
  633.5000    83.6905    15.3968    15.6852
  634.0000    85.7254    15.1611    15.4416
  634.5000    82.1184    14.9290    15.4416
  635.0000    77.3410    14.7002    15.4416
  635.5000    72.7864    14.4756    14.9425
  636.0000    74.2349    14.2071    14.4402
  636.5000    78.0801    14.2097    14.3416
