~VERSION INFORMATION
 VERS.                2.0:   CWLS LOG ASCII STANDARD - VERSION 2.0
 WRAP.                 NO:   ONE LINE PER DEPTH STEP
~WELL INFORMATION
#MNEM.UNIT      DATA TYPE    INFORMATION
#----------   ------------   ------------------------------
 STRT.F            0.5000:   START DEPTH
 STOP.F          696.0000:   STOP DEPTH
 STEP.F            0.5000:   STEP LENGTH
 NULL.          -999.2500:   NO VALUE
 COMP. LAWRENCE/ALLISON INC:   COMPANY
 WELL. SX 11 WP #26-44-11:   WELL
 FLD .             TEAPOT:   FIELD
 LOC .      S11 T38N R78W:   LOCATION
 CNTY.            NATRONA:   COUNTY
 STAT.            WYOMING:   STATE
 CTRY. UNITED STATES OF AMERICA:   COUNTRY
 SRVC.      Dresser Atlas:   SERVICE COMPANY
 DATE.        08-SEP-1984:   LOGDATE
 API .       490251097600:   API NUMBER
~CURVE INFORMATION
#MNEM.UNIT       API CODE    CURVE DESCRIPTION
#----------   ------------   ------------------------------
 DEPT.F                  :   
 AC  .US/F   60 520 00 00:   ACCOUSTIC
 SPR .MV     07 010 01 00:   SPONTANEOUS POTENTIAL FROM RES.
 RILD.OHMM   07 120 46 00:   RESISTIVITY INDUCTION LOG DEEP
 RILM.OHMM   07 120 44 00:   RESISTIVITY INDUCTION LOG MEDIUM
 RFOC.OHMM   07 220 04 00:   RESISTIVITY FOCUSED LOG
 GRR .GAPI   07 310 01 00:   GAMMA RAY FROM RESISTIVITY
 CALD.IN     45 280 60 00:   CALIPER FROM DENSITY LOG
 DEN .G/C3   45 350 01 00:   COMPENSATED BULK DENSTIY
 CORR.G/C3   45 356 01 00:   DENSITY CORRECTION
 PORD.DEC    45 890 12 00:   POROSITY DENSITY SANDSTONE
 CNC .DEC    42 890 03 00:   NEUTRON POROSITY SANDSTONE
~PARAMETER INFORMATION
#MNEM.UNIT          VALUE    DESCRIPTION
#----------   ------------   ------------------------------
 PD  .                 GL:   PERMANENT DATUM
 EPD .F              5186:   ELEVATION PERMANENT DATUM
 LMF .                 GL:   LOG MEASURED FROM
 DMF .                 GL:   DRILLING MEASURED FROM
 EGL .F              5186:   GROUND LEVEL
 DATE.         8-SEP-1984:   RUN DATE
 RUN .                  1:   RUN NUMBER
 DD  .F               712:   DEPTH DRILLER
 DL  .F               695:   DEPTH LOGGER
 BLI .F               693:   BOTTOM LOG INTERVAL
 CS  .IN            8.625:   CASING SIZE
 CBD .F                40:   CASING BOTTOM DRILLER
 CBL .F                45:   CASING BOTTOM LOGGER
 BS  .IN            7.875:   BIT SIZE
 BSD .F               712:   BIT SIZE AT DEPTH
 DFT .          KCL WATER:   DRILLING FLUID TYPE
 MSS .           FLOWLINE:   MUD SAMPLE SOURCE
 RMS .OHMM            .22:   RESISTIVITY MUD SAMPLE
 MST .F                72:   MUD SAMPLE TEMPERATURE
 RMF .OHMM            .17:   RESISTIVITY MUD FILTRATE SAMPLE
 MFST.F                72:   MUD FILTRATE SAMPLE TEMPERATURE
 RMC .OHMM            .28:   RESISTIVITY MUD CAKE
 MCST.F                72:   MUD CAKE SAMPLE TEMPERATURE
 MFSS.               CALC:   MUD FILTRATE SAMPLE SOURCE
 MCSS.               CALC:   MUD CAKE SAMPLE SOURCE
 RMB .OHMM            .18:   RESISTIVITY MUD AT BHT
 BHT .F                90:   BOTTOM HOLE TEMPERATURE
 TCS .HRS               3:   TIME CURCULATED STOPPED
 MRT .F                90:   MAXIMUM RECORDED TEMPERATURE
 LUN .               6274:   LOGGING UNIT NUMBER
 LUL .               GLTE:   LOGGING UNIT LOCATION
 ENGI.             RAUTIO:   RECORDING ENGINEER
 WITN.           JENNINGS:   WITNESSED BY
 CLNT.            A2DTECH:   CLIENT CODE
 ORIG. 1", 2', 2.5", 5" PRNT:   ORIGIN OF DATA
 UWI .       490251097600:   UNIQUE WELL ID
 DICO. A2D Technologies, Inc.:   DIGITIZING COMPANY
~OTHER INFORMATION
~A    DEPT      AC        SPR       RILD       RILM       RFOC         GRR      CALD        DEN       CORR       PORD        CNC   
# ...
  275.0000   102.6200    -3.7530     8.3720     8.6600     9.0160    98.8186     7.8510     2.4950     0.0450     0.1130     0.3131
  275.5000   102.5690    -3.6730     8.3520     8.6260     8.9990    97.9524     7.8510     2.4810     0.0270     0.1200     0.3004
  276.0000   102.5190    -3.7890     8.3320     8.5920     8.9830    98.5677     7.8510     2.4680     0.0100     0.1290     0.2833
  276.5000   102.4690    -3.9410     8.3120     8.5580     8.9660    99.1867     7.8510     2.4550    -0.0020     0.1350     0.2808
  277.0000   102.5650    -4.0930     8.2910     8.5240     8.9500    98.9131     7.8510     2.4540    -0.0020     0.1340     0.2850
  277.5000   102.7470    -4.2460     8.2710     8.4900     8.9330    96.8617     7.8510     2.4570    -0.0020     0.1320     0.2964
  278.0000   102.9300    -4.4010     8.2510     8.4680     8.9160    95.4029     7.8510     2.4600    -0.0110     0.1320     0.2994
  278.5000   103.1120    -4.4540     8.2380     8.6450     8.9000    93.9479     7.8510     2.4570    -0.0200     0.1330     0.2827
  279.0000   103.2470    -4.4530     8.4370     8.7760     8.8830    94.5632     7.8520     2.4570    -0.0180     0.1310     0.2722
  279.5000   102.6680    -4.4240     8.5850     8.9080     8.8660    95.7710     7.8560     2.4640    -0.0160     0.1270     0.2620
  280.0000   101.9990    -4.2880     8.7330     9.0390     9.0700    96.6788     7.8600     2.4730    -0.0010     0.1220     0.2692
  280.5000   101.3290    -4.1490     8.8810     9.1710     9.2800    94.3387     7.8640     2.4820     0.0160     0.1180     0.2734
  281.0000   100.6600    -3.8930     9.0280     9.3020     9.4910    93.1686     7.8690     2.4870     0.0340     0.1150     0.2837
  281.5000    99.9910    -3.2170     9.1760     9.4330     9.7010    92.0099     7.8730     2.4840     0.0390     0.1190     0.2821
  282.0000    99.2630    -2.5560     9.3240     9.5650     9.9110    94.4105     7.8770     2.4770     0.0360     0.1230     0.2707
  282.5000    98.8510    -2.0520     9.4710     9.6960    10.0120    96.7998     7.8810     2.4720     0.0170     0.1240     0.2614
  283.0000    98.3990    -1.9940     9.6190     9.8260    10.0450    94.7522     7.8850     2.4720     0.0050     0.1240     0.2601
  283.5000    97.9470    -1.9290     9.7670    10.0060    10.0780    93.5859     7.8900     2.4710     0.0030     0.1260     0.2613
  284.0000    97.4700    -1.8610     9.9140    10.2500    10.3530    93.3123     7.8900     2.4690     0.0120     0.1260     0.2708
  284.5000    96.2850    -1.7940    10.0620    10.4940    10.6760    93.6313     7.8870     2.4700     0.0080     0.1250     0.2904
  285.0000    95.0300    -1.7280    10.2950    10.7380    10.9980    92.1763     7.8850     2.4710     0.0010     0.1240     0.2799
  285.5000    93.7750    -1.6610    10.5410    10.9820    11.3200    91.3101     7.8820     2.4750     0.0020     0.1220     0.2685
  286.0000    93.2870    -1.5940    10.7880    11.2260    11.6420    91.0440     7.8800     2.4780     0.0070     0.1200     0.2675
  286.5000    93.5810    -1.5220    11.0350    11.4710    11.7900    87.5111     7.8780     2.4820     0.0110     0.1190     0.2672
  287.0000    93.8840    -1.3440    11.2600    11.7150    11.9140    85.1635     7.8750     2.4790     0.0160     0.1200     0.2570
  287.5000    93.5680    -0.8700    11.3650    11.8240    12.0370    85.1899     7.8730     2.4760     0.0110     0.1220     0.2498
  288.0000    93.2480    -0.4180    11.5170    11.8750    12.1610    86.3902     7.8720     2.4740     0.0040     0.1240     0.2646
  288.5000    92.9290     0.3380    11.6810    11.9250    12.3440    84.9390     7.8750     2.4710     0.0000     0.1250     0.2734
  289.0000    92.6090     0.6910    11.6360    11.9750    12.3000    84.0690     7.8780     2.4670     0.0040     0.1280     0.2706
  289.5000    92.4270     0.6870    11.5860    12.0260    12.2150    83.7954     7.8810     2.4640     0.0090     0.1300     0.2697
  290.0000    92.3270     0.9180    11.5360    12.0760    12.1310    85.0108     7.8840     2.4600     0.0150     0.1300     0.2699
  290.5000    92.8540     1.0530    11.4850    12.1190    12.0460    85.6261     7.8870     2.4530     0.0130     0.1350     0.2699
  291.0000    93.5230     1.1000    11.4350    11.9500    11.9300    86.5377     7.8900     2.4450    -0.0010     0.1400     0.2691
  291.5000    94.2830     1.2510    11.3850    11.8030    11.7890    87.4454     7.8900     2.4410    -0.0150     0.1420     0.2616
  292.0000    94.7170     1.1420    11.2430    11.6430    11.6480    84.5127     7.8880     2.4430    -0.0150     0.1420     0.2599
  292.5000    95.2190     0.9630    11.0290    11.4160    11.5070    83.0502     7.8850     2.4440    -0.0080     0.1400     0.2703
  293.0000    95.5800     0.7810    10.8150    11.1900    11.3640    81.8876     7.8830     2.4500     0.0000     0.1380     0.2699
  293.5000    95.7920     0.6010    10.6020    10.9630    11.2570    81.0214     7.8810     2.4580     0.0060     0.1340     0.2696
  294.0000    96.0030     0.4270    10.3880    10.7370    11.1490    80.7516     7.8790     2.4660     0.0070     0.1280     0.2692
  294.5000    96.2150     0.3210    10.1770    10.5440    11.0410    81.9633     7.8770     2.4750     0.0070     0.1220     0.2682
  295.0000    96.4260     0.2150    10.1580    10.4780    10.9320    84.3601     7.8740     2.4760     0.0080     0.1200     0.2633
  295.5000    96.6370     0.1090    10.1390    10.4130    10.8240    85.8643     7.8720     2.4700     0.0100     0.1260     0.2491
  296.0000    96.8490     0.0030    10.1200    10.3470    10.7160    87.9572     7.8700     2.4620     0.0130     0.1300     0.2419
  296.5000    97.0720    -0.1030    10.1020    10.2710    10.6560    86.7947     7.8680     2.4590     0.0150     0.1320     0.2456
  297.0000    96.6920    -0.2090    10.0840    10.4570    10.6560    86.8250     7.8650     2.4630     0.0130     0.1300     0.2506
  297.5000    96.2750    -0.3150    10.3550    10.6770    10.7710    86.8477     7.8630     2.4700     0.0100     0.1260     0.2556
  298.0000    96.1140    -0.4100    10.6120    10.8980    11.2160    85.0926     7.8610     2.4780     0.0060     0.1200     0.2583
  298.5000    94.6260    -0.4870    10.8700    11.1180    11.6620    83.3337     7.8580     2.4890     0.0020     0.1140     0.2623
  299.0000    92.7440    -0.5470    11.0550    11.3380    12.1070    80.1009     7.8560     2.5030     0.0000     0.1080     0.2650
  299.5000    90.8620    -0.6060    10.7380    11.1850    12.5530    79.8235     7.8540     2.4960    -0.0040     0.1060     0.2665
  300.0000    89.5020    -0.6640    10.4910    10.9840    12.6890    82.5223     7.8520     2.4770     0.0020     0.1190     0.2745
  300.5000    91.6860    -0.7230    10.2710    10.7820    11.7300    84.6190     7.8540     2.4570     0.0090     0.1290     0.2799
  301.0000    94.4110    -0.7820    10.1510    10.5810    10.6660    87.0120     7.8570     2.4460     0.0160     0.1400     0.2857
  301.5000    97.0720    -0.8390    10.0430    10.3790    10.3480    88.2236     7.8590     2.4450     0.0230     0.1400     0.2881
  302.0000    97.9710    -0.8680     9.9300    10.1770    10.3230    89.1352     7.8610     2.4490     0.0250     0.1370     0.2831
  302.5000    98.4390    -0.7120     9.8140    10.0440    10.2980    90.0467     7.8640     2.4540     0.0070     0.1340     0.2723
  303.0000    98.3760    -0.5540     9.6980     9.9710    10.2730    90.9582     7.8660     2.4570    -0.0080     0.1330     0.2655
  303.5000    98.3130    -0.3990     9.5820     9.8970    10.2480    90.3921     7.8690     2.4560    -0.0050     0.1340     0.2651
  304.0000    98.2910    -0.3410     9.4650     9.8230    10.2230    88.6369     7.8710     2.4560     0.0110     0.1330     0.2673
  304.5000    98.3820    -0.5940     9.3610     9.7500    10.1970    87.1781     7.8710     2.4550     0.0260     0.1330     0.2804
  305.0000    98.4730    -0.8350     9.3150     9.6760    10.1740    86.0118     7.8710     2.4520     0.0250     0.1350     0.2784
