~VERSION INFORMATION
 VERS.                2.0:   CWLS LOG ASCII STANDARD - VERSION 2.0
 WRAP.                 NO:   ONE LINE PER DEPTH STEP
~WELL INFORMATION
#MNEM.UNIT      DATA TYPE    INFORMATION
#----------   ------------   ------------------------------
 STRT.F           11.0000:   START DEPTH
 STOP.F          915.0000:   STOP DEPTH
 STEP.F            0.5000:   STEP LENGTH
 NULL.          -999.2500:   NO VALUE
 COMP. U S NAVY/INTEX OIL CO:   COMPANY
 WELL.       N.P.R. #3-35:   WELL
 FLD .           TEAPOT E:   FIELD
 LOC .      S35 T39N R78W:   LOCATION
 CNTY.            NATRONA:   COUNTY
 STAT.            WYOMING:   STATE
 CTRY. UNITED STATES OF AMERICA:   COUNTRY
 SRVC.       Schlumberger:   SERVICE COMPANY
 DATE.        25-JUL-1953:   LOGDATE
 API .       490250653700:   API NUMBER
~CURVE INFORMATION
#MNEM.UNIT       API CODE    CURVE DESCRIPTION
#----------   ------------   ------------------------------
 DEPT.F                  :   
 SPR .MV     05 010 01 00:   SPONTANEOUS POTENTIAL FROM RES.
 CILD.MMHO   05 110 46 00:   CONDUCTIVITY INDUCTION LOG DEEP
 ILD .OHMM   05 120 46 00:   INDUCTION LOG DEEP
 ASN .OHMM   05 041 16 00:   AMPLIFIED SHORT NORMAL 16"
 GR  .GAPI   30 310 01 00:   GAMMA RAY
~PARAMETER INFORMATION
#MNEM.UNIT          VALUE    DESCRIPTION
#----------   ------------   ------------------------------
 EPD .F              5097:   ELEVATION PERMANENT DATUM
 LMF .                 KB:   LOG MEASURED FROM
 DMF .                 KB:   DRILLING MEASURED FROM
 EKB .F              5102:   KELLING BUSHING
 EGL .F              5097:   GROUND LEVEL
 DATE.           7-2-1963:   RUN DATE
 RUN .                  1:   RUN NUMBER
 DD  .F               916:   DEPTH DRILLER
 DL  .F               916:   DEPTH LOGGER
 BLI .F               915:   BOTTOM LOG INTERVAL
 TLI .F                90:   TOP LOG INTERVAL
 CS  .IN            8.625:   CASING SIZE
 CBD .F                10:   CASING BOTTOM DRILLER
 BS  .IN             6.75:   BIT SIZE
 BSD .F               916:   BIT SIZE AT DEPTH
 DFT .            GEL/OIL:   DRILLING FLUID TYPE
 DFD .                9.6:   DRILLING FLUID DENSITY
 DFV .                 67:   DRILLING FLUID VISCOSITY
 DFPH.                  9:   DRILLING FLUID PH
 DFL .                4.2:   DRILLING FLUID LOSS
 MSS .          FLOW LINE:   MUD SAMPLE SOURCE
 RMS .OHMM           2.92:   RESISTIVITY MUD SAMPLE
 MST .F                86:   MUD SAMPLE TEMPERATURE
 RMF .OHMM            2.6:   RESISTIVITY MUD FILTRATE SAMPLE
 MFST.F                86:   MUD FILTRATE SAMPLE TEMPERATURE
 RMC .OHMM           2.49:   RESISTIVITY MUD CAKE
 MCST.F                86:   MUD CAKE SAMPLE TEMPERATURE
 MFSS.                  M:   MUD FILTRATE SAMPLE SOURCE
 MCSS.                  M:   MUD CAKE SAMPLE SOURCE
 TCS .HRS              .5:   TIME CURCULATED STOPPED
 LUN .               4507:   LOGGING UNIT NUMBER
 ENGI.             KNOBEL:   RECORDING ENGINEER
 WITN.          JORGENSON:   WITNESSED BY
 CLNT.            A2DTECH:   CLIENT CODE
 ORIG.       2", 5" PRINT:   ORIGIN OF DATA
 UWI .       490250653700:   UNIQUE WELL ID
 DICO. A2D Technologies, Inc.:   DIGITIZING COMPANY
~OTHER INFORMATION
~A   DEPT      SPR       CILD        ILD        ASN          GR  
# ...
  194.0000   -39.8730   174.7114     5.5477     6.5133    35.0253
  194.5000   -40.0587   172.5905     5.6129     6.4490    36.4749
  195.0000   -40.0027   170.0306     5.8295     6.6178    37.4826
  195.5000   -39.9453   166.8306     6.0456     6.7780    37.0658
  196.0000   -39.8891   163.6306     6.2412     6.8921    38.1219
  196.5000   -39.8330   160.4307     6.2443     6.8701    39.3326
  197.0000   -39.7770   157.2307     6.2425     6.8510    42.3288
  197.5000   -39.7209   154.9274     6.2447     6.8337    44.7959
  198.0000   -39.6649   152.7370     6.4827     7.0022    43.6694
  198.5000   -39.6088   148.5621     6.7523     7.2190    44.0866
  199.0000   -39.5527   142.3467     7.0222     7.4391    42.3184
  199.5000   -39.4957   136.1312     7.2918     7.8538    40.5633
  200.0000   -39.4382   129.9158     7.5615     8.2941    37.3094
  200.5000   -39.5223   124.1396     7.8308     8.7346    33.8716
  201.0000   -39.6205   122.1642     8.0997     9.1684    31.0336
  201.5000   -39.7184   120.1889     8.3766     9.4561    29.7724
  202.0000   -39.8162   118.0483     8.3324     8.9270    29.7881
  202.5000   -39.9139   119.6572     8.1175     9.0767    35.4465
  203.0000   -40.0116   122.0791     7.8997     9.3291    38.1273
  203.5000   -40.1091   129.2280     7.6812     9.0016    41.3777
  204.0000   -40.2073   136.3769     7.4628     8.6459    48.4278
  204.5000   -40.3025   142.0147     7.2442     8.2905    50.2583
  205.0000   -40.4035   144.3232     6.8869     7.9504    46.8116
  205.5000   -40.5019   144.6242     6.8700     7.8531    45.8832
  206.0000   -40.6003   144.9252     6.8725     7.7655    48.9610
  206.5000   -40.6990   145.2262     6.8730     7.6823    47.2312
  207.0000   -40.7986   145.5272     6.8731     7.6453    42.0384
  207.5000   -40.8947   145.8282     6.8731     7.5694    39.0923
  208.0000   -40.8092   146.1292     6.8729     7.5125    43.7581
  208.5000   -40.7127   146.1671     6.8596     7.5842    43.7546
  209.0000   -40.6171   144.8956     6.8216     7.6555    46.0249
  209.5000   -40.5211   143.6241     6.7840     7.6339    45.1998
  210.0000   -40.4815   142.3526     6.7464     7.5735    46.8331
  210.5000   -40.4812   141.0812     6.7087     7.5241    48.6441
  211.0000   -40.4811   139.8097     6.6708     7.6108    48.3221
  211.5000   -40.4812   139.5488     6.6545     7.7004    50.6702
  212.0000   -40.4812   140.8657     6.6435     7.7538    48.6132
  212.5000   -40.4812   142.1826     6.6325     7.7051    43.5802
  213.0000   -40.4813   143.4995     6.6216     7.6550    46.4955
  213.5000   -40.4817   144.8164     6.6106     7.6050    50.6610
  214.0000   -40.4791   146.1333     6.5996     7.5464    51.5456
  214.5000   -40.4058   147.4502     6.5887     7.4566    50.9346
  215.0000   -40.3303   148.7670     6.5778     7.3670    51.8340
  215.5000   -40.2551   150.0840     6.5667     7.3105    53.4500
  216.0000   -40.1804   151.4008     6.5506     7.2925    52.1534
  216.5000   -40.1060   152.6758     6.5151     7.2746    49.4814
  217.0000   -40.0631   152.1581     6.4801     7.2572    45.8475
  217.5000   -40.0630   151.6564     6.4525     7.2756    44.2792
  218.0000   -40.0627   151.1548     6.4533     7.3326    46.3473
  218.5000   -40.0627   150.6531     6.4533     7.3893    51.7347
  219.0000   -40.0628   151.2829     6.4532     7.3797    50.3695
  219.5000   -40.0628   152.1147     6.4608     7.3606    51.6979
  220.0000   -40.0621   152.9408     6.4722     7.4655    47.3892
  220.5000   -40.0960   153.7182     6.4837     7.5255    48.2585
  221.0000   -40.1458   152.5082     6.4951     7.4118    45.0972
  221.5000   -40.1958   151.3746     6.5066     7.3067    39.8574
  222.0000   -40.2457   150.2357     6.5180     7.2274    41.7518
  222.5000   -40.2937   149.0967     6.5294     7.2561    44.5100
  223.0000   -40.3395   147.9578     6.5411     7.3251    44.9651
  223.5000   -40.3852   146.8189     6.5528     7.3577    43.7711
  224.0000   -40.4316   145.6799     6.6102     7.2837    40.8265
  224.5000   -40.4754   145.1331     6.7155     7.4613    38.1715
  225.0000   -40.3640   144.8484     6.8204     7.7552    40.3238
  225.5000   -40.2326   144.5637     6.9253     7.9257    43.0668
  226.0000   -40.1010   144.2789     6.9655     7.7759    44.7230
  226.5000   -39.9695   143.9942     6.9204     7.7541    44.8864
  227.0000   -39.8386   143.7095     6.8766     7.6863    46.6114
  227.5000   -39.7075   143.4247     6.8331     7.6114    46.4399
  228.0000   -39.6619   142.5127     6.7894     7.6216    44.5658
  228.5000   -39.6937   140.2841     6.8191     7.7176    41.8716
  229.0000   -39.7257   138.0555     6.9148     7.8387    39.2097
  229.5000   -39.7581   135.8269     7.0062     7.9615    38.3268
  230.0000   -39.7905   133.5983     7.1003     8.0487    38.3429
  230.5000   -39.8228   131.6313     7.1919     8.1377    39.0502
  231.0000   -39.8551   131.2261     7.2835     8.2275    40.9855
  231.5000   -39.8874   130.8209     7.3751     8.3196    42.5870
  232.0000   -39.9197   130.4157     7.4667     8.4142    39.4075
  232.5000   -39.9521   130.0105     7.5584     8.5104    36.2835
  233.0000   -39.9844   129.6053     7.6504     8.6208    37.2965
  233.5000   -40.0166   129.2001     7.7412     8.7925    41.4011
  234.0000   -40.0490   128.7949     7.8109     8.5712    43.4053
  234.5000   -40.0483   128.5414     7.7516     8.3107    44.8300
  235.0000   -40.0243   128.5414     7.6948     8.3984    45.0341
  235.5000   -40.0000   128.5414     7.6385     8.5963    44.8140
  236.0000   -39.9755   129.0042     7.5818     8.6811    44.5780
  236.5000   -39.9511   129.7943     7.5249     8.5737    44.3692
  237.0000   -39.9266   130.5826     7.4505     8.4598    44.4626
  237.5000   -39.9022   131.3727     7.3650     8.3187    44.5104
  238.0000   -39.8778   133.6257     7.2791     8.1768    47.7286
  238.5000   -39.8533   136.8444     7.1929     8.0565    50.8414
  239.0000   -39.8215   140.0641     7.1067     7.9699    47.3481
  239.5000   -39.7897   143.2319     7.0205     7.8846    44.4564
  240.0000   -39.7578   144.5698     6.9343     7.8204    42.1859
  240.5000   -39.7260   145.8867     6.8481     7.8497    40.3533
  241.0000   -39.6942   147.2036     6.7619     7.8813    42.4386
  241.5000   -39.6625   148.5205     6.6757     7.7369    39.9380
  242.0000   -39.6197   149.8374     6.5891     7.5652    34.4903
  242.5000   -39.5619   150.7970     6.5279     7.4356    34.5719
  243.0000   -39.5043   151.2987     6.4798     7.3297    36.2226
  243.5000   -39.4467   151.8003     6.4319     7.3048    41.6881
  244.0000   -39.3892   152.3020     6.3840     7.2948    47.3723
  244.5000   -39.3316   152.8037     6.3362     7.3627    47.7113
  245.0000   -39.2741   153.3053     6.2883     7.2806    44.6821
  245.5000   -39.2165   153.8070     6.2404     6.9164    44.4891
  246.0000   -39.1590   154.3087     6.1930     7.0307    40.4502
  246.5000   -39.1015   154.7744     6.1445     7.2698    37.2277
  247.0000   -39.0439   160.9329     5.9716     7.3933    39.2163
  247.5000   -38.9861   166.6794     5.7801     7.1543    35.8469
  248.0000   -38.9303   172.4258     5.5883     6.9261    35.9244
  248.5000   -38.8764   178.1723     5.3966     6.7004    38.3675
  249.0000   -38.7733   180.3243     5.2047     6.5056    36.0739
  249.5000   -38.6626   180.9634     5.0139     6.2471    40.5400
  250.0000   -38.7321   181.6140     4.8777     6.1512    44.0018
  250.5000   -38.8127   181.4178     4.9257     6.2717    43.2529
  251.0000   -38.8934   179.1598     4.9729     6.2388    42.1217
  251.5000   -38.9734   176.9004     5.0432     6.1877    43.3102
  252.0000   -39.0532   174.6444     5.2851     6.3194    45.2251
  252.5000   -39.1335   172.3942     5.4945     6.4824    46.8356
  253.0000   -39.2160   170.1434     5.6147     6.5105    48.4595
  253.5000   -39.1562   168.3351     5.6123     6.4293    49.7408
  254.0000   -39.0742   167.9888     5.6262     6.3441    44.3950
  254.5000   -38.9911   167.6425     5.6872     6.2530    42.9077
