~VERSION INFORMATION
 VERS.                2.0:   CWLS LOG ASCII STANDARD - VERSION 2.0
 WRAP.                 NO:   ONE LINE PER DEPTH STEP
~WELL INFORMATION
#MNEM.UNIT      DATA TYPE    INFORMATION
#----------   ------------   ------------------------------
 STRT.F           27.0000:   START DEPTH
 STOP.F          670.0000:   STOP DEPTH
 STEP.F            0.5000:   STEP LENGTH
 NULL.          -999.2500:   NO VALUE
 COMP. LAWRENCE/ALLISON INC:   COMPANY
 WELL. SX 11 WP 26 #26-11:   WELL
 FLD .           N.P.R #3:   FIELD
 LOC .      S11 T38N R78W:   LOCATION
 CNTY.            NATRONA:   COUNTY
 STAT.            WYOMING:   STATE
 CTRY. UNITED STATES OF AMERICA:   COUNTRY
 SRVC.            Unknown:   SERVICE COMPANY
 DATE.        11-SEP-1984:   LOGDATE
 API .       490251097700:   API NUMBER
~CURVE INFORMATION
#MNEM.UNIT       API CODE    CURVE DESCRIPTION
#----------   ------------   ------------------------------
 DEPT.F                  :   
 CNC .DEC    42 890 03 00:   NEUTRON POROSITY SANDSTONE
 AC  .US/F   60 520 00 00:   ACCOUSTIC SONIC
 SPR .MV     07 010 01 00:   SPONTANEOUS POTENTIAL
 RILD.OHMM   07 120 46 00:   INDUCTION LOG DEEP RESISTIVITY
 RILM.OHMM   07 120 44 00:   INDUCTION LOG MEDIUM RESISTIVITY
 RFOC.OHMM   07 220 04 00:   RESISTIVITY FOCUSED LOG
 GRD .GAPI   45 310 01 00:   GAMMA RAY FROM DENSITY LOG
 CALD.IN     45 280 60 00:   CALIPER FROM DENSITY LOG
 DEN .G/C3   45 350 01 00:   COMPENSATED BULK DENSTIY
 CORR.G/C3   45 356 01 00:   DENSITY CORRECTION
 PORD.DEC    45 890 12 00:   POROSITY DENSITY SANDSTONE
~PARAMETER INFORMATION
#MNEM.UNIT          VALUE    DESCRIPTION
#----------   ------------   ------------------------------
 PD  .                 GL:   PERMANENT DATUM
 EPD .F              5186:   ELEVATION PERMANENT DATUM
 LMF .                 GL:   LOG MEASURED FROM
 DMF .                 GL:   DRILLING MEASURED FROM
 EGL .F              5186:   GROUND LEVEL
 DATE.            9-11-84:   RUN DATE
 RUN .                  1:   RUN NUMBER
 DD  .F               672:   DEPTH DRILLER
 DL  .F               668:   DEPTH LOGGER
 BLI .F               668:   BOTTOM LOG INTERVAL
 TLI .F                45:   TOP LOG INTERVAL
 CS  .IN            8.625:   CASING SIZE
 CBD .F                42:   CASING BOTTOM DRILLER
 CBL .F                45:   CASING BOTTOM LOGGER
 BS  .IN            7.875:   BIT SIZE
 BSD .F               672:   BIT SIZE AT DEPTH
 DFT .          KCL WATER:   DRILLING FLUID TYPE
 MSS .               TANK:   MUD SAMPLE SOURCE
 RMS .OHMM            .36:   RESISTIVITY MUD SAMPLE
 MST .F                82:   MUD SAMPLE TEMPERATURE
 MFSS.                  C:   MUD FILTRATE SAMPLE SOURCE
 MCSS.                  C:   MUD CAKE SAMPLE SOURCE
 TCS .HRS               3:   TIME CURCULATED STOPPED
 MRT .F               100:   MAXIMUM RECORDED TEMPERATURE
 LUN .            HL 6307:   LOGGING UNIT NUMBER
 LUL .           GILLETTE:   LOGGING UNIT LOCATION
 ENGI.      FAHLSING/MACK:   RECORDING ENGINEER
 WITN.            JOHNSON:   WITNESSED BY
 CLNT.            A2DTECH:   CLIENT CODE
 ORIG.       2", 5" PRINT:   ORIGIN OF DATA
 UWI .       490251097700:   UNIQUE WELL ID
 DICO. A2D Technologies, Inc.:   DIGITIZING COMPANY
~OTHER INFORMATION
~A   DEPT      CNC          AC       SPR       RILD       RILM       RFOC        GRD       CALD        DEN       CORR       PORD   
# ...
  301.5000     0.2747   100.4350   -40.3450     7.3960     7.8600    10.0540    97.8820     8.0870     2.4350     0.0050     0.1460
  302.0000     0.2852   100.1550   -40.2190     7.4650     7.9260    10.2570    96.8940     8.0880     2.4280     0.0020     0.1500
  302.5000     0.2895   100.2970   -40.0930     7.5350     7.8610    10.2570    98.0390     8.0880     2.4250    -0.0010     0.1530
  303.0000     0.2845   100.4400   -39.9660     7.5690     7.7900    10.1320    99.3430     8.0890     2.4310    -0.0010     0.1480
  303.5000     0.2795   100.7180   -39.8390     7.4190     7.7190    10.0370   100.6480     8.0890     2.4370     0.0070     0.1410
  304.0000     0.2925   101.1180   -39.7120     7.3070     7.6470     9.9420   101.9520     8.0900     2.4440     0.0160     0.1400
  304.5000     0.2998   101.5180   -39.5850     7.1950     7.5760     9.8470   102.7740     8.0910     2.4410     0.0250     0.1430
  305.0000     0.2994   101.9180   -39.4590     7.1050     7.4990     9.7510   101.9920     8.0910     2.4380     0.0200     0.1450
  305.5000     0.2964   102.7600   -39.3320     7.1790     7.5420     9.6130   101.1520     8.0920     2.4340     0.0110     0.1480
  306.0000     0.2911   103.9740   -39.2050     7.2530     7.6010     9.4350   103.3060     8.0920     2.4300     0.0070     0.1520
  306.5000     0.2840   105.1880   -39.0780     7.3270     7.6610     9.2560   105.7800     8.0930     2.4220     0.0160     0.1580
  307.0000     0.2867   106.4020   -38.9510     7.4010     7.7200     9.0780   102.6330     8.0930     2.4130     0.0260     0.1640
  307.5000     0.2942   107.0020   -38.8250     7.4750     7.7790     8.8520    98.0840     8.0940     2.4040     0.0350     0.1670
  308.0000     0.3162   106.1730   -38.6990     7.5690     7.8390     9.0480    96.2110     8.0950     2.3990     0.0240     0.1530
  308.5000     0.3127   104.7670   -38.5730     7.5280     7.8980     9.4180    94.5600     8.0950     2.4320     0.0040     0.1300
  309.0000     0.2974   103.3610   -38.7050     7.4500     7.9260     9.7890    93.3820     8.0960     2.4580    -0.0140     0.1290
  309.5000     0.2751   102.0550   -39.1020     7.3720     7.8890     9.8860    94.1570     8.0960     2.4610    -0.0060     0.1330
  310.0000     0.2841   101.2050   -39.4950     7.2950     7.8200     9.7520    97.8660     8.0970     2.4590     0.0050     0.1350
  310.5000     0.2896   101.2660   -39.8890     7.2250     7.7510     9.7060    98.8530     8.0970     2.4600     0.0160     0.1330
  311.0000     0.2962   101.3290   -40.2830     7.2020     7.6820    10.0800    96.3140     8.0980     2.4610     0.0270     0.1310
  311.5000     0.3180   101.3910   -40.6770     7.1790     7.6130    10.1630    95.9880     8.0980     2.4590     0.0380     0.1330
  312.0000     0.3291   101.4540   -41.0710     7.1570     7.5450    10.0270    98.5280     8.0990     2.4570     0.0280     0.1350
  312.5000     0.3204   101.4840   -41.4650     7.1340     7.4760     9.7360   101.3320     8.1000     2.4540     0.0130     0.1360
  313.0000     0.3074   101.3840   -41.8590     7.1110     7.4070     9.4460   104.2020     8.1000     2.4540     0.0090     0.1340
  313.5000     0.2872   101.2840   -42.2530     7.0790     7.3530     9.1550   103.9750     8.1010     2.4590     0.0170     0.1310
  314.0000     0.2801   101.2580   -42.6460     6.9700     7.2890     8.8520   102.4970     8.1010     2.4630     0.0250     0.1280
  314.5000     0.2798   101.5080   -43.0360     6.8600     7.2250     9.0100   101.0630     8.1020     2.4620     0.0190     0.1310
  315.0000     0.2834   101.7580   -43.2850     6.7500     7.1610     9.2190    99.6590     8.1020     2.4600     0.0070     0.1350
  315.5000     0.2924   101.8830   -43.0890     6.6400     7.0970     9.3230    98.3780     8.1030     2.4580     0.0030     0.1310
  316.0000     0.3088   101.8380   -42.9030     6.4880     7.0310     9.0160    99.2080     8.1030     2.4640     0.0210     0.1240
  316.5000     0.3041   101.8030   -42.7180     6.3030     6.7910     8.9200   101.2290     8.1040     2.4750     0.0440     0.1180
  317.0000     0.3009   102.2540   -42.5320     6.1180     6.5410     8.7950   103.3280     8.1040     2.4850     0.0430     0.1160
  317.5000     0.2988   103.0840   -42.3430     5.9320     6.2920     8.6900   105.4350     8.1050     2.4790     0.0340     0.1220
  318.0000     0.3173   104.1930   -42.4750     5.7470     6.0420     8.2860   107.3500     8.1050     2.4690     0.0250     0.1280
  318.5000     0.3358   105.2600   -42.6330     5.5620     5.7930     7.8690   103.8130     8.1060     2.4580     0.0250     0.1350
  319.0000     0.3342   106.4840   -42.7910     5.4330     5.6370     7.4520   100.0130     8.1060     2.4480     0.0300     0.1420
  319.5000     0.3175   105.9860   -42.9240     5.4250     5.7290     7.0360    96.2440     8.1070     2.4420     0.0350     0.1430
  320.0000     0.3035   104.9300   -42.7890     5.4040     5.8230     6.7770    93.3160     8.1070     2.4470     0.0370     0.1400
  320.5000     0.2942   103.9300   -42.6410     5.3830     5.9170     7.2000    97.4430     8.1080     2.4550     0.0270     0.1320
  321.0000     0.2874   103.1800   -42.4930     5.5470     6.0120     7.9280   101.6130     8.1080     2.4540     0.0270     0.1340
  321.5000     0.2830   103.4650   -42.3450     5.6940     6.1690     8.6900   104.7520     8.1090     2.4490     0.0270     0.1370
  322.0000     0.2827   103.8880   -42.1960     5.8400     6.3290     8.4600   101.9730     8.1090     2.4500     0.0260     0.1370
  322.5000     0.2944   104.0940   -42.1520     5.9870     6.4890     8.2230    98.1500     8.1100     2.4550     0.0260     0.1350
  323.0000     0.2978   103.7360   -42.1840     6.1330     6.6490     8.4150    99.7210     8.1100     2.4520     0.0070     0.1350
  323.5000     0.2990   103.3790   -42.2160     6.2790     6.8080     8.6120   101.7370     8.1110     2.4490    -0.0120     0.1380
  324.0000     0.2974   103.2210   -42.2490     6.4260     6.9680     8.8520   103.7160     8.1110     2.4460    -0.0030     0.1410
  324.5000     0.2927   103.3050   -42.2810     6.5720     7.0960     8.7710   104.7980     8.1120     2.4540     0.0110     0.1370
  325.0000     0.3017   103.3960   -42.3140     6.7180     7.0470     8.6900   103.7140     8.1120     2.4620     0.0230     0.1320
  325.5000     0.3029   103.3960   -42.3470     6.8400     6.9860     8.7210   104.3420     8.1130     2.4680     0.0210     0.1270
  326.0000     0.3019   103.2530   -42.3800     6.7850     6.9250     8.7520   104.6130     8.1130     2.4700     0.0180     0.1260
  326.5000     0.2989   103.0980   -42.4130     6.6950     6.8630     8.7840   103.2430     8.1140     2.4710     0.0250     0.1260
  327.0000     0.2941   103.4100   -42.4460     6.6050     6.8020     8.8150   101.8430     8.1140     2.4710     0.0320     0.1250
  327.5000     0.2944   103.7520   -42.4780     6.5140     6.7410     8.8520   102.1200     8.1150     2.4660     0.0220     0.1290
  328.0000     0.3018   104.0940   -42.5100     6.4240     6.6790     8.6650   103.8110     8.1150     2.4610     0.0130     0.1330
  328.5000     0.3003   104.3580   -42.4860     6.3340     6.6180     8.4340   105.4770     8.1160     2.4580     0.0220     0.1320
  329.0000     0.2987   104.0890   -42.3860     6.2430     6.5570     8.2990   104.6650     8.1160     2.4590     0.0310     0.1310
  329.5000     0.2962   103.8200   -42.2870     6.1530     6.4950     8.6180   102.0630     8.1170     2.4600     0.0410     0.1310
  330.0000     0.2924   104.0860   -42.1870     6.0630     6.3620     8.7710    99.4580     8.1170     2.4610     0.0380     0.1320
  330.5000     0.2937   104.8140   -42.2040     5.9720     6.1830     8.5280    98.1080     8.1170     2.4620     0.0330     0.1310
  331.0000     0.3113   105.5240   -42.3580     5.8820     6.0050     8.3290    97.9310     8.1160     2.4620     0.0280     0.1300
  331.5000     0.3277   106.2030   -42.5120     5.6210     5.7680     8.1300   101.2490     8.1160     2.4600     0.0230     0.1300
