~VERSION INFORMATION
 VERS.                2.0:   CWLS LOG ASCII STANDARD - VERSION 2.0
 WRAP.                 NO:   ONE LINE PER DEPTH STEP
~WELL INFORMATION
#MNEM.UNIT      DATA TYPE    INFORMATION
#----------   ------------   ------------------------------
 STRT.F           34.0000:   START DEPTH
 STOP.F          662.0000:   STOP DEPTH
 STEP.F            0.5000:   STEP LENGTH
 NULL.          -999.2500:   NO VALUE
 COMP. LAWRENCE/ALLISON INC:   COMPANY
 WELL.   68-66 STX #34-34:   WELL
 FLD .             TEAPOT:   FIELD
 LOC .      S34 T39N R78W:   LOCATION
 CNTY.            NATRONA:   COUNTY
 STAT.            WYOMING:   STATE
 CTRY. UNITED STATES OF AMERICA:   COUNTRY
 SRVC.           Gearhart:   SERVICE COMPANY
 DATE.        24-AUG-1987:   LOGDATE
 API .       490251115000:   API NUMBER
~CURVE INFORMATION
#MNEM.UNIT       API CODE    CURVE DESCRIPTION
#----------   ------------   ------------------------------
 DEPT.F                  :   
 GRR .GAPI   07 310 01 00:   GAMMA RAY FROM RES. LOG
 ILD .OHMM   07 120 46 00:   INDUCTION LOG DEEP
 ILM .OHMM   07 120 44 00:   INDUCTION LOG MEDIUM
~PARAMETER INFORMATION
#MNEM.UNIT          VALUE    DESCRIPTION
#----------   ------------   ------------------------------
 PD  .                 GL:   PERMANENT DATUM
 EPD .F              5089:   ELEVATION PERMANENT DATUM
 LMF .                 KB:   LOG MEASURED FROM
 DAPD.F                 8:   FEET ABOVE PERMANENT DATUM
 DMF .                 KB:   DRILLING MEASURED FROM
 EKB .F              5097:   KELLING BUSHING
 EDF .F              5095:   DRILLING FLOOR
 EGL .F              5089:   GROUND LEVEL
 DATE.            8-24-87:   RUN DATE
 RUN .                  1:   RUN NUMBER
 DD  .F               675:   DEPTH DRILLER
 DL  .F               670:   DEPTH LOGGER
 BLI .F               662:   BOTTOM LOG INTERVAL
 TLI .F                30:   TOP LOG INTERVAL
 CS  .IN            8.625:   CASING SIZE
 CBD .F                48:   CASING BOTTOM DRILLER
 CBL .F                48:   CASING BOTTOM LOGGER
 BS  .IN            7.875:   BIT SIZE
 BSD .F               675:   BIT SIZE AT DEPTH
 DFT .                AIR:   DRILLING FLUID TYPE
 TCS .HRS            1300:   TIME CURCULATED STOPPED
 TLAB.HRS            1712:   TIME LOGGER AT BOTTOM
 MRT .F                80:   MAXIMUM RECORDED TEMPERATURE
 LUN .               7597:   LOGGING UNIT NUMBER
 LUL .           GILLETTE:   LOGGING UNIT LOCATION
 ENGI.         WEATHERMON:   RECORDING ENGINEER
 WITN.             STRONG:   WITNESSED BY
 CLNT.            A2DTECH:   CLIENT CODE
 ORIG.       2", 5" PRINT:   ORIGIN OF DATA
 UWI .       490251115000:   UNIQUE WELL ID
 DICO. A2D Technologies, Inc.:   DIGITIZING COMPANY
~OTHER INFORMATION
~A   DEPT       GRR       ILD        ILM   
# ...
  307.0000   116.6052     9.8579    10.2305
  307.5000   117.9617     9.8173    10.1883
  308.0000   117.3569     9.7768    10.1463
  308.5000   115.5025     9.7365    10.1046
  309.0000   114.3719     9.7013    10.0680
  309.5000   114.8852     9.7307    10.0985
  310.0000   116.0415     9.7570    10.1257
  310.5000   116.7488     9.7833    10.1531
  311.0000   112.4216     9.8097    10.1805
  311.5000   107.7508     9.8362    10.2082
  312.0000   104.0724     9.8627    10.2351
  312.5000   103.9533     9.8830    10.2558
  313.0000   106.3547     9.6731    10.0387
  313.5000   109.1334     9.5069     9.8663
  314.0000   114.0625     9.3436     9.6968
  314.5000   118.9133     9.1832     9.5295
  315.0000   122.8819     9.0254     9.3702
  315.5000   126.3115     8.6945     9.0212
  316.0000   125.1784     8.3540     8.6694
  316.5000   122.9219     8.0269     8.3303
  317.0000   122.8892     7.9106     8.2096
  317.5000   123.8895     7.9387     8.2388
  318.0000   124.8226     7.9654     8.2664
  318.5000   122.6916     7.9921     8.2941
  319.0000   120.9656     8.0188     8.3219
  319.5000   120.6269     8.0457     8.3498
  320.0000   121.5493     8.0727     8.3778
  320.5000   122.4403     8.0997     8.4059
  321.0000   123.3162     8.1269     8.4340
  321.5000   125.2844     8.1541     8.4623
  322.0000   127.9419     8.1814     8.4907
  322.5000   130.6885     8.2096     8.5199
  323.0000   131.2710     8.2815     8.5945
  323.5000   129.5914     8.3562     8.6721
  324.0000   127.9276     8.4317     8.7504
  324.5000   126.8865     8.5078     8.8294
  325.0000   126.1299     8.5846     8.9093
  325.5000   123.9957     8.6320     8.9583
  326.0000   122.4406     8.6727     9.0005
  326.5000   123.9211     8.7135     9.0428
  327.0000   126.3322     8.7545     9.0854
  327.5000   128.8164     8.7956     9.1281
  328.0000   127.3923     8.8370     9.1711
  328.5000   125.6046     8.8421     9.1762
  329.0000   124.9159     8.8418     9.1762
  329.5000   124.8520     8.8430     9.1762
  330.0000   123.7873     8.7063     9.0348
  330.5000   123.5030     8.5735     8.8975
  331.0000   127.0723     8.4424     8.7622
  331.5000   131.6039     8.3512     8.6795
  332.0000   135.7018     8.3178     8.6795
  332.5000   131.7745     8.2853     8.6795
  333.0000   127.0097     8.2529     8.6795
  333.5000   122.1618     8.2205     8.6795
  334.0000   120.4695     8.1882     8.6795
  334.5000   120.5004     8.1561     8.6795
  335.0000   121.5557     8.1332     8.6794
  335.5000   122.4739     8.1338     8.6807
  336.0000   125.1479     8.1338     8.6423
  336.5000   128.0001     8.1339     8.5800
  337.0000   130.8777     8.1339     8.5178
  337.5000   131.5716     8.1347     8.4557
  338.0000   131.1598     8.0964     8.4025
  338.5000   131.3749     8.0475     8.3516
  339.0000   132.0704     7.9990     8.3013
  339.5000   132.7344     7.9504     8.2509
  340.0000   130.8085     7.8802     8.1781
  340.5000   126.2465     7.7057     7.9970
  341.0000   121.8389     7.5351     7.8199
  341.5000   121.1831     7.3327     7.6098
  342.0000   124.0061     7.1198     7.3889
  342.5000   127.4121     6.9132     7.1745
  343.0000   129.6157     6.7126     6.9663
  343.5000   131.0747     6.5177     6.7641
  344.0000   131.2872     6.3799     6.6211
  344.5000   131.9913     6.3030     6.5413
  345.0000   132.9430     6.2734     6.5106
  345.5000   131.6098     6.3873     6.6630
  346.0000   128.2028     6.4989     6.8131
  346.5000   124.7975     6.6125     6.9667
  347.0000   122.8575     6.7281     7.1237
  347.5000   123.2326     6.8456     7.2844
  348.0000   123.7435     6.9654     7.4492
  348.5000   124.2971     7.0875     7.6218
  349.0000   125.6902     7.2099     7.6690
  349.5000   129.2926     7.1975     7.7176
  350.0000   133.6361     7.1777     7.7664
  350.5000   136.6986     7.1579     7.8376
  351.0000   133.9218     7.1382     7.7929
  351.5000   129.1145     7.1186     7.7129
  352.0000   124.2881     7.0990     7.6356
  352.5000   120.7871     7.0794     7.3744
  353.0000   122.5219     6.9454     7.2488
  353.5000   124.8141     6.8006     7.1439
  354.0000   126.7990     6.6589     7.0400
  354.5000   127.3630     6.3371     6.9406
  355.0000   128.2297     6.0226     6.6922
  355.5000   130.2830     5.7395     6.3043
  356.0000   132.2593     5.4698     5.9347
  356.5000   133.9174     5.2125     5.5886
  357.0000   131.1964     4.9673     5.4082
  357.5000   128.0174     4.7313     5.4082
  358.0000   125.2574     4.6205     5.5567
  358.5000   127.7631     5.0097     5.7653
  359.0000   130.4206     5.2901     5.9813
  359.5000   133.0716     5.5863     6.2052
  360.0000   132.9886     5.8991     6.4375
  360.5000   132.5109     6.2297     6.6784
  361.0000   132.6020     6.5768     6.9264
  361.5000   133.7513     6.8865     7.1463
  362.0000   134.0877     6.9953     7.4859
  362.5000   132.1348     7.1136     7.8377
  363.0000   133.0877     7.2330     7.9003
  363.5000   134.3602     7.3545     7.9605
  364.0000   135.6334     7.4824     8.0213
  364.5000   134.8674     7.5939     8.0825
  365.0000   130.3103     7.7111     8.1442
  365.5000   126.2347     7.8301     8.2063
  366.0000   125.4743     7.9509     8.2689
  366.5000   126.8202     8.0343     8.3711
  367.0000   128.1496     8.1037     8.4894
  367.5000   128.4451     8.1737     8.6095
  368.0000   126.5092     8.2443     8.7314
  368.5000   124.6144     8.3160     8.8505
  369.0000   122.7500     8.3633     8.9243
  369.5000   121.6586     8.3133     8.8608
  370.0000   122.6154     8.2697     8.8053
  370.5000   124.7789     8.2263     8.7502
  371.0000   128.0454     8.1831     8.6954
  371.5000   131.2000     8.1401     8.6292
  372.0000   130.1687     8.0973     8.5585
  372.5000   128.7347     8.0548     8.4885
  373.0000   127.7994     8.0125     8.4190
  373.5000   130.3070     7.9704     8.3501
  374.0000   134.1498     7.9286     8.2817
  374.5000   137.1587     7.8870     8.2140
  375.0000   135.3630     7.8455     8.1467
  375.5000   133.4008     7.6982     8.0356
  376.0000   131.5890     7.5291     7.9157
  376.5000   130.6711     7.3110     7.7975
  377.0000   131.8056     6.9826     7.5454
  377.5000   133.1665     6.6691     7.2521
  378.0000   133.8288     6.3695     6.9702
  378.5000   132.2137     6.1013     6.6406
  379.0000   130.0975     5.5784     6.2586
  379.5000   130.5096     5.1277     5.8791
  380.0000   134.1456     4.5296     5.2397
  380.5000   135.7720     3.9489     4.6402
  381.0000   134.0135     3.4426     4.1300
  381.5000   132.0615     3.0013     3.5959
  382.0000   130.5836     2.7325     3.1487
  382.5000   129.7162     2.5002     2.7580
  383.0000   128.6398     2.3470     2.4164
  383.5000   125.1604     2.5045     2.1948
  384.0000   119.2189     2.5192     2.1391
  384.5000   114.5898     2.6258     2.2702
  385.0000   113.4498     2.8680     2.4132
  385.5000   118.4527     3.3564     2.8212
  386.0000   124.0062     3.9280     3.3189
  386.5000   127.0446     4.5813     3.9044
  387.0000   129.7406     5.2475     4.5932
  387.5000   131.2587     5.5953     5.2598
  388.0000   132.8415     5.9662     6.0745
  388.5000   135.3291     6.3064     6.5686
  389.0000   141.8250     6.4504     6.7566
  389.5000   144.6071     6.4302     6.7566
  390.0000   146.1844     6.4003     6.7566
  390.5000   146.6666     6.3705     6.7570
  391.0000   146.5092     6.3409     6.7363
  391.5000   144.2601     6.3115     6.7020
  392.0000   141.5774     6.2827     6.6684
  392.5000   138.6951     6.1597     6.6325
  393.0000   138.3821     5.9988     6.4232
  393.5000   139.4283     5.6635     6.0919
  394.0000   142.1926     5.2258     5.7017
  394.5000   146.0367     4.8970     5.3365
  395.0000   149.5437     4.7806     5.0925
  395.5000   152.1025     4.6624     4.9540
  396.0000   152.0445     4.5201     4.7944
  396.5000   151.3665     4.4921     4.8934
  397.0000   149.0652     4.6434     5.0194
  397.5000   145.0785     4.7703     5.1489
