~VERSION INFORMATION
 VERS.                2.0:   CWLS LOG ASCII STANDARD - VERSION 2.0
 WRAP.                 NO:   ONE LINE PER DEPTH STEP
~WELL INFORMATION
#MNEM.UNIT      DATA TYPE    INFORMATION
#----------   ------------   ------------------------------
 STRT.F          283.5000:   START DEPTH
 STOP.F         3026.0000:   STOP DEPTH
 STEP.F            0.5000:   STEP LENGTH
 NULL.          -999.2500:   NO VALUE
 COMP. DEPARTMENT OF ENERGY:   COMPANY
 WELL. RES 3 TEAPOT DOM "AX" #62-29:   WELL
 FLD .        TEAPOT DOME:   FIELD
 LOC .      S29 T39N R78W:   LOCATION
 CNTY.            NATRONA:   COUNTY
 STAT.            WYOMING:   STATE
 CTRY. UNITED STATES OF AMERICA:   COUNTRY
 SRVC.       Schlumberger:   SERVICE COMPANY
 DATE.        27-JUL-1971:   LOGDATE
 API .       490250659800:   API NUMBER
~CURVE INFORMATION
#MNEM.UNIT       API CODE    CURVE DESCRIPTION
#----------   ------------   ------------------------------
 DEPT.F                  :   
 GRD .GAPI   45 310 01 00:   GAMMA RAY FROM DENSITY LOG
 CALD.IN     45 280 60 00:   CALIPER FROM DENSITY LOG
 RHOB.G/C3   45 350 01 00:   BULK DENSITY
 DPHI.DEC    45 890 12 00:   DENSITY POROSITY SANDSTONE
 CORR.G/C3   45 356 01 00:   DENSITY CORRECTION
 SPR .MV     05 010 01 00:   SPONTANEOUS POTENTIAL FROM RES.
 ASN .OHMM   05 041 16 00:   AMPLIFIED SHORT NORMAL 16"
 ILD .OHMM   05 120 46 00:   INDUCTION LOG DEEP
 CILD.MMHO   05 110 46 00:   CONDUCTIVITY INDUCTION LOG DEEP
~PARAMETER INFORMATION
#MNEM.UNIT          VALUE    DESCRIPTION
#----------   ------------   ------------------------------
 PD  .                 GL:   PERMANENT DATUM
 EPD .F              4998:   ELEVATION PERMANENT DATUM
 LMF .                 KB:   LOG MEASURED FROM
 DAPD.F                11:   FEET ABOVE PERMANENT DATUM
 DMF .                 KB:   DRILLING MEASURED FROM
 EKB .F              5009:   KELLING BUSHING
 EGL .F              4998:   GROUND LEVEL
 DATE.            7-27-71:   RUN DATE
 RUN .                  1:   RUN NUMBER
 DD  .F              3023:   DEPTH DRILLER
 DL  .F              3024:   DEPTH LOGGER
 BLI .F              3023:   BOTTOM LOG INTERVAL
 TLI .F               286:   TOP LOG INTERVAL
 CS  .IN            10.75:   CASING SIZE
 CBD .F               287:   CASING BOTTOM DRILLER
 CBL .F               286:   CASING BOTTOM LOGGER
 BS  .IN                9:   BIT SIZE
 BSD .F              3023:   BIT SIZE AT DEPTH
 DFT .      FRESH GEL MUD:   DRILLING FLUID TYPE
 DFD .                 10:   DRILLING FLUID DENSITY
 DFV .                 90:   DRILLING FLUID VISCOSITY
 DFPH.                7.6:   DRILLING FLUID PH
 DFL .                5.8:   DRILLING FLUID LOSS
 MSS .          FLOW LINE:   MUD SAMPLE SOURCE
 RMS .OHMM           1.74:   RESISTIVITY MUD SAMPLE
 MST .F                75:   MUD SAMPLE TEMPERATURE
 RMF .OHMM            1.5:   RESISTIVITY MUD FILTRATE SAMPLE
 MFST.F                75:   MUD FILTRATE SAMPLE TEMPERATURE
 MFSS.                  C:   MUD FILTRATE SAMPLE SOURCE
 RMB .OHMM           1.12:   RESISTIVITY MUD AT BHT
 BHT .F               116:   BOTTOM HOLE TEMPERATURE
 TCS .HRS               5:   TIME CURCULATED STOPPED
 MRT .F               116:   MAXIMUM RECORDED TEMPERATURE
 LUN .               7041:   LOGGING UNIT NUMBER
 LUL .               CSPR:   LOGGING UNIT LOCATION
 ENGI.             KNOBEL:   RECORDING ENGINEER
 WITN.                MAY:   WITNESSED BY
 CLNT.            A2DTECH:   CLIENT CODE
 ORIG.     1", 2.5" PRINT:   ORIGIN OF DATA
 UWI .       490250659800:   UNIQUE WELL ID
 DICO. A2D Technologies, Inc.:   DIGITIZING COMPANY
~OTHER INFORMATION
~A   DEPT      GRD       CALD       RHOB       DPHI       CORR        SPR        ASN        ILD       CILD   
# ...
 1962.5000   111.4990     9.5250     2.4926     0.0953     0.0573   -42.5302     9.6076     7.5653   127.7228
 1963.0000   111.0959     9.5544     2.5081     0.0857     0.0400   -42.2925     9.7117     7.6371   127.7228
 1963.5000   110.1830     9.5688     2.5031     0.0909     0.0478   -42.0355     9.5763     7.5142   125.7426
 1964.0000   103.9689     9.5813     2.5336     0.0802     0.0646   -41.8930     9.3744     7.3508   128.4753
 1964.5000    99.6422     9.5903     2.5285     0.0675     0.0470   -41.8895     9.1913     7.2401   130.5884
 1965.0000   100.3482     9.6023     2.5111     0.0842     0.0267   -41.9539     9.0164     7.1326   132.7016
 1965.5000   102.4349     9.6127     2.5268     0.0675     0.0387   -42.0172     8.8737     6.9788   134.8147
 1966.0000   104.5770     9.6235     2.5327     0.0709     0.0514   -42.0673     8.8450     6.8468   137.6238
 1966.5000   102.8773     9.6354     2.5205     0.0794     0.0309   -42.1205     8.9582     6.8419   136.7970
 1967.0000   100.7062     9.6424     2.5159     0.0842     0.0171   -42.1775     9.1356     6.9708   135.5644
 1967.5000    98.6393     9.6414     2.5084     0.0880     0.0158   -42.2266     9.2922     7.1406   134.3317
 1968.0000    93.7103     9.6397     2.4970     0.0945     0.0151   -42.2712     9.4368     7.2716   133.6634
 1968.5000    88.8211     9.6380     2.4834     0.1022     0.0126   -42.3263     9.6267     7.3727   130.0693
 1969.0000    85.7058     9.6361     2.4931     0.1040     0.0104   -42.3951     9.8273     7.5039   127.6040
 1969.5000    85.8200     9.6343     2.4987     0.0970     0.0063   -42.4655     9.9065     7.6771   125.1386
 1970.0000    89.7283     9.6325     2.4971     0.0892     0.0184   -42.5298     9.8398     7.8111   121.7822
 1970.5000    95.4366     9.6307     2.5133     0.0819     0.0382   -42.5928     9.8106     7.8048   120.7327
 1971.0000    97.3286     9.6289     2.5175     0.0785     0.0513   -42.6609     9.9518     7.6472   119.8020
 1971.5000    96.9392     9.6271     2.5208     0.0745     0.0597   -42.7298    10.0706     7.4267   123.1947
 1972.0000    96.5891     9.6252     2.5279     0.0716     0.0619   -42.7927     9.8390     7.2276   126.4818
 1972.5000    96.2803     9.6234     2.5064     0.0795     0.0447   -42.8549     9.2397     7.0533   129.7690
 1973.0000    96.0432     9.6216     2.4754     0.0976     0.0247   -42.9268     8.6038     6.8666   131.6832
 1973.5000    98.6835     9.6198     2.4710     0.1087     0.0262   -42.9996     8.2146     6.6641   139.1726
 1974.0000   101.9490     9.6180     2.4895     0.0957     0.0337   -43.0425     8.0734     6.4744   144.4554
 1974.5000   105.4038     9.6162     2.5401     0.0786     0.0682   -43.0350     8.0409     6.3002   149.7383
 1975.0000   106.3078     9.6144     2.5553     0.0580     0.0994   -42.9916     8.0029     6.1061   155.0212
 1975.5000   103.6329     9.6126     2.5419     0.0731     0.0741   -42.9416     7.8818     5.8802   161.3861
 1976.0000   101.5770     9.6108     2.4881     0.0953     0.0530   -42.8981     7.6630     5.6845   162.8119
 1976.5000   104.8552     9.6089     2.5053     0.0934     0.0463   -42.8582     7.4456     5.6073   164.6049
 1977.0000   108.9947     9.6072     2.5051     0.0890     0.0462   -42.8179     7.3471     5.6648   166.3978
 1977.5000   113.7622     9.6054     2.4933     0.0922     0.0458   -42.7738     7.3658     5.7824   168.1908
 1978.0000   114.4470     9.6034     2.5001     0.0976     0.0573   -42.7241     7.4219     5.8910   169.3069
 1978.5000   111.8419     9.6023     2.5187     0.0836     0.0697   -42.6820     7.4918     5.9971   162.5148
 1979.0000   109.4720     9.6024     2.5252     0.0731     0.0803   -42.6738     7.6168     6.1241   157.5842
 1979.5000   108.1740     9.6024     2.5103     0.0807     0.0713   -42.7103     7.8161     6.2267   152.6535
 1980.0000   107.6548     9.6024     2.4985     0.0874     0.0586   -42.7707     8.0589     6.2217   149.5049
 1980.5000   106.5083     9.6024     2.4803     0.0941     0.0448   -42.8246     8.2850     6.0973   152.0223
 1981.0000   104.2417     9.6024     2.4951     0.1055     0.0392   -42.8636     8.4022     5.9355   153.8713
 1981.5000   104.1273     9.6024     2.4904     0.1032     0.0413   -42.9046     8.3019     5.8119   155.4455
 1982.0000   106.0746     9.6024     2.4850     0.0953     0.0426   -42.9614     7.9616     5.7135   161.1089
 1982.5000   105.9636     9.6024     2.5016     0.0875     0.0473   -43.0182     7.5212     5.5823   166.0396
 1983.0000   103.6380     9.6024     2.5195     0.0802     0.0581   -43.0377     7.1927     5.4158   170.9703
 1983.5000   104.3177     9.6024     2.5234     0.0755     0.0575   -43.0005     7.0751     5.2814   175.9010
 1984.0000   105.3371     9.6024     2.5205     0.0803     0.0436   -42.9263     7.0932     5.2351   181.1881
 1984.5000   106.5714     9.6024     2.5107     0.0889     0.0373   -42.8495     7.1262     5.2611   180.0446
 1985.0000   105.4570     9.6024     2.5185     0.0852     0.0357   -42.7831     7.1374     5.3022   178.8119
 1985.5000   102.0277     9.6024     2.5211     0.0755     0.0351   -42.7182     7.1532     5.3260   177.5792
 1986.0000   102.8989     9.6024     2.5175     0.0802     0.0345   -42.6480     7.1770     5.3400   176.3465
 1986.5000   105.3971     9.6024     2.5278     0.0672     0.0414   -42.5764     7.1816     5.3624   175.2475
 1987.0000   108.0612     9.6024     2.5749     0.0489     0.0585   -42.5076     7.1554     5.3972   175.7444
 1987.5000   108.9762     9.6024     2.5882     0.0347     0.0780   -42.4405     7.1157     5.4288   176.1926
 1988.0000   108.9193     9.6024     2.5793     0.0404     0.0707   -42.3723     7.0849     5.4294   176.6409
 1988.5000   109.7886     9.6024     2.5689     0.0485     0.0557   -42.3012     7.0718     5.3827   177.2277
 1989.0000   114.4874     9.6024     2.5734     0.0469     0.0605   -42.2301     7.0640     5.3039   178.7415
 1989.5000   118.3567     9.6024     2.5847     0.0427     0.0792   -42.1638     7.0383     5.2228   180.9329
 1990.0000   122.5601     9.6024     2.5649     0.0382     0.0780   -42.0988     6.9881     5.1488   183.1243
 1990.5000   125.0355     9.6024     2.5316     0.0646     0.0634   -42.0247     6.9219     5.0728   185.1485
 1991.0000   126.2548     9.6024     2.5086     0.0842     0.0506   -41.9443     6.8358     4.9948   189.9730
 1991.5000   131.1342     9.6024     2.5005     0.0876     0.0553   -41.8814     6.7253     4.9231   194.4554
 1992.0000   136.4900     9.6024     2.5066     0.0868     0.0674   -41.8564     6.6167     4.8497   198.9379
 1992.5000   142.2368     9.6024     2.4979     0.0962     0.0625   -41.8602     6.5548     4.7624   204.7935
 1993.0000   146.9059     9.6024     2.5058     0.0923     0.0503   -41.8678     6.5536     4.6856   205.2883
 1993.5000   149.3655     9.6024     2.5222     0.0733     0.0719   -41.8666     6.5700     4.6757   204.7447
 1994.0000   147.7745     9.6024     2.5154     0.0767     0.0783   -41.8619     6.5307     4.7608   201.0659
 1994.5000   142.8293     9.6024     2.5026     0.0938     0.0664   -41.8616     6.4229     4.9073   196.4310
 1995.0000   137.9953     9.6024     2.5080     0.0894     0.0784   -41.8658     6.3833     5.0644   192.9828
 1995.5000   133.1185     9.6024     2.5263     0.0739     0.1087   -41.8679     6.6140     5.2269   186.8782
 1996.0000   129.6953     9.6024     2.5121     0.0813     0.1173   -41.8622     7.1387     5.4319   179.8196
 1996.5000   130.1869     9.6024     2.4946     0.0869     0.0869   -41.8573     7.7197     5.6932   167.3170
 1997.0000   130.3363     9.6024     2.5120     0.0903     0.0496   -41.8758     8.1186     5.9735   153.6468
 1997.5000   134.2103     9.6024     2.4825     0.1047     0.0587   -41.9341     8.3530     6.2387   148.8509
 1998.0000   138.9503     9.6024     2.4891     0.1011     0.0768   -42.0234     8.5872     6.5093   143.7367
 1998.5000   145.4051     9.6024     2.4813     0.0976     0.0642   -42.1208     8.8667     6.8082   138.1716
