~VERSION INFORMATION
 VERS.                2.0:   CWLS LOG ASCII STANDARD - VERSION 2.0
 WRAP.                 NO:   ONE LINE PER DEPTH STEP
~WELL INFORMATION
#MNEM.UNIT      DATA TYPE    INFORMATION
#----------   ------------   ------------------------------
 STRT.F           42.0000:   START DEPTH
 STOP.F          530.5000:   STOP DEPTH
 STEP.F            0.5000:   STEP LENGTH
 NULL.          -999.2500:   NO VALUE
 COMP. LAWRENCE/ALLISON INC:   COMPANY
 WELL. 65-25-1 SX FI #3-3:   WELL
 FLD .              NPR 3:   FIELD
 LOC .       S3 T38N R78W:   LOCATION
 CNTY.            NATRONA:   COUNTY
 STAT.            WYOMING:   STATE
 CTRY. UNITED STATES OF AMERICA:   COUNTRY
 SRVC.       Schlumberger:   SERVICE COMPANY
 DATE.        08-JUL-1982:   LOGDATE
 API .       490251093000:   API NUMBER
~CURVE INFORMATION
#MNEM.UNIT       API CODE    CURVE DESCRIPTION
#----------   ------------   ------------------------------
 DEPT.F                  :   
 GRD .GAPI   45 310 01 00:   GAMMA RAY FROM DENSITY LOG
 CALD.IN     45 280 60 00:   CALIPER
 RHOB.G/C3   45 350 01 00:   BULK DENSITY
 DPHI.DEC    45 890 12 00:   DENSITY POROSITY SANDSTONE
 CORR.G/C3   45 356 01 00:   DENSITY CORRECTION
~PARAMETER INFORMATION
#MNEM.UNIT          VALUE    DESCRIPTION
#----------   ------------   ------------------------------
 PD  .                 GL:   PERMANENT DATUM
 EPD .F              5162:   ELEVATION PERMANENT DATUM
 LMF .                 KB:   LOG MEASURED FROM
 DAPD.F                 9:   FEET ABOVE PERMANENT DATUM
 DMF .                 KB:   DRILLING MEASURED FROM
 EKB .F              5171:   KELLING BUSHING
 EGL .F              5162:   GROUND LEVEL
 DATE.             7-8-82:   RUN DATE
 RUN .                  1:   RUN NUMBER
 DD  .F               531:   DEPTH DRILLER
 DL  .F               533:   DEPTH LOGGER
 BLI .F               530:   BOTTOM LOG INTERVAL
 TLI .F                52:   TOP LOG INTERVAL
 CS  .IN           13.375:   CASING SIZE
 CBD .F                50:   CASING BOTTOM DRILLER
 CBL .F                52:   CASING BOTTOM LOGGER
 BS  .IN            12.25:   BIT SIZE
 BSD .F               531:   BIT SIZE AT DEPTH
 DFT .                AIR:   DRILLING FLUID TYPE
 TCS .HRS            0500:   TIME CURCULATED STOPPED
 TLAB.HRS            0700:   TIME LOGGER AT BOTTOM
 LUL .               CSPR:   LOGGING UNIT LOCATION
 WITN.             TAYLOR:   WITNESSED BY
 CLNT.            A2DTECH:   CLIENT CODE
 ORIG.           5" PRINT:   ORIGIN OF DATA
 UWI .       490251093000:   UNIQUE WELL ID
 DICO. A2D Technologies, Inc.:   DIGITIZING COMPANY
~OTHER INFORMATION
~A   DEPT       GRD      CALD       RHOB       DPHI       CORR   
# ...
  347.0000    71.5723    12.2477     2.4002     0.1664     0.0080
  347.5000    69.6976    12.2459     2.4085     0.1624     0.0085
  348.0000    67.1378    12.2441     2.4170     0.1559     0.0162
  348.5000    65.5218    12.2423     2.4250     0.1515     0.0280
  349.0000    66.9301    12.2404     2.4284     0.1484     0.0340
  349.5000    69.8140    12.2387     2.4357     0.1415     0.0391
  350.0000    72.6173    12.2383     2.4527     0.1304     0.0440
  350.5000    75.5101    12.2394     2.4692     0.1194     0.0478
  351.0000    77.3511    12.2405     2.4858     0.1123     0.0516
  351.5000    76.8404    12.2417     2.4956     0.1098     0.0545
  352.0000    75.4767    12.2428     2.4857     0.1181     0.0507
  352.5000    72.3683    12.2439     2.4580     0.1289     0.0387
  353.0000    68.5417    12.2451     2.4384     0.1396     0.0267
  353.5000    64.9479    12.2462     2.4337     0.1456     0.0253
  354.0000    65.3662    12.2473     2.4430     0.1394     0.0292
  354.5000    68.7496    12.2485     2.4537     0.1336     0.0333
  355.0000    70.5012    12.2496     2.4605     0.1294     0.0377
  355.5000    70.9900    12.2507     2.4579     0.1319     0.0380
  356.0000    71.4942    12.2518     2.4395     0.1389     0.0323
  356.5000    73.0655    12.2530     2.4199     0.1541     0.0245
  357.0000    74.6978    12.2541     2.4003     0.1653     0.0165
  357.5000    75.5466    12.2552     2.3872     0.1722     0.0136
  358.0000    74.3817    12.2564     2.3878     0.1726     0.0147
  358.5000    73.2220    12.2570     2.4104     0.1611     0.0218
  359.0000    72.0536    12.2537     2.4331     0.1477     0.0289
  359.5000    70.9507    12.2503     2.4548     0.1344     0.0358
  360.0000    72.6003    12.2470     2.4653     0.1246     0.0450
  360.5000    74.4383    12.2436     2.4761     0.1176     0.0684
  361.0000    76.2674    12.2402     2.4809     0.1192     0.0922
  361.5000    78.0881    12.2371     2.4701     0.1299     0.0990
  362.0000    79.6856    12.2346     2.4385     0.1426     0.0520
  362.5000    79.6894    12.2321     2.4142     0.1554     0.0138
  363.0000    79.2213    12.2296     2.4174     0.1556     0.0114
  363.5000    80.1908    12.2270     2.4402     0.1419     0.0187
  364.0000    79.5281    12.2245     2.4632     0.1311     0.0258
  364.5000    77.2707    12.2220     2.4769     0.1203     0.0315
  365.0000    74.8816    12.2195     2.4834     0.1167     0.0325
  365.5000    72.9172    12.2181     2.4806     0.1187     0.0419
  366.0000    71.5356    12.2181     2.4685     0.1322     0.0562
  366.5000    70.2313    12.2181     2.4082     0.1462     0.0615
  367.0000    67.0290    12.2181     2.3470     0.1932     0.0404
  367.5000    63.6931    12.2181     2.2971     0.2263     0.0253
  368.0000    60.3577    12.2181     2.2830     0.2360     0.0154
  368.5000    58.7905    12.2181     2.2878     0.2327     0.0178
  369.0000    57.2824    12.2181     2.2922     0.2302     0.0225
  369.5000    55.8167    12.2185     2.2933     0.2296     0.0253
  370.0000    57.8587    12.2194     2.2980     0.2268     0.0266
  370.5000    60.3023    12.2203     2.3039     0.2239     0.0289
  371.0000    62.7926    12.2212     2.3000     0.2267     0.0313
  371.5000    62.4482    12.2221     2.2852     0.2339     0.0302
  372.0000    61.8879    12.2230     2.2689     0.2412     0.0199
  372.5000    61.3978    12.2240     2.2675     0.2463     0.0083
  373.0000    62.6395    12.2249     2.2847     0.2350     0.0033
  373.5000    64.5933    12.2258     2.2986     0.2261     0.0070
  374.0000    66.4247    12.2267     2.3093     0.2199     0.0117
  374.5000    65.3818    12.2276     2.3078     0.2210     0.0164
  375.0000    63.7766    12.2285     2.3031     0.2235     0.0162
  375.5000    63.3441    12.2294     2.3079     0.2215     0.0158
  376.0000    65.7916    12.2303     2.3130     0.2191     0.0177
  376.5000    67.3159    12.2313     2.3178     0.2167     0.0225
  377.0000    65.7083    12.2322     2.3184     0.2156     0.0274
  377.5000    64.8689    12.2331     2.3199     0.2143     0.0325
  378.0000    66.4860    12.2340     2.3305     0.2078     0.0324
  378.5000    68.1712    12.2349     2.3500     0.1966     0.0308
  379.0000    67.6330    12.2358     2.3632     0.1893     0.0330
  379.5000    67.2928    12.2368     2.3714     0.1846     0.0357
  380.0000    67.1246    12.2377     2.3751     0.1820     0.0324
  380.5000    65.2804    12.2377     2.3782     0.1794     0.0254
  381.0000    62.9333    12.2377     2.3876     0.1749     0.0183
  381.5000    60.5445    12.2377     2.3990     0.1694     0.0255
  382.0000    60.1614    12.2377     2.3888     0.1685     0.0342
  382.5000    60.8939    12.2377     2.3734     0.1817     0.0365
  383.0000    61.6528    12.2377     2.3577     0.1928     0.0299
  383.5000    62.2127    12.2377     2.3457     0.1991     0.0254
  384.0000    62.6334    12.2377     2.3454     0.1983     0.0236
  384.5000    64.6927    12.2377     2.3490     0.1966     0.0249
  385.0000    66.9313    12.2377     2.3525     0.1949     0.0282
  385.5000    69.1480    12.2377     2.3560     0.1933     0.0315
  386.0000    70.4552    12.2377     2.3594     0.1916     0.0347
  386.5000    68.0189    12.2377     2.3533     0.1946     0.0376
  387.0000    65.8907    12.2377     2.3417     0.2011     0.0362
  387.5000    66.0230    12.2377     2.3371     0.2054     0.0386
  388.0000    66.7084    12.2377     2.3477     0.1936     0.0441
  388.5000    66.1069    12.2377     2.3672     0.1847     0.0498
  389.0000    65.4091    12.2377     2.3721     0.1825     0.0492
  389.5000    65.2520    12.2377     2.3658     0.1883     0.0370
  390.0000    67.2404    12.2377     2.3605     0.1894     0.0319
  390.5000    69.2274    12.2377     2.3767     0.1789     0.0370
  391.0000    70.6064    12.2377     2.3988     0.1681     0.0449
  391.5000    68.8764    12.2377     2.3978     0.1677     0.0420
  392.0000    64.4091    12.2377     2.3764     0.1811     0.0274
  392.5000    61.6615    12.2377     2.3568     0.1931     0.0126
  393.0000    63.6217    12.2380     2.3518     0.1954     0.0072
  393.5000    65.9662    12.2388     2.3812     0.1820     0.0171
  394.0000    68.3185    12.2396     2.4017     0.1707     0.0311
  394.5000    70.5826    12.2405     2.4079     0.1626     0.0422
  395.0000    71.8879    12.2413     2.4071     0.1628     0.0433
  395.5000    73.1366    12.2421     2.4044     0.1646     0.0446
  396.0000    72.5537    12.2429     2.4000     0.1676     0.0416
  396.5000    70.5827    12.2437     2.3853     0.1741     0.0382
  397.0000    70.2382    12.2445     2.3720     0.1806     0.0348
  397.5000    71.1637    12.2454     2.3721     0.1834     0.0313
  398.0000    71.5851    12.2462     2.3756     0.1816     0.0264
  398.5000    71.2357    12.2470     2.3760     0.1827     0.0150
  399.0000    72.5321    12.2478     2.3756     0.1802     0.0063
  399.5000    72.9023    12.2486     2.3880     0.1737     0.0079
  400.0000    70.0010    12.2494     2.4074     0.1656     0.0136
  400.5000    67.1193    12.2503     2.4170     0.1564     0.0170
  401.0000    65.9044    12.2511     2.4111     0.1591     0.0147
  401.5000    66.2854    12.2519     2.4057     0.1620     0.0125
  402.0000    65.8558    12.2527     2.4138     0.1596     0.0147
  402.5000    64.8309    12.2535     2.4267     0.1507     0.0247
  403.0000    63.8189    12.2543     2.4306     0.1476     0.0310
  403.5000    64.1100    12.2552     2.4345     0.1461     0.0320
  404.0000    66.2429    12.2560     2.4471     0.1415     0.0381
  404.5000    68.3532    12.2568     2.4595     0.1298     0.0549
  405.0000    70.4780    12.2574     2.4686     0.1252     0.0508
  405.5000    72.5971    12.2574     2.4637     0.1300     0.0437
  406.0000    74.4931    12.2574     2.4529     0.1371     0.0229
  406.5000    72.8892    12.2574     2.4395     0.1442     0.0137
  407.0000    70.6229    12.2574     2.4260     0.1508     0.0100
  407.5000    68.2920    12.2574     2.4118     0.1561     0.0075
