~VERSION INFORMATION
 VERS.                2.0:   CWLS LOG ASCII STANDARD - VERSION 2.0
 WRAP.                 NO:   ONE LINE PER DEPTH STEP
~WELL INFORMATION
#MNEM.UNIT      DATA TYPE    INFORMATION
#----------   ------------   ------------------------------
 STRT.F           27.0000:   START DEPTH
 STOP.F          760.0000:   STOP DEPTH
 STEP.F            0.5000:   STEP LENGTH
 NULL.          -999.2500:   NO VALUE
 COMP. FENIX & SCISSON INC:   COMPANY
 WELL.    NPR #3 #33-S-14:   WELL
 FLD .             TEAPOT:   FIELD
 LOC .      S14 T38N R78W:   LOCATION
 CNTY.            NATRONA:   COUNTY
 STAT.            WYOMING:   STATE
 CTRY. UNITED STATES OF AMERICA:   COUNTRY
 SRVC.              Welex:   SERVICE COMPANY
 DATE.        02-FEB-1977:   LOGDATE
 API .       490251027700:   API NUMBER
~CURVE INFORMATION
#MNEM.UNIT       API CODE    CURVE DESCRIPTION
#----------   ------------   ------------------------------
 DEPT.F                  :   
 SPR .MV     07 010 01 00:   SPONTANEOUS POTENTIAL
 SGRD.OHMM   07 220 05 00:   SHALLOW RESISTIVITY
 ILD .OHMM   07 120 46 00:   INDUCTION LOG DEEP
 ILM .OHMM   07 120 44 00:   INDUCTION LOG MEDIUM
 GRD .GAPI   45 310 01 00:   GAMMA RAY FROM DENSITY LOG
 CALD.IN     45 280 60 00:   CALIPER
 RHOB.G/C3   45 350 01 00:   BULK DENSITY
 CORR.G/C3   45 356 01 00:   DENSITY CORRECTION
 DPHI.DEC    45 890 00 00:   DENSITY POROSITY
~PARAMETER INFORMATION
#MNEM.UNIT          VALUE    DESCRIPTION
#----------   ------------   ------------------------------
 PD  .                 GL:   PERMANENT DATUM
 EPD .F              5219:   ELEVATION PERMANENT DATUM
 LMF .                 GL:   LOG MEASURED FROM
 DMF .                 GL:   DRILLING MEASURED FROM
 EKB .F              5224:   KELLING BUSHING
 EGL .F              5219:   GROUND LEVEL
 DATE.           2-2-1977:   RUN DATE
 RUN .                  1:   RUN NUMBER
 DD  .F               761:   DEPTH DRILLER
 DL  .F               762:   DEPTH LOGGER
 BLI .F               760:   BOTTOM LOG INTERVAL
 TLI .F                25:   TOP LOG INTERVAL
 CS  .IN            8.625:   CASING SIZE
 CBD .F              42.5:   CASING BOTTOM DRILLER
 CBL .F                46:   CASING BOTTOM LOGGER
 BS  .IN            7.875:   BIT SIZE
 BSD .F               761:   BIT SIZE AT DEPTH
 DFT .           CHEM-GEL:   DRILLING FLUID TYPE
 DFD .                8.9:   DRILLING FLUID DENSITY
 DFV .                 37:   DRILLING FLUID VISCOSITY
 DFPH.                  7:   DRILLING FLUID PH
 DFL .                8.4:   DRILLING FLUID LOSS
 MSS .          FLOW LINE:   MUD SAMPLE SOURCE
 RMS .OHMM           .231:   RESISTIVITY MUD SAMPLE
 MST .F                45:   MUD SAMPLE TEMPERATURE
 RMF .OHMM           .322:   RESISTIVITY MUD FILTRATE SAMPLE
 MFST.F                45:   MUD FILTRATE SAMPLE TEMPERATURE
 RMC .OHMM           .439:   RESISTIVITY MUD CAKE
 MCST.F                45:   MUD CAKE SAMPLE TEMPERATURE
 MFSS.           MEASURED:   MUD FILTRATE SAMPLE SOURCE
 MCSS.           MEASURED:   MUD CAKE SAMPLE SOURCE
 RMB .OHMM           .182:   RESISTIVITY MUD AT BHT
 BHT .F                57:   BOTTOM HOLE TEMPERATURE
 TCS .HRS             5.5:   TIME CURCULATED STOPPED
 MRT .F                57:   MAXIMUM RECORDED TEMPERATURE
 LUN .               8611:   LOGGING UNIT NUMBER
 LUL .           GILLETTE:   LOGGING UNIT LOCATION
 ENGI.             LAWSON:   RECORDING ENGINEER
 WITN. VOORHEES/RHOADES/JAPP/PETTINGILL/STUEBINGER:   WITNESSED BY
 CLNT.            A2DTECH:   CLIENT CODE
 ORIG.     1", 2.5" PRINT:   ORIGIN OF DATA
 UWI .       490251027700:   UNIQUE WELL ID
 DICO. A2D Technologies, Inc.:   DIGITIZING COMPANY
~OTHER INFORMATION
~A   DEPT      SPR       SGRD        ILD        ILM        GRD       CALD         RHOB      CORR      DPHI   
# ...
  611.0000   -14.2088    11.4705    14.4333    16.0234    71.7180     7.6176     2.3675     0.0625     0.1635
  611.5000   -14.2899    12.3062    14.4952    15.4296    75.1150     7.4984     2.4056     0.0706     0.1448
  612.0000   -14.4058    14.9434    14.5574    15.4296    78.6416     7.3777     2.3985     0.0788     0.1340
  612.5000   -14.5076    19.9958    14.6198    15.4296    79.0959     7.4800     2.3929     0.0782     0.1375
  613.0000   -14.8623    19.5819    14.6825    15.6382    78.4574     7.7721     2.3973     0.0754     0.1360
  613.5000   -15.1599    13.8059    14.7454    15.9885    77.8052     8.0661     2.4155     0.0726     0.1278
  614.0000   -15.4776    16.3631    14.8087    16.3466    77.5587     8.3182     2.4378     0.0698     0.1173
  614.5000   -15.7869    19.2937    14.8682    16.7127    78.8023     8.3642     2.4287     0.0664     0.1257
  615.0000   -16.0964    22.7080    14.7073    17.0870    80.0010     8.1830     2.4145     0.0624     0.1373
  615.5000   -16.4079    26.3391    14.5576    17.4698    81.6190     8.0313     2.4001     0.0586     0.1490
  616.0000   -16.7186    17.1909    14.4094    17.8953    84.0949     8.0262     2.3858     0.0581     0.1601
  616.5000   -17.0275    16.0409    14.2627    17.2346    86.5881     8.0177     2.3763     0.0577     0.1593
  617.0000   -17.3406    14.8736    14.1175    16.5392    87.1995     8.0090     2.3807     0.0572     0.1501
  617.5000   -17.6507    13.7892    13.9738    15.8357    86.7938     8.0000     2.3849     0.0569     0.1406
  618.0000   -17.9480    14.2981    13.8315    16.0609    85.3340     7.9914     2.3958     0.0591     0.1314
  618.5000   -18.2173    15.3474    13.6907    16.5210    84.1169     7.9820     2.4184     0.0660     0.1181
  619.0000   -18.4792    16.4727    13.5513    16.3087    86.1080     8.0442     2.4381     0.0728     0.1223
  619.5000   -18.7381    20.7552    13.4133    15.9293    88.0681     8.1564     2.4232     0.0753     0.1261
  620.0000   -18.9712    20.1987    13.2767    15.4296    89.9926     8.2716     2.4075     0.0729     0.1315
  620.5000   -19.2197    18.9699    13.1415    15.5151    91.5697     8.2622     2.4092     0.0706     0.1260
  621.0000   -18.9345    17.8953    13.0078    15.6484    91.1420     8.1983     2.4158     0.0682     0.1285
  621.5000   -18.6115    17.5972    12.8756    15.7829    90.7930     8.1327     2.4131     0.0664     0.1310
  622.0000   -18.2687    17.3232    12.7449    16.0122    91.0857     8.0674     2.4100     0.0664     0.1321
  622.5000   -17.9386    16.9276    12.6155    15.9108    92.2823     8.0014     2.4078     0.0687     0.1298
  623.0000   -17.6045    16.9627    12.4873    15.5930    93.4756     7.9844     2.4140     0.0719     0.1294
  623.5000   -17.2700    17.0293    12.3543    15.1463    94.6386     7.9923     2.4113     0.0751     0.1332
  624.0000   -16.9361    17.0963    12.3850    15.4143    94.7525     8.0007     2.4046     0.0749     0.1390
  624.5000   -16.6020    17.1635    12.4171    15.9057    92.3705     8.0091     2.3977     0.0669     0.1448
  625.0000   -16.2701    17.2442    12.4492    16.2920    90.0338     8.0174     2.3907     0.0645     0.1522
  625.5000   -15.9319    16.9671    12.4814    15.6495    87.6902     8.0257     2.3954     0.0644     0.1481
  626.0000   -15.6038    16.6282    12.5138    14.8811    85.3501     8.0340     2.4011     0.0647     0.1401
  626.5000   -15.2920    16.3117    12.5464    14.9367    82.9047     8.0422     2.4069     0.0744     0.1322
  627.0000   -15.2817    16.6365    12.5837    15.1269    82.3673     8.0508     2.4117     0.0847     0.1328
  627.5000   -15.2650    16.9276    12.5838    15.3189    84.7366     8.0782     2.4009     0.0896     0.1353
  628.0000   -15.3545    16.9850    12.5847    15.5116    89.0690     8.1422     2.3898     0.0880     0.1379
  628.5000   -15.4964    17.0384    12.5840    15.7054    92.4211     8.2060     2.3785     0.0864     0.1404
  629.0000   -15.6295    17.0919    12.5842    15.9048    91.4375     8.2700     2.3913     0.0849     0.1370
  629.5000   -15.7621    17.1457    12.5842    16.1030    90.4788     8.3150     2.4085     0.0833     0.1289
  630.0000   -15.8968    17.1995    12.5840    16.3117    90.5437     8.2107     2.4257     0.0817     0.1210
  630.5000   -16.0301    17.2442    12.5841    15.8572    91.4566     8.1049     2.4391     0.0802     0.1153
  631.0000   -16.1640    17.0414    12.5837    15.3974    92.0355     7.9985     2.4319     0.0786     0.1207
  631.5000   -16.2972    16.8703    12.5841    14.8682    91.1023     7.9665     2.4234     0.0771     0.1249
  632.0000   -16.4309    16.7010    12.5842    14.9948    90.3926     7.9763     2.4206     0.0800     0.1292
  632.5000   -16.5658    16.5334    12.5844    15.1525    91.6675     7.9869     2.4274     0.0862     0.1254
  633.0000   -16.6951    16.3117    12.5844    15.3118    93.0787     7.9975     2.4340     0.0925     0.1217
  633.5000   -16.8303    16.4818    12.5844    15.4728    94.4792     8.0080     2.4336     0.0900     0.1182
  634.0000   -16.7598    16.7425    12.7245    15.6355    93.4650     8.0186     2.4288     0.0841     0.1217
  634.5000   -16.6056    16.9988    12.8867    15.7999    92.1285     8.0290     2.4239     0.0780     0.1261
  635.0000   -16.4532    17.2514    13.0509    15.9661    90.7942     8.0302     2.4221     0.0743     0.1288
  635.5000   -16.3053    17.2329    13.2174    16.1340    89.4489     8.0004     2.4335     0.0739     0.1200
  636.0000   -16.1549    17.3680    13.3859    16.3036    87.1647     7.9718     2.4446     0.0735     0.1137
  636.5000   -15.9995    17.5180    13.5566    16.4751    84.5076     7.9433     2.4556     0.0732     0.1046
  637.0000   -15.8601    17.6769    13.7295    16.6346    81.8408     7.9256     2.4628     0.0728     0.1080
  637.5000   -15.6894    17.8439    13.9046    16.9509    79.1797     7.9552     2.4458     0.0713     0.1144
  638.0000   -15.8219    31.7861    14.0820    18.1953    76.5188     7.9838     2.4311     0.0651     0.1208
  638.5000   -16.0038    27.4470    14.3272    19.9743    75.4759     8.0124     2.4166     0.0610     0.1272
  639.0000   -16.1943    20.7821    14.1987    19.3738    79.1832     8.0409     2.4083     0.0639     0.1335
  639.5000   -16.3774    19.5046    13.9996    18.3810    82.3068     8.0695     2.4166     0.0665     0.1285
  640.0000   -16.5632    18.4624    13.8033    17.4381    87.6263     8.0976     2.4246     0.0692     0.1169
  640.5000   -16.7496    17.5668    13.6098    16.6168    90.5309     8.1039     2.4330     0.0717     0.1206
  641.0000   -16.9350    17.1980    13.3552    16.2908    89.9074     8.0803     2.4246     0.0746     0.1254
  641.5000   -17.1186    16.8679    13.0787    15.9985    90.9176     8.0571     2.4133     0.0717     0.1301
  642.0000   -17.3092    16.5441    12.8079    15.7115    92.4610     8.0338     2.4058     0.0670     0.1301
  642.5000   -17.4886    16.2266    12.5427    15.4296    92.1701     8.0105     2.4114     0.0662     0.1281
  643.0000   -17.6430    15.9151    12.2830    15.1463    91.3892     7.9870     2.4171     0.0658     0.1264
  643.5000   -17.4997    15.6096    12.0288    14.8704    90.9372     7.9812     2.4093     0.0654     0.1295
  644.0000   -17.3638    15.3624    11.7797    14.5930    93.8837     7.9847     2.3933     0.0649     0.1327
  644.5000   -17.2167    15.1964    11.6429    14.3222    96.9383     7.9883     2.3922     0.0645     0.1339
  645.0000   -17.0769    15.0323    11.5746    14.0560    96.6417     7.9920     2.3975     0.0645     0.1330
  645.5000   -16.9218    14.8699    11.5067    13.7948    95.2493     7.9956     2.4028     0.0645     0.1328
  646.0000   -16.9190    14.6295    11.4392    13.5563    93.8307     7.9992     2.4007     0.0645     0.1355
  646.5000   -17.0573    14.6840    11.3721    13.8034    93.5116     8.0028     2.3863     0.0645     0.1382
  647.0000   -17.1865    15.0015    11.2599    14.0383    94.3215     8.0065     2.3744     0.0645     0.1407
