~VERSION INFORMATION
 VERS.                2.0:   CWLS LOG ASCII STANDARD - VERSION 2.0
 WRAP.                 NO:   ONE LINE PER DEPTH STEP
~WELL INFORMATION
#MNEM.UNIT      DATA TYPE    INFORMATION
#----------   ------------   ------------------------------
 STRT.F           52.5000:   START DEPTH
 STOP.F         2929.0000:   STOP DEPTH
 STEP.F            0.5000:   STEP LENGTH
 NULL.          -999.2500:   NO VALUE
 COMP.   FLUOR DANIEL INC:   COMPANY
 WELL. NAVAL PETROLEUM RESERVE 3 X-23 #52-23:   WELL
 FLD .            WILDCAT:   FIELD
 LOC .      S23 T38N R78W:   LOCATION
 CNTY.            NATRONA:   COUNTY
 STAT.            WYOMING:   STATE
 CTRY. UNITED STATES OF AMERICA:   COUNTRY
 SRVC.            Unknown:   SERVICE COMPANY
 DATE.        23-APR-1995:   LOGDATE
 API .       490252271500:   API NUMBER
~CURVE INFORMATION
#MNEM.UNIT       API CODE    CURVE DESCRIPTION
#----------   ------------   ------------------------------
 DEPT.F                  :   
 ROP .MIN/FT 91 810 01 00:   RAT OF DRILLING PENETRATION
 TGAS.UNITS  91 830 01 00:   TOTAL GAS FROM HOTWIRE
~PARAMETER INFORMATION
#MNEM.UNIT          VALUE    DESCRIPTION
#----------   ------------   ------------------------------
 EKB .F              5344:   KELLING BUSHING
 EGL .F              5334:   GROUND LEVEL
 DATE.            4-23-95:   RUN DATE
 DD  .F              2929:   DEPTH DRILLER
 CS  .IN            9.625:   CASING SIZE
 CBD .F                53:   CASING BOTTOM DRILLER
 BS  .IN             8.75:   BIT SIZE
 BSD .F              2929:   BIT SIZE AT DEPTH
 ENGI.              TOWER:   RECORDING ENGINEER
 WITN.               HUSK:   WITNESSED BY
 CLNT.            A2DTECH:   CLIENT CODE
 ORIG.           5" PRINT:   ORIGIN OF DATA
 UWI .       490252271500:   UNIQUE WELL ID
 DICO. A2D Technologies, Inc.:   DIGITIZING COMPANY
~OTHER INFORMATION
~A   DEPT        ROP     TGAS   
# ...
 1146.0000     0.6576    12.6730
 1146.5000     0.6472    11.5990
 1147.0000     0.6367     9.8807
 1147.5000     0.6367     8.5919
 1148.0000     1.0543     8.1623
 1148.5000     1.0230     8.1623
 1149.0000     1.0125     8.1623
 1149.5000     1.0125     8.1623
 1150.0000     1.1273     8.3771
 1150.5000     1.1587     8.3771
 1151.0000     1.1587     8.5919
 1151.5000     1.1691     8.5919
 1152.0000     0.8142     6.8735
 1152.5000     0.8142     6.0143
 1153.0000     0.8142     6.0143
 1153.5000     0.8142     5.7995
 1154.0000     0.8038     5.7995
 1154.5000     0.4906     6.0143
 1155.0000     0.4802     6.2291
 1155.5000     0.4802     6.4439
 1156.0000     0.4802     6.6587
 1156.5000     0.4802     6.6587
 1157.0000     0.4697     6.6587
 1157.5000     0.4697     6.6587
 1158.0000     0.4697     6.4439
 1158.5000     0.4697     6.4439
 1159.0000     0.4697     6.4439
 1159.5000     0.4697     6.4439
 1160.0000     0.6263     6.4439
 1160.5000     0.6266     6.4439
 1161.0000     0.6269     6.4439
 1161.5000     0.6271     6.4439
 1162.0000     0.6274     6.4439
 1162.5000     0.6276     6.4439
 1163.0000     0.6279     6.4439
 1163.5000     0.6282     6.3968
 1164.0000     0.6284     6.2831
 1164.5000     0.6287     6.2291
 1165.0000     0.6289     6.2291
 1165.5000     0.6292     6.2291
 1166.0000     0.6294     6.2291
 1166.5000     0.6297     6.2291
 1167.0000     0.6300     6.0143
 1167.5000     0.6291     6.0143
 1168.0000     0.5470     6.0143
 1168.5000     0.5890     6.0143
 1169.0000     0.5893     6.0143
 1169.5000     0.5895     6.0143
 1170.0000     0.6855     6.2291
 1170.5000     0.6835     6.2291
 1171.0000     0.6832     6.0143
 1171.5000     0.6829     6.0143
 1172.0000     0.6827     6.0143
 1172.5000     0.6824     5.5847
 1173.0000     0.6822     5.5847
 1173.5000     0.6819     5.5847
 1174.0000     0.6816     5.5847
 1174.5000     0.6814     5.5847
 1175.0000     0.6811     5.5847
 1175.5000     0.6808     5.5847
 1176.0000     0.6806     5.3699
 1176.5000     0.6803     5.1551
 1177.0000     0.6800     5.1551
 1177.5000     0.6798     5.1551
 1178.0000     0.6795     5.1551
 1178.5000     0.6792     5.1551
 1179.0000     0.6790     5.1551
 1179.5000     0.6787     5.1551
 1180.0000     0.6783     4.7255
 1180.5000     0.6758     4.7255
 1181.0000     0.6734     4.2959
 1181.5000     0.6709     4.2959
 1182.0000     0.6685     4.2959
 1182.5000     0.6660     4.0811
 1183.0000     0.6636     3.8663
 1183.5000     0.6611     3.8663
 1184.0000     0.6587     3.8663
 1184.5000     0.6562     3.8663
 1185.0000     0.6538     3.8663
 1185.5000     0.6388     3.8663
 1186.0000     0.6096     3.8663
 1186.5000     0.6090     3.8663
 1187.0000     0.6085     3.8663
 1187.5000     0.6079     3.8663
 1188.0000     0.6074     3.8663
 1188.5000     0.6069     3.8663
 1189.0000     0.6064     3.8663
 1189.5000     0.6059     3.8663
 1190.0000     0.6054     3.8663
 1190.5000     0.5944     3.8663
 1191.0000     0.5939     3.8663
 1191.5000     0.5934     3.8663
 1192.0000     0.5929     3.8663
 1192.5000     0.5923     3.8663
 1193.0000     0.5918     3.8663
 1193.5000     0.5913     3.8663
 1194.0000     0.5908     3.8663
 1194.5000     0.5903     3.8663
 1195.0000     0.5898     3.8663
 1195.5000     0.5892     3.8663
 1196.0000     0.5887     3.8663
 1196.5000     0.5882     3.8838
 1197.0000     0.5877     3.9401
 1197.5000     0.5872     3.9964
 1198.0000     0.5866     4.0527
 1198.5000     0.5860     4.1090
 1199.0000     0.5855     4.1653
 1199.5000     0.6059     4.2216
 1200.0000     0.6368     4.2779
 1200.5000     0.6365     4.0237
 1201.0000     0.6363     3.6225
 1201.5000     0.6361     3.2214
 1202.0000     0.6358     3.0289
 1202.5000     0.6356     3.0755
 1203.0000     0.6354     3.1222
 1203.5000     0.6351     3.1688
 1204.0000     0.6349     3.2155
 1204.5000     0.6347     3.2621
 1205.0000     0.6345     3.3088
 1205.5000     0.6342     3.3554
 1206.0000     0.6340     3.4020
 1206.5000     0.6338     3.4487
 1207.0000     0.6335     3.4953
 1207.5000     0.6333     3.5420
 1208.0000     0.7704     3.5886
 1208.5000     0.7826     3.6353
 1209.0000     0.8057     3.6924
 1209.5000     0.8179     3.7552
 1210.0000     0.8406     3.8180
 1210.5000     0.8528     3.8808
 1211.0000     0.8442     3.9436
 1211.5000     0.8043     4.0064
 1212.0000     0.7847     4.0692
 1212.5000     0.7870     4.1320
 1213.0000     0.7888     4.1948
 1213.5000     0.7906     4.2576
 1214.0000     0.7924     4.3204
 1214.5000     0.7942     4.3627
 1215.0000     0.7960     4.3737
 1215.5000     0.7978     4.3846
 1216.0000     0.7996     4.3955
 1216.5000     0.5822     4.4064
 1217.0000     0.5840     4.4173
 1217.5000     0.5859     4.4282
 1218.0000     0.5876     4.4391
 1218.5000     0.5581     4.4501
 1219.0000     0.5604     4.4610
 1219.5000     0.5622     4.4785
 1220.0000     0.5635     3.6489
 1220.5000     0.5539     3.9007
 1221.0000     0.5449     3.9324
 1221.5000     0.5360     3.9693
 1222.0000     0.5271     4.0010
 1222.5000     0.5182     4.0327
 1223.0000     0.5092     4.0644
 1223.5000     0.5003     4.3109
 1224.0000     0.4914     4.1278
 1224.5000     0.4824     4.1595
 1225.0000     0.4802     4.1912
 1225.5000     0.4906     4.2229
 1226.0000     0.5010     4.2346
 1226.5000     0.5219     4.2252
 1227.0000     0.5324     4.2158
 1227.5000     0.5324     4.2064
 1228.0000     0.5324     4.1971
 1228.5000     0.5324     4.1877
 1229.0000     0.5324     4.1783
 1229.5000     0.5324     4.1689
 1230.0000     0.5324     4.1596
 1230.5000     0.5324     4.1502
 1231.0000     0.5324     4.1419
 1231.5000     0.5324     4.2139
 1232.0000     0.5358     4.2784
 1232.5000     0.6367     4.3430
 1233.0000     0.6367     4.4076
 1233.5000     0.6367     4.4722
 1234.0000     0.6367     4.5367
 1234.5000     0.6367     4.6013
 1235.0000     0.6367     4.6659
 1235.5000     0.6361     4.7304
 1236.0000     0.6263     4.7950
 1236.5000     0.7307     4.8596
 1237.0000     0.7307     4.9242
 1237.5000     0.7307     4.9993
 1238.0000     0.7307     4.7255
 1238.5000     0.7307     4.2959
 1239.0000     0.7307     3.8663
 1239.5000     0.7307     3.8663
 1240.0000     0.9979     3.8663
 1240.5000     0.9982     3.8663
 1241.0000     0.9984     3.6516
 1241.5000     0.9987     3.6516
 1242.0000     0.9990     3.4368
 1242.5000     0.9992     3.6516
 1243.0000     0.9995     3.4368
 1243.5000     0.9997     3.4368
 1244.0000     0.9685     3.4368
 1244.5000     0.8007     3.4368
 1245.0000     0.7904     3.4368
 1245.5000     0.8012     3.4368
 1246.0000     0.8183     3.4368
 1246.5000     1.0081     3.4368
 1247.0000     1.0089     3.4368
 1247.5000     1.0099     3.4368
 1248.0000     1.0106     3.4368
 1248.5000     0.5596     3.4368
 1249.0000     0.5604     3.4368
 1249.5000     0.5612     3.4368
 1250.0000     0.5620     3.4368
 1250.5000     0.5628     3.4368
 1251.0000     0.5636     3.4304
 1251.5000     0.5643     3.3968
 1252.0000     0.5651     3.3633
 1252.5000     0.5659     3.3297
 1253.0000     0.5667     3.2961
 1253.5000     0.5675     3.2626
 1254.0000     0.5683     3.2290
 1254.5000     0.5691     3.1954
 1255.0000     0.5699     3.1618
 1255.5000     0.5706     3.1283
 1256.0000     0.5714     3.0947
 1256.5000     0.5722     3.0611
 1257.0000     0.5730     3.0276
 1257.5000     0.5738     3.0187
 1258.0000     0.5746     3.0482
 1258.5000     0.5754     3.0777
 1259.0000     0.5762     3.1072
 1259.5000     0.5769     3.1367
 1260.0000     0.5776     3.1662
 1260.5000     0.5755     3.1957
 1261.0000     0.5737     3.2252
 1261.5000     0.5719     3.2547
 1262.0000     0.5701     3.2841
 1262.5000     0.5683     3.3136
 1263.0000     0.5665     3.3431
 1263.5000     0.5647     3.3726
 1264.0000     0.5630     3.4021
 1264.5000     0.5612     3.4368
 1265.0000     0.5594     3.3921
 1265.5000     0.5576     3.3380
 1266.0000     0.5558     3.2839
 1266.5000     0.5540     3.2220
 1267.0000     0.5522     3.2000
