~VERSION INFORMATION
 VERS.                2.0:   CWLS LOG ASCII STANDARD - VERSION 2.0
 WRAP.                 NO:   ONE LINE PER DEPTH STEP
~WELL INFORMATION
#MNEM.UNIT      DATA TYPE    INFORMATION
#----------   ------------   ------------------------------
 STRT.F            0.0000:   START DEPTH
 STOP.F          820.0000:   STOP DEPTH
 STEP.F            0.5000:   STEP LENGTH
 NULL.          -999.2500:   NO VALUE
 COMP. LAWRENCE/ALLISON INC:   COMPANY
 WELL.       44 SX #16-11:   WELL
 FLD .             TEAPOT:   FIELD
 LOC .      S11 T38N R78W:   LOCATION
 CNTY.            NATRONA:   COUNTY
 STAT.            WYOMING:   STATE
 CTRY. UNITED STATES OF AMERICA:   COUNTRY
 SRVC.           Gearhart:   SERVICE COMPANY
 DATE.        26-AUG-1988:   LOGDATE
 API .       490251124600:   API NUMBER
~CURVE INFORMATION
#MNEM.UNIT       API CODE    CURVE DESCRIPTION
#----------   ------------   ------------------------------
 DEPT.F                  :   
 GRR .GAPI   07 310 01 00:   GAMMA RAY FROM RES. LOG.
 RILD.OHMM   07 120 46 00:   INDUCTION LOG DEEP RESISTIVITY
 RILM.OHMM   07 120 44 00:   INDUCTION LOG MEDIUM RESISTIVITY
~PARAMETER INFORMATION
#MNEM.UNIT          VALUE    DESCRIPTION
#----------   ------------   ------------------------------
 PD  .                 GL:   PERMANENT DATUM
 EPD .F              5197:   ELEVATION PERMANENT DATUM
 LMF .                 KB:   LOG MEASURED FROM
 DAPD.F                10:   FEET ABOVE PERMANENT DATUM
 DMF .                 KB:   DRILLING MEASURED FROM
 EKB .F              5207:   KELLING BUSHING
 EDF .F              5206:   DRILLING FLOOR
 EGL .F              5197:   GROUND LEVEL
 DATE.            8-26-88:   RUN DATE
 RUN .                  1:   RUN NUMBER
 DD  .F               820:   DEPTH DRILLER
 DL  .F               819:   DEPTH LOGGER
 BLI .F               811:   BOTTOM LOG INTERVAL
 TLI .F                50:   TOP LOG INTERVAL
 CS  .IN            9.625:   CASING SIZE
 CBD .F                50:   CASING BOTTOM DRILLER
 CBL .F                50:   CASING BOTTOM LOGGER
 BS  .IN             8.75:   BIT SIZE
 BSD .F               820:   BIT SIZE AT DEPTH
 DFT .                AIR:   DRILLING FLUID TYPE
 BHT .F                70:   BOTTOM HOLE TEMPERATURE
 TCS .HRS            0200:   TIME CURCULATED STOPPED
 TLAB.HRS            0342:   TIME LOGGER AT BOTTOM
 MRT .F                70:   MAXIMUM RECORDED TEMPERATURE
 LUN .               7609:   LOGGING UNIT NUMBER
 LUL .           GILLETTE:   LOGGING UNIT LOCATION
 ENGI.           JOHNSTON:   RECORDING ENGINEER
 WITN.             STRONG:   WITNESSED BY
 CLNT.            A2DTECH:   CLIENT CODE
 ORIG.        2" 5" PRINT:   ORIGIN OF DATA
 UWI .       490251124600:   UNIQUE WELL ID
 DICO. A2D Technologies, Inc.:   DIGITIZING COMPANY
~OTHER INFORMATION
~A    DEPT      GRR      RILD       RILM   
# ...
   91.0000   124.6173     3.3663     3.2316
   91.5000   126.8948     3.1430     3.0154
   92.0000   129.1364     3.0262     2.8137
   92.5000   130.4010     3.0260     2.7034
   93.0000   125.9173     3.0860     2.7647
   93.5000   121.0297     3.1837     2.9091
   94.0000   116.2989     3.2830     3.0611
   94.5000   113.6567     3.4619     3.2211
   95.0000   113.3716     3.6611     3.3894
   95.5000   115.2403     3.8716     3.5665
   96.0000   116.8463     4.0943     3.7528
   96.5000   115.1393     4.3180     3.9489
   97.0000   113.8499     4.4954     4.1552
   97.5000   115.7794     4.4954     4.3702
   98.0000   118.0703     4.4954     4.3819
   98.5000   118.1604     4.4954     4.3936
   99.0000   117.7975     4.4954     4.4053
   99.5000   118.0484     4.4954     4.4115
  100.0000   119.0157     4.4954     4.2452
  100.5000   119.9843     4.3067     4.1122
  101.0000   121.0557     4.1067     3.9318
  101.5000   122.1097     3.9160     3.7594
  102.0000   121.6131     3.7341     3.5946
  102.5000   120.1491     3.5607     3.4369
  103.0000   119.3163     3.3954     3.2861
  103.5000   123.1613     3.3125     3.1422
  104.0000   121.4208     3.2346     3.0259
  104.5000   118.1233     3.2028     3.0261
  105.0000   114.4225     3.1852     3.0268
  105.5000   111.8215     3.1677     3.0268
  106.0000   111.1344     3.1497     3.0268
  106.5000   113.4544     3.0399     3.0007
  107.0000   115.8483     2.8815     2.9407
  107.5000   117.3729     2.7314     2.8801
  108.0000   117.8079     2.5891     2.7557
  108.5000   118.2906     2.4542     2.6000
  109.0000   118.7502     2.3263     2.4541
  109.5000   119.4096     2.2396     2.3164
  110.0000   123.3039     2.2380     2.1865
  110.5000   127.2596     2.3640     2.0768
  111.0000   130.8166     2.4520     2.0768
  111.5000   125.9619     2.5488     2.3019
  112.0000   119.0821     2.6923     2.5220
  112.5000   112.0623     2.8439     2.7631
  113.0000   107.5098     3.0040     3.0282
  113.5000   106.0552     3.1730     3.3248
  114.0000   105.2888     3.3517     3.4708
  114.5000   106.2013     3.5403     3.6240
  115.0000   109.0440     3.6199     3.6888
  115.5000   112.2005     3.5698     3.6888
  116.0000   115.3565     3.4493     3.6272
  116.5000   117.9190     3.3328     3.4836
  117.0000   119.9238     3.2203     3.3455
  117.5000   123.1836     3.0306     3.2130
  118.0000   126.1460     2.8379     3.0510
  118.5000   124.6152     2.6575     2.8584
  119.0000   122.5863     2.4886     2.6779
  119.5000   126.0039     2.3704     2.5088
  120.0000   133.2657     2.3035     2.3504
  120.5000   140.0964     2.2819     2.2020
  121.0000   142.0755     2.2926     2.0630
  121.5000   142.5188     2.3919     2.0000
  122.0000   140.7020     2.5770     2.0954
  122.5000   133.8339     2.7919     2.3923
  123.0000   126.0580     3.0247     2.7312
  123.5000   118.7007     3.2940     3.0321
  124.0000   118.2337     3.6806     3.4278
  124.5000   119.7283     4.1126     3.8743
  125.0000   118.5129     4.4254     4.2422
  125.5000   114.6039     4.7121     4.4357
  126.0000   111.2620     4.8592     4.6370
  126.5000   111.0115     5.0094     4.8158
  127.0000   112.2883     5.1642     4.9575
  127.5000   113.7883     5.3238     5.1034
  128.0000   115.4326     5.4884     5.2535
  128.5000   117.1265     5.6580     5.4081
  129.0000   118.3472     5.8328     5.5672
  129.5000   117.1130     6.0131     5.7311
  130.0000   115.2089     6.1989     5.8997
  130.5000   115.1578     6.3694     6.0237
  131.0000   118.6846     6.3532     6.0373
  131.5000   122.2275     6.3354     6.0510
  132.0000   119.7576     6.3177     6.0647
  132.5000   116.5287     6.3001     6.0764
  133.0000   115.2287     6.2825     6.0552
  133.5000   118.7081     6.2649     6.0367
  134.0000   122.4700     6.2474     6.0184
  134.5000   126.3165     6.2300     6.0001
  135.0000   125.3430     6.2126     5.9818
  135.5000   122.5894     6.1952     5.9636
  136.0000   121.7230     6.1767     5.9454
  136.5000   122.6294     6.1580     5.9273
  137.0000   123.5796     6.1393     5.9093
  137.5000   123.5334     6.1207     5.8913
  138.0000   122.6210     6.1022     5.8734
  138.5000   121.7310     6.0837     5.8555
  139.0000   120.8360     6.0652     5.8376
  139.5000   120.0094     6.0468     5.8199
  140.0000   120.2666     6.0285     5.7969
  140.5000   124.7667     6.0195     5.8247
  141.0000   129.2761     6.1122     5.8865
  141.5000   132.7893     6.2157     5.9973
  142.0000   133.4769     6.3209     6.1102
  142.5000   129.6828     6.4279     6.2252
  143.0000   125.5260     6.5368     6.3424
  143.5000   121.3428     6.6473     6.4618
  144.0000   117.3638     6.7396     6.5834
  144.5000   114.6327     6.7292     6.7073
  145.0000   116.4070     6.7203     6.8338
  145.5000   119.2007     6.7114     6.9623
  146.0000   120.9091     6.7025     7.1314
  146.5000   119.3737     6.6937     7.0484
  147.0000   117.9798     6.6849     6.9173
  147.5000   118.2420     6.6754     6.7887
  148.0000   118.4946     6.5663     6.6624
  148.5000   115.4050     6.3694     6.5385
  149.0000   111.8961     5.7534     6.4169
  149.5000   108.5896     5.0768     6.2976
  150.0000   108.1747     4.3394     6.1919
  150.5000   110.3578     3.7092     4.9724
  151.0000   114.7801     3.1704     4.0629
  151.5000   120.0126     2.6781     3.3227
  152.0000   125.7717     2.4301     2.7185
  152.5000   134.1052     2.1876     2.1975
  153.0000   140.1838     1.9813     2.0198
  153.5000   145.7807     1.9627     1.8451
  154.0000   151.3700     2.0538     1.7529
  154.5000   157.0443     2.2187     1.8154
  155.0000   158.3302     2.4186     1.9958
  155.5000   149.0186     2.7795     2.3242
  156.0000   133.5636     3.3169     2.8226
  156.5000   118.8222     3.9583     3.4408
  157.0000   110.2443     4.7236     4.2645
  157.5000   107.0489     5.6377     5.2854
  158.0000   104.8523     6.7275     6.5507
  158.5000   103.1134     7.5878     8.1189
  159.0000   101.4645     8.4548     9.1167
  159.5000   100.3851     9.3710     9.6816
  160.0000   100.4113     9.4597    10.2816
  160.5000   100.9921     8.5417    10.4922
  161.0000   101.6344     7.8759     9.7185
  161.5000   102.2847     7.2621     8.6160
  162.0000   103.8072     6.6953     7.3763
  162.5000   110.7828     6.1769     6.3151
  163.0000   117.7950     5.6831     5.4083
  163.5000   121.4267     5.6971     4.6616
  164.0000   124.8489     5.7696     4.6643
  164.5000   125.0841     5.8431     5.1123
  165.0000   120.5456     5.9462     5.5435
  165.5000   114.9882     6.3556     6.0110
  166.0000   109.8852     7.0440     6.6389
  166.5000   109.3989     7.8070     7.3774
  167.0000   109.3799     8.6526     8.1980
  167.5000   108.3097     9.3007     9.0225
  168.0000   105.7989     9.9083     9.4985
  168.5000   103.7495    10.3513     9.9997
  169.0000   103.6700    10.6381    10.3644
  169.5000   103.6559    10.9328    10.6448
  170.0000   103.2115    11.2357    10.9329
  170.5000   102.7733    11.5470    11.2287
  171.0000   102.3395    11.8669    11.5325
  171.5000   101.8013    12.1956    11.8446
  172.0000   101.0474    12.3491    12.0858
  172.5000   100.3903    12.4038    12.1031
  173.0000   100.3841    12.4587    12.1212
  173.5000   101.1978    12.5138    12.1390
  174.0000   101.3321    12.5692    12.1570
  174.5000   100.5300    12.6248    12.1750
  175.0000    99.7328    12.6806    12.1931
  175.5000   100.3661    12.7368    12.3006
  176.0000   104.5758    12.8024    12.4474
  176.5000   107.9007    12.9376    12.5960
  177.0000   105.7777    13.0750    12.7464
  177.5000   103.3574    13.2137    12.8985
  178.0000   101.9449    13.3536    13.0525
  178.5000   105.3014    13.4959    13.2004
  179.0000   109.0848    13.6522    13.3353
  179.5000   111.5003    13.8151    13.4716
  180.0000   108.6451    13.9800    13.6094
  180.5000   104.6967    14.1469    13.7485
  181.0000   100.5374    14.3158    13.8890
  181.5000    99.5375    14.4867    14.0310
