~VERSION INFORMATION
 VERS.                2.0:   CWLS LOG ASCII STANDARD - VERSION 2.0
 WRAP.                 NO:   ONE LINE PER DEPTH STEP
~WELL INFORMATION
#MNEM.UNIT      DATA TYPE    INFORMATION
#----------   ------------   ------------------------------
 STRT.F           24.0000:   START DEPTH
 STOP.F          464.0000:   STOP DEPTH
 STEP.F            0.5000:   STEP LENGTH
 NULL.          -999.2500:   NO VALUE
 COMP.    FENIX & SCISSON:   COMPANY
 WELL.       NPR #62-S-10:   WELL
 FLD .             TEAPOT:   FIELD
 LOC .      S10 T38N R78W:   LOCATION
 CNTY.            NATRONA:   COUNTY
 STAT.            WYOMING:   STATE
 CTRY. UNITED STATES OF AMERICA:   COUNTRY
 SRVC.              Welex:   SERVICE COMPANY
 DATE.        12-APR-1977:   LOGDATE
 API .       490251033300:   API NUMBER
~CURVE INFORMATION
#MNEM.UNIT       API CODE    CURVE DESCRIPTION
#----------   ------------   ------------------------------
 DEPT.F                  :   
 SPR .MV     07 010 01 00:   SPONTANEOUS POTENTIAL
 ILD .OHMM   07 120 46 00:   INDUCTION LOG DEEP
 ILM .OHMM   07 120 44 00:   INDUCTION LOG MEDIUM
 SGRD.OHMM   07 221 05 00:   SHALLOW SHORT GUARD RESISTIVITY
 GRD .GAPI   45 310 01 00:   GAMMA RAY FROM DENSITY LOG
 CALD.IN     45 280 60 00:   CALIPER FROM DENSITY LOG
 CORR.G/C3   45 356 01 00:   DENSITY CORRECTION
 RHOB.G/C3   45 350 01 00:   BULK DENSITY
 DPHI.DEC    45 890 12 00:   DENSITY POROSITY SANDSTONE
~PARAMETER INFORMATION
#MNEM.UNIT          VALUE    DESCRIPTION
#----------   ------------   ------------------------------
 PD  .                 GL:   PERMANENT DATUM
 EPD .F              5155:   ELEVATION PERMANENT DATUM
 LMF .                 GL:   LOG MEASURED FROM
 DMF .                 GL:   DRILLING MEASURED FROM
 EGL .F              5155:   GROUND LEVEL
 DATE.        12-APR-1977:   RUN DATE
 RUN .                  1:   RUN NUMBER
 DD  .F               460:   DEPTH DRILLER
 DL  .F               464:   DEPTH LOGGER
 BLI .F               462:   BOTTOM LOG INTERVAL
 TLI .F                30:   TOP LOG INTERVAL
 CS  .IN            8.625:   CASING SIZE
 BS  .IN            7.875:   BIT SIZE
 BSD .F               460:   BIT SIZE AT DEPTH
 DFT .            KCL GEL:   DRILLING FLUID TYPE
 DFD .                8.8:   DRILLING FLUID DENSITY
 TCS .HRS            0100:   TIME CURCULATED STOPPED
 MRT .F                65:   MAXIMUM RECORDED TEMPERATURE
 ENGI.        E. CALLAHAN:   RECORDING ENGINEER
 WITN.            R. LYON:   WITNESSED BY
 CLNT.            A2DTECH:   CLIENT CODE
 ORIG.           5" PRINT:   ORIGIN OF DATA
 UWI .       490251033300:   UNIQUE WELL ID
 DICO. A2D Technologies, Inc.:   DIGITIZING COMPANY
~OTHER INFORMATION
~A   DEPT      SPR        ILD        ILM       SGRD        GRD       CALD       CORR       RHOB       DPHI   
# ...
  206.5000   -30.6830     8.1281     9.4594    11.5865   132.2855     8.0894     0.0249     2.5082     0.0856
  207.0000   -30.6625     8.2447     9.5978    11.5929   133.6557     8.0912     0.0250     2.5025     0.0892
  207.5000   -30.7995     8.3054     9.7282    11.5992   134.8760     8.1080     0.0251     2.5004     0.0891
  208.0000   -30.7791     8.3664     9.6565    11.6056   135.6464     8.1098     0.0328     2.5100     0.0850
  208.5000   -30.7627     8.3699     9.4742    11.6926   136.1171     8.1115     0.0374     2.5163     0.0824
  209.0000   -30.7464     8.3733     9.3384    11.7802   136.1380     8.1133     0.0375     2.5122     0.0835
  209.5000   -30.7300     8.3768     9.1002    11.8684   135.5591     8.1151     0.0391     2.5005     0.0897
  210.0000   -30.5644     8.3802     9.0430    11.9557   132.8813     8.1169     0.0392     2.5060     0.0887
  210.5000   -30.5481     8.3259     9.3686    11.7980   131.5529     8.1187     0.0394     2.5114     0.0854
  211.0000   -30.5317     8.3293     9.7045    11.8880   131.4186     8.1205     0.0380     2.5062     0.0865
  211.5000   -30.5154     8.3341    10.0524    12.1438   130.8450     8.1223     0.0381     2.5010     0.0898
  212.0000   -30.6524     8.3941     9.4513    11.9011   130.1162     8.1241     0.0367     2.4958     0.0943
  212.5000   -30.6319     8.3976     9.1356    11.5828   130.2870     8.1259     0.0338     2.4906     0.0964
  213.0000   -30.6156     8.4010     9.1423    11.1953   131.6520     8.1276     0.0324     2.4892     0.0976
  213.5000   -30.7526     8.4045     9.1813    10.9700   130.1788     8.1294     0.0326     2.4892     0.1015
  214.0000   -30.8855     8.4080     9.2797    11.2854   126.6015     8.1312     0.0327     2.4795     0.1062
  214.5000   -31.0184     8.4122     9.5460    11.8516   127.0722     8.1330     0.0345     2.4691     0.1107
  215.0000   -30.9980     8.4157     9.7523    12.2752   129.1920     8.1348     0.0392     2.4631     0.1131
  215.5000   -31.1349     8.2463    10.0323    12.7140   132.0614     8.1366     0.0421     2.4557     0.1161
  216.0000   -31.1145     8.0246    10.1768    12.7599   134.0313     8.1384     0.0392     2.4459     0.1212
  216.5000   -31.0982     7.4916     9.1806    12.5530   136.0012     8.1252     0.0348     2.4272     0.1332
  217.0000   -31.0818     7.0913     8.8127    12.4734   136.9216     8.1270     0.0289     2.4077     0.1470
  217.5000   -31.0655     6.5294     8.1719    12.3090   136.4927     8.1288     0.0185     2.3927     0.1551
  218.0000   -30.8999     6.1379     6.5527    10.9499   135.1642     8.1306     0.0141     2.3996     0.1566
  218.5000   -31.0368     5.9318     5.9104     6.8461   133.0862     8.1174     0.0233     2.4539     0.1307
  219.0000   -31.0164     5.9343     5.9551     4.5238   128.9091     8.1192     0.0384     2.5051     0.1021
  219.5000   -31.0001     6.1455     6.4747     5.4499   122.1834     8.1210     0.0416     2.5218     0.0825
  220.0000   -30.9837     6.4530     7.3381    13.4488   116.9569     8.1228     0.0417     2.5226     0.0789
  220.5000   -30.9674     6.7758     8.2024    14.1815   113.8293     8.1096     0.0403     2.5204     0.0804
  221.0000   -30.9510     7.1147     9.0424    14.1893   116.2490     8.1114     0.0374     2.5130     0.0858
  221.5000   -30.9333     7.4707     9.7636    14.4095   115.5183     8.0982     0.0330     2.4965     0.0960
  222.0000   -30.9183     7.8444    10.4697    14.6210   112.6767     8.1000     0.0346     2.4837     0.1004
  222.5000   -30.9020     8.2940    11.0725    14.9194   111.0495     8.1018     0.0363     2.4815     0.1019
  223.0000   -30.8856     9.0778    11.6293    15.0311   109.8751     8.1036     0.0379     2.4801     0.1031
  223.5000   -30.7200     9.6646    11.9631    14.9337   108.5287     8.1054     0.0380     2.4772     0.1061
  224.0000   -30.7037    10.0782    11.9705    14.7387   106.6896     8.0902     0.0381     2.4690     0.1106
  224.5000   -30.6873    10.2937    12.0611    14.5443   101.2739     8.0640     0.0382     2.4540     0.1181
  225.0000   -30.6710    10.5867    12.4073    14.6533    95.2524     8.0508     0.0399     2.4360     0.1295
  225.5000   -30.6546    10.8881    12.7635    14.8655    91.6507     8.0526     0.0415     2.4210     0.1388
  226.0000   -30.6383    11.3540    13.3128    15.0808    85.4284     8.0394     0.0446     2.4015     0.1475
  226.5000   -30.6219    11.8398    13.8858    16.0579    81.1014     8.0417     0.0462     2.3805     0.1592
  227.0000   -30.6056    12.9588    14.6853    20.8950    78.7235     8.0435     0.0448     2.3557     0.1721
  227.5000   -30.5892    13.9886    15.6387    25.0241    76.3456     8.0452     0.0419     2.3407     0.1865
  228.0000   -30.5729    15.8552    18.6038    28.5532    74.4174     8.0470     0.0375     2.3325     0.1925
  228.5000   -30.5565    17.3629    21.0847    27.9824    72.6392     8.0334     0.0392     2.3334     0.1919
  229.0000   -30.5402    18.8750    21.6899    28.1920    69.3617     8.0356     0.0453     2.3387     0.1876
  229.5000   -30.5238    20.1037    20.8207    33.4802    67.4335     8.0374     0.0560     2.3531     0.1804
  230.0000   -30.5075    21.1183    21.5671    40.1916    66.7048     8.0392     0.0666     2.3615     0.1755
  230.5000   -30.4910    22.0061    23.7758    35.2305    66.4206     8.0260     0.0652     2.3420     0.1833
  231.0000   -30.3254    22.6373    28.0887    43.0769    66.5966     8.0278     0.0609     2.3112     0.2047
  231.5000   -30.3090    23.2525    29.5084    58.4272    67.2172     8.0296     0.0579     2.2804     0.2212
  232.0000   -30.1433    23.4235    28.5155    36.0283    68.1376     8.0314     0.0550     2.2624     0.2359
  232.5000   -30.1144    23.7595    26.9966    37.1464    69.2079     8.0482     0.0522     2.2436     0.2434
  233.0000   -29.9612    24.1003    25.7361    40.5674    69.9784     8.0649     0.0493     2.2331     0.2497
  233.5000   -29.9448    24.7863    25.7527    40.3095    70.4491     8.0967     0.0479     2.2400     0.2452
  234.0000   -29.7791    26.3887    28.2042    44.7083    70.7698     8.0984     0.0450     2.2604     0.2358
  234.5000   -29.7627    27.9011    30.4474    48.6380    71.2404     8.1302     0.0436     2.2695     0.2298
  235.0000   -29.5970    28.6954    30.2444    46.0511    71.7111     8.1320     0.0438     2.2779     0.2237
  235.5000   -29.5806    26.9752    28.2462    42.7017    72.0318     8.1487     0.0439     2.2907     0.2168
  236.0000   -29.5609    25.1833    29.2917    44.8441    72.3525     8.1505     0.0485     2.3096     0.2032
  236.5000   -29.5446    24.1673    29.8910    41.5825    72.5233     8.1369     0.0516     2.3285     0.1981
  237.0000   -29.5282    25.2041    27.6622    42.1847    72.8440     8.1391     0.0593     2.3414     0.1899
  237.5000   -29.5119    23.5299    26.4232    43.6927    73.1647     8.1110     0.0639     2.3483     0.1851
  238.0000   -29.4955    22.7373    26.8259    40.7960    73.4854     8.0828     0.0685     2.3521     0.1809
  238.5000   -29.4792    22.9068    27.9825    38.6165    73.9561     8.0397     0.0702     2.3522     0.1794
  239.0000   -29.3136    23.2354    29.4149    41.4096    74.5767     8.0115     0.0733     2.3485     0.1823
  239.5000   -29.2972    23.7322    32.0699    50.2833    75.4971     7.9829     0.0764     2.3418     0.1862
  240.0000   -29.2809    24.0726    34.0036    56.5866    76.7173     7.9552     0.0765     2.3328     0.1919
  240.5000   -29.2645    24.0825    32.8036    51.0396    77.4878     7.9416     0.0737     2.3171     0.2015
  241.0000   -29.2482    24.0924    30.8379    46.6710    77.3583     7.9438     0.0692     2.2983     0.2090
  241.5000   -29.2318    23.9358    28.3627    49.7018    76.6300     7.9302     0.0587     2.2909     0.2159
  242.0000   -29.3688    23.9461    28.5448    45.7694    75.9013     7.9325     0.0453     2.2917     0.2182
  242.5000   -29.3484    23.9560    31.0799    47.0788    74.8727     7.9492     0.0395     2.3129     0.2053
