~VERSION INFORMATION
 VERS.                2.0:   CWLS LOG ASCII STANDARD - VERSION 2.0
 WRAP.                 NO:   ONE LINE PER DEPTH STEP
~WELL INFORMATION
#MNEM.UNIT      DATA TYPE    INFORMATION
#----------   ------------   ------------------------------
 STRT.F           28.0000:   START DEPTH
 STOP.F          884.0000:   STOP DEPTH
 STEP.F            0.5000:   STEP LENGTH
 NULL.          -999.2500:   NO VALUE
 COMP. U S NAVY-INTEX OIL:   COMPANY
 WELL. NPR 3 TEAPOT DOM #43-SX-2:   WELL
 FLD .             TEAPOT:   FIELD
 LOC .       S2 T38N R78W:   LOCATION
 CNTY.            NATRONA:   COUNTY
 STAT.            WYOMING:   STATE
 CTRY. UNITED STATES OF AMERICA:   COUNTRY
 SRVC.       Schlumberger:   SERVICE COMPANY
 DATE.        19-JUL-1963:   LOGDATE
 API .       490250967900:   API NUMBER
~CURVE INFORMATION
#MNEM.UNIT       API CODE    CURVE DESCRIPTION
#----------   ------------   ------------------------------
 DEPT.F                  :   
 ASN .OHMM   05 041 16 00:   AMPLIFIED SHORT NORMAL 16"
 CILD.MMHO   05 110 46 00:   CONDUCTIVITY INDUCTION LOG DEEP
 ILD .OHMM   05 120 46 00:   INDUCTION LOG DEEP
 SPR .MV     05 010 01 00:   SPONTANEOUS POTENTIAL FROM RES.
 GR  .GAPI   30 310 01 00:   GAMMA RAY
~PARAMETER INFORMATION
#MNEM.UNIT          VALUE    DESCRIPTION
#----------   ------------   ------------------------------
 LMF .                 KB:   LOG MEASURED FROM
 DMF .                 KB:   DRILLING MEASURED FROM
 EKB .F              5151:   KELLING BUSHING
 EGL .F              5146:   GROUND LEVEL
 DATE.        19-JUL-1963:   RUN DATE
 RUN .                  1:   RUN NUMBER
 DD  .F               881:   DEPTH DRILLER
 DL  .F               885:   DEPTH LOGGER
 BLI .F               884:   BOTTOM LOG INTERVAL
 TLI .F                30:   TOP LOG INTERVAL
 CS  .IN            8.625:   CASING SIZE
 CBD .F                12:   CASING BOTTOM DRILLER
 BS  .IN             6.75:   BIT SIZE
 BSD .F               881:   BIT SIZE AT DEPTH
 DFT .           GEL- OIL:   DRILLING FLUID TYPE
 DFD .                9.6:   DRILLING FLUID DENSITY
 DFV .                 39:   DRILLING FLUID VISCOSITY
 DFPH.                8.5:   DRILLING FLUID PH
 DFL .                4.4:   DRILLING FLUID LOSS
 RMS .OHMM           2.58:   RESISTIVITY MUD SAMPLE
 MST .F                72:   MUD SAMPLE TEMPERATURE
 RMF .OHMM           2.26:   RESISTIVITY MUD FILTRATE SAMPLE
 MFST.F                72:   MUD FILTRATE SAMPLE TEMPERATURE
 TCS .HRS               3:   TIME CURCULATED STOPPED
 LUN .               4507:   LOGGING UNIT NUMBER
 LUL .             CASPER:   LOGGING UNIT LOCATION
 ENGI.            WINKLER:   RECORDING ENGINEER
 WITN.          JORGENSEN:   WITNESSED BY
 CLNT.            A2DTECH:   CLIENT CODE
 ORIG.      2.5" 5" PRINT:   ORIGIN OF DATA
 UWI .       490250967900:   UNIQUE WELL ID
 DICO. A2D Technologies, Inc.:   DIGITIZING COMPANY
~OTHER INFORMATION
~A   DEPT      ASN         CILD       ILD       SPR         GR   
# ...
  760.0000     8.6646   130.1829     7.7273   -29.7590    69.0168
  760.5000     8.8154   130.1753     7.7273   -29.8976    70.6825
  761.0000     8.9057   130.1677     7.7273   -30.0693    68.2634
  761.5000     8.9658   130.1601     7.7273   -29.7726    62.8186
  762.0000     9.0562   129.4615     7.7273   -29.7771    62.6687
  762.5000     9.2069   126.3338     7.7273   -29.7825    60.2497
  763.0000     9.1462   124.0396     7.7273   -29.7869    58.1331
  763.5000     9.2088   125.5549     7.7273   -29.7913    59.6658
  764.0000     9.2399   127.0718     7.8788   -29.7957    64.4905
  764.5000     9.2662   127.0644     7.7273   -29.8001    67.2151
  765.0000     9.1994   130.1057     7.8788   -29.8045    63.5857
  765.5000     9.1000   130.0983     8.0303   -29.8090    62.0743
  766.0000     9.0236   128.5664     8.1818   -29.8134    60.5630
  766.5000     9.0837   125.5102     8.2134   -29.8178    61.7747
  767.0000     9.1353   123.9784     8.3333   -30.1235    66.6173
  767.5000     9.2402   119.3977     8.0934   -30.1280    69.1907
  768.0000     9.4115   117.8659     7.4747   -30.1325    67.0742
  768.5000     9.5792   118.0410     7.0644   -30.1370    61.7806
  769.0000     9.7783   128.1352     6.6919   -30.1416    59.3615
  769.5000     9.5338   151.0243     6.3636   -29.8443    60.6269
  770.0000     8.5981   163.5678     5.9848   -29.7590    61.7854
  770.5000     7.8728   169.6372     5.2904   -29.4488    59.3663
  771.0000     6.9057   182.2917     4.7601   -29.1386    58.7623
  771.5000     6.8752   183.3625     4.6970   -28.8283    59.3693
  772.0000     6.9957   181.8293     5.0000   -28.2169    57.2528
  772.5000     7.2976   181.8216     5.4545   -28.5241    55.4388
  773.0000     7.8713   178.8262     6.0606   -29.1445    53.3223
  773.5000     8.3544   166.3192     6.6667   -29.5807    51.9465
  774.0000     9.7438   146.9412     7.1212   -29.8863    58.0151
  774.5000    10.0827   120.8141     7.8788   -29.8907    58.1679
  775.0000    10.4280   108.6116     8.3333   -29.8951    56.0262
  775.5000    10.5848   104.0309     8.7879   -30.2008    55.5994
  776.0000    10.6792   102.4991     9.0909   -30.2052    51.2136
  776.5000    10.7473   104.0168     9.2487   -30.2096    45.0123
  777.0000    10.8296   105.5330     9.4066   -30.2140    40.4752
  777.5000    10.9804   104.0012     9.5455   -30.2184    33.2150
  778.0000    11.1311   103.9937     9.5455   -30.2228    32.4600
  778.5000    11.2818   100.9375     9.7285   -29.9261    31.8564
  779.0000    11.7347    96.2958    10.2273   -29.9639    24.4448
  779.5000    12.3386    89.9879    11.0416   -30.2831    20.6642
  780.0000    12.7915    83.5363    12.1213   -30.9640    20.2118
  780.5000    13.2444    74.1696    13.2575   -31.8992    20.2370
  781.0000    14.1504    65.4929    14.4949   -32.7469    21.4254
  781.5000    15.6607    62.3654    15.5808   -33.7696    23.5449
  782.0000    17.7752    59.2378    17.0455   -35.0060    22.7899
  782.5000    19.7387    55.5516    18.1250   -36.6716    20.6730
  783.0000    20.9468    52.9827    19.0530   -38.0813    20.5232
  783.5000    22.0059    49.8552    20.1515   -40.0843    20.8276
  784.0000    22.3138    47.5000    21.2121   -42.2288    22.0394
  784.5000    22.6216    45.9680    21.9697   -43.2343    22.9486
  785.0000    22.9899    44.4345    21.8182   -42.6363    24.9168
  785.5000    24.6814    42.9026    21.6667   -42.3395    25.5234
  786.0000    27.4505    41.3708    21.6667   -41.4403    24.9198
  786.5000    28.9911    41.3634    21.9697   -40.8423    27.4935
  787.0000    30.2476    41.3559    22.1212   -39.6419    27.3433
  787.5000    29.3529    39.8241    22.2727   -39.0437    27.3451
  788.0000    28.3274    39.8166    22.7273   -40.2532    28.5569
  788.5000    28.1057    39.8092    22.8851   -42.3660    29.3145
  789.0000    28.7841    38.2773    23.3460   -43.5843    29.1646
  789.5000    29.7002    38.2698    23.6742   -45.1355    30.0742
  790.0000    30.8520    38.2622    24.1162   -46.4158    30.6808
  790.5000    31.6896    38.2546    24.4255   -47.5045    23.4206
  791.0000    31.2138    38.2470    24.6970   -47.5090    20.8362
  791.5000    30.4583    38.2393    24.6970   -47.4427    22.9012
  792.0000    30.0048    38.2317    24.6970   -47.1325    31.1410
  792.5000    29.8534    38.2241    24.6970   -46.5211    32.3524
  793.0000    29.2489    38.2165    24.6970   -45.1958    32.8081
  793.5000    28.9465    38.2088    24.6970   -43.9172    34.0199
  794.0000    29.3994    38.2012    24.7727   -44.8012    31.1469
  794.5000    30.0033    36.6692    25.0821   -45.8856    29.9381
  795.0000    30.6072    36.6616    25.2399   -46.5061    28.7293
  795.5000    31.5133    36.6540    25.5985   -46.7681    26.4615
  796.0000    31.5089    36.6450    25.9616   -46.3494    28.4297
  796.5000    31.0515    36.6375    26.1192   -47.2582    29.3885
  797.0000    30.7430    35.1057    26.3730   -46.6602    32.9713
  797.5000    30.4547    35.0982    26.5859   -46.0622    32.8218
  798.0000    30.2510    36.6159    26.5212   -44.8618    34.6387
  798.5000    29.7854    36.6077    26.2116   -43.6614    36.6065
  799.0000    29.1688    38.1247    25.8263   -45.1719    33.7336
  799.5000    28.5079    39.6416    24.3952   -47.7228    33.7354
  800.0000    27.7342    41.1585    23.4846   -48.0243    37.9729
  800.5000    26.1793    41.2221    21.9680   -48.0209    39.7898
  801.0000    24.3122    44.3229    21.0574   -47.1061    39.4887
  801.5000    22.8152    47.1877    19.8438   -43.4557    37.3722
  802.0000    21.6556    50.2704    18.4787   -42.8448    36.7645
  802.5000    20.8132    53.3109    17.5681   -42.2340    36.0236
  803.0000    20.0813    56.3513    16.6576   -41.9250    30.7204
  803.5000    19.6267    57.8675    16.2015   -41.0122    28.8452
  804.0000    19.3231    57.8929    16.2000   -40.9726    29.6520
  804.5000    19.3216    59.3753    16.1985   -41.0063    29.9546
  805.0000    19.3201    59.3665    16.3486   -41.0740    29.5008
  805.5000    19.3186    59.3581    16.3470   -41.6083    26.7776
  806.0000    19.1661    59.0446    16.4972   -42.0142    27.8366
  806.5000    19.1646    57.8167    16.6472   -42.6363    31.6188
  807.0000    19.3142    57.8083    16.8525   -43.2584    31.9213
  807.5000    19.4763    57.2915    17.2247   -43.4195    31.1649
  808.0000    19.7845    55.6912    17.8444   -43.0680    29.1982
  808.5000    20.2437    52.5660    19.0021   -41.5891    27.8366
  809.0000    20.7735    49.4410    20.7051   -39.7625    26.0212
  809.5000    21.6581    46.3161    21.9406   -37.3279    24.3570
  810.0000    22.5277    41.6667    23.6058   -35.5012    27.5340
  810.5000    24.4497    37.9303    25.2710   -34.5864  -999.2500
  811.0000    27.6858    34.8732    27.2392   -33.9756  -999.2500
  811.5000    31.7251    31.8161    28.7529   -33.6686  -999.2500
  812.0000    35.5832    28.7591    29.3575   -33.6657  -999.2500
  812.5000    36.8202    28.7508    28.7499   -33.6626  -999.2500
  813.0000    34.2505    31.7913    27.3848   -33.6596  -999.2500
  813.5000    31.8321    34.8318    26.3075   -33.9608  -999.2500
  814.0000    27.1478    39.3967    23.9776   -34.3384  -999.2500
  814.5000    23.6720    45.4859    21.7314   -35.0548  -999.2500
  815.0000    21.2537    50.0508    18.6162   -36.1905  -999.2500
  815.5000    20.0437    56.2076    17.2789   -36.6839  -999.2500
  816.0000    19.4380    60.8400    16.4565   -36.9848  -999.2500
  816.5000    18.6813    63.7455    15.6116   -37.2857  -999.2500
  817.0000    17.6122    65.2616    15.1404   -37.8900  -999.2500
  817.5000    17.0040    65.5913    14.8838   -37.8870  -999.2500
  818.0000    16.5619    67.1747    14.7939   -36.9722  -999.2500
  818.5000    16.3817    68.2855    14.6409   -36.3614  -999.2500
  819.0000    16.2216    68.2757    14.4020   -36.0544  -999.2500
  819.5000    15.9104    68.2673    14.1831   -36.0515  -999.2500
  820.0000    15.6495    68.2588    14.0301   -36.0485  -999.2500
  820.5000    15.5901    68.2503    14.1803   -36.9574  -999.2500
