~VERSION INFORMATION
 VERS.                2.0:   CWLS LOG ASCII STANDARD - VERSION 2.0
 WRAP.                 NO:   ONE LINE PER DEPTH STEP
~WELL INFORMATION
#MNEM.UNIT      DATA TYPE    INFORMATION
#----------   ------------   ------------------------------
 STRT.F            6.0000:   START DEPTH
 STOP.F         2600.0000:   STOP DEPTH
 STEP.F            0.5000:   STEP LENGTH
 NULL.          -999.2500:   NO VALUE
 COMP. FENIX & SCISSON INC:   COMPANY
 WELL.   NPR 3 SH #17 -34:   WELL
 FLD .             TEAPOT:   FIELD
 LOC .      S34 T39N R78W:   LOCATION
 CNTY.            NATRONA:   COUNTY
 STAT.            WYOMING:   STATE
 CTRY. UNITED STATES OF AMERICA:   COUNTRY
 SRVC.            Unknown:   SERVICE COMPANY
 DATE.        21-MAR-1978:   LOGDATE
 API .       490251060600:   API NUMBER
~CURVE INFORMATION
#MNEM.UNIT       API CODE    CURVE DESCRIPTION
#----------   ------------   ------------------------------
 DEPT.F                  :   
 NPHI.DEC    42 890 03 00:   NEUTRON POROSITY SANDSTONE
 CALD.IN     45 280 60 00:   CALIPER FROM DENSITY LOG
 GRD .GAPI   45 310 01 00:   GAMMA RAY FROM DENSITY LOG
 CORR.G/C3   45 356 01 00:   DENSITY CORRECTION
 RHOB.G/C3   45 350 01 00:   BULK DENSITY
 DPHI.DEC    45 890 12 00:   DENSITY POROSITY SANDSTONE
~PARAMETER INFORMATION
#MNEM.UNIT          VALUE    DESCRIPTION
#----------   ------------   ------------------------------
 PD  .                 GL:   PERMANENT DATUM
 EPD .F              5150:   ELEVATION PERMANENT DATUM
 LMF .                 KB:   LOG MEASURED FROM
 DMF .                 KB:   DRILLING MEASURED FROM
 EKB .F              5160:   KELLING BUSHING
 EGL .F              5150:   GROUND LEVEL
 DATE.          3-21-1978:   RUN DATE
 RUN .                  1:   RUN NUMBER
 DD  .F              2612:   DEPTH DRILLER
 DL  .F              2592:   DEPTH LOGGER
 BLI .F              2590:   BOTTOM LOG INTERVAL
 TLI .F                20:   TOP LOG INTERVAL
 CS  .IN            9.625:   CASING SIZE
 CBD .F               710:   CASING BOTTOM DRILLER
 CBL .F               710:   CASING BOTTOM LOGGER
 BS  .IN            8.625:   BIT SIZE
 BSD .F              2612:   BIT SIZE AT DEPTH
 DFT .           AIR MIST:   DRILLING FLUID TYPE
 BHT .F               110:   BOTTOM HOLE TEMPERATURE
 TCS .HRS               2:   TIME CURCULATED STOPPED
 MRT .F               110:   MAXIMUM RECORDED TEMPERATURE
 LUN .               2958:   LOGGING UNIT NUMBER
 LUL .               CASP:   LOGGING UNIT LOCATION
 ENGI.            POINTER:   RECORDING ENGINEER
 WITN.           MCGINLEY:   WITNESSED BY
 CLNT.            A2DTECH:   CLIENT CODE
 ORIG.      2" , 5" PRINT:   ORIGIN OF DATA
 UWI .       490251060600:   UNIQUE WELL ID
 DICO. A2D Technologies, Inc.:   DIGITIZING COMPANY
~OTHER INFORMATION
~A    DEPT      NPHI     CALD        GRD       CORR       RHOB       DPHI   
# ...
 2034.0000  -999.2500     9.0183   135.0243     0.1010     2.4549     0.1170
 2034.5000  -999.2500     9.0180   132.0098     0.1024     2.4547     0.1169
 2035.0000  -999.2500     9.0178   127.7348     0.1039     2.4545     0.1165
 2035.5000  -999.2500     9.0175   124.4846     0.1054     2.4543     0.1158
 2036.0000  -999.2500     9.0173   123.8907     0.1068     2.4541     0.1151
 2036.5000  -999.2500     9.0170   123.3886     0.1128     2.4571     0.1143
 2037.0000  -999.2500     9.0168   125.7498     0.1217     2.4620     0.1136
 2037.5000  -999.2500     9.0165   128.9715     0.1245     2.4650     0.1119
 2038.0000  -999.2500     9.0162   131.8877     0.1293     2.4652     0.1089
 2038.5000  -999.2500     9.0160   131.6386     0.1392     2.4714     0.1085
 2039.0000  -999.2500     9.0157   130.8845     0.1429     2.4700     0.1109
 2039.5000  -999.2500     9.0155   130.1786     0.1463     2.4635     0.1133
 2040.0000  -999.2500     9.0152   128.7402     0.1498     2.4584     0.1151
 2040.5000  -999.2500     9.0150   127.2802     0.1532     2.4619     0.1146
 2041.0000  -999.2500     9.0147   126.3939     0.1521     2.4632     0.1140
 2041.5000  -999.2500     9.0145   126.2865     0.1445     2.4609     0.1135
 2042.0000  -999.2500     9.0142   125.9869     0.1378     2.4591     0.1128
 2042.5000  -999.2500     9.0139   124.8211     0.1152     2.4640     0.1116
 2043.0000  -999.2500     9.0137   124.7406     0.1087     2.4593     0.1104
 2043.5000  -999.2500     9.0134   125.1423     0.1038     2.4648     0.1092
 2044.0000  -999.2500     9.0132   126.3292     0.1009     2.4673     0.1093
 2044.5000  -999.2500     9.0129   130.6591     0.0980     2.4666     0.1107
 2045.0000  -999.2500     9.0126   132.9626     0.0951     2.4669     0.1122
 2045.5000  -999.2500     9.0124   132.8691     0.0920     2.4628     0.1136
 2046.0000  -999.2500     9.0121   132.7941     0.0956     2.4589     0.1141
 2046.5000  -999.2500     9.0119   132.7196     0.1011     2.4611     0.1091
 2047.0000  -999.2500     9.0116   132.6412     0.1067     2.4685     0.1049
 2047.5000  -999.2500     9.0114   132.5179     0.1094     2.4747     0.1013
 2048.0000  -999.2500     9.0111   134.1358     0.1094     2.4806     0.0977
 2048.5000  -999.2500     9.0109   136.3685     0.1094     2.4896     0.0969
 2049.0000  -999.2500     9.0106   137.5712     0.1094     2.4882     0.0985
 2049.5000  -999.2500     9.0103   139.3081     0.1090     2.4860     0.1001
 2050.0000  -999.2500     9.0101   139.8557     0.1086     2.4839     0.1018
 2050.5000  -999.2500     9.0098   137.2200     0.1082     2.4820     0.1004
 2051.0000  -999.2500     9.0096   132.4720     0.1078     2.4813     0.1022
 2051.5000  -999.2500     9.0093   130.5053     0.1074     2.4792     0.1040
 2052.0000  -999.2500     9.0091   130.1730     0.1040     2.4755     0.1062
 2052.5000  -999.2500     9.0088   131.1960     0.1000     2.4719     0.1087
 2053.0000  -999.2500     9.0085   132.2179     0.0992     2.4688     0.1097
 2053.5000  -999.2500     9.0083   132.7100     0.0988     2.4685     0.1104
 2054.0000  -999.2500     9.0080   132.6246     0.0985     2.4682     0.1110
 2054.5000  -999.2500     9.0078   132.4768     0.0983     2.4656     0.1116
 2055.0000  -999.2500     9.0075   130.2260     0.0979     2.4625     0.1096
 2055.5000  -999.2500     9.0073   129.0740     0.0976     2.4665     0.1076
 2056.0000  -999.2500     9.0070   128.6633     0.0977     2.4708     0.1087
 2056.5000  -999.2500     9.0068   128.2545     0.0993     2.4683     0.1092
 2057.0000  -999.2500     9.0065   128.1615     0.1009     2.4661     0.1090
 2057.5000  -999.2500     9.0062   129.6861     0.1025     2.4659     0.1089
 2058.0000  -999.2500     9.0060   132.0006     0.1041     2.4676     0.1083
 2058.5000  -999.2500     9.0057   134.0535     0.1057     2.4644     0.1070
 2059.0000  -999.2500     9.0055   136.6451     0.1073     2.4644     0.1083
 2059.5000  -999.2500     9.0052   142.1895     0.1036     2.4708     0.1120
 2060.0000  -999.2500     9.0050   147.8756     0.0995     2.4643     0.1158
 2060.5000  -999.2500     9.0047   148.2284     0.0974     2.4556     0.1183
 2061.0000  -999.2500     9.0044   142.3971     0.0974     2.4530     0.1180
 2061.5000  -999.2500     9.0042   134.9879     0.0974     2.4565     0.1176
 2062.0000  -999.2500     9.0039   128.5550     0.0974     2.4587     0.1173
 2062.5000  -999.2500     9.0037   129.8646     0.0974     2.4570     0.1179
 2063.0000  -999.2500     9.0034   130.7291     0.0974     2.4553     0.1190
 2063.5000  -999.2500     9.0032   129.9575     0.0977     2.4537     0.1201
 2064.0000  -999.2500     9.0029   127.6940     0.0991     2.4520     0.1208
 2064.5000  -999.2500     9.0027   125.4982     0.1004     2.4513     0.1205
 2065.0000  -999.2500     9.0024   125.0382     0.1018     2.4525     0.1184
 2065.5000  -999.2500     9.0021   126.1574     0.1031     2.4537     0.1151
 2066.0000  -999.2500     9.0019   125.9717     0.1040     2.4580     0.1118
 2066.5000  -999.2500     9.0016   125.6094     0.1047     2.4630     0.1106
 2067.0000  -999.2500     9.0014   126.5047     0.1054     2.4640     0.1112
 2067.5000  -999.2500     9.0011   127.3822     0.1061     2.4640     0.1119
 2068.0000  -999.2500     9.0008   127.4841     0.1069     2.4630     0.1127
 2068.5000  -999.2500     9.0006   127.6117     0.1076     2.4612     0.1148
 2069.0000  -999.2500     9.0003   127.6624     0.1083     2.4594     0.1169
 2069.5000  -999.2500     9.0001   130.5919     0.1091     2.4575     0.1184
 2070.0000  -999.2500     8.9998   134.0487     0.1138     2.4580     0.1184
 2070.5000  -999.2500     8.9996   133.1144     0.1226     2.4598     0.1155
 2071.0000  -999.2500     8.9993   131.3351     0.1313     2.4585     0.1123
 2071.5000  -999.2500     8.9991   130.6385     0.1392     2.4606     0.1100
 2072.0000  -999.2500     8.9988   130.7396     0.1356     2.4642     0.1098
 2072.5000  -999.2500     8.9986   129.8230     0.1313     2.4657     0.1097
 2073.0000  -999.2500     8.9983   129.2081     0.1270     2.4622     0.1096
 2073.5000  -999.2500     8.9980   129.7610     0.1185     2.4626     0.1129
 2074.0000  -999.2500     8.9978   133.2771     0.1078     2.4631     0.1169
 2074.5000  -999.2500     8.9975   137.3769     0.0995     2.4594     0.1200
 2075.0000  -999.2500     8.9973   138.4131     0.0948     2.4550     0.1220
 2075.5000  -999.2500     8.9970   140.8116     0.0901     2.4507     0.1237
 2076.0000  -999.2500     8.9967   141.7151     0.0854     2.4462     0.1262
 2076.5000  -999.2500     8.9965   141.3226     0.0847     2.4425     0.1282
 2077.0000  -999.2500     8.9962   140.7525     0.0883     2.4386     0.1275
 2077.5000  -999.2500     8.9960   137.4933     0.0918     2.4363     0.1268
 2078.0000  -999.2500     8.9957   133.1327     0.0935     2.4383     0.1260
 2078.5000  -999.2500     8.9955   129.8490     0.0937     2.4402     0.1257
 2079.0000  -999.2500     8.9952   126.7156     0.0940     2.4412     0.1254
 2079.5000  -999.2500     8.9950   124.5137     0.0942     2.4416     0.1251
 2080.0000  -999.2500     8.9947   131.0324     0.0944     2.4419     0.1248
 2080.5000  -999.2500     8.9944   133.7065     0.0946     2.4448     0.1235
 2081.0000  -999.2500     8.9942   133.7697     0.0948     2.4489     0.1220
 2081.5000  -999.2500     8.9939   133.2522     0.0951     2.4489     0.1227
 2082.0000  -999.2500     8.9937   130.6684     0.0953     2.4467     0.1244
 2082.5000  -999.2500     8.9934   128.7130     0.0960     2.4444     0.1220
 2083.0000  -999.2500     8.9932   129.5184     0.0987     2.4440     0.1191
 2083.5000  -999.2500     8.9929   131.4781     0.1013     2.4482     0.1164
 2084.0000  -999.2500     8.9927   132.7775     0.1030     2.4547     0.1155
 2084.5000  -999.2500     8.9924   132.6669     0.1008     2.4608     0.1165
 2085.0000  -999.2500     8.9921   132.5316     0.0987     2.4584     0.1195
 2085.5000  -999.2500     8.9919   131.5302     0.0960     2.4558     0.1226
