~VERSION INFORMATION
 VERS.                2.0:   CWLS LOG ASCII STANDARD - VERSION 2.0
 WRAP.                 NO:   ONE LINE PER DEPTH STEP
~WELL INFORMATION
#MNEM.UNIT      DATA TYPE    INFORMATION
#----------   ------------   ------------------------------
 STRT.F            0.0000:   START DEPTH
 STOP.F          883.0000:   STOP DEPTH
 STEP.F            0.5000:   STEP LENGTH
 NULL.          -999.2500:   NO VALUE
 COMP.       F D SERV INC:   COMPANY
 WELL. N P R 3 SX-35 #26-1-35:   WELL
 FLD .             TEAPOT:   FIELD
 LOC .      S35 T39N R78W:   LOCATION
 CNTY.            NATRONA:   COUNTY
 STAT.            WYOMING:   STATE
 CTRY. UNITED STATES OF AMERICA:   COUNTRY
 SRVC.     Atlas Wireline:   SERVICE COMPANY
 DATE.        21-NOV-1991:   LOGDATE
 API .       490252247800:   API NUMBER
~CURVE INFORMATION
#MNEM.UNIT       API CODE    CURVE DESCRIPTION
#----------   ------------   ------------------------------
 DEPT.F                  :   
 GRR .GAPI   07 310 01 00:   GAMMA RAY
 RILD.OHMM   07 120 46 00:   INDUCTION LOG DEEP RESISTIVITY
 RILM.OHMM   07 120 44 00:   INDUCTION LOG MEDIUM RESISTIVITY
 SPR .MV     07 010 01 00:   SPONTANEOUS POTENTIAL
 RFOC.OHMM   07 270 04 00:   RESISTIVITY FOCUSED LOG
~PARAMETER INFORMATION
#MNEM.UNIT          VALUE    DESCRIPTION
#----------   ------------   ------------------------------
 PD  .                 GL:   PERMANENT DATUM
 EPD .F              5098:   ELEVATION PERMANENT DATUM
 LMF .                 KB:   LOG MEASURED FROM
 DAPD.F                10:   FEET ABOVE PERMANENT DATUM
 DMF .                 KB:   DRILLING MEASURED FROM
 EKB .F              5108:   KELLING BUSHING
 EGL .F              5098:   GROUND LEVEL
 DATE.        21-NOV-1991:   RUN DATE
 RUN .                  1:   RUN NUMBER
 DD  .F               939:   DEPTH DRILLER
 DL  .F               887:   DEPTH LOGGER
 BLI .F               884:   BOTTOM LOG INTERVAL
 CS  .IN            9.625:   CASING SIZE
 CBD .F                40:   CASING BOTTOM DRILLER
 CBL .F                47:   CASING BOTTOM LOGGER
 BS  .IN             8.75:   BIT SIZE
 BSD .F               939:   BIT SIZE AT DEPTH
 DFT .               LSND:   DRILLING FLUID TYPE
 MSS .            MUDTANK:   MUD SAMPLE SOURCE
 RMS .OHMM           0.32:   RESISTIVITY MUD SAMPLE
 MST .F                90:   MUD SAMPLE TEMPERATURE
 RMB .OHMM           0.27:   RESISTIVITY MUD AT BHT
 BHT .F               103:   BOTTOM HOLE TEMPERATURE
 TCS .HRS               2:   TIME CURCULATED STOPPED
 MRT .F               103:   MAXIMUM RECORDED TEMPERATURE
 LUN .            HL 6307:   LOGGING UNIT NUMBER
 LUL .             CASPER:   LOGGING UNIT LOCATION
 ENGI.            WADDELL:   RECORDING ENGINEER
 WITN.             STRONG:   WITNESSED BY
 CLNT.            A2DTECH:   CLIENT CODE
 ORIG.           5" PRINT:   ORIGIN OF DATA
 UWI .       490252247800:   UNIQUE WELL ID
 DICO. A2D Technologies, Inc.:   DIGITIZING COMPANY
~OTHER INFORMATION
~A    DEPT      GRR      RILD       RILM        SPR       RFOC   
# ...
  366.0000    97.9583     9.0159    10.1046   -41.2206     9.7865
  366.5000    98.1804     9.0761    10.3873   -41.6787     9.9209
  367.0000    98.8589     9.2006    10.4574   -42.8956     9.9182
  367.5000   100.0531     9.4572    10.5277   -44.1125     9.9155
  368.0000   101.8080     9.6542    10.4418   -44.7224     9.9129
  368.5000   102.7152     9.7866    10.2315   -45.6358     9.8412
  369.0000    99.7507     9.7833    10.0167   -46.3976     9.7654
  369.5000    98.1530     9.5773     9.7382   -46.8564     9.4975
  370.0000    98.0881     9.2369     9.5337   -47.6180     9.1689
  370.5000   103.1670     8.8624     9.4649   -48.3797     9.1025
  371.0000   106.3702     8.3781     9.3964   -49.2931     8.9738
  371.5000   108.1506     7.7561     9.1266   -50.2065     8.6633
  372.0000   109.0555     7.1802     7.9974   -50.8164     8.0764
  372.5000   107.9131     6.5549     7.2001   -51.2924     7.3730
  373.0000   106.7717     6.0682     6.8071   -51.5817     6.9573
  373.5000   112.2290     5.6860     6.5718   -51.8881     6.6353
  374.0000   116.8133     5.2732     6.3890   -52.3463     6.4506
  374.5000   121.0962     5.1622     6.2114   -52.5010     6.2274
  375.0000   121.7758     5.0535     5.9549   -52.3522     5.9701
  375.5000   119.0389     4.9470     5.7490   -52.0516     5.7636
  376.0000   116.9859     4.9454     5.6674   -51.4294     5.8024
  376.5000   110.3806     5.0837     5.8263   -50.5408     6.1401
  377.0000   108.3277     5.2260     5.9897   -49.6332     6.7155
  377.5000   108.3992     5.2977     6.0727   -49.0284     7.0016
  378.0000   111.9597     5.2220     6.1136   -48.1216     6.7589
  378.5000   112.6392     5.2202     6.0690   -47.3658     6.4345
  379.0000   112.8614     5.1103     6.0224   -47.0653     6.2554
  379.5000   115.8160     5.0730     5.8983   -46.9165     6.3418
  380.0000   119.6811     5.0010     5.8149   -47.2236     6.2959
  380.5000   125.8346     4.9645     5.8951   -47.2265     6.1150
  381.0000   121.8846     5.0025     5.8935   -47.6847     6.0337
  381.5000   119.2116     5.1370     6.0588   -47.8394     6.0321
  382.0000   117.8415     5.2440     6.1854   -48.1458     6.1153
  382.5000   118.0647     5.3159     6.2271   -48.3005     6.2874
  383.0000   119.8813     5.3518     6.1763   -48.7587     6.5087
  383.5000   121.6978     5.4248     6.1804   -48.9140     6.5526
  384.0000   122.3824     5.4610     6.1783   -48.9170     6.5052
  384.5000   118.6205     5.4974     6.2203   -49.0716     6.4577
  385.0000   115.0826     5.4950     6.0469   -49.2263     6.4560
  385.5000   113.9413     5.4932     5.9615   -49.2291     6.3647
  386.0000   118.4881     5.4913     5.9184   -49.0804     6.3186
  386.5000   120.0782     5.3383     5.9582   -48.9316     6.1859
  387.0000   118.0241     5.1895     5.9983   -48.4800     6.0984
  387.5000   113.4674     5.0802     6.0388   -48.1795     5.9702
  388.0000   111.6419     5.0598     6.0367   -47.7272     5.9686
  388.5000   114.3680     5.0059     5.9931   -47.2741     5.9251
  389.0000   118.4607     4.9697     6.0339   -46.9742     5.8824
  389.5000   120.2772     4.9332     6.0318   -46.6737     5.8808
  390.0000   119.8176     4.9315     6.0302   -46.5249     5.9207
  390.5000   117.3094     4.9298     6.0708   -46.3761     6.0024
  391.0000   116.1548     4.9975     6.1117   -46.3798     6.1704
  391.5000   115.7073     5.0308     6.1529   -46.3827     6.3911
  392.0000   119.5713     5.0643     6.1080   -46.6891     6.5212
  392.5000   121.1603     5.1334     6.1491   -46.9956     6.3398
  393.0000   120.4730     5.2038     6.2339   -47.3020     6.0778
  393.5000   120.0134     5.2752     6.3199   -47.9120     6.0342
  394.0000   121.3747     5.3109     6.4100   -48.0673     6.2905
  394.5000   122.9878     5.3833     6.5863   -48.2220     6.5581
  395.0000   122.0477     5.4756     6.7244   -48.0724     6.7422
  395.5000   118.6290     5.5534     6.8166   -47.9236     6.8415
  396.0000   115.2104     5.6125     6.8630   -47.7754     6.8813
  396.5000   111.7917     5.6849     6.7655   -47.6267     6.6893
  397.0000   108.8283     5.7629     6.8112   -47.3261     6.7816
  397.5000   108.1410     5.8420     6.8570   -47.0256     6.9234
  398.0000   108.3643     5.9221     6.8074   -46.7250     6.9706
  398.5000   109.0416     5.9611     6.7107   -46.3816     6.8237
  399.0000   110.8582     6.0008     6.5241   -46.1239     6.7743
  399.5000   115.4062     5.9566     6.3427   -45.8241     6.6780
  400.0000   119.0436     5.8720     6.3410   -45.8270     6.5836
  400.5000   122.6811     5.7483     6.2952   -45.8300     6.4904
  401.0000   124.0425     5.6272     6.2497   -45.8336     6.4435
  401.5000   120.5602     5.5087     6.2480   -45.8365     6.3969
  402.0000   113.3345     5.4305     6.1593   -46.1430     6.3506
  402.5000   112.8749     5.3161     6.0722   -46.4494     6.3489
  403.0000   113.3269     5.2773     6.0283   -46.7558     6.3029
  403.5000   113.7766     5.3125     6.0267   -47.0627     6.2134
  404.0000   114.2276     5.3103     6.0468   -47.3910     6.2524
  404.5000   114.4507     5.3085     6.1084   -47.5240     6.2063
  405.0000   114.4158     5.3818     6.1491   -47.6787     6.2477
  405.5000   113.3027     5.4553     6.1474   -47.5292     6.2455
  406.0000   110.3393     5.5300     6.2321   -47.6838     6.2429
  406.5000   111.6710     5.5669     6.2957   -47.4228     6.3286
  407.0000   117.8101     5.5645     6.3164   -47.2769     6.4155
  407.5000   123.7215     5.5627     6.4031   -46.8275     6.4725
  408.0000   123.1382     5.5608     6.4914   -46.5314     6.5476
  408.5000   120.0648     5.5202     6.5356   -46.2337     6.5908
  409.0000   118.6925     5.5184     6.5791   -46.0879     6.5885
  409.5000   117.7754     5.5165     6.6239   -45.9420     6.4886
  410.0000   117.7688     5.5146     6.4392   -45.7962     6.4020
  410.5000   119.3555     5.5535     6.3040   -45.6503     6.3998
  411.0000   120.4870     5.6226     6.3465   -45.6576     6.4547
  411.5000   117.9158     5.7014     6.3444   -45.9670     6.5310
  412.0000   115.2386     5.7811     6.3871   -46.2764     6.5745
  412.5000   118.4170     5.7807     6.4756   -46.8892     6.6648
  413.0000   122.0522     5.8209     6.5644   -46.9155     6.7585
  413.5000   123.4130     5.8613     6.5627   -47.5083     6.9449
  414.0000   121.1285     5.8608     6.4249   -47.6670     6.9918
  414.5000   120.8943     5.8604     6.2897   -47.9764     7.0385
  415.0000   120.8877     5.8600     6.1150   -47.9823     6.7939
  415.5000   120.4256     5.7783     5.9446   -47.8364     6.5584
  416.0000   119.2795     5.6977     5.9017   -47.6196     6.2870
  416.5000   117.6796     5.5404     5.9001   -47.5447     6.1116
  417.0000   115.3968     5.3875     5.8574   -47.0968     6.0670
  417.5000   113.3416     5.2022     5.8151   -46.7977     5.9803
  418.0000   111.2865     5.1657     5.8135   -46.3483     5.8542
  418.5000   110.8096     5.0937     5.8119   -45.7487     5.8523
  419.0000   112.2139     5.0544     5.8511   -45.6014     5.8503
  419.5000   115.1345     4.9874     5.8905   -45.4568     5.8898
  420.0000   117.4041     4.9870     5.8885   -45.3111     5.8873
  420.5000   119.4460     4.9867     5.9281   -45.1652     5.9266
  421.0000   119.8963     5.0214     5.9265   -45.0193     6.0080
  421.5000   120.7985     5.0209     5.8021   -45.0267     6.0054
  422.0000   120.5643     4.9857     5.7602   -45.1843     5.9201
  422.5000   117.3710     4.9506     5.7586   -45.4937     5.7549
  423.0000   117.8498     4.8816     5.7570   -46.1065     5.7129
  423.5000   120.3152     4.9155     5.7996   -46.4159     5.6712
  424.0000   119.6257     4.9496     5.8349   -47.0288     5.7091
  424.5000   119.1639     5.0188     5.9149   -47.0361     5.7875
  425.0000   120.7506     5.0890     5.9552   -47.0157     5.8669
  425.5000   122.7925     5.1964     5.9531   -46.8946     6.0307
  426.0000   124.1516     5.3061     5.9933   -46.9020     6.1569
  426.5000   119.7444     5.4180     6.0336   -46.7546     6.3731
