~VERSION INFORMATION
 VERS.                2.0:   CWLS LOG ASCII STANDARD - VERSION 2.0
 WRAP.                 NO:   ONE LINE PER DEPTH STEP
~WELL INFORMATION
#MNEM.UNIT      DATA TYPE    INFORMATION
#----------   ------------   ------------------------------
 STRT.F           12.0000:   START DEPTH
 STOP.F          660.0000:   STOP DEPTH
 STEP.F            0.5000:   STEP LENGTH
 NULL.          -999.2500:   NO VALUE
 COMP. LAWRENCE/ALLISON INC:   COMPANY
 WELL.    24-11 SX #11-11:   WELL
 FLD .             TEAPOT:   FIELD
 LOC .      S11 T38N R78W:   LOCATION
 CNTY.            NATRONA:   COUNTY
 STAT.            WYOMING:   STATE
 CTRY. UNITED STATES OF AMERICA:   COUNTRY
 SRVC.           Gearhart:   SERVICE COMPANY
 DATE.        21-JUN-1986:   LOGDATE
 API .       490251109900:   API NUMBER
~CURVE INFORMATION
#MNEM.UNIT       API CODE    CURVE DESCRIPTION
#----------   ------------   ------------------------------
 DEPT.F                  :   
 GRR .GAPI   07 310 01 00:   GAMMA RAY FROM RES. LOG.
 ILM .OHMM   07 120 44 00:   INDUCTION LOG MEDIUM
 ILD .OHMM   07 120 46 00:   INDUCTION LOG DEEP
~PARAMETER INFORMATION
#MNEM.UNIT          VALUE    DESCRIPTION
#----------   ------------   ------------------------------
 PD  .                 GL:   PERMANENT DATUM
 EPD .F              5157:   ELEVATION PERMANENT DATUM
 LMF .                 KB:   LOG MEASURED FROM
 DAPD.F                 5:   FEET ABOVE PERMANENT DATUM
 DMF .                 KB:   DRILLING MEASURED FROM
 EKB .F              5162:   KELLING BUSHING
 EGL .F              5157:   GROUND LEVEL
 DATE.            6-21-86:   RUN DATE
 RUN .                  1:   RUN NUMBER
 DD  .F               665:   DEPTH DRILLER
 DL  .F               667:   DEPTH LOGGER
 BLI .F               658:   BOTTOM LOG INTERVAL
 CS  .IN            8.625:   CASING SIZE
 CBD .F                47:   CASING BOTTOM DRILLER
 CBL .F                48:   CASING BOTTOM LOGGER
 BS  .IN            7.875:   BIT SIZE
 BSD .F               665:   BIT SIZE AT DEPTH
 DFT .                AIR:   DRILLING FLUID TYPE
 TCS .HRS            1130:   TIME CURCULATED STOPPED
 TLAB.HRS            1315:   TIME LOGGER AT BOTTOM
 MRT .F                67:   MAXIMUM RECORDED TEMPERATURE
 LUN .               7609:   LOGGING UNIT NUMBER
 LUL .           GILLETTE:   LOGGING UNIT LOCATION
 ENGI.            WANGLER:   RECORDING ENGINEER
 WITN.           JENNINGS:   WITNESSED BY
 CLNT.            A2DTECH:   CLIENT CODE
 ORIG.       2", 5" PRINT:   ORIGIN OF DATA
 UWI .       490251109900:   UNIQUE WELL ID
 DICO. A2D Technologies, Inc.:   DIGITIZING COMPANY
~OTHER INFORMATION
~A   DEPT       GRR       ILM        ILD   
# ...
  467.0000    80.5828    17.4869    17.7874
  467.5000    80.3495    17.3295    17.7875
  468.0000    81.6041    17.1325    17.7874
  468.5000    83.0602    17.2415    17.7874
  469.0000    84.0089    17.3909    17.7874
  469.5000    84.5690    17.5416    17.7874
  470.0000    84.4388    17.6937    17.7874
  470.5000    82.3914    17.8470    17.7874
  471.0000    80.1869    18.0017    17.7880
  471.5000    77.9399    18.1702    17.8208
  472.0000    77.7079    18.4674    17.9023
  472.5000    80.7598    18.3884    17.9842
  473.0000    83.7972    18.2950    18.0665
  473.5000    82.5262    18.3782    18.1491
  474.0000    80.6066    18.4577    18.2321
  474.5000    81.3322    18.5375    18.3155
  475.0000    83.2551    18.6176    18.3993
  475.5000    82.2365    18.6981    18.4834
  476.0000    80.3566    18.7790    18.5680
  476.5000    80.5286    18.8171    18.6415
  477.0000    81.9723    18.2958    18.1464
  477.5000    79.6578    17.8381    17.7208
  478.0000    77.0577    17.3323    17.3144
  478.5000    76.5674    16.8409    16.7843
  479.0000    78.1329    16.3634    16.2705
  479.5000    79.7014    15.8994    15.7721
  480.0000    81.2581    15.4486    15.2893
  480.5000    82.5997    15.0243    14.8203
  481.0000    84.8645    14.8415    14.6533
  481.5000    86.6185    14.6665    14.4461
  482.0000    87.6489    14.5389    14.2836
  482.5000    88.6834    14.4358    14.1735
  483.0000    89.0460    14.3334    14.0704
  483.5000    86.4103    14.2317    13.9680
  484.0000    82.8119    14.1493    13.8217
  484.5000    79.5488    14.0748    13.6587
  485.0000    80.4578    14.0008    13.4976
  485.5000    83.4866    13.9382    13.3384
  486.0000    86.5283    13.7478    13.1811
  486.5000    89.6418    13.5506    13.0256
  487.0000    90.1799    13.3563    12.8720
  487.5000    88.4835    13.1648    12.7529
  488.0000    87.7141    12.9559    12.6096
  488.5000    87.4868    12.7215    12.4679
  489.0000    87.1355    12.4533    12.3277
  489.5000    85.9686    12.4547    12.2133
  490.0000    85.7094    12.4546    12.1749
  490.5000    86.7013    12.4551    12.1364
  491.0000    89.9663    12.3873    12.1040
  491.5000    93.1421    12.3241    12.0859
  492.0000    93.5441    12.2612    12.0681
  492.5000    90.1524    12.1981    12.0502
  493.0000    86.6748    12.1147    12.0324
  493.5000    84.9758    12.2341    12.0141
  494.0000    87.5334    12.2750    11.9960
  494.5000    94.0140    12.3139    12.0819
  495.0000    98.3756    12.3529    12.1731
  495.5000    97.4480    12.3921    12.2647
  496.0000    93.1591    12.4313    12.3569
  496.5000    91.6507    12.4708    12.4499
  497.0000    91.7806    12.5103    12.5435
  497.5000    92.1856    12.5499    12.6378
  498.0000    92.0400    12.5719    12.6904
  498.5000    88.9425    12.3070    12.5894
  499.0000    87.6804    12.1271    12.3718
  499.5000    86.9655    11.9499    12.1581
  500.0000    86.9647    11.7753    11.9480
  500.5000    86.3986    11.6032    11.7416
  501.0000    85.3006    11.4337    11.5387
  501.5000    84.8574    11.2661    11.3394
  502.0000    86.1801    11.1031    11.1288
  502.5000    91.8265    11.0056    11.1288
  503.0000    93.4981    10.9524    11.1288
  503.5000    93.9148    10.8982    11.1288
  504.0000    90.9710    10.8200    11.1988
  504.5000    88.0535    10.9485    11.4031
  505.0000    85.8674    11.1859    11.6103
  505.5000    85.3932    11.5755    12.2193
  506.0000    86.5946    12.2497    12.9936
  506.5000    88.2458    12.9632    14.2008
  507.0000    89.9550    13.8756    15.6459
  507.5000    87.9315    15.1292    17.2379
  508.0000    81.8852    16.5016    18.9919
  508.5000    75.8812    19.9912    20.9245
  509.0000    70.6025    22.4180    23.0536
  509.5000    68.4813    25.1394    25.3995
  510.0000    67.5076    28.1912    27.6500
  510.5000    66.6292    31.5200    29.5999
  511.0000    66.8845    32.4195    30.3594
  511.5000    67.6007    32.4195    30.0760
  512.0000    68.5390    30.8328    28.8522
  512.5000    69.8743    29.6442    27.7672
  513.0000    71.7395    28.4388    26.7230
  513.5000    73.2733    27.2505    25.8682
  514.0000    73.8305    26.1118    25.1166
  514.5000    74.3944    25.0207    24.3868
  515.0000    74.9584    24.2491    24.0137
  515.5000    75.5239    24.0104    23.7896
  516.0000    76.0982    24.0138    23.4440
  516.5000    76.8552    23.9020    23.3249
  517.0000    77.8284    23.7989    23.2815
  517.5000    78.7967    23.6972    23.2377
  518.0000    79.8072    23.5697    23.1940
  518.5000    79.6784    24.0337    23.1503
  519.0000    79.0001    24.4634    23.0727
  519.5000    78.6235    24.2167    22.8992
  520.0000    80.3954    24.0257    22.7271
  520.5000    82.1387    23.8368    22.5565
  521.0000    83.1881    23.6501    22.3850
  521.5000    82.7922    23.3378    22.2194
  522.0000    82.5868    22.7043    21.8311
  522.5000    83.3232    22.0699    21.4526
  523.0000    84.0498    21.7357    21.0803
  523.5000    84.7886    21.3963    20.7146
  524.0000    84.4116    21.0627    20.3552
  524.5000    81.9701    20.7341    20.0021
  525.0000    81.6887    20.4106    19.6551
  525.5000    81.3656    20.0921    19.3141
  526.0000    81.0517    19.7786    18.9790
  526.5000    81.0491    19.3459    18.6498
  527.0000    82.7696    18.8950    18.3255
  527.5000    85.1319    18.4545    18.0093
  528.0000    86.7893    18.0242    17.6204
  528.5000    85.4662    17.7057    17.5083
  529.0000    83.8775    17.5210    17.4011
  529.5000    82.3100    17.4117    17.2940
  530.0000    81.5461    17.3424    17.1875
  530.5000    80.9186    17.2734    17.0816
  531.0000    81.1704    17.2047    16.9764
  531.5000    82.6017    17.1362    16.8718
  532.0000    84.1527    17.0681    16.7679
  532.5000    84.8213    17.0001    16.6647
  533.0000    82.6897    16.9325    16.5620
  533.5000    81.2887    16.8651    16.4600
  534.0000    82.4098    16.7980    16.3587
  534.5000    84.0985    16.7312    16.2579
  535.0000    85.4735    16.6649    16.1578
  535.5000    86.8097    16.5996    16.0583
  536.0000    88.1485    16.5323    15.9593
  536.5000    89.5245    16.2829    15.8364
  537.0000    89.2838    16.0920    15.6661
  537.5000    85.4338    15.9033    15.4976
  538.0000    82.1359    15.7169    15.3310
  538.5000    80.1202    15.5326    15.1661
  539.0000    80.0226    15.3505    15.0030
  539.5000    80.2963    15.1705    14.8417
  540.0000    81.9280    14.9936    14.6821
  540.5000    83.5172    14.8232    14.5242
  541.0000    83.8106    14.6545    14.3680
  541.5000    81.8839    14.4879    14.2135
  542.0000    79.9553    14.3231    14.0607
  542.5000    79.9334    14.1602    13.9095
  543.0000    81.3790    13.9992    13.7599
  543.5000    83.0414    13.8400    13.6120
  544.0000    84.7061    13.6826    13.4656
  544.5000    86.3953    13.5270    13.3208
  545.0000    86.8573    13.3732    13.1776
  545.5000    84.4128    13.2211    13.0359
  546.0000    82.1377    13.0708    12.9307
  546.5000    82.6827    12.9307    12.8242
  547.0000    85.5354    12.9032    12.7237
  547.5000    90.7499    12.8773    12.6241
  548.0000    91.7819    12.8514    12.5563
  548.5000    89.7370    12.8257    12.5234
  549.0000    89.4116    12.7999    12.4907
  549.5000    89.9707    12.7742    12.4580
  550.0000    92.7654    12.7486    12.4226
  550.5000    92.7004    12.7230    12.3870
  551.0000    91.6683    12.6972    12.3515
  551.5000    92.5027    12.6904    12.3161
  552.0000    93.9673    12.6903    12.2808
  552.5000    95.4495    12.6906    12.2457
  553.0000    95.0690    12.6904    12.2231
  553.5000    94.5701    12.6694    12.2231
  554.0000    94.0941    12.5459    12.2231
  554.5000    92.6368    12.4235    12.2241
  555.0000    90.5819    12.3024    12.1090
  555.5000    88.9693    12.1824    11.9948
  556.0000    89.4432    12.0632    11.8817
  556.5000    91.4332    11.9861    11.7697
  557.0000    90.6511    11.9627    11.6631
  557.5000    89.6781    11.9397    11.7042
