~VERSION INFORMATION
 VERS.                2.0:   CWLS LOG ASCII STANDARD - VERSION 2.0
 WRAP.                 NO:   ONE LINE PER DEPTH STEP
~WELL INFORMATION
#MNEM.UNIT      DATA TYPE    INFORMATION
#----------   ------------   ------------------------------
 STRT.F           29.0000:   START DEPTH
 STOP.F          500.0000:   STOP DEPTH
 STEP.F            0.5000:   STEP LENGTH
 NULL.          -999.2500:   NO VALUE
 COMP.    FENIX & SCISSON:   COMPANY
 WELL.        NPR #48-S-3:   WELL
 FLD .             TEAPOT:   FIELD
 LOC .       S3 T38N R78W:   LOCATION
 CNTY.            NATRONA:   COUNTY
 STAT.            WYOMING:   STATE
 CTRY. UNITED STATES OF AMERICA:   COUNTRY
 SRVC.              Welex:   SERVICE COMPANY
 DATE.        24-APR-1977:   LOGDATE
 API .       490251034900:   API NUMBER
~CURVE INFORMATION
#MNEM.UNIT       API CODE    CURVE DESCRIPTION
#----------   ------------   ------------------------------
 DEPT.F                  :   
 SPR .MV     07 010 01 00:   SPONTANEOUS POTENTIAL
 ILD .OHMM   07 120 46 00:   INDUCTION LOG DEEP
 ILM .OHMM   07 120 44 00:   INDUCTION LOG MEDIUM
 SGRD.OHMM   07 221 05 00:   SHALLOW SHORT GUARD RESISTIVITY
 GRD .GAPI   45 310 01 00:   GAMMA RAY FROM DENSITY LOG
 CALD.IN     45 280 60 00:   CALIPER FROM DENSITY LOG
 CORR.G/C3   45 356 01 00:   DENSITY CORRECTION
 RHOB.G/C3   45 350 01 00:   BULK DENSITY
 DPHI.DEC    45 890 12 00:   DENSITY POROSITY SANDSTONE
~PARAMETER INFORMATION
#MNEM.UNIT          VALUE    DESCRIPTION
#----------   ------------   ------------------------------
 PD  .                 GL:   PERMANENT DATUM
 EPD .F              5199:   ELEVATION PERMANENT DATUM
 LMF .                 GL:   LOG MEASURED FROM
 DMF .                 GL:   DRILLING MEASURED FROM
 EGL .F              5199:   GROUND LEVEL
 DATE.        24-APR-1977:   RUN DATE
 RUN .                  1:   RUN NUMBER
 DD  .F               500:   DEPTH DRILLER
 DL  .F               499:   DEPTH LOGGER
 BLI .F               497:   BOTTOM LOG INTERVAL
 TLI .F                30:   TOP LOG INTERVAL
 CS  .IN            8.625:   CASING SIZE
 BS  .IN               12:   BIT SIZE
 BSD .F               500:   BIT SIZE AT DEPTH
 DFT .             KCLMUD:   DRILLING FLUID TYPE
 DFD .                8.9:   DRILLING FLUID DENSITY
 TCS .HRS               1:   TIME CURCULATED STOPPED
 MRT .F                70:   MAXIMUM RECORDED TEMPERATURE
 ENGI.          T. JOYNER:   RECORDING ENGINEER
 WITN.            R. LYON:   WITNESSED BY
 CLNT.            A2DTECH:   CLIENT CODE
 ORIG.           5" PRINT:   ORIGIN OF DATA
 UWI .       490251034900:   UNIQUE WELL ID
 DICO. A2D Technologies, Inc.:   DIGITIZING COMPANY
~OTHER INFORMATION
~A   DEPT      SPR        ILD        ILM       SGRD        GRD         CALD      CORR        RHOB     DPHI   
# ...
  357.5000   -30.6135    13.0653    13.9710    20.9860    99.7913     7.7824     0.0008     2.3733     0.1629
  358.0000   -30.7495    12.8113    14.1794    20.8605    97.9246     7.7817     0.0014     2.3748     0.1639
  358.5000   -30.8814    12.4758    14.2917    20.5930    96.7913     7.7809     0.0021     2.3793     0.1570
  359.0000   -31.0133    12.0653    14.2036    20.3245    98.7202     7.7802     0.0035     2.3860     0.1523
  359.5000   -30.9927    11.7493    14.1195    19.9304   100.3531     7.7795     0.0034     2.3927     0.1514
  360.0000   -30.9762    11.5025    14.0359    19.6704    96.6167     7.7788     0.0055     2.3979     0.1517
  360.5000   -30.8114    11.2819    14.1506    19.5320    92.0921     7.7779     0.0062     2.3956     0.1532
  361.0000   -30.5015    11.1424    14.3616    19.2867    92.8717     7.7772     0.0084     2.3896     0.1562
  361.5000   -30.1885    11.0103    14.6770    19.0547    96.2909     7.7765     0.0098     2.3843     0.1596
  362.0000   -29.8754    11.0259    15.0171    18.9357    98.3688     7.7907     0.0112     2.3791     0.1641
  362.5000   -29.5500    11.1887    15.5750    18.8275    99.5526     7.7900     0.0118     2.3738     0.1686
  363.0000   -28.9456    11.5153    16.3557    19.1066   100.7442     7.7891     0.0132     2.3670     0.1726
  363.5000   -28.1928    11.9337    17.4146    19.5242   102.2159     7.7734     0.0139     2.3591     0.1803
  364.0000   -27.5845    12.5395    18.8091    20.0891   100.8661     7.7727     0.0145     2.3407     0.1886
  364.5000   -26.8261    13.3596    20.2964    20.8136    98.9202     7.7421     0.0144     2.3212     0.2006
  365.0000   -26.0678    14.2333    21.4615    21.8640    96.0800     7.7115     0.0151     2.3010     0.2123
  365.5000   -25.3095    15.2694    22.0850    22.3419    93.0909     7.6508     0.0150     2.2815     0.2219
  366.0000   -24.6996    16.6090    22.1065    22.6731    91.7390     7.6352     0.0149     2.2775     0.2231
  366.5000   -24.0896    18.5728    22.1281    23.0092    90.6872     7.6496     0.0140     2.2844     0.2148
  367.0000   -23.6281    20.0630    22.7709    25.1927    88.5922     7.6935     0.0132     2.2994     0.2115
  367.5000   -23.4632    21.3751    24.7651    28.7502    84.8601     7.7078     0.0131     2.3023     0.2103
  368.0000   -23.2984    22.6160    27.1209    35.3989    87.5320     7.7220     0.0122     2.2933     0.2121
  368.5000   -23.1335    23.6004    27.9087    33.2963    90.1481     7.7512     0.0121     2.2873     0.2146
  369.0000   -23.1171    24.1221    27.7434    28.2375    92.4308     7.7503     0.0128     2.2835     0.2170
  369.5000   -23.1006    24.6552    27.7705    27.4870    91.5281     7.7496     0.0127     2.2812     0.2188
  370.0000   -22.9358    24.8540    27.9905    28.2888    90.4763     7.7489     0.0119     2.2894     0.2179
  370.5000   -22.9193    25.0545    28.6052    28.5041    89.4246     7.7482     0.0110     2.2932     0.2161
  371.0000   -22.9028    24.9027    28.8318    27.3722    88.8196     7.7473     0.0102     2.2930     0.2162
  371.5000   -22.8863    24.7588    29.0602    28.9595    88.2131     7.7465     0.0093     2.2886     0.2165
  372.0000   -22.7215    24.4460    28.8811    30.0038    87.6085     7.7458     0.0084     2.2841     0.2174
  372.5000   -22.5567    24.2725    28.9163    30.2336    87.4509     7.7451     0.0069     2.2788     0.2189
  373.0000   -22.3918    23.9723    28.7381    29.2018    87.1443     7.7444     0.0068     2.2750     0.2210
  373.5000   -22.0786    23.5313    28.5679    29.0581    87.1356     7.7286     0.0059     2.2705     0.2261
  374.0000   -21.9138    23.2218    28.2031    29.2865    87.4253     7.7129     0.0043     2.2667     0.2292
  374.5000   -21.8703    22.9345    27.6578    29.3128    87.5658     7.7122     0.0042     2.2682     0.2311
  375.0000   -21.7359    22.3397    27.1164    29.1372    87.7042     7.7115     0.0034     2.2727     0.2247
  375.5000   -21.7196    21.9056    26.2205    27.9802    87.8450     7.6958     0.0033     2.2786     0.2195
  376.0000   -21.7032    21.3318    25.3542    25.7788    88.1342     7.6949     0.0032     2.2868     0.2137
  376.5000   -21.6870    21.2078    24.6867    25.0987    88.7218     7.6942     0.0031     2.2950     0.2069
  377.0000   -21.6706    20.6530    24.1654    26.9179    89.6054     7.6935     0.0022     2.3077     0.2027
  377.5000   -21.5059    20.3921    23.7239    29.2696    91.0872     7.6778     0.0021     2.3206     0.1989
  378.0000   -21.4894    20.1346    23.4209    28.6956    93.0160     7.6771     0.0013     2.3182     0.1998
  378.5000   -21.4729    20.0126    23.2823    26.9912    93.1565     7.6762     0.0004     2.3189     0.1997
  379.0000   -21.4565    19.7598    23.1342    26.4559    92.2517     7.6755     0.0003     2.3226     0.1974
  379.5000   -21.4400    19.6456    22.8488    26.2977    91.0509     7.6898     0.0003     2.3293     0.1936
  380.0000   -21.5727    19.6730    22.8712    26.1464    90.4462     7.6890     0.0001     2.3405     0.1855
  380.5000   -21.7079    19.5539    22.8935    25.8053    89.6926     7.7033     0.0000     2.3533     0.1748
  381.0000   -21.6873    19.6917    23.0749    26.3693    88.6408     7.7342    -0.0001     2.3742     0.1677
  381.5000   -21.8233    19.8742    23.6406    24.9806    87.2889     7.7467     0.0006     2.3824     0.1632
  382.0000   -22.2478    19.8964    24.6422    24.1494    88.0255     7.7609     0.0013     2.3853     0.1605
  382.5000   -22.6765    19.9187    25.6437    28.3376    89.5073     7.7901     0.0012     2.3853     0.1582
  383.0000   -22.9608    20.2186    26.6490    31.6762    91.7342     7.8042     0.0011     2.3875     0.1576
  383.5000   -23.2370    20.3817    27.7724    36.9057    93.8121     7.7885     0.0017     2.3913     0.1576
  384.0000   -23.3730    20.4045    28.5591    42.4090    93.7596     7.7876     0.0016     2.3896     0.1582
  384.5000   -23.5049    20.4273    28.3833    36.7183    92.7497     7.7719     0.0015     2.3770     0.1595
  385.0000   -23.4843    20.4501    27.4516    33.6845    92.1451     7.7563     0.0014     2.3687     0.1634
  385.5000   -23.0227    20.3262    25.8205    30.3573    91.5404     7.7556     0.0021     2.3612     0.1703
  386.0000   -22.7095    20.0695    24.4548    26.4594    91.2338     7.7250     0.0035     2.3551     0.1754
  386.5000   -22.3963    19.9535    23.3221    23.1985    90.7442     7.6942     0.0041     2.3499     0.1805
  387.0000   -22.2315    19.7070    22.3961    25.5977    89.8733     7.6935     0.0040     2.3439     0.1847
  387.5000   -22.0666    19.4526    21.6562    25.4231    89.1197     7.7228     0.0047     2.3383     0.1886
  388.0000   -22.0502    19.2122    20.7964    24.0785    88.2169     7.7371     0.0054     2.3340     0.1895
  388.5000   -22.0371    18.9643    20.1093    25.2940    87.7447     7.7362     0.0060     2.3333     0.1889
  389.0000   -22.0207    18.9908    19.8525    26.0258    89.2667     7.7676     0.0067     2.3340     0.1875
  389.5000   -22.1532    18.8757    19.7301    25.8702    90.5737     7.7945     0.0065     2.3355     0.1848
  390.0000   -22.2851    18.7501    19.7542    24.3336    91.6084     7.7936     0.0080     2.3392     0.1812
  390.5000   -22.5654    18.6466    19.7735    22.7309    92.9412     7.8081     0.0086     2.3430     0.1780
  391.0000   -22.9940    18.5503    19.7928    22.9091    94.4229     7.8072     0.0085     2.3518     0.1734
  391.5000   -23.2745    18.4431    19.8122    24.7392    95.9256     7.8064     0.0084     2.3601     0.1702
  392.0000   -23.4065    18.3363    19.8315    24.9351    97.9805     7.7906     0.0083     2.3675     0.1694
  392.5000   -23.3897    18.2301    19.7093    24.9577    99.1642     7.7749     0.0082     2.3720     0.1676
  393.0000   -23.3733    18.1245    19.5958    24.8084   100.2010     7.7593     0.0081     2.3757     0.1646
  393.5000   -23.3568    18.1454    19.3408    24.2862    98.4020     7.7436     0.0080     2.3802     0.1626
