~VERSION INFORMATION
 VERS.                2.0:   CWLS LOG ASCII STANDARD - VERSION 2.0
 WRAP.                 NO:   ONE LINE PER DEPTH STEP
~WELL INFORMATION
#MNEM.UNIT      DATA TYPE    INFORMATION
#----------   ------------   ------------------------------
 STRT.F           20.0000:   START DEPTH
 STOP.F          964.0000:   STOP DEPTH
 STEP.F            0.5000:   STEP LENGTH
 NULL.          -999.2500:   NO VALUE
 COMP. FENIX & SCISSON INC:   COMPANY
 WELL.    NPR-3 SX #58-11:   WELL
 FLD .             TEAPOT:   FIELD
 LOC .      S11 T38N R78W:   LOCATION
 CNTY.            NATRONA:   COUNTY
 STAT.            WYOMING:   STATE
 CTRY. UNITED STATES OF AMERICA:   COUNTRY
 SRVC.            Unknown:   SERVICE COMPANY
 DATE.        09-MAR-1978:   LOGDATE
 API .       490251060100:   API NUMBER
~CURVE INFORMATION
#MNEM.UNIT       API CODE    CURVE DESCRIPTION
#----------   ------------   ------------------------------
 DEPT.F                  :   
 SPR .MV     05 010 01 00:   SPONTANEOUS POTENTIAL FROM RES.
 SN  .OHMM   05 040 16 00:   SHORT NORMAL 16"
 ILD .OHMM   05 120 46 00:   INDUCTION LOG DEEP
 CALD.IN     45 280 60 00:   CALIPER
 GRD .GAPI   45 310 01 00:   GAMMA RAY FROM DENSITY LOG
 CORR.G/C3   45 356 01 00:   DENSITY CORRECTION
 RHOB.G/C3   45 350 01 00:   BULK DENSITY
 DPHI.DEC    45 890 12 00:   DENSITY POROSITY SANDSTONE
~PARAMETER INFORMATION
#MNEM.UNIT          VALUE    DESCRIPTION
#----------   ------------   ------------------------------
 PD  .                 GL:   PERMANENT DATUM
 EPD .F              5219:   ELEVATION PERMANENT DATUM
 LMF .                 KB:   LOG MEASURED FROM
 DAPD.F                 4:   FEET ABOVE PERMANENT DATUM
 DMF .                 KB:   DRILLING MEASURED FROM
 EKB .F              5223:   KELLING BUSHING
 EGL .F              5219:   GROUND LEVEL
 DATE.           3-9-1978:   RUN DATE
 RUN .                  1:   RUN NUMBER
 DD  .F               963:   DEPTH DRILLER
 DL  .F               966:   DEPTH LOGGER
 BLI .F               960:   BOTTOM LOG INTERVAL
 TLI .F                80:   TOP LOG INTERVAL
 CS  .IN            8.625:   CASING SIZE
 CBD .F                40:   CASING BOTTOM DRILLER
 BS  .IN            7.875:   BIT SIZE
 BSD .F               963:   BIT SIZE AT DEPTH
 DFT .         LIGNO SULF:   DRILLING FLUID TYPE
 DFD .                8.6:   DRILLING FLUID DENSITY
 DFV .                 30:   DRILLING FLUID VISCOSITY
 DFPH.               10.5:   DRILLING FLUID PH
 DFL .                4.8:   DRILLING FLUID LOSS
 MSS .          FLOW LINE:   MUD SAMPLE SOURCE
 RMS .OHMM            1.7:   RESISTIVITY MUD SAMPLE
 MST .F                60:   MUD SAMPLE TEMPERATURE
 RMF .OHMM            1.5:   RESISTIVITY MUD FILTRATE SAMPLE
 MFST.F                74:   MUD FILTRATE SAMPLE TEMPERATURE
 RMC .OHMM            2.8:   RESISTIVITY MUD CAKE
 MCST.F                68:   MUD CAKE SAMPLE TEMPERATURE
 MFSS.               MEAS:   MUD FILTRATE SAMPLE SOURCE
 MCSS.               MEAS:   MUD CAKE SAMPLE SOURCE
 RMB .OHMM           1.38:   RESISTIVITY MUD AT BHT
 BHT .F                74:   BOTTOM HOLE TEMPERATURE
 TCS .HRS               4:   TIME CURCULATED STOPPED
 MRT .F                74:   MAXIMUM RECORDED TEMPERATURE
 LUN .               2958:   LOGGING UNIT NUMBER
 LUL .               CASP:   LOGGING UNIT LOCATION
 ENGI.             MILLER:   RECORDING ENGINEER
 WITN.         HARRINGTON:   WITNESSED BY
 CLNT.            A2DTECH:   CLIENT CODE
 ORIG.      2" , 5" PRINT:   ORIGIN OF DATA
 UWI .       490251060100:   UNIQUE WELL ID
 DICO. A2D Technologies, Inc.:   DIGITIZING COMPANY
~OTHER INFORMATION
~A   DEPT      SPR         SN        ILD       CALD         GRD      CORR       RHOB       DPHI   
# ...
  911.0000   -30.7856    11.1391    10.2811     8.2437    59.8739     0.0164     2.4205     0.1428
  911.5000   -30.8100    11.1756    10.2450     8.2444    58.9239     0.0174     2.4253     0.1396
  912.0000   -30.8341    11.1152    10.2090     8.2452    57.6614     0.0185     2.4297     0.1364
  912.5000   -30.7543    11.0462    10.1893     8.2460    56.4453     0.0195     2.4345     0.1336
  913.0000   -30.5689    10.9775    10.1302     8.2467    55.2897     0.0205     2.4357     0.1318
  913.5000   -30.3834    10.9093    10.0743     8.2475    56.8692     0.0214     2.4330     0.1366
  914.0000   -30.1643    10.7702    10.0186     8.2483    59.4241     0.0223     2.4354     0.1327
  914.5000   -29.8196    10.7360     9.9632     8.2491    60.8820     0.0231     2.4427     0.1278
  915.0000   -29.4756    10.7026     9.9081     8.2498    61.7849     0.0240     2.4495     0.1249
  915.5000   -29.1332    10.6692     9.8533     8.2506    63.5577     0.0250     2.4534     0.1245
  916.0000   -28.7882    10.6360     9.8197     8.2514    65.6253     0.0286     2.4501     0.1294
  916.5000   -28.7420    10.6029     9.8151     8.2521    64.1817     0.0287     2.4529     0.1248
  917.0000   -28.9039    10.5699     9.8103     8.2529    62.6896     0.0292     2.4571     0.1205
  917.5000   -29.0414    10.5370     9.8056     8.2537    62.3694     0.0259     2.4622     0.1191
  918.0000   -28.7592    10.5042     9.8008     8.2545    62.7580     0.0205     2.4641     0.1191
  918.5000   -28.4554    10.4797     9.7961     8.2552    62.5911     0.0157     2.4600     0.1203
  919.0000   -28.4717    10.5224     9.7913     8.2560    61.1347     0.0105     2.4561     0.1247
  919.5000   -28.5318    10.5637     9.7865     8.2568    62.0276     0.0099     2.4522     0.1262
  920.0000   -28.5914    10.6052     9.7818     8.2576    63.8124     0.0121     2.4484     0.1278
  920.5000   -28.6354    10.6468     9.7770     8.2584    67.1076     0.0139     2.4496     0.1253
  921.0000   -28.4741    10.6886     9.7723     8.2591    68.5784     0.0158     2.4518     0.1228
  921.5000   -28.3157    10.7306     9.7675     8.2599    67.9999     0.0177     2.4540     0.1199
  922.0000   -28.1621    10.7701     9.7627     8.2586    67.0406     0.0196     2.4562     0.1182
  922.5000   -28.0943    10.7936     9.7580     8.2569    64.7441     0.0215     2.4584     0.1161
  923.0000   -28.3348    10.8211     9.7533     8.2551    65.1051     0.0234     2.4605     0.1140
  923.5000   -28.5685    10.8487     9.7485     8.2534    67.4105     0.0248     2.4631     0.1119
  924.0000   -28.8051    10.8763     9.7438     8.2517    69.6715     0.0248     2.4669     0.1098
  924.5000   -28.7492    10.9040     9.7390     8.2500    69.7885     0.0249     2.4707     0.1077
  925.0000   -28.6379    10.9315     9.7342     8.2483    69.8075     0.0248     2.4748     0.1057
  925.5000   -28.5243    10.9710     9.7301     8.2466    69.7718     0.0248     2.4751     0.1040
  926.0000   -28.4111    10.9266     9.7124     8.2449    68.9031     0.0248     2.4728     0.1069
  926.5000   -28.2983    10.8511     9.6849     8.2431    67.6413     0.0249     2.4708     0.1070
  927.0000   -28.1853    10.7762     9.6567     8.2414    66.9259     0.0248     2.4747     0.1053
  927.5000   -28.0703    10.7018     9.6287     8.2397    67.0537     0.0254     2.4807     0.1040
  928.0000   -28.0330    10.6279     9.6008     8.2380    66.9250     0.0264     2.4809     0.1049
  928.5000   -28.0171    10.5546     9.5730     8.2363    67.5016     0.0274     2.4791     0.1061
  929.0000   -28.0021    10.4758     9.5452     8.2346    68.8278     0.0284     2.4782     0.1056
  929.5000   -27.9869    10.4625     9.5176     8.2328    72.3715     0.0288     2.4819     0.1034
  930.0000   -27.9718    10.4367     9.4900     8.2311    76.1787     0.0290     2.4856     0.1012
  930.5000   -27.9566    10.4109     9.4625     8.2294    73.1066     0.0275     2.4895     0.0991
  931.0000   -27.9414    10.3852     9.4350     8.2277    69.7159     0.0247     2.4932     0.0968
  931.5000   -27.9261    10.3596     9.4077     8.2260    67.3283     0.0221     2.4971     0.0974
  932.0000   -27.9109    10.3340     9.3804     8.2242    69.0174     0.0194     2.4968     0.0984
  932.5000   -27.8957    10.3086     9.3632     8.2225    72.1766     0.0168     2.4929     0.0992
  933.0000   -27.8805    10.2843     9.3478     8.2208    75.7165     0.0140     2.4891     0.1072
  933.5000   -27.8655    10.2840     9.3323     8.2191    76.0594     0.0139     2.4852     0.1082
  934.0000   -27.8488    10.2840     9.3169     8.2174    73.5864     0.0164     2.4815     0.1102
  934.5000   -27.9465    10.2840     9.3015     8.2157    71.3538     0.0184     2.4784     0.1119
  935.0000   -28.1110    10.2840     9.2862     8.2140    68.7928     0.0207     2.4807     0.1088
  935.5000   -28.2783    10.2840     9.2709     8.2122    68.6505     0.0196     2.4827     0.1045
  936.0000   -28.4303    10.2840     9.2556     8.2105    69.0531     0.0184     2.4851     0.1018
  936.5000   -28.1045    10.2840     9.2403     8.2088    69.5244     0.0170     2.4859     0.1025
  937.0000   -27.7537    10.2840     9.2250     8.2071    69.9159     0.0157     2.4802     0.1031
  937.5000   -27.4034    10.2842     9.2098     8.2054    70.3268     0.0144     2.4789     0.1038
  938.0000   -27.1813    10.2607     9.1946     8.2037    70.9026     0.0130     2.4811     0.1067
  938.5000   -27.0624    10.2293     9.1794     8.2019    69.7815     0.0132     2.4831     0.1103
  939.0000   -26.9435    10.1982     9.1642     8.2002    67.6206     0.0135     2.4852     0.1082
  939.5000   -26.8254    10.1672     9.1491     8.1985    67.3152     0.0139     2.4848     0.1064
  940.0000   -26.7073    10.1363     9.1340     8.1968    67.1599     0.0142     2.4817     0.1066
  940.5000   -26.6590    10.1054     9.1202     8.1951    70.0720     0.0145     2.4786     0.1068
  941.0000   -26.6822    10.0747     8.9848     8.1934    73.9324     0.0149     2.4757     0.1070
  941.5000   -26.7053    10.0440     8.8624     8.1916    74.9436     0.0152     2.4743     0.1059
  942.0000   -26.7289    10.0134     8.7416     8.1899    75.2023     0.0155     2.4801     0.1034
  942.5000   -26.7525     9.9188     8.6225     8.1882    75.3617     0.0159     2.4853     0.1008
  943.0000   -26.7760     9.7921     8.5050     8.1865    75.0888     0.0162     2.4906     0.0982
  943.5000   -26.7999     9.6669     8.3891     8.1848    74.5007     0.0165     2.4964     0.0974
  944.0000   -26.8246     9.5434     8.2749     8.1831    73.9461     0.0169     2.4961     0.0987
  944.5000   -26.8384     9.4215     8.1621     8.1813    73.4135     0.0165     2.4923     0.1001
  945.0000   -26.6005     9.2974     8.0509     8.1796    73.0081     0.0161     2.4888     0.1016
  945.5000   -26.3512     9.1992     7.9401     8.1779    73.4963     0.0157     2.4854     0.1013
  946.0000   -26.4968     8.9630     7.8562     8.1762    74.1595     0.0152     2.4840     0.1008
  946.5000   -26.9009     8.7113     7.7965     8.1745    75.3671     0.0148     2.4840     0.1033
  947.0000   -27.2593     8.4659     7.7376     8.1728    76.8672     0.0143     2.4846     0.1062
  947.5000   -27.2406     8.2256     7.6797     8.1710    78.2179     0.0140     2.4782     0.1120
  948.0000   -27.0198     7.9922     7.5918     8.1693    79.8072     0.0137     2.4627     0.1217
  948.5000   -26.2254     7.7568     7.1697     8.1676    81.7845     0.0123     2.4482     0.1314
  949.0000   -26.1951     7.4749     6.7705     8.1659    89.1544     0.0235     2.4328     0.1437
  949.5000   -26.4023     7.2036     6.1999     8.1642    96.1958     0.0436     2.4221     0.1366
  950.0000   -26.0539     6.9154     5.6086     8.1625    99.0488     0.0396     2.4407     0.1191
  950.5000   -25.5086     6.2889     5.0738     8.1608    93.0280     0.0348     2.4731     0.1015
  951.0000   -24.9564     5.5634     4.7771     8.1590    84.3102     0.0331     2.5022     0.0840
