~VERSION INFORMATION
 VERS.                2.0:   CWLS LOG ASCII STANDARD - VERSION 2.0
 WRAP.                 NO:   ONE LINE PER DEPTH STEP
~WELL INFORMATION
#MNEM.UNIT      DATA TYPE    INFORMATION
#----------   ------------   ------------------------------
 STRT.F            0.0000:   START DEPTH
 STOP.F          537.0000:   STOP DEPTH
 STEP.F            0.5000:   STEP LENGTH
 NULL.          -999.2500:   NO VALUE
 COMP.   FLUOR DANIEL INC:   COMPANY
 WELL. NAVAL PETROLEUM RESERVE 73 X-10 #8-10:   WELL
 FLD .             TEAPOT:   FIELD
 LOC .      S10 T37N R78W:   LOCATION
 CNTY.            NATRONA:   COUNTY
 STAT.            WYOMING:   STATE
 CTRY. UNITED STATES OF AMERICA:   COUNTRY
 SRVC.      Western Atlas:   SERVICE COMPANY
 DATE.        01-MAY-1996:   LOGDATE
 API .       490252278200:   API NUMBER
~CURVE INFORMATION
#MNEM.UNIT       API CODE    CURVE DESCRIPTION
#----------   ------------   ------------------------------
 DEPT.F                  :   
 GRR .GAPI   07 310 01 00:   GAMMA RAY FROM RES. LOG.
 ILM .OHMM   07 120 44 00:   INDUCTION LOG MEDIUM
 ILD .OHMM   07 120 46 00:   INDUCTION LOG DEEP
~PARAMETER INFORMATION
#MNEM.UNIT          VALUE    DESCRIPTION
#----------   ------------   ------------------------------
 PD  .                 GL:   PERMANENT DATUM
 EPD .F              5161:   ELEVATION PERMANENT DATUM
 LMF .                 KB:   LOG MEASURED FROM
 DAPD.F                10:   FEET ABOVE PERMANENT DATUM
 DMF .                 KB:   DRILLING MEASURED FROM
 EKB .F              5171:   KELLING BUSHING
 EDF .F              5170:   DRILLING FLOOR
 EGL .F              5161:   GROUND LEVEL
 DATE.         MAY-1-1996:   RUN DATE
 RUN .                  1:   RUN NUMBER
 DD  .F               545:   DEPTH DRILLER
 DL  .F               542:   DEPTH LOGGER
 BLI .F               542:   BOTTOM LOG INTERVAL
 CS  .IN            9.625:   CASING SIZE
 CBD .F                95:   CASING BOTTOM DRILLER
 BS  .IN             8.75:   BIT SIZE
 BSD .F               545:   BIT SIZE AT DEPTH
 DFT .                AIR:   DRILLING FLUID TYPE
 BHT .F                80:   BOTTOM HOLE TEMPERATURE
 MRT .F                80:   MAXIMUM RECORDED TEMPERATURE
 LUN .            HL-6530:   LOGGING UNIT NUMBER
 LUL .             CASPER:   LOGGING UNIT LOCATION
 ENGI.           BROWNLOW:   RECORDING ENGINEER
 WITN.             LEBEAU:   WITNESSED BY
 CLNT.            A2DTECH:   CLIENT CODE
 ORIG.       2"  5" PRINT:   ORIGIN OF DATA
 UWI .       490252278200:   UNIQUE WELL ID
 DICO. A2D Technologies, Inc.:   DIGITIZING COMPANY
~OTHER INFORMATION
~A    DEPT       GRR      ILM        ILD   
# ...
   91.0000    86.0515  1990.8108   237.1537
   91.5000    85.8942  2000.0000   239.9970
   92.0000    85.6021  1990.8108   237.1537
   92.5000    85.4045  1990.8108   236.6323
   93.0000    86.5132  1990.8108   233.0111
   93.5000    87.8360  1990.8108   237.1537
   94.0000    88.7202  1990.8108    29.8559
   94.5000    92.1701  1995.0876    23.0691
   95.0000   101.1122  1990.8108   526.6751
   95.5000   113.9667  1990.8108  2000.0000
   96.0000   126.2599   556.5574  2000.0000
   96.5000   133.3207     5.9570    11.5144
   97.0000   135.0004     3.2736     3.0528
   97.5000   132.2557     3.0976     3.0739
   98.0000   131.2272     4.5627     5.2431
   98.5000   133.0466     6.2101     9.3630
   99.0000   134.2286     7.2328    16.7203
   99.5000   133.6898     9.5479    20.2353
  100.0000   132.0096    13.5966    10.3574
  100.5000   131.5015    15.2416     7.5417
  101.0000   131.5079    14.1589     7.5752
  101.5000   131.0928    14.0197     7.7096
  102.0000   130.2567    13.8700     7.3791
  102.5000   133.1098    13.8926     7.0963
  103.0000   133.8641    11.7485     7.7048
  103.5000   130.3865     9.8042     9.1376
  104.0000   126.6399     9.6040    10.2195
  104.5000   124.9547     9.9089    10.3521
  105.0000   124.1929    10.1298     9.9495
  105.5000   121.3466    10.3521     9.6151
  106.0000   119.3352    10.5790     9.8041
  106.5000   119.3909    10.8086    10.1213
  107.0000   120.1384    10.9954    10.4479
  107.5000   121.2725    11.2304    10.7846
  108.0000   122.8053    11.4703    11.0912
  108.5000   124.3358    11.7154    11.2875
  109.0000   123.8167    11.9657    11.3811
  109.5000   121.8259    12.0248    11.4219
  110.0000   119.9602    12.0577    11.3561
  110.5000   118.5915    12.1068    11.3733
  111.0000   117.8564    12.0779    11.4248
  111.5000   118.4097    12.0218    11.4557
  112.0000   119.4180    11.9660    11.3065
  112.5000   120.3126    11.9105    11.1758
  113.0000   119.0429    11.7425    11.0415
  113.5000   116.8008    11.4882    10.9745
  114.0000   115.8886    11.2395    10.9051
  114.5000   116.4782    11.0415    10.8362
  115.0000   118.2713    11.1530    10.7406
  115.5000   120.2977    11.2478    10.7608
  116.0000   121.7438    11.3433    10.7942
  116.5000   121.3711    11.4396    10.8277
  117.0000   117.6120    11.4929    10.8614
  117.5000   111.5324    11.5375    10.8954
  118.0000   109.9535    11.5619    10.9403
  118.5000   110.3449    11.3703    10.8842
  119.0000   111.5971    11.2202    10.8002
  119.5000   113.5207    11.0721    10.7168
  120.0000   115.4001    10.9403    10.6422
  120.5000   116.6611    10.7555    10.4462
  121.0000   117.8123    10.5900    10.2710
  121.5000   118.0206    10.4271    10.0987
  122.0000   120.2102    10.2667     9.9294
  122.5000   124.8610    10.1087     9.7975
  123.0000   127.6118     9.9532     9.6794
  123.5000   125.3870     9.8744     9.5626
  124.0000   122.3285     9.8536     9.4475
  124.5000   121.8914     9.8328     9.3466
  125.0000   122.6950     9.8120     9.3079
  125.5000   122.7082     9.7900     9.2685
  126.0000   123.7834     9.7632     9.2294
  126.5000   126.2187     9.7366     9.1905
  127.0000   125.5310     9.7112     9.1618
  127.5000   121.5515     9.6301     9.1352
  128.0000   119.6014     9.5409     9.1087
  128.5000   119.0708     9.4526     9.0822
  129.0000   119.7678     9.3547     9.0558
  129.5000   120.7680     9.3695     9.0290
  130.0000   121.7888     9.3861     9.0167
  130.5000   122.2875     9.4031     9.1063
  131.0000   122.2001     9.4200     9.1840
  131.5000   121.1769     9.4408     9.1400
  132.0000   117.3603     9.3985     9.0899
  132.5000   113.5831     9.3404     9.0608
  133.0000   113.4822     9.2826     9.0318
  133.5000   115.8681     9.2405     9.0029
  134.0000   118.0136     9.2032     8.9741
  134.5000   118.4015     9.1664     8.9453
  135.0000   118.5882     9.1290     8.8392
  135.5000   119.2809     9.0246     8.6825
  136.0000   121.0964     8.6719     8.5316
  136.5000   122.6773     8.4380     8.2386
  137.0000   124.2316     8.2328     7.9610
  137.5000   125.0955     8.0326     7.6928
  138.0000   124.4887     7.8395     7.4725
  138.5000   123.1130     7.7876     7.3686
  139.0000   123.0506     7.7360     7.2665
  139.5000   123.4212     7.7096     7.1665
  140.0000   121.7248     7.8529     7.0969
  140.5000   119.5785     7.9001     7.2491
  141.0000   119.7722     7.9527     7.3693
  141.5000   121.4854     8.0105     7.4995
  142.0000   122.2748     8.0993     7.5956
  142.5000   122.2847     8.1897     7.7002
  143.0000   123.4765     8.2809     7.8062
  143.5000   124.0809     8.3759     7.8772
  144.0000   124.3348     8.4138     7.9204
  144.5000   125.4390     8.4529     7.9639
  145.0000   125.6749     8.4918     8.0273
  145.5000   124.3657     8.5320     8.1722
  146.0000   122.0723     8.6930     8.3197
  146.5000   122.4869     8.8571     8.4165
  147.0000   125.6942     9.0160     8.4591
  147.5000   128.7135     9.0523     8.4723
  148.0000   129.4624     9.0992     8.4854
  148.5000   128.2414     9.0019     8.4986
  149.0000   127.1217     8.8904     8.5117
  149.5000   127.0878     8.7799     8.5249
  150.0000   126.4436     8.6708     8.5316
  150.5000   125.1416     8.5619     8.3692
  151.0000   125.8644     8.4814     8.2623
  151.5000   129.3224     8.4104     8.1476
  152.0000   133.7043     8.3749     8.1339
  152.5000   135.4293     8.4612     8.1188
  153.0000   134.2477     8.5266     8.1038
  153.5000   130.2308     8.5927     8.0885
  154.0000   126.1666     8.6587     8.0729
  154.5000   124.3125     8.7175     8.1647
  155.0000   125.0810     8.7676     8.2650
  155.5000   126.7243     8.8184     8.3661
  156.0000   128.4557     8.8518     8.4534
  156.5000   129.9631     8.8518     8.4534
  157.0000   129.9192     8.8521     8.4534
  157.5000   129.5720     8.8517     8.4408
  158.0000   127.4228     8.7632     8.3596
  158.5000   125.1366     8.6713     8.2794
  159.0000   126.2004     8.5807     8.2000
  159.5000   129.2998     8.4910     8.1214
  160.0000   130.6047     8.4060     8.0465
  160.5000   129.6760     8.3245     7.9770
  161.0000   130.5168     8.2439     7.9082
  161.5000   130.4441     8.1639     7.8391
  162.0000   127.7137     8.0921     7.7668
  162.5000   122.3170     8.0228     7.6787
  163.0000   118.2117     7.9527     7.5225
  163.5000   117.5378     7.6908     7.3340
  164.0000   117.4324     7.3182     7.1023
  164.5000   118.4017     6.9636     6.8772
  165.0000   121.2623     6.6262     6.6596
  165.5000   124.4464     6.3052     6.4474
  166.0000   127.4157     6.0678     6.3861
  166.5000   126.9040     6.4719     6.3441
  167.0000   126.3444     6.6561     6.2955
  167.5000   126.8938     6.8396     6.3655
  168.0000   127.5444     7.0282     6.4501
  168.5000   128.2096     7.1606     6.5318
  169.0000   128.5965     7.3066     6.7726
  169.5000   127.9719     7.4567     7.0127
  170.0000   128.6443     7.6008     7.2600
  170.5000   128.9590     7.7283     7.3785
  171.0000   128.6208     7.8570     7.4766
  171.5000   128.3370     7.9256     7.5760
  172.0000   129.0028     7.9258     7.6768
  172.5000   132.0270     7.9256     7.7096
  173.0000   135.6332     7.9257     7.6478
  173.5000   136.6731     7.9266     7.6063
  174.0000   133.2243     7.9256     7.5689
  174.5000   127.2020     7.7395     7.4426
  175.0000   124.2755     7.5730     7.3288
  175.5000   125.3694     7.4100     7.2178
  176.0000   127.5465     7.2783     7.0506
  176.5000   129.6226     7.1605     6.8386
  177.0000   129.6510     7.0446     6.6116
  177.5000   128.7091     6.8186     6.2732
  178.0000   127.9729     6.3740     5.9495
  178.5000   129.5229     5.9584     5.6433
  179.0000   131.7194     5.5699     5.3337
  179.5000   131.9530     5.0470     5.1720
  180.0000   130.4464     5.0937     5.0937
  180.5000   128.5380     5.2733     5.1057
  181.0000   127.8877     5.4818     5.1907
  181.5000   127.9582     5.7554     5.2772
