~VERSION INFORMATION
 VERS.                2.0:   CWLS LOG ASCII STANDARD - VERSION 2.0
 WRAP.                 NO:   ONE LINE PER DEPTH STEP
~WELL INFORMATION
#MNEM.UNIT      DATA TYPE    INFORMATION
#----------   ------------   ------------------------------
 STRT.F           32.0000:   START DEPTH
 STOP.F          812.0000:   STOP DEPTH
 STEP.F            0.5000:   STEP LENGTH
 NULL.          -999.2500:   NO VALUE
 COMP. FENIX & SCISSON INC:   COMPANY
 WELL.       75 SX #15-15:   WELL
 FLD .             TEAPOT:   FIELD
 LOC .      S15 T38N R78W:   LOCATION
 CNTY.            NATRONA:   COUNTY
 STAT.            WYOMING:   STATE
 CTRY. UNITED STATES OF AMERICA:   COUNTRY
 SRVC.              Welex:   SERVICE COMPANY
 DATE.        28-FEB-1977:   LOGDATE
 API .       490251030100:   API NUMBER
~CURVE INFORMATION
#MNEM.UNIT       API CODE    CURVE DESCRIPTION
#----------   ------------   ------------------------------
 DEPT.F                  :   
 SPR .MV     07 010 01 00:   SPONTANEOUS POTENTIAL
 ILD .OHMM   07 120 46 00:   INDUCTION LOG DEEP
 SGRD.OHMM   07 220 05 00:   SHALLOW RESISTIVITY
 ILM .OHMM   07 120 44 00:   INDUCTION LOG MEDIUM
 GRD .GAPI   45 310 01 00:   GAMMA RAY FROM DENSITY LOG
 CALD.IN     45 280 60 00:   CALIPER FROM DENSITY LOG
 RHOB.G/C3   45 350 01 00:   BULK DENSITY
 DPHI.DEC    45 890 12 00:   DENSITY POROSITY SANDSTONE
 CORR.G/C3   45 356 01 00:   DENSITY CORRECTION
~PARAMETER INFORMATION
#MNEM.UNIT          VALUE    DESCRIPTION
#----------   ------------   ------------------------------
 PD  .                 GL:   PERMANENT DATUM
 EPD .F              5264:   ELEVATION PERMANENT DATUM
 LMF .                 GL:   LOG MEASURED FROM
 DMF .                 GL:   DRILLING MEASURED FROM
 EGL .F              5264:   GROUND LEVEL
 DATE.          2-28-1977:   RUN DATE
 RUN .                  1:   RUN NUMBER
 DD  .F               830:   DEPTH DRILLER
 DL  .F               814:   DEPTH LOGGER
 BLI .F               812:   BOTTOM LOG INTERVAL
 TLI .F                42:   TOP LOG INTERVAL
 CS  .IN            8.625:   CASING SIZE
 CBD .F                40:   CASING BOTTOM DRILLER
 CBL .F                42:   CASING BOTTOM LOGGER
 BS  .IN            7.875:   BIT SIZE
 BSD .F               830:   BIT SIZE AT DEPTH
 DFT .           CHEM-GEL:   DRILLING FLUID TYPE
 DFD .                9.3:   DRILLING FLUID DENSITY
 DFV .                 38:   DRILLING FLUID VISCOSITY
 DFPH.               10.5:   DRILLING FLUID PH
 DFL .               16.2:   DRILLING FLUID LOSS
 MSS .          FLOW LINE:   MUD SAMPLE SOURCE
 RMS .OHMM           0.44:   RESISTIVITY MUD SAMPLE
 MST .F                62:   MUD SAMPLE TEMPERATURE
 RMF .OHMM            .38:   RESISTIVITY MUD FILTRATE SAMPLE
 MFST.F                62:   MUD FILTRATE SAMPLE TEMPERATURE
 RMC .OHMM           0.79:   RESISTIVITY MUD CAKE
 MCST.F                62:   MUD CAKE SAMPLE TEMPERATURE
 MFSS.           MEASURED:   MUD FILTRATE SAMPLE SOURCE
 MCSS.           MEASURED:   MUD CAKE SAMPLE SOURCE
 RMB .OHMM           .368:   RESISTIVITY MUD AT BHT
 BHT .F                74:   BOTTOM HOLE TEMPERATURE
 TCS .HRS               3:   TIME CURCULATED STOPPED
 MRT .F                74:   MAXIMUM RECORDED TEMPERATURE
 LUN .               8611:   LOGGING UNIT NUMBER
 LUL .           GILLETTE:   LOGGING UNIT LOCATION
 ENGI.               DOAK:   RECORDING ENGINEER
 WITN.               JAPP:   WITNESSED BY
 CLNT.            A2DTECH:   CLIENT CODE
 ORIG.       2", 5" PRINT:   ORIGIN OF DATA
 UWI .       490251030100:   UNIQUE WELL ID
 DICO. A2D Technologies, Inc.:   DIGITIZING COMPANY
~OTHER INFORMATION
~A   DEPT      SPR        ILD       SGRD        ILM         GRD        CALD       RHOB       DPHI      CORR  
# ...
  652.5000   -33.6691    14.7513    20.0063    15.7592    92.3109     7.4804     2.4482     0.1205     0.0410
  653.0000   -33.7688    14.3547    18.1097    15.3414    88.9935     7.5389     2.4355     0.1273     0.0361
  653.5000   -33.8686    13.9693    16.2472    14.8262    87.1610     7.5983     2.4226     0.1341     0.0316
  654.0000   -33.9684    13.5941    16.3326    15.0203    88.7214     7.6576     2.4172     0.1376     0.0270
  654.5000   -34.0682    13.2291    16.4165    15.3802    90.0424     7.7173     2.4175     0.1354     0.0224
  655.0000   -34.1680    12.8738    16.5010    15.6686    88.0304     7.7464     2.4177     0.1353     0.0179
  655.5000   -34.2678    12.5281    16.5859    15.6007    86.5905     7.7582     2.4155     0.1383     0.0133
  656.0000   -34.3676    12.3319    16.6712    15.5010    86.9877     7.7695     2.4132     0.1412     0.0115
  656.5000   -34.4674    12.4657    16.7569    15.4019    89.2750     7.7798     2.4109     0.1413     0.0125
  657.0000   -34.5672    12.5608    16.8431    15.3826    92.0934     7.7813     2.4136     0.1389     0.0135
  657.5000   -34.6670    12.6566    16.9297    16.0625    93.4668     7.7830     2.4193     0.1366     0.0145
  658.0000   -34.7668    12.7532    17.0228    16.4070    92.5620     7.7847     2.4209     0.1354     0.0155
  658.5000   -34.8666    12.8281    16.9069    15.8811    90.9798     7.7864     2.4230     0.1357     0.0165
  659.0000   -34.9664    12.8856    16.7835    15.4215    89.7110     7.7881     2.4256     0.1307     0.0175
  659.5000   -35.0661    12.9437    16.6609    15.2397    89.0844     7.7898     2.4260     0.1277     0.0185
  660.0000   -35.1660    13.0021    16.5588    15.7761    89.6786     7.7916     2.4248     0.1277     0.0196
  660.5000   -35.2953    13.0607    16.7449    16.1641    92.0674     7.7933     2.4303     0.1245     0.0206
  661.0000   -35.4790    13.1196    16.9067    16.5588    93.4964     7.7950     2.4468     0.1205     0.0216
  661.5000   -35.6621    13.1788    17.0337    15.3544    91.7949     7.7967     2.4530     0.1146     0.0226
  662.0000   -35.8463    13.2383    17.0718    14.2452    91.6680     7.7984     2.4458     0.1182     0.0206
  662.5000   -36.0222    13.2981    17.1099    13.9005    94.2504     7.8001     2.4389     0.1216     0.0175
  663.0000   -35.9970    13.3584    17.1481    15.0796    95.7363     7.8018     2.4319     0.1250     0.0142
  663.5000   -35.9635    13.3982    17.1864    16.2566    94.1268     7.8035     2.4251     0.1284     0.0103
  664.0000   -35.9311    13.2774    17.2248    16.1159    91.5998     7.8053     2.4225     0.1317     0.0070
  664.5000   -35.8990    13.1742    17.2632    15.8136    90.8387     7.8070     2.4365     0.1252     0.0103
  665.0000   -35.8661    13.0718    17.3018    15.9188    90.6480     7.8087     2.4498     0.1177     0.0135
  665.5000   -35.8357    12.9704    17.3404    16.0830    89.9950     7.8104     2.4599     0.1098     0.0167
  666.0000   -35.6332    12.8697    17.3791    16.2566    89.5212     7.8121     2.4627     0.1089     0.0199
  666.5000   -35.3335    12.7698    17.4182    15.8646    89.9801     7.8138     2.4614     0.1079     0.0231
  667.0000   -35.0303    12.6707    17.4576    15.2938    90.4253     7.8155     2.4555     0.1121     0.0232
  667.5000   -34.7277    12.5723    17.4967    14.6961    91.0597     7.8172     2.4495     0.1173     0.0192
  668.0000   -34.4237    12.4747    17.2223    14.7426    95.0278     7.8190     2.4497     0.1181     0.0217
  668.5000   -33.9876    12.3779    16.9189    14.8262    95.5221     7.8207     2.4564     0.1143     0.0249
  669.0000   -33.3049    12.2818    16.6204    14.2446    95.8981     7.8224     2.4632     0.1105     0.0281
  669.5000   -32.6263    12.1862    16.3284    13.3977    98.5755     7.8241     2.4695     0.1067     0.0313
  670.0000   -31.9468    12.0907    16.1076    13.8723    98.5853     7.8258     2.4703     0.1040     0.0344
  670.5000   -31.1847    11.9958    16.2998    14.3060    98.0728     7.8275     2.4737     0.1046     0.0376
  671.0000   -30.3470    12.1688    16.4568    14.9634    98.8202     7.8292     2.4792     0.1034     0.0408
  671.5000   -29.5126    12.3533    16.5668    14.5006   100.7275     7.8309     2.4754     0.1022     0.0439
  672.0000   -28.6740    12.5425    14.7489    13.6815   100.6289     7.8327     2.4660     0.1067     0.0471
  672.5000   -27.8644    12.7346    13.5217    12.7947    99.5899     7.8344     2.4528     0.1113     0.0502
  673.0000   -27.7530    12.9297    14.1698    13.3864    97.5169     7.8362     2.4482     0.1160     0.0563
  673.5000   -27.6705    13.1277    14.9746    14.1201    94.9246     7.8376     2.4427     0.1243     0.0631
  674.0000   -27.5843    13.8790    15.8285    14.8939    91.5306     7.8175     2.3988     0.1414     0.0635
  674.5000   -27.4976    14.7603    16.7057    15.7101    85.7718     7.7470     2.3750     0.1585     0.0585
  675.0000   -27.4111    15.5748    17.4929    16.4575    77.9393     7.6774     2.3604     0.1704     0.0509
  675.5000   -27.3260    15.8552    14.6892    17.0301    75.3736     7.6076     2.3655     0.1683     0.0476
  676.0000   -27.2430    16.1406    32.4328    17.8250    78.2314     7.5377     2.3702     0.1649     0.0444
  676.5000   -26.7486    16.4312    32.0496    17.1310    79.1989     7.4694     2.3748     0.1616     0.0412
  677.0000   -26.1979    16.7121    14.2810    16.1395    79.5098     7.4461     2.3740     0.1605     0.0380
  677.5000   -25.6494    16.1359    14.5025    15.2054    80.8954     7.5284     2.3681     0.1665     0.0349
  678.0000   -25.0998    15.6058    14.8056    14.3253    82.2940     7.6109     2.3762     0.1683     0.0336
  678.5000   -24.7544    15.0931    15.1361    13.4951    83.7215     7.6123     2.3915     0.1545     0.0357
  679.0000   -24.5667    14.5972    15.4631    12.7104    82.9253     7.5816     2.4030     0.1452     0.0377
  679.5000   -24.3829    14.1176    15.6686    11.9980    81.7590     7.5481     2.3948     0.1494     0.0397
  680.0000   -24.1998    13.6538    11.6689    12.3987    80.5874     7.5542     2.3804     0.1556     0.0417
  680.5000   -24.1252    13.2052    12.9834    12.8150    79.4485     7.6572     2.3728     0.1620     0.0437
  681.0000   -24.6024    12.9131    14.9233    13.2402    79.4881     7.7624     2.3705     0.1633     0.0457
  681.5000   -25.0697    12.9888    16.5588    13.6468    81.4857     7.7416     2.3740     0.1614     0.0477
  682.0000   -25.5364    13.0461    13.9051    13.9433    83.2844     7.6815     2.3854     0.1556     0.0478
  682.5000   -26.0030    13.1036    14.2496    14.2252    83.4383     7.6216     2.3861     0.1599     0.0425
  683.0000   -26.4693    13.1613    14.8376    14.5129    83.5511     7.5895     2.3646     0.1663     0.0340
  683.5000   -26.9384    13.2196    15.4424    14.8064    83.6575     7.6203     2.3595     0.1703     0.0269
  684.0000   -27.4246    13.2748    16.0719    15.1058    84.3827     7.6498     2.3762     0.1619     0.0281
  684.5000   -27.7798    13.2630    16.7288    15.4113    85.2572     7.6797     2.3880     0.1557     0.0285
  685.0000   -28.1581    13.2512    17.4068    15.7229    86.1448     7.7094     2.3920     0.1517     0.0265
  685.5000   -28.2029    13.2397    17.9900    15.8311    87.0085     7.7392     2.3873     0.1538     0.0245
  686.0000   -28.1475    13.2282    15.2821    15.8557    85.5353     7.7692     2.3844     0.1572     0.0225
  686.5000   -28.0900    13.2167    15.7060    15.8806    83.8879     7.7987     2.3954     0.1515     0.0214
  687.0000   -28.0337    13.2052    16.1416    15.9050    89.3708     7.7820     2.4064     0.1413     0.0244
  687.5000   -27.9771    13.1938    16.4070    15.9298    93.4209     7.7598     2.4174     0.1346     0.0273
  688.0000   -27.9205    13.1823    14.5556    15.9546    94.0945     7.7395     2.4283     0.1300     0.0303
  688.5000   -27.8670    13.1705    16.0474    16.1291    89.7837     7.7562     2.4358     0.1269     0.0330
