~VERSION INFORMATION
 VERS.                2.0:   CWLS LOG ASCII STANDARD - VERSION 2.0
 WRAP.                 NO:   ONE LINE PER DEPTH STEP
~WELL INFORMATION
#MNEM.UNIT      DATA TYPE    INFORMATION
#----------   ------------   ------------------------------
 STRT.F            6.0000:   START DEPTH
 STOP.F         2600.0000:   STOP DEPTH
 STEP.F            0.5000:   STEP LENGTH
 NULL.          -999.2500:   NO VALUE
 COMP. FENIX & SCISSON INC:   COMPANY
 WELL.   NPR 3 SH #17 -34:   WELL
 FLD .             TEAPOT:   FIELD
 LOC .      S34 T39N R78W:   LOCATION
 CNTY.            NATRONA:   COUNTY
 STAT.            WYOMING:   STATE
 CTRY. UNITED STATES OF AMERICA:   COUNTRY
 SRVC.            Unknown:   SERVICE COMPANY
 DATE.        21-MAR-1978:   LOGDATE
 API .       490251060600:   API NUMBER
~CURVE INFORMATION
#MNEM.UNIT       API CODE    CURVE DESCRIPTION
#----------   ------------   ------------------------------
 DEPT.F                  :   
 NPHI.DEC    42 890 03 00:   NEUTRON POROSITY SANDSTONE
 CALD.IN     45 280 60 00:   CALIPER FROM DENSITY LOG
 GRD .GAPI   45 310 01 00:   GAMMA RAY FROM DENSITY LOG
 CORR.G/C3   45 356 01 00:   DENSITY CORRECTION
 RHOB.G/C3   45 350 01 00:   BULK DENSITY
 DPHI.DEC    45 890 12 00:   DENSITY POROSITY SANDSTONE
~PARAMETER INFORMATION
#MNEM.UNIT          VALUE    DESCRIPTION
#----------   ------------   ------------------------------
 PD  .                 GL:   PERMANENT DATUM
 EPD .F              5150:   ELEVATION PERMANENT DATUM
 LMF .                 KB:   LOG MEASURED FROM
 DMF .                 KB:   DRILLING MEASURED FROM
 EKB .F              5160:   KELLING BUSHING
 EGL .F              5150:   GROUND LEVEL
 DATE.          3-21-1978:   RUN DATE
 RUN .                  1:   RUN NUMBER
 DD  .F              2612:   DEPTH DRILLER
 DL  .F              2592:   DEPTH LOGGER
 BLI .F              2590:   BOTTOM LOG INTERVAL
 TLI .F                20:   TOP LOG INTERVAL
 CS  .IN            9.625:   CASING SIZE
 CBD .F               710:   CASING BOTTOM DRILLER
 CBL .F               710:   CASING BOTTOM LOGGER
 BS  .IN            8.625:   BIT SIZE
 BSD .F              2612:   BIT SIZE AT DEPTH
 DFT .           AIR MIST:   DRILLING FLUID TYPE
 BHT .F               110:   BOTTOM HOLE TEMPERATURE
 TCS .HRS               2:   TIME CURCULATED STOPPED
 MRT .F               110:   MAXIMUM RECORDED TEMPERATURE
 LUN .               2958:   LOGGING UNIT NUMBER
 LUL .               CASP:   LOGGING UNIT LOCATION
 ENGI.            POINTER:   RECORDING ENGINEER
 WITN.           MCGINLEY:   WITNESSED BY
 CLNT.            A2DTECH:   CLIENT CODE
 ORIG.      2" , 5" PRINT:   ORIGIN OF DATA
 UWI .       490251060600:   UNIQUE WELL ID
 DICO. A2D Technologies, Inc.:   DIGITIZING COMPANY
~OTHER INFORMATION
~A    DEPT      NPHI     CALD        GRD       CORR       RHOB       DPHI   
# ...
 1306.0000  -999.2500     9.1146    93.8070     0.1410     2.5375     0.0648
 1306.5000  -999.2500     9.1147    92.3802     0.1383     2.5488     0.0720
 1307.0000  -999.2500     9.1149    92.5746     0.1326     2.5431     0.0773
 1307.5000  -999.2500     9.1150    95.0016     0.1270     2.5277     0.0815
 1308.0000  -999.2500     9.1152    98.5651     0.1212     2.5197     0.0858
 1308.5000  -999.2500     9.1153   100.2124     0.1176     2.5146     0.0884
 1309.0000  -999.2500     9.1155    97.7038     0.1209     2.5097     0.0900
 1309.5000  -999.2500     9.1156    95.2934     0.1242     2.5048     0.0890
 1310.0000  -999.2500     9.1158    94.9330     0.1275     2.5048     0.0867
 1310.5000  -999.2500     9.1159    97.1026     0.1307     2.5092     0.0808
 1311.0000  -999.2500     9.1161   100.3283     0.1340     2.5134     0.0760
 1311.5000  -999.2500     9.1162   101.6839     0.1308     2.5372     0.0765
 1312.0000  -999.2500     9.1164    99.5539     0.1178     2.5316     0.0792
 1312.5000  -999.2500     9.1165    97.4176     0.1176     2.5164     0.0819
 1313.0000  -999.2500     9.1166    96.8478     0.1230     2.5128     0.0846
 1313.5000  -999.2500     9.1168    98.3774     0.1202     2.5122     0.0876
 1314.0000  -999.2500     9.1170    99.3305     0.1119     2.5108     0.0916
 1314.5000  -999.2500     9.1171    98.0884     0.1212     2.5065     0.0868
 1315.0000  -999.2500     9.1172    96.7777     0.1321     2.5113     0.0840
 1315.5000  -999.2500     9.1174    96.1744     0.1326     2.5172     0.0888
 1316.0000  -999.2500     9.1175    96.6952     0.1122     2.5084     0.0918
 1316.5000  -999.2500     9.1177    97.7073     0.1128     2.4893     0.0924
 1317.0000  -999.2500     9.1178    97.9480     0.1231     2.4883     0.0930
 1317.5000  -999.2500     9.1180    98.2054     0.1234     2.4989     0.0935
 1318.0000  -999.2500     9.1181    98.0370     0.1258     2.4990     0.0932
 1318.5000  -999.2500     9.1183    97.3832     0.1320     2.4973     0.0890
 1319.0000  -999.2500     9.1184    96.7298     0.1381     2.5055     0.0847
 1319.5000  -999.2500     9.1186    96.0670     0.1436     2.5136     0.0818
 1320.0000  -999.2500     9.1187    96.3148     0.1434     2.5217     0.0812
 1320.5000  -999.2500     9.1189    96.8638     0.1427     2.5212     0.0814
 1321.0000  -999.2500     9.1190    97.4111     0.1382     2.5204     0.0832
 1321.5000  -999.2500     9.1192    97.5947     0.1335     2.5144     0.0870
 1322.0000  -999.2500     9.1193    96.6716     0.1287     2.5065     0.0913
 1322.5000  -999.2500     9.1194    95.7684     0.1283     2.4984     0.0954
 1323.0000  -999.2500     9.1196    95.1668     0.1295     2.4919     0.0952
 1323.5000  -999.2500     9.1197    95.8854     0.1308     2.4924     0.0939
 1324.0000  -999.2500     9.1199    96.7530     0.1320     2.4945     0.0930
 1324.5000  -999.2500     9.1200    96.5144     0.1333     2.4991     0.0919
 1325.0000  -999.2500     9.1202    96.3285     0.1346     2.5036     0.0908
 1325.5000  -999.2500     9.1203    97.7996     0.1341     2.5064     0.0880
 1326.0000  -999.2500     9.1205    99.8152     0.1308     2.5092     0.0880
 1326.5000  -999.2500     9.1206   100.9259     0.1275     2.5094     0.0912
 1327.0000  -999.2500     9.1208    98.9488     0.1242     2.5049     0.0906
 1327.5000  -999.2500     9.1209    98.6746     0.1213     2.5023     0.0880
 1328.0000  -999.2500     9.1211    97.0291     0.1209     2.5115     0.0890
 1328.5000  -999.2500     9.1212    94.9406     0.1205     2.5082     0.0884
 1329.0000  -999.2500     9.1214    95.7720     0.1200     2.5106     0.0848
 1329.5000  -999.2500     9.1215    97.0931     0.1196     2.5139     0.0885
 1330.0000  -999.2500     9.1216    97.1428     0.1222     2.5106     0.0916
 1330.5000  -999.2500     9.1218    96.6306     0.1283     2.5063     0.0837
 1331.0000  -999.2500     9.1219    98.6613     0.1345     2.5148     0.0780
 1331.5000  -999.2500     9.1221   100.3539     0.1309     2.5256     0.0787
 1332.0000  -999.2500     9.1222   100.6908     0.1257     2.5189     0.0800
 1332.5000  -999.2500     9.1224   103.3083     0.1212     2.5062     0.0820
 1333.0000  -999.2500     9.1225   105.1066     0.1214     2.5001     0.0858
 1333.5000  -999.2500     9.1227   100.6579     0.1214     2.5120     0.0897
 1334.0000  -999.2500     9.1228    95.7272     0.1214     2.5057     0.0900
 1334.5000  -999.2500     9.1230    91.4313     0.1214     2.5033     0.0896
 1335.0000  -999.2500     9.1231    92.3012     0.1213     2.5044     0.0917
 1335.5000  -999.2500     9.1233    93.3856     0.1137     2.5010     0.0953
 1336.0000  -999.2500     9.1234    94.9974     0.1105     2.4933     0.0989
 1336.5000  -999.2500     9.1236    96.8855     0.1127     2.4841     0.1004
 1337.0000  -999.2500     9.1237    98.7357     0.1193     2.4885     0.0996
 1337.5000  -999.2500     9.1238    98.8559     0.1280     2.4956     0.0905
 1338.0000  -999.2500     9.1240    99.4087     0.1368     2.4948     0.0840
 1338.5000  -999.2500     9.1241   103.1338     0.1452     2.5153     0.0819
 1339.0000  -999.2500     9.1243   103.6113     0.1472     2.5180     0.0824
 1339.5000  -999.2500     9.1244   100.7864     0.1491     2.5170     0.0827
 1340.0000  -999.2500     9.1246    99.9408     0.1475     2.5165     0.0819
 1340.5000  -999.2500     9.1247   101.2383     0.1451     2.5190     0.0817
 1341.0000  -999.2500     9.1249   102.1273     0.1427     2.5175     0.0823
 1341.5000  -999.2500     9.1250   100.2185     0.1403     2.5159     0.0830
 1342.0000  -999.2500     9.1252    99.1685     0.1380     2.5144     0.0836
 1342.5000  -999.2500     9.1261    99.0925     0.1354     2.5161     0.0894
 1343.0000  -999.2500     9.1279    97.5755     0.1273     2.5078     0.0917
 1343.5000  -999.2500     9.1297    96.7804     0.1197     2.4961     0.0923
 1344.0000  -999.2500     9.1315    97.1513     0.1246     2.4861     0.0940
 1344.5000  -999.2500     9.1333    97.3223     0.1298     2.4912     0.0984
 1345.0000  -999.2500     9.1351    96.4347     0.1318     2.4931     0.1008
 1345.5000  -999.2500     9.1369    95.5424     0.1326     2.4915     0.0872
 1346.0000  -999.2500     9.1387    94.9873     0.1336     2.5009     0.0895
 1346.5000  -999.2500     9.1405    95.0541     0.1238     2.5050     0.0948
 1347.0000  -999.2500     9.1423    95.1024     0.1200     2.5001     0.0928
 1347.5000  -999.2500     9.1441    95.2534     0.1207     2.4968     0.0909
 1348.0000  -999.2500     9.1459    99.1310     0.1206     2.5018     0.0896
 1348.5000  -999.2500     9.1477   102.7176     0.1156     2.5069     0.0931
 1349.0000  -999.2500     9.1495   102.7203     0.1115     2.5023     0.0949
 1349.5000  -999.2500     9.1513   103.6025     0.1174     2.4971     0.0930
 1350.0000  -999.2500     9.1531   103.8669     0.1241     2.5002     0.0896
 1350.5000  -999.2500     9.1549   103.7945     0.1306     2.5046     0.0860
 1351.0000  -999.2500     9.1567   103.7206     0.1287     2.5059     0.0916
 1351.5000  -999.2500     9.1585   103.9583     0.1258     2.5013     0.0964
 1352.0000  -999.2500     9.1603   104.0315     0.1277     2.4969     0.0977
 1352.5000  -999.2500     9.1621   103.6744     0.1304     2.4924     0.0977
 1353.0000  -999.2500     9.1638   103.3264     0.1296     2.4878     0.0956
 1353.5000  -999.2500     9.1657   103.1520     0.1268     2.4963     0.0963
 1354.0000  -999.2500     9.1674   103.8536     0.1241     2.4949     0.0969
 1354.5000  -999.2500     9.1692   103.6918     0.1213     2.4934     0.0981
 1355.0000  -999.2500     9.1710   100.3452     0.1185     2.4938     0.0994
 1355.5000  -999.2500     9.1728    97.4550     0.1157     2.4935     0.1008
 1356.0000  -999.2500     9.1746    97.5871     0.1141     2.4858     0.1063
 1356.5000  -999.2500     9.1764    97.6574     0.1196     2.4734     0.1110
 1357.0000  -999.2500     9.1782    97.7661     0.1249     2.4714     0.1138
 1357.5000  -999.2500     9.1800    98.8935     0.1303     2.4698     0.1167
