~VERSION INFORMATION
 VERS.                2.0:   CWLS LOG ASCII STANDARD - VERSION 2.0
 WRAP.                 NO:   ONE LINE PER DEPTH STEP
~WELL INFORMATION
#MNEM.UNIT      DATA TYPE    INFORMATION
#----------   ------------   ------------------------------
 STRT.F            6.0000:   START DEPTH
 STOP.F          622.0000:   STOP DEPTH
 STEP.F            0.5000:   STEP LENGTH
 NULL.          -999.2500:   NO VALUE
 COMP. BROWN JOHN E&C INC:   COMPANY
 WELL. 71-26 STX-15 #26-15:   WELL
 FLD .             TEAPOT:   FIELD
 LOC .      S15 T38N R78W:   LOCATION
 CNTY.            NATRONA:   COUNTY
 STAT.            WYOMING:   STATE
 CTRY. UNITED STATES OF AMERICA:   COUNTRY
 SRVC.           Gearhart:   SERVICE COMPANY
 DATE.        01-JUL-1987:   LOGDATE
 API .       490251114900:   API NUMBER
~CURVE INFORMATION
#MNEM.UNIT       API CODE    CURVE DESCRIPTION
#----------   ------------   ------------------------------
 DEPT.F                  :   
 GRR .GAPI   07 310 01 00:   GAMMA RAY FROM RES. LOG.
 RILD.OHMM   11 120 46 00:   INDUCTION LOG DEEP RESISTIVITY
 RILM.OHMM   07 120 44 00:   INDUCTION LOG MEDIUM RESISTIVITY
~PARAMETER INFORMATION
#MNEM.UNIT          VALUE    DESCRIPTION
#----------   ------------   ------------------------------
 PD  .                 GL:   PERMANENT DATUM
 EPD .F              5208:   ELEVATION PERMANENT DATUM
 LMF .                 KB:   LOG MEASURED FROM
 DAPD.F                 8:   FEET ABOVE PERMANENT DATUM
 DMF .                 KB:   DRILLING MEASURED FROM
 EKB .F              5216:   KELLING BUSHING
 EDF .F              5214:   DRILLING FLOOR
 EGL .F              5208:   GROUND LEVEL
 DATE.             7-1-87:   RUN DATE
 RUN .                  1:   RUN NUMBER
 DD  .F               630:   DEPTH DRILLER
 DL  .F               630:   DEPTH LOGGER
 BLI .F               622:   BOTTOM LOG INTERVAL
 CS  .IN            8.625:   CASING SIZE
 CBD .F                50:   CASING BOTTOM DRILLER
 CBL .F                50:   CASING BOTTOM LOGGER
 BS  .IN             7.87:   BIT SIZE
 BSD .F               630:   BIT SIZE AT DEPTH
 DFT .                AIR:   DRILLING FLUID TYPE
 TCS .HRS            0300:   TIME CURCULATED STOPPED
 TLAB.HRS            0505:   TIME LOGGER AT BOTTOM
 LUN .               7660:   LOGGING UNIT NUMBER
 LUL .           GILLETTE:   LOGGING UNIT LOCATION
 ENGI.           JOHNSTON:   RECORDING ENGINEER
 WITN.             STRONG:   WITNESSED BY
 CLNT.            A2DTECH:   CLIENT CODE
 ORIG.       2", 5" PRINT:   ORIGIN OF DATA
 UWI .       490251114900:   UNIQUE WELL ID
 DICO. A2D Technologies, Inc.:   DIGITIZING COMPANY
~OTHER INFORMATION
~A    DEPT      GRR      RILD       RILM   
# ...
  188.0000   126.2129     8.7603     8.4206
  188.5000   129.3054     8.5191     8.2426
  189.0000   132.3618     8.2719     8.0587
  189.5000   135.4271     8.2096     8.0449
  190.0000   136.3625     8.2305     8.0263
  190.5000   134.2871     8.2588     8.0077
  191.0000   130.5521     8.2872     7.9843
  191.5000   126.7741     8.3156     7.9960
  192.0000   122.9858     8.3442     8.0125
  192.5000   120.8885     8.3986     8.0286
  193.0000   119.8909     8.5062     8.0447
  193.5000   119.0421     8.6150     8.0797
  194.0000   119.1718     8.7255     8.2476
  194.5000   120.6317     8.8373     8.4190
  195.0000   123.7710     8.9504     8.5940
  195.5000   126.8617     9.0643     8.7736
  196.0000   128.7864     9.1790     9.0066
  196.5000   122.0949     9.3492     8.9876
  197.0000   117.5317     9.3407     8.9573
  197.5000   114.7882     9.3256     8.9243
  198.0000   114.6740     9.3140     8.9373
  198.5000   116.1032     9.3023     8.9516
  199.0000   117.6763     9.2907     8.9659
  199.5000   118.9137     9.2790     8.9802
  200.0000   117.6051     9.2679     8.9942
  200.5000   116.6691     9.2509     9.0067
  201.0000   119.2757     9.2111     8.9656
  201.5000   122.4122     9.1723     8.9280
  202.0000   125.5525     9.1337     8.8903
  202.5000   127.1323     9.0914     8.8528
  203.0000   125.5411     9.1080     8.8422
  203.5000   123.3706     9.1403     8.8602
  204.0000   122.5250     9.1728     8.8745
  204.5000   122.9465     9.2051     8.8887
  205.0000   123.4226     9.2386     8.9030
  205.5000   121.9529     9.3184     8.9172
  206.0000   119.8418     9.5101     9.0150
  206.5000   117.7118     9.7057     9.1991
  207.0000   115.8108     9.9053     9.3870
  207.5000   115.6107    10.1091     9.5787
  208.0000   116.7911    10.3170     9.7743
  208.5000   117.9824    10.5292     9.9739
  209.0000   119.2255    10.7458    10.1775
  209.5000   118.3710    10.9445    10.3854
  210.0000   116.8975    11.1236    10.5949
  210.5000   115.4005    11.2890    10.8076
  211.0000   113.9059    11.4568    11.0246
  211.5000   112.4197    11.6271    11.2459
  212.0000   111.4279    11.8698    11.4907
  212.5000   111.6995    12.1483    11.7602
  213.0000   113.3913    12.4333    12.0361
  213.5000   115.0985    12.7249    12.3185
  214.0000   114.7292    13.0234    12.6074
  214.5000   112.4260    13.2981    12.9332
  215.0000   108.8528    13.2381    12.8842
  215.5000   105.2487    13.1843    12.8327
  216.0000   102.2236    13.1306    12.7807
  216.5000   103.0977    13.0769    12.7284
  217.0000   105.3222    13.0238    12.6764
  217.5000   108.5779    12.9710    12.6247
  218.0000   110.1615    12.8947    12.5782
  218.5000   111.4899    12.7637    12.4387
  219.0000   110.9707    12.6349    12.3131
  219.5000   109.6507    12.5073    12.1888
  220.0000   108.3398    12.3811    12.0658
  220.5000   107.0860    12.2561    11.9435
  221.0000   107.8302    12.1201    11.8227
  221.5000   108.6808    12.0841    11.7596
  222.0000   108.0418    12.0441    11.7210
  222.5000   106.4331    12.0043    11.6826
  223.0000   105.4234    11.9646    11.6439
  223.5000   106.7312    11.9250    11.6054
  224.0000   108.8649    11.8974    11.5709
  224.5000   111.0447    11.9507    11.5871
  225.0000   111.1882    12.0102    11.6106
  225.5000   109.8341    12.0701    11.6340
  226.0000   107.3122    12.1302    11.6572
  226.5000   102.7592    12.1906    11.6787
  227.0000   100.5944    12.2331    11.6045
  227.5000   101.8090    12.0053    11.5079
  228.0000   104.8187    11.8019    11.3830
  228.5000   106.6899    11.6028    11.2595
  229.0000   106.9832    11.3991    11.1495
  229.5000   106.7586    11.1814    10.9150
  230.0000   106.1660    10.9462    10.7061
  230.5000   105.0322    10.8579    10.5430
  231.0000   104.2744    10.7624    10.4002
  231.5000   105.0545    10.6677    10.2593
  232.0000   106.0691    10.5739    10.1475
  232.5000   106.9343    10.4985    10.1006
  233.0000   104.6379    10.4311    10.0539
  233.5000   102.2300    10.3641    10.0075
  234.0000   102.2684    10.2976     9.9612
  234.5000   103.5956    10.2314     9.9151
  235.0000   104.9795    10.1657     9.8692
  235.5000   106.4403    10.1005     9.8236
  236.0000   111.0009    10.0680     9.7754
  236.5000   113.0172    10.0680     9.7211
  237.0000   112.2952    10.0680     9.6672
  237.5000   109.0873    10.0680     9.6135
  238.0000   106.2533    10.0680     9.5602
  238.5000   105.7402    10.0680     9.5230
  239.0000   105.3057    10.0680     9.5922
  239.5000   104.8656    10.0680     9.6457
  240.0000   105.0301    10.0680     9.7004
  240.5000   105.9324    10.0680     9.7557
  241.0000   107.7260    10.0680     9.7902
  241.5000   109.8498     9.9585     9.4307
  242.0000   110.9671     9.6022     9.1602
  242.5000   112.0226     9.2586     8.9243
  243.0000   113.0947     8.9936     8.6795
  243.5000   114.5006     8.8011     8.4413
  244.0000   117.0787     8.6126     8.1338
  244.5000   119.5675     8.4109     7.8013
  245.0000   118.1088     8.1338     7.7652
  245.5000   114.7312     8.2223     7.8900
  246.0000   110.7101     8.3495     8.0052
  246.5000   107.8187     8.4803     8.1221
  247.0000   106.8255     8.6129     8.2408
  247.5000   105.9274     8.7468     8.3609
  248.0000   106.2368     8.8420     8.4830
  248.5000   106.7077     8.8420     8.5199
  249.0000   107.1787     8.8420     8.5199
  249.5000   107.6478     8.8419     8.5200
  250.0000   108.1109     8.8421     8.5199
  250.5000   108.6352     8.8421     8.5199
  251.0000   111.3520     8.8418     8.5199
  251.5000   114.3665     8.8976     8.5824
  252.0000   116.7650     8.9602     8.6528
  252.5000   118.6151     9.0233     8.7238
  253.0000   118.9142     9.0869     8.7954
  253.5000   118.6772     9.1508     8.8675
  254.0000   117.3626     9.2152     8.9402
  254.5000   115.9224     9.2617     9.0075
  255.0000   114.6919     9.2476     8.9715
  255.5000   114.9167     9.2366     8.9383
  256.0000   115.1597     9.2257     8.9053
  256.5000   115.4117     9.2147     8.8724
  257.0000   115.1349     9.2038     8.8420
  257.5000   114.6932     9.1929     8.8734
  258.0000   114.2445     9.1768     8.9027
  258.5000   113.7146     9.1851     8.9291
  259.0000   112.6627     9.2033     8.9471
  259.5000   111.6033     9.2218     8.9651
  260.0000   110.5315     9.2403     8.9832
  260.5000   109.4876     9.2589     9.0075
  261.0000   110.7033     9.2220     8.9640
  261.5000   114.0692     9.1760     8.8983
  262.0000   117.4987     9.1302     8.8330
  262.5000   119.0300     9.0846     8.7682
  263.0000   118.2033     9.0393     8.7039
  263.5000   115.0071     8.9943     8.6400
  264.0000   111.7891     8.9494     8.5766
  264.5000   108.5912     8.9087     8.5137
  265.0000   106.5650     8.8727     8.4512
  265.5000   106.5786     8.8370     8.4257
  266.0000   108.0275     8.8015     8.4071
  266.5000   109.8513     8.7662     8.3886
  267.0000   110.9565     8.6534     8.3701
  267.5000   111.5170     8.5269     8.2513
  268.0000   112.0727     8.4023     8.0769
  268.5000   112.6861     8.2795     7.9106
  269.0000   114.5932     8.1050     7.7073
  269.5000   116.1984     7.8640     7.5141
  270.0000   115.1522     7.6302     7.3258
  270.5000   113.9523     7.4033     7.1422
  271.0000   113.8263     7.1433     6.9632
  271.5000   115.6167     7.1613     6.7887
  272.0000   117.4037     7.1835     6.6943
  272.5000   119.1836     7.2056     6.7582
  273.0000   120.1904     7.2641     6.9164
  273.5000   119.9069     7.3317     7.0784
  274.0000   119.6490     7.4601     7.2054
  274.5000   119.7227     7.6544     7.3609
  275.0000   120.2273     7.8120     7.5199
  275.5000   118.1993     7.9623     7.6822
  276.0000   113.6977     8.1155     7.8481
  276.5000   109.1745     8.2096     7.9843
  277.0000   106.6936     8.1908     7.9693
  277.5000   108.7414     8.1718     7.9504
  278.0000   115.1909     8.1529     7.9316
  278.5000   120.9166     8.1341     7.9128
