~VERSION INFORMATION
 VERS.                2.0:   CWLS LOG ASCII STANDARD - VERSION 2.0
 WRAP.                 NO:   ONE LINE PER DEPTH STEP
~WELL INFORMATION
#MNEM.UNIT      DATA TYPE    INFORMATION
#----------   ------------   ------------------------------
 STRT.F           28.0000:   START DEPTH
 STOP.F          636.0000:   STOP DEPTH
 STEP.F            0.5000:   STEP LENGTH
 NULL.          -999.2500:   NO VALUE
 COMP. FENIX & SCISSON INC:   COMPANY
 WELL.    NPR-3 #12S14-14:   WELL
 FLD .             TEAPOT:   FIELD
 LOC .      S14 T38N R78W:   LOCATION
 CNTY.            NATRONA:   COUNTY
 STAT.            WYOMING:   STATE
 CTRY. UNITED STATES OF AMERICA:   COUNTRY
 SRVC.           BIRDWELL:   SERVICE COMPANY
 DATE.        21-JUN-1978:   LOGDATE
 API .       490251065000:   API NUMBER
~CURVE INFORMATION
#MNEM.UNIT       API CODE    CURVE DESCRIPTION
#----------   ------------   ------------------------------
 DEPT.F                  :   
 SPR .MV     07 010 01 00:   SPONTANEOUS POTENTIAL
 ILD .OHMM   07 120 46 00:   INDUCTION LOG DEEP
 SN  .OHMM   07 040 16 00:   SHORT NORMAL 16"
 GRD .GAPI   45 310 01 00:   GAMMA RAY FROM DENSITY LOG
 CORR.G/C3   45 356 01 00:   DENSITY CORRECTION
 DEN .G/C3   45 350 01 00:   COMPENSATED BULK DENSTIY
 DPHI.DEC    45 890 12 00:   DENSITY POROSITY SANDSTONE
~PARAMETER INFORMATION
#MNEM.UNIT          VALUE    DESCRIPTION
#----------   ------------   ------------------------------
 PD  .                 GL:   PERMANENT DATUM
 EPD .F              5237:   ELEVATION PERMANENT DATUM
 LMF .                 KB:   LOG MEASURED FROM
 DMF .                 KB:   DRILLING MEASURED FROM
 EKB .F              5241:   KELLING BUSHING
 EGL .F              5237:   GROUND LEVEL
 DATE.        21-JUN-1978:   RUN DATE
 RUN .                  1:   RUN NUMBER
 DD  .F               637:   DEPTH DRILLER
 DL  .F               642:   DEPTH LOGGER
 BLI .F               636:   BOTTOM LOG INTERVAL
 TLI .F                40:   TOP LOG INTERVAL
 CS  .IN            8.625:   CASING SIZE
 CBD .F                40:   CASING BOTTOM DRILLER
 CBL .F                40:   CASING BOTTOM LOGGER
 BS  .IN            7.875:   BIT SIZE
 BSD .F               637:   BIT SIZE AT DEPTH
 DFT .                KCL:   DRILLING FLUID TYPE
 DFD .                8.7:   DRILLING FLUID DENSITY
 DFV .                 32:   DRILLING FLUID VISCOSITY
 DFPH.                 10:   DRILLING FLUID PH
 MSS .           FLOWLINE:   MUD SAMPLE SOURCE
 RMS .OHMM            .18:   RESISTIVITY MUD SAMPLE
 MST .F                84:   MUD SAMPLE TEMPERATURE
 RMF .OHMM            .17:   RESISTIVITY MUD FILTRATE SAMPLE
 MFST.F                72:   MUD FILTRATE SAMPLE TEMPERATURE
 RMC .OHMM            .28:   RESISTIVITY MUD CAKE
 MCST.F                82:   MUD CAKE SAMPLE TEMPERATURE
 MFSS.               MEAS:   MUD FILTRATE SAMPLE SOURCE
 MCSS.               MEAS:   MUD CAKE SAMPLE SOURCE
 BHT .F                72:   BOTTOM HOLE TEMPERATURE
 TCS .HRS            0230:   TIME CURCULATED STOPPED
 MRT .F                72:   MAXIMUM RECORDED TEMPERATURE
 LUN .               2958:   LOGGING UNIT NUMBER
 LUL .               CASP:   LOGGING UNIT LOCATION
 ENGI.             MILLER:   RECORDING ENGINEER
 WITN.           MCGINLEY:   WITNESSED BY
 CLNT.            A2DTECH:   CLIENT CODE
 ORIG.           5" PRINT:   ORIGIN OF DATA
 UWI .       490251065000:   UNIQUE WELL ID
 DICO. A2D Technologies, Inc.:   DIGITIZING COMPANY
~OTHER INFORMATION
~A   DEPT      SPR        ILD         SN        GRD       CORR        DEN       DPHI   
# ...
  528.5000   -38.2899     9.9586    12.0555    61.6515     0.0171     2.3768     0.1734
  529.0000   -38.1226     9.8931    11.9775    63.5930     0.0185     2.3768     0.1800
  529.5000   -38.1011     9.9666    11.9016    64.1858     0.0199     2.3834     0.1726
  530.0000   -38.0835     9.9707    11.9097    64.0226     0.0197     2.3826     0.1762
  530.5000   -38.0659     9.9747    11.8326    61.6098     0.0196     2.3818     0.1720
  531.0000   -38.2021     9.9092    11.8406    60.6985     0.0195     2.3833     0.1753
  531.5000   -38.1801     9.9142    11.8470    60.6880     0.0134     2.3855     0.1765
  532.0000   -38.1625     9.7823    11.8534    60.6776     0.0073     2.3824     0.1706
  532.5000   -38.1450     9.7863    11.8599    65.1717     0.0042     2.3659     0.1793
  533.0000   -38.2768     9.7904    11.8666    68.6147    -0.0004     2.3606     0.1838
  533.5000   -38.4131     9.7944    11.8743    69.3550    -0.0050     2.3553     0.1871
  534.0000   -38.5411     9.7992    11.8807    66.7920    -0.0052     2.3487     0.1860
  534.5000   -38.5230     9.8032    11.8054    62.1269    -0.0023     2.3701     0.1800
  535.0000   -38.3559     9.8072    11.7291    65.7201     0.0036     2.3790     0.1740
  535.5000   -38.4878     9.9475    11.7370    67.3639     0.0124     2.3850     0.1705
  536.0000   -38.3163     9.8831    11.7434    64.0476     0.0123     2.3849     0.1702
  536.5000   -38.4526     9.8182    11.6674    64.1877     0.0092     2.3811     0.1735
  537.0000   -38.4306     9.5548    11.6753    64.1769     0.0046     2.3668     0.1777
  537.5000   -38.4130     9.4286    11.6816    63.5658     0.0015     2.3638     0.1841
  538.0000   -38.3954     9.3676    11.6879    63.2551     0.0029     2.3599     0.1877
  538.5000   -38.3778     9.3069    11.6139    63.5450     0.0027     2.3509     0.1886
  539.0000   -38.3602     9.3108    11.6205    64.7358     0.0026     2.3611     0.1832
  539.5000   -38.3426     9.3147    11.6280    65.0310     0.0055     2.3794     0.1746
  540.0000   -38.3250     9.3184    11.4734    65.9458     0.0054     2.3765     0.1719
  540.5000   -38.3074     9.3231    11.4008    67.1069     0.0038     2.3662     0.1743
  541.0000   -38.2898     9.3269    11.3301    66.4002    -0.0009     2.3625     0.1884
  541.5000   -38.2721     9.3307    11.3362    65.2838     0.0021     2.3685     0.1828
  542.0000   -38.2541     9.2693    11.2629    65.2733     0.0034     2.3632     0.1818
  542.5000   -38.2355     9.2740    11.3485    64.6601     0.0048     2.3579     0.1882
  543.0000   -38.2150     9.2131    11.3546    61.6467     0.0077     2.3601     0.1867
  543.5000   -38.1974     9.2178    11.3607    61.0356     0.0090     2.3631     0.1817
  544.0000   -38.3337     9.2215    11.3669    62.3766     0.0074     2.3622     0.1859
  544.5000   -38.3117     9.1618    11.3731    64.0204     0.0073     2.3644     0.1826
  545.0000   -38.2941     9.1655    11.3794    63.1065     0.0072     2.3748     0.1773
  545.5000   -38.4303     9.1693    11.3868    62.7957     0.0041     2.3748     0.1774
  546.0000   -38.4083     9.1099    11.3132    62.7853     0.0024     2.3695     0.1796
  546.5000   -38.5402     9.1137    11.2415    62.7749    -0.0007     2.3687     0.1813
  547.0000   -38.6727     9.1182    11.1703    62.7644    -0.0023     2.3746     0.1790
  547.5000   -38.6471     9.1220    11.1011    61.8531    -0.0024     2.3761     0.1768
  548.0000   -38.6368     9.1257    11.1071    61.2447    -0.0025     2.3745     0.1771
  548.5000   -38.6188     9.1294    11.1131    64.6851    -0.0026     2.3767     0.1793
  549.0000   -38.6009     9.1331    11.0424    66.4764     0.0032     2.3811     0.1784
  549.5000   -38.5797     9.1368    10.9727    65.1147     0.0091     2.4042     0.1664
  550.0000   -38.5650     9.1402    10.9033    63.1098     0.0090     2.4138     0.1565
  550.5000   -38.5470     9.1433    10.8274    61.9399     0.0102     2.4146     0.1527
  551.0000   -38.5292     9.1465    10.6782    62.4186     0.0043     2.4086     0.1552
  551.5000   -38.5112     9.1496    10.6154    64.1832     0.0013     2.4055     0.1576
  552.0000   -38.6434     9.1534    10.6190    64.3067    -0.0002     2.4018     0.1603
  552.5000   -38.7751     9.0310    10.6219    62.3925    -0.0018     2.4010     0.1624
  553.0000   -38.7529     8.9103    10.6248    60.0757    -0.0034     2.4009     0.1627
  553.5000   -38.7351     8.9134    10.6277    62.9166    -0.0034     2.4024     0.1613
  554.0000   -38.7173     8.9164    10.6306    67.5594    -0.0035     2.3993     0.1637
  554.5000   -38.8535     8.9194    10.6334    69.3522    -0.0035     2.3985     0.1637
  555.0000   -38.6818     8.9225    10.6363    66.6347    -0.0036     2.3985     0.1640
  555.5000   -38.6640     8.9255    10.6392    66.0221    -0.0037     2.3985     0.1653
  556.0000   -38.6462     8.9285    10.6421    66.1634    -0.0037     2.3984     0.1662
  556.5000   -38.6285     8.9316    10.6450    65.2476    -0.0038     2.3991     0.1659
  557.0000   -38.6107     8.8724    10.6479    64.6380    -0.0038     2.4081     0.1591
  557.5000   -38.4434     8.8762    10.5769    66.5751    -0.0024     2.4080     0.1561
  558.0000   -38.4257     8.8181    10.5077    65.6623    -0.0025     2.4080     0.1579
  558.5000   -38.5618     8.7605    10.4384    64.1489    -0.0025     2.4094     0.1603
  559.0000   -38.5396     8.7032    10.3696    65.3382    -0.0011     2.4109     0.1568
  559.5000   -38.5218     8.7063    10.3724    68.1791     0.0004     2.4138     0.1562
  560.0000   -38.5040     8.7093    10.3752    69.8218     0.0048     2.4168     0.1556
  560.5000   -38.6402     8.7129    10.3782    65.9030     0.0077     2.4213     0.1491
  561.0000   -38.7719     8.7158    10.3810    66.9421     0.0077     2.4287     0.1461
  561.5000   -38.8999     8.6581    10.3844    68.2816     0.0091     2.4319     0.1443
  562.0000   -38.8814     8.6618    10.3152    69.9213     0.0090     2.4463     0.1351
  562.5000   -38.8636     8.6647    10.3187    70.5100     0.0090     2.4480     0.1309
  563.0000   -38.8458     8.6074    10.3215    70.9489     0.0074     2.4404     0.1342
  563.5000   -38.8281     8.6110    10.3243    71.5372     0.0059     2.4314     0.1371
  564.0000   -38.8102     8.6140    10.3271    71.5253     0.0013     2.4179     0.1434
  564.5000   -38.7922     8.6169    10.4014    70.1621     0.0013     2.4096     0.1543
  565.0000   -38.7743     8.6198    10.4042    67.4474     0.0027     2.4073     0.1598
  565.5000   -38.7564     8.6227    10.4071    65.7788     0.0056     2.4163     0.1562
  566.0000   -38.7384     8.5663    10.3377    64.9911     0.0071     2.4207     0.1491
  566.5000   -38.7170     8.5693    10.3412    64.5589     0.0072     2.4177     0.1491
  567.0000   -38.6992     8.5133    10.2728    67.5396     0.0099     2.4191     0.1512
  567.5000   -38.6814     8.5162    10.2757    69.6401     0.0081     2.4281     0.1495
  568.0000   -38.6636     8.5191    10.3496    65.1207     0.0068     2.4228     0.1417
  568.5000   -38.6459     8.5221    10.3524    62.5563     0.0053     2.4183     0.1489
  569.0000   -38.6281     8.5250    10.3553    61.1930     0.0037     2.4249     0.1501
  569.5000   -38.6103     8.5285    10.3582    60.8808     0.0006     2.4339     0.1430
  570.0000   -38.5925     8.5314    10.3610    62.6707    -0.0024     2.4293     0.1457
  570.5000   -38.5748     8.5343    10.3638    67.4636     0.0005     2.4218     0.1493
  571.0000   -38.5570     8.5372    10.3672    70.4547     0.0035     2.4210     0.1454
  571.5000   -38.3897     8.5401    10.2981    70.8962     0.0064     2.4359     0.1431
  572.0000   -37.7741     8.5430    10.3016    70.4308     0.0063     2.4374     0.1395
  572.5000   -37.1584     8.5459    10.3044    70.7192     0.0048     2.4344     0.1395
  573.0000   -37.1406     8.5488    10.3785    71.4581    -0.0028     2.4238     0.1432
  573.5000   -37.1228     8.6109    10.4532    71.5993    -0.0073     2.3998     0.1546
