~VERSION INFORMATION
 VERS.                2.0:   CWLS LOG ASCII STANDARD - VERSION 2.0
 WRAP.                 NO:   ONE LINE PER DEPTH STEP
~WELL INFORMATION
#MNEM.UNIT      DATA TYPE    INFORMATION
#----------   ------------   ------------------------------
 STRT.F           70.0000:   START DEPTH
 STOP.F          960.0000:   STOP DEPTH
 STEP.F            0.5000:   STEP LENGTH
 NULL.          -999.2500:   NO VALUE
 COMP. U S NAVY/INTEX OIL CO:   COMPANY
 WELL.      NPR 3 #26S-35:   WELL
 FLD .             TEAPOT:   FIELD
 LOC .      S35 T39N R78W:   LOCATION
 CNTY.            NATRONA:   COUNTY
 STAT.            WYOMING:   STATE
 CTRY. UNITED STATES OF AMERICA:   COUNTRY
 SRVC.         Lane Wells:   SERVICE COMPANY
 DATE.        19-MAR-1960:   LOGDATE
 API .       490250651600:   API NUMBER
~CURVE INFORMATION
#MNEM.UNIT       API CODE    CURVE DESCRIPTION
#----------   ------------   ------------------------------
 DEPT.F                  :   
 ASN .OHMM   05 041 16 00:   AMPLIFIED SHORT NORMAL 16"
 ILD .OHMM   05 120 46 00:   INDUCTION LOG DEEP
 CILD.MMHO   05 110 00 00:   CONDUCTIVITY INDUCTION LOG
 SPR .MV     05 010 01 00:   SPONTANEOUS POTENTIAL FROM RES.
~PARAMETER INFORMATION
#MNEM.UNIT          VALUE    DESCRIPTION
#----------   ------------   ------------------------------
 PD  .                 GL:   PERMANENT DATUM
 EPD .F              5095:   ELEVATION PERMANENT DATUM
 LMF .                 KB:   LOG MEASURED FROM
 DAPD.F                 5:   FEET ABOVE PERMANENT DATUM
 DMF .                 KB:   DRILLING MEASURED FROM
 EKB .F              5101:   KELLING BUSHING
 EGL .F              9096:   GROUND LEVEL
 DATE.          3-19-1960:   RUN DATE
 RUN .                  1:   RUN NUMBER
 DD  .F               977:   DEPTH DRILLER
 DL  .F               959:   DEPTH LOGGER
 BLI .F               957:   BOTTOM LOG INTERVAL
 TLI .F                70:   TOP LOG INTERVAL
 CS  .IN            8.625:   CASING SIZE
 CBD .F                12:   CASING BOTTOM DRILLER
 BS  .IN            7.875:   BIT SIZE
 BSD .F               977:   BIT SIZE AT DEPTH
 DFT .   GEL-OIL EMULSION:   DRILLING FLUID TYPE
 DFD .                9.4:   DRILLING FLUID DENSITY
 DFV .                 40:   DRILLING FLUID VISCOSITY
 DFPH.                7.5:   DRILLING FLUID PH
 DFL .                8.2:   DRILLING FLUID LOSS
 MSS .           FLOWLINE:   MUD SAMPLE SOURCE
 RMS .OHMM            2.2:   RESISTIVITY MUD SAMPLE
 MST .F                64:   MUD SAMPLE TEMPERATURE
 RMF .OHMM            1.5:   RESISTIVITY MUD FILTRATE SAMPLE
 MFST.F                64:   MUD FILTRATE SAMPLE TEMPERATURE
 RMC .OHMM            3.1:   RESISTIVITY MUD CAKE
 MCST.F                64:   MUD CAKE SAMPLE TEMPERATURE
 MFSS.                MUD:   MUD FILTRATE SAMPLE SOURCE
 MCSS.              PRESS:   MUD CAKE SAMPLE SOURCE
 RMB .OHMM            2.0:   RESISTIVITY MUD AT BHT
 BHT .F                71:   BOTTOM HOLE TEMPERATURE
 MRT .F                71:   MAXIMUM RECORDED TEMPERATURE
 LUN .             L-4474:   LOGGING UNIT NUMBER
 LUL .             CASPER:   LOGGING UNIT LOCATION
 ENGI.             NELSON:   RECORDING ENGINEER
 WITN.          JORGENSBN:   WITNESSED BY
 CLNT.            A2DTECH:   CLIENT CODE
 ORIG.      2" & 5" PRINT:   ORIGIN OF DATA
 UWI .       490250651600:   UNIQUE WELL ID
 DICO. A2D Technologies, Inc.:   DIGITIZING COMPANY
~OTHER INFORMATION
~A   DEPT        ASN        ILD      CILD       SPR   
# ...
  654.0000     9.5798     8.0729   135.8434   -37.8365
  654.5000     9.4642     7.9466   138.0211   -37.6529
  655.0000     9.3442     7.8204   139.8193   -37.4856
  655.5000     9.2351     7.6939   141.6175   -37.4815
  656.0000     9.1370     7.5681   143.4157   -37.5010
  656.5000     9.0443     7.4409   145.2139   -37.5152
  657.0000     8.9493     7.3162   147.0121   -37.5320
  657.5000     8.8566     7.1863   148.4940   -37.5472
  658.0000     8.7603     7.0867   148.8967   -37.5635
  658.5000     8.6824     7.0631   149.2392   -37.5788
  659.0000     8.6415     7.0453   149.5818   -37.5955
  659.5000     8.6049     7.0276   149.9243   -37.6097
  660.0000     8.5704     7.0097   150.2668   -37.6280
  660.5000     8.5324     6.9921   150.6093   -37.6386
  661.0000     8.5306     6.9739   150.9518   -37.6982
  661.5000     8.5559     6.9568   151.2943   -37.8147
  662.0000     8.5727     6.9377   151.6368   -37.9235
  662.5000     8.5977     6.9227   151.9794   -38.0375
  663.0000     8.6018     6.8930   153.1626   -38.1467
  663.5000     8.5354     6.7745   154.9451   -38.2633
  664.0000     8.4548     6.6571   156.7317   -38.3452
  664.5000     8.4002     6.5403   158.5252   -38.0498
  665.0000     8.2170     6.4234   162.2868   -37.6754
  665.5000     7.9322     6.3064   167.3503   -37.3182
  666.0000     7.6801     6.1898   172.4238   -36.9482
  666.5000     7.4231     6.0722   177.4783   -36.7932
  667.0000     7.1829     5.9565   182.5132   -36.6337
  667.5000     6.9320     5.8369   185.0542   -36.5892
  668.0000     6.8378     5.7373   185.7735   -36.6985
  668.5000     6.9358     5.7297   186.4928   -36.7845
  669.0000     7.0178     5.7298   187.2121   -36.8832
  669.5000     7.1086     5.7314   187.9313   -36.9751
  670.0000     7.1948     5.7277   186.8072   -37.0704
  670.5000     7.2827     5.7582   184.1917   -37.1641
  671.0000     7.3713     5.8197   181.5761   -37.2585
  671.5000     7.4506     5.8747   178.9606   -37.3524
  672.0000     7.4770     5.9324   176.3450   -37.4469
  672.5000     7.4963     5.9893   173.7952   -37.5400
  673.0000     7.5174     6.0450   173.0578   -37.6356
  673.5000     7.5327     6.1043   172.3385   -37.7270
  674.0000     7.5871     6.1563   171.6193   -37.8280
  674.5000     7.6477     6.2228   170.9000   -37.7918
  675.0000     7.7108     6.2457   170.1807   -37.6649
  675.5000     7.7987     6.1780   169.3815   -37.5476
  676.0000     7.8939     6.1935   168.5823   -37.4244
  676.5000     7.9808     6.1981   167.7831   -37.3049
  677.0000     8.0837     6.2087   166.9839   -37.1826
  677.5000     8.1000     6.2162   166.9096   -37.0629
  678.0000     8.0247     6.2252   167.6289   -36.9362
  678.5000     7.9644     6.2337   168.3482   -36.9428
  679.0000     7.8960     6.2421   169.0675   -37.0087
  679.5000     7.8328     6.2511   169.7867   -37.0656
  680.0000     7.7654     6.2588   170.5060   -37.1292
  680.5000     7.7028     6.2692   171.2253   -37.1860
  681.0000     7.6318     6.2640   171.9879   -37.2539
  681.5000     7.3750     6.2394   186.9798   -38.9106
  682.0000     7.4414     6.2186   187.7975   -39.2444
  682.5000     7.5078     6.1936   188.4696   -39.4533
  683.0000     7.5742     6.2872   189.1418   -39.4533
  683.5000     7.6230     6.2977   189.7972   -39.5058
  684.0000     7.5900     6.2881   190.1501   -39.2616
  684.5000     7.5051     6.2862   190.8223   -39.0170
  685.0000     7.4229     6.2903   191.4945   -38.7926
  685.5000     7.3967     6.2583   192.3306   -38.5493
  686.0000     7.3815     6.1946   193.4602   -38.3743
  686.5000     7.3671     6.1377   194.9539   -38.2630
  687.0000     7.3214     6.0777   196.4477   -38.2062
  687.5000     7.2447     6.0190   197.9414   -38.1880
  688.0000     7.1768     5.9603   199.4352   -38.3301
  688.5000     7.0981     5.9002   200.9290   -38.7046
  689.0000     7.0737     5.8439   202.4227   -38.7093
  689.5000     7.0544     5.7764   204.4014   -38.6416
  690.0000     7.0364     5.6902   206.7144   -38.5787
  690.5000     7.0079     5.6072   209.0273   -38.6204
  691.0000     6.9033     5.5226   211.3402   -38.7748
  691.5000     6.8103     5.4389   213.6531   -38.8539
  692.0000     6.7153     5.3545   215.9660   -38.4356
  692.5000     6.5306     5.2705   221.3617   -38.3323
  693.0000     6.3394     5.1860   230.9644   -38.3168
  693.5000     6.1161     5.1024   240.5671   -38.2841
  694.0000     5.7953     5.0172   245.8383   -38.2438
  694.5000     5.5218     4.9349   246.2491   -38.2381
  695.0000     5.4139     4.8467   246.8893   -38.1371
  695.5000     5.3672     4.7855   247.6219   -38.1422
  696.0000     5.4179     4.8778   244.4263   -37.6176
  696.5000     5.4869     4.9837   240.6919   -37.2195
  697.0000     5.7498     5.0864   236.0094   -37.5349
  697.5000     6.0240     5.1911   230.2478   -37.4580
  698.0000     6.2952     5.2949   224.4862   -37.4984
  698.5000     6.4251     5.3088   220.9856   -37.4763
  699.0000     6.4934     5.3056   218.5412   -37.4878
  699.5000     6.5037     5.3075   217.4921   -37.4821
  700.0000     6.5226     5.3043   217.8805   -37.4866
  700.5000     6.5382     5.2846   218.2688   -37.4814
  701.0000     6.5525     5.2642   218.6572   -37.5059
  701.5000     6.5325     5.2438   219.0844   -37.7697
  702.0000     6.5005     5.2246   222.3450   -38.1110
  702.5000     6.4799     5.2059   225.9680   -38.1637
  703.0000     6.4107     5.1770   229.5909   -38.0615
  703.5000     6.2608     5.1555   233.2138   -37.9968
  704.0000     6.0310     5.1097   236.8367   -37.9064
  704.5000     5.7941     4.9166   240.4597   -37.8551
  705.0000     5.6614     4.7224   247.5056   -37.8331
  705.5000     5.5797     4.5278   257.9745   -37.8668
  706.0000     5.4934     4.3364   268.4434   -37.6076
  706.5000     5.2390     4.1374   278.9123   -37.0849
  707.0000     4.9395     3.9762   290.4281   -36.8637
  707.5000     4.6357     3.9343   295.7788   -36.7309
  708.0000     4.3423     3.9165   294.7756   -36.6205
  708.5000     4.3023     3.8754   293.3264   -36.4729
  709.0000     4.3646     3.9785   291.0969   -36.4727
  709.5000     4.4963     4.2174   282.2856   -36.6964
  710.0000     4.7940     4.4333   270.6535   -36.9011
  710.5000     5.3321     4.6611   259.0214   -37.1144
  711.0000     5.7046     4.8765   247.4470   -37.3286
  711.5000     5.9556     4.9990   236.8982   -37.5313
  712.0000     6.1208     5.0645   231.6855   -37.7609
  712.5000     6.2273     5.1369   226.9568   -37.7999
  713.0000     6.3530     5.2524   222.2414   -37.6764
  713.5000     6.4740     5.3666   217.8030   -37.5740
  714.0000     6.5952     5.4797   213.9564   -37.5034
  714.5000     6.7186     5.5933   210.1255   -37.6357
  715.0000     6.8332     5.7067   206.2891   -37.7603
  715.5000     6.9400     5.8205   202.4117   -37.8946
  716.0000     7.0473     5.9337   199.2977   -37.9856
  716.5000     7.1444     6.0481   196.5108   -37.6630
  717.0000     7.2461     6.1604   193.7240   -37.2819
  717.5000     7.3440     6.2770   191.9484   -36.8937
  718.0000     7.4465     6.3711   191.1840   -36.6116
  718.5000     7.5421     6.3777   190.4196   -36.6767
  719.0000     7.6531     6.3775   189.6552   -36.7647
  719.5000     7.7322     6.3766   188.8908   -36.9702
  720.0000     7.7623     6.3789   188.1264   -37.2692
  720.5000     7.8042     6.3672   187.3620   -37.2376
  721.0000     7.8334     6.2724   187.7667   -37.1373
  721.5000     7.8266     6.1763   190.3896   -37.0364
  722.0000     7.7736     6.0805   193.0125   -37.0007
  722.5000     7.6772     5.9856   195.5984   -37.4553
  723.0000     7.5908     5.8885   198.2070   -37.8109
  723.5000     7.4734     5.7960   200.8128   -38.1039
  724.0000     7.3300     5.6947   203.4253   -38.4534
  724.5000     7.2143     5.6132   207.7008   -38.4517
  725.0000     7.1015     5.4701   213.6421   -38.1032
  725.5000     6.9888     5.2860   219.5622   -37.8038
  726.0000     6.8247     5.1250   226.0296   -37.5097
  726.5000     6.5598     4.9551   236.7531   -37.3260
