~VERSION INFORMATION
 VERS.                2.0:   CWLS LOG ASCII STANDARD - VERSION 2.0
 WRAP.                 NO:   ONE LINE PER DEPTH STEP
~WELL INFORMATION
#MNEM.UNIT      DATA TYPE    INFORMATION
#----------   ------------   ------------------------------
 STRT.F            0.0000:   START DEPTH
 STOP.F          978.0000:   STOP DEPTH
 STEP.F            0.5000:   STEP LENGTH
 NULL.          -999.2500:   NO VALUE
 COMP. FENIX & SCISSON INC:   COMPANY
 WELL. N.P.R #3 SX-14 #53:   WELL
 FLD .             TEAPOT:   FIELD
 LOC .      S14 T38N R78W:   LOCATION
 CNTY.            NATRONA:   COUNTY
 STAT.            WYOMING:   STATE
 CTRY. UNITED STATES OF AMERICA:   COUNTRY
 SRVC.              Welex:   SERVICE COMPANY
 DATE.        06-MAR-1977:   LOGDATE
 API .       490251029800:   API NUMBER
~CURVE INFORMATION
#MNEM.UNIT       API CODE    CURVE DESCRIPTION
#----------   ------------   ------------------------------
 DEPT.F                  :   
 SPR .MV     07 010 01 00:   SPONTANEOUS POTENTIAL
 SGRD.OHMM   07 220 05 00:   SHALLOW RESISTIVITY
 ILD .OHMM   07 120 46 00:   INDUCTION LOG DEEP
 ILM .OHMM   07 120 44 00:   INDUCTION LOG MEDIUM
 GRD .GAPI   45 310 01 00:   GAMMA RAY FROM DENSITY LOG
 CALD.IN     45 280 60 00:   CALIPER
 RHOB.G/C3   45 350 01 00:   BULK DENSITY
 DPHI.DEC    45 890 12 00:   DENSITY POROSITY SANDSTONE
 CORR.G/C3   45 356 01 00:   DENSITY CORRECTION
~PARAMETER INFORMATION
#MNEM.UNIT          VALUE    DESCRIPTION
#----------   ------------   ------------------------------
 PD  .                 GL:   PERMANENT DATUM
 EPD .F              5230:   ELEVATION PERMANENT DATUM
 LMF .                 GL:   LOG MEASURED FROM
 DMF .                 GL:   DRILLING MEASURED FROM
 EGL .F              5230:   GROUND LEVEL
 DATE.             3-6-77:   RUN DATE
 RUN .                  1:   RUN NUMBER
 DD  .F               989:   DEPTH DRILLER
 DL  .F               980:   DEPTH LOGGER
 BLI .F               978:   BOTTOM LOG INTERVAL
 TLI .F                50:   TOP LOG INTERVAL
 CS  .IN            8.625:   CASING SIZE
 CBD .F                42:   CASING BOTTOM DRILLER
 CBL .F                42:   CASING BOTTOM LOGGER
 BS  .IN            7.875:   BIT SIZE
 BSD .F               989:   BIT SIZE AT DEPTH
 DFT .            KCL MUD:   DRILLING FLUID TYPE
 DFD .                8.4:   DRILLING FLUID DENSITY
 DFV .                 30:   DRILLING FLUID VISCOSITY
 DFPH.                7.2:   DRILLING FLUID PH
 DFL .               14.4:   DRILLING FLUID LOSS
 MSS .            MUD PIT:   MUD SAMPLE SOURCE
 RMS .OHMM            .41:   RESISTIVITY MUD SAMPLE
 MST .F                48:   MUD SAMPLE TEMPERATURE
 RMF .OHMM            .39:   RESISTIVITY MUD FILTRATE SAMPLE
 MFST.F                48:   MUD FILTRATE SAMPLE TEMPERATURE
 RMC .OHMM            .55:   RESISTIVITY MUD CAKE
 MCST.F                48:   MUD CAKE SAMPLE TEMPERATURE
 MFSS.           FANN KIT:   MUD FILTRATE SAMPLE SOURCE
 MCSS.           FANN KIT:   MUD CAKE SAMPLE SOURCE
 RMB .OHMM            .34:   RESISTIVITY MUD AT BHT
 BHT .F                58:   BOTTOM HOLE TEMPERATURE
 TCS .HRS               2:   TIME CURCULATED STOPPED
 MRT .F                58:   MAXIMUM RECORDED TEMPERATURE
 LUN .               8611:   LOGGING UNIT NUMBER
 LUL .           GILLETTE:   LOGGING UNIT LOCATION
 ENGI.            C. DOAK:   RECORDING ENGINEER
 WITN.           S. BURKE:   WITNESSED BY
 CLNT.            A2DTECH:   CLIENT CODE
 ORIG.        2" 5" PRINT:   ORIGIN OF DATA
 UWI .       490251029800:   UNIQUE WELL ID
 DICO. A2D Technologies, Inc.:   DIGITIZING COMPANY
~OTHER INFORMATION
~A    DEPT     SPR       SGRD        ILD        ILM        GRD       CALD       RHOB       DPHI       CORR   
# ...
  292.0000   -44.8835     3.0216     2.5080     2.7518   110.2210     7.8227     2.4170     0.1394     0.0563
  292.5000   -44.9024     2.6937     2.5569     2.8092   113.5666     7.8227     2.4129     0.1398     0.0582
  293.0000   -44.9213     2.5233     2.6984     3.0275   111.1092     7.8227     2.4121     0.1401     0.0606
  293.5000   -44.9402     3.6512     2.8740     3.3558   108.1244     7.8227     2.4113     0.1405     0.0631
  294.0000   -44.9591     5.1589     3.0611     3.7196   106.3654     7.8227     2.4106     0.1415     0.0655
  294.5000   -44.9780     6.4200     3.2603     4.0493   104.9233     7.8227     2.4045     0.1439     0.0679
  295.0000   -44.9969     6.0114     3.4725     4.2691   103.4851     7.8227     2.3966     0.1463     0.0702
  295.5000   -45.0158     5.5936     3.6985     4.5008   103.9368     7.8227     2.3854     0.1563     0.0704
  296.0000   -45.0347     5.5291     3.9392     4.7313   106.0955     7.8227     2.3695     0.1662     0.0662
  296.5000   -45.0536     5.5299     4.1224     4.6831   109.1038     7.8227     2.3537     0.1761     0.0613
  297.0000   -45.0725     5.4097     4.1602     4.6278   112.1004     7.8227     2.3379     0.1860     0.0564
  297.5000   -45.0914     5.2413     4.0366     4.5736   114.9002     7.8227     2.3220     0.1959     0.0495
  298.0000   -45.1103     5.0323     3.8126     4.4128   116.6649     7.8227     2.3038     0.2045     0.0424
  298.5000   -45.1292     4.7563     3.6021     4.2256   117.3367     7.8227     2.3121     0.1992     0.0353
  299.0000   -45.1481     4.4955     3.4031     4.0463   118.9144     7.8227     2.3296     0.1879     0.0327
  299.5000   -45.1670     4.2489     3.2152     3.8745   121.0645     7.8227     2.3638     0.1687     0.0382
  300.0000   -45.1859     4.0159     3.0376     3.7046   123.1195     7.8227     2.3966     0.1495     0.0437
  300.5000   -45.2048     3.7957     2.8698     3.4931   125.1307     7.8227     2.4232     0.1348     0.0491
  301.0000   -45.2237     3.5875     2.7102     3.2938   127.0742     7.8227     2.4392     0.1276     0.0533
  301.5000   -45.2426     3.3908     2.6413     3.1058   129.6339     7.8227     2.4506     0.1204     0.0556
  302.0000   -45.2615     3.1350     2.5806     2.9345   127.7324     7.8227     2.4498     0.1182     0.0551
  302.5000   -45.2804     2.6903     2.6407     2.9707   124.4932     7.8227     2.4470     0.1190     0.0532
  303.0000   -45.2993     2.4874     2.7497     3.1559   121.2030     7.8227     2.4441     0.1199     0.0514
  303.5000   -45.3182     3.8763     2.9904     3.5284   117.9127     7.8227     2.4414     0.1207     0.0495
  304.0000   -45.3371     6.4049     3.2521     3.9454   114.6665     7.8226     2.4451     0.1215     0.0482
  304.5000   -45.3560     6.3655     3.5368     4.4076   113.1052     7.8176     2.4491     0.1186     0.0479
  305.0000   -45.3749     6.3154     3.8464     4.7520   114.5960     7.8124     2.4532     0.1158     0.0476
  305.5000   -45.3938     6.2656     4.1831     5.1094   115.5510     7.8071     2.4572     0.1129     0.0473
  306.0000   -45.4127     6.2359     4.5493     5.4453   113.5908     7.8019     2.4618     0.1101     0.0469
  306.5000   -45.4316     6.4258     4.9475     5.6722   113.1298     7.7967     2.4670     0.1075     0.0466
  307.0000   -45.4505     6.5800     5.3805     5.9086   111.5078     7.7914     2.4720     0.1040     0.0469
  307.5000   -45.4694     6.7383     5.6001     6.1549   107.7347     7.7862     2.4785     0.0999     0.0498
  308.0000   -45.4883     6.9003     5.7584     6.4113   103.9304     7.7810     2.4851     0.0957     0.0526
  308.5000   -45.5071     7.0636     5.9211     6.6785   103.0246     7.7757     2.4918     0.0916     0.0556
  309.0000   -45.5267     7.2965     6.0884     6.9568   105.6186     7.7705     2.4945     0.0898     0.0566
  309.5000   -45.5701     7.5916     6.2604     7.2470   106.6852     7.7653     2.4901     0.0954     0.0569
  310.0000   -45.6400     7.9026     6.4373     7.5495   107.4240     7.7514     2.4814     0.1001     0.0573
  310.5000   -45.7096     8.2258     6.6192     7.8633   109.5694     7.7308     2.4729     0.1048     0.0576
  311.0000   -45.7795     8.5620     6.8063     7.9841   111.6983     7.7103     2.4642     0.1095     0.0580
  311.5000   -45.8493     8.9118     7.0242     7.8597   113.5230     7.6890     2.4556     0.1142     0.0583
  312.0000   -45.9191     9.1632     7.0250     7.7672   114.5531     7.7062     2.4483     0.1182     0.0573
  312.5000   -45.9889     8.8512     6.8856     7.5996   114.5199     7.7382     2.4515     0.1174     0.0557
  313.0000   -46.0588     8.6195     6.7470     7.4213   112.9921     7.7710     2.4547     0.1166     0.0514
  313.5000   -46.1285     8.3938     6.6134     7.2472   112.7478     7.8021     2.4520     0.1164     0.0470
  314.0000   -46.1668     8.1741     6.4825     7.0772   114.5384     7.7991     2.4480     0.1167     0.0427
  314.5000   -46.3325     7.9601     6.3542     6.9112   116.2927     7.7941     2.4440     0.1199     0.0398
  315.0000   -46.3304     7.6962     6.2285     6.7491   118.4812     7.7893     2.4400     0.1229     0.0387
  315.5000   -46.3369     7.8645     6.1052     6.5908   120.7505     7.7845     2.4380     0.1239     0.0375
  316.0000   -46.5425     8.0578     6.0062     6.4362   122.3492     7.7797     2.4376     0.1237     0.0365
  316.5000   -46.5303     7.6987     6.0062     6.3464   112.8120     7.7749     2.4372     0.1236     0.0377
  317.0000   -46.5273     7.4074     6.0062     6.5750   110.0291     7.7701     2.4368     0.1239     0.0391
  317.5000   -46.5278     7.1511     6.0062     6.7424   107.5733     7.7653     2.4365     0.1242     0.0406
  318.0000   -46.5275     7.4196     6.0770     6.8931   109.7346     7.7729     2.4400     0.1237     0.0465
  318.5000   -46.5128     7.6755     6.1564     6.8875   112.4465     7.7925     2.4478     0.1225     0.0524
  319.0000   -46.4807     7.9402     6.2374     6.8815   112.9706     7.8121     2.4494     0.1213     0.0582
  319.5000   -46.4488     8.2064     6.3194     6.8754   111.8972     7.8317     2.4461     0.1250     0.0612
  320.0000   -46.4168     8.1714     6.4024     6.8694   111.3210     7.8412     2.4313     0.1323     0.0641
  320.5000   -46.3847     8.1353     6.4865     6.8634   112.7436     7.8377     2.4168     0.1397     0.0668
  321.0000   -46.3528     8.4206     6.5718     6.8573   111.9593     7.8343     2.3980     0.1478     0.0690
  321.5000   -46.3289     8.7541     6.6445     6.8513   110.4344     7.8308     2.3746     0.1643     0.0711
  322.0000   -46.3298     8.8327     6.7059     6.8453   107.7925     7.8274     2.3472     0.1808     0.0732
  322.5000   -46.3269     8.3866     6.6445     6.8393   104.8433     7.8239     2.3190     0.1972     0.0754
  323.0000   -46.3146     7.9817     6.5838     6.8333   102.1020     7.8205     2.2890     0.2137     0.0775
  323.5000   -46.5203     7.9121     6.5236     6.7929   101.5274     7.8171     2.2540     0.2347     0.0766
  324.0000   -46.5269     8.2828     6.3623     6.6090   101.7085     7.8136     2.2181     0.2612     0.0741
  324.5000   -46.5283     8.1384     6.0739     6.3129   103.7105     7.8102     2.1814     0.2779     0.0704
  325.0000   -46.5278     7.8491     5.7880     6.0309   105.5904     7.8068     2.1669     0.2888     0.0642
  325.5000   -46.5278     7.1867     5.2076     5.7620   106.1050     7.8033     2.1532     0.2976     0.0580
  326.0000   -46.5278     7.0857     4.5066     5.5038   110.0679     7.7999     2.1393     0.2991     0.0517
  326.5000   -46.5278     6.9564     3.9026     5.1957   116.5124     7.7965     2.1255     0.2987     0.0404
  327.0000   -46.5278     6.4911     3.3795     4.4003   122.8927     7.7930     2.1179     0.2983     0.0223
  327.5000   -46.5278     5.5498     2.9265     3.7266   128.4206     7.7896     2.2100     0.2599     0.0119
  328.0000   -46.5278     4.4509     2.5343     3.1561   133.3339     7.7861     2.3607     0.1770     0.0270
