~VERSION INFORMATION
 VERS.                2.0:   CWLS LOG ASCII STANDARD - VERSION 2.0
 WRAP.                 NO:   ONE LINE PER DEPTH STEP
~WELL INFORMATION
#MNEM.UNIT      DATA TYPE    INFORMATION
#----------   ------------   ------------------------------
 STRT.F         1099.5000:   START DEPTH
 STOP.F         2700.0000:   STOP DEPTH
 STEP.F            0.5000:   STEP LENGTH
 NULL.          -999.2500:   NO VALUE
 COMP. LAWRENCE/ALLISON INC NPR #3:   COMPANY
 WELL.   47 STX 14 #47-14:   WELL
 FLD .             TEAPOT:   FIELD
 LOC .      S14 T38N R78W:   LOCATION
 CNTY.            NATRONA:   COUNTY
 STAT.            WYOMING:   STATE
 CTRY. UNITED STATES OF AMERICA:   COUNTRY
 SRVC.            Unknown:   SERVICE COMPANY
 DATE.        01-SEP-1988:   LOGDATE
 API .       490251124400:   API NUMBER
~CURVE INFORMATION
#MNEM.UNIT       API CODE    CURVE DESCRIPTION
#----------   ------------   ------------------------------
 DEPT.F                  :   
 ROP .MIN/FT 91 810 01 00:   RATE OF DRILLING PENETRATION
 TGAS.UNITS  91 830 01 00:   TOTAL GAS FROM HOTWIRE
~PARAMETER INFORMATION
#MNEM.UNIT          VALUE    DESCRIPTION
#----------   ------------   ------------------------------
 EKB .F              5286:   KELLING BUSHING
 EGL .F              5276:   GROUND LEVEL
 DATE.             9-1-88:   RUN DATE
 DD  .F              2700:   DEPTH DRILLER
 CBD .F              1088:   CASING BOTTOM DRILLER
 TCS .HRS            1200:   TIME CURCULATED STOPPED
 TLAB.HRS            1223:   TIME LOGGER AT BOTTOM
 ENGI.               HUSK:   RECORDING ENGINEER
 WITN.           PETERSON:   WITNESSED BY
 CLNT.            A2DTECH:   CLIENT CODE
 ORIG.           5" PRINT:   ORIGIN OF DATA
 UWI .       490251124400:   UNIQUE WELL ID
 DICO. A2D Technologies, Inc.:   DIGITIZING COMPANY
~OTHER INFORMATION
~A  DEPT       ROP       TGAS   
# ...
 1342.5000     0.4287     0.5350
 1343.0000     0.4277     0.5267
 1343.5000     0.4059     0.5184
 1344.0000     0.3933     0.5102
 1344.5000     0.3499     0.5019
 1345.0000     0.3100     0.4936
 1345.5000     0.3116     0.4853
 1346.0000     0.3131     0.4770
 1346.5000     0.3145     0.4688
 1347.0000     0.3160     0.4605
 1347.5000     0.3175     0.4522
 1348.0000     0.3190     0.4439
 1348.5000     0.3204     0.4357
 1349.0000     0.3219     0.4274
 1349.5000     0.3234     0.4191
 1350.0000     0.3249     0.4115
 1350.5000     0.3263     0.4146
 1351.0000     0.3278     0.4175
 1351.5000     0.3275     0.4203
 1352.0000     0.3264     0.4232
 1352.5000     0.3254     0.4261
 1353.0000     0.3244     0.4289
 1353.5000     0.3233     0.4318
 1354.0000     0.3243     0.4347
 1354.5000     0.3288     0.4375
 1355.0000     0.3332     0.4404
 1355.5000     0.3377     0.4433
 1356.0000     0.3425     0.4461
 1356.5000     0.3418     0.4490
 1357.0000     0.3411     0.4519
 1357.5000     0.3404     0.4547
 1358.0000     0.3397     0.4576
 1358.5000     0.3389     0.4605
 1359.0000     0.3691     0.4633
 1359.5000     0.4200     0.4662
 1360.0000     0.4710     0.4691
 1360.5000     0.5117     0.4720
 1361.0000     0.4780     0.4748
 1361.5000     0.4245     0.4777
 1362.0000     0.3821     0.4806
 1362.5000     0.3508     0.4834
 1363.0000     0.3428     0.4863
 1363.5000     0.3495     0.4892
 1364.0000     0.3517     0.4920
 1364.5000     0.3509     0.4949
 1365.0000     0.3604     0.4978
 1365.5000     0.3597     0.5006
 1366.0000     0.3590     0.5035
 1366.5000     0.3583     0.5064
 1367.0000     0.3667     0.5092
 1367.5000     0.4061     0.5121
 1368.0000     0.4375     0.5150
 1368.5000     0.4689     0.5178
 1369.0000     0.4928     0.5207
 1369.5000     0.4987     0.5236
 1370.0000     0.4979     0.5264
 1370.5000     0.4924     0.5293
 1371.0000     0.4705     0.5322
 1371.5000     0.4377     0.5350
 1372.0000     0.3989     0.5379
 1372.5000     0.3617     0.5408
 1373.0000     0.3502     0.5436
 1373.5000     0.3514     0.5465
 1374.0000     0.3526     0.5494
 1374.5000     0.3537     0.5522
 1375.0000     0.3549     0.5551
 1375.5000     0.3561     0.5580
 1376.0000     0.3573     0.5608
 1376.5000     0.3585     0.5637
 1377.0000     0.3597     0.5666
 1377.5000     0.3609     0.5694
 1378.0000     0.3623     0.5723
 1378.5000     0.3616     0.5752
 1379.0000     0.3648     0.5781
 1379.5000     0.3686     0.5809
 1380.0000     0.3640     0.5838
 1380.5000     0.3339     0.5867
 1381.0000     0.3035     0.5895
 1381.5000     0.2884     0.5924
 1382.0000     0.2842     0.5953
 1382.5000     0.3351     0.5981
 1383.0000     0.3964     0.6010
 1383.5000     0.4370     0.6039
 1384.0000     0.4776     0.6067
 1384.5000     0.5125     0.6096
 1385.0000     0.4646     0.6125
 1385.5000     0.4152     0.6153
 1386.0000     0.3716     0.6182
 1386.5000     0.3281     0.6211
 1387.0000     0.3081     0.6239
 1387.5000     0.3261     0.6268
 1388.0000     0.3707     0.6297
 1388.5000     0.4025     0.6325
 1389.0000     0.4232     0.6354
 1389.5000     0.4284     0.6383
 1390.0000     0.4277     0.6411
 1390.5000     0.4268     0.6440
 1391.0000     0.4261     0.6469
 1391.5000     0.4254     0.6497
 1392.0000     0.4247     0.6526
 1392.5000     0.4240     0.6555
 1393.0000     0.4233     0.6583
 1393.5000     0.4223     0.6612
 1394.0000     0.4072     0.6641
 1394.5000     0.3436     0.6669
 1395.0000     0.3350     0.6698
 1395.5000     0.3371     0.6727
 1396.0000     0.3362     0.6756
 1396.5000     0.3252     0.6784
 1397.0000     0.3142     0.6813
 1397.5000     0.3031     0.6842
 1398.0000     0.2921     0.6495
 1398.5000     0.2914     0.4790
 1399.0000     0.2907     0.3086
 1399.5000     0.2900     0.1381
 1400.0000     0.2910     0.0000
 1400.5000     0.3117     0.0000
 1401.0000     0.3355     0.0000
 1401.5000     0.3776     0.0000
 1402.0000     0.4049     0.0000
 1402.5000     0.3884     0.0000
 1403.0000     0.3392     0.0000
 1403.5000     0.2488     0.0000
 1404.0000     0.2248     0.0000
 1404.5000     0.2673     0.0000
 1405.0000     0.3089     0.0000
 1405.5000     0.3385     0.0000
 1406.0000     0.3476     0.0000
 1406.5000     0.3472     0.0000
 1407.0000     0.3469     0.0000
 1407.5000     0.3466     0.0000
 1408.0000     0.3463     0.0000
 1408.5000     0.3460     0.0000
 1409.0000     0.3457     0.0000
 1409.5000     0.3454     0.0000
 1410.0000     0.3450     0.0000
 1410.5000     0.3447     0.0000
 1411.0000     0.3444     0.0000
 1411.5000     0.3441     0.0000
 1412.0000     0.3438     0.0000
 1412.5000     0.3435     0.0000
 1413.0000     0.3432     0.0000
 1413.5000     0.3429     0.0000
 1414.0000     0.3491     0.0000
 1414.5000     0.3733     0.0000
 1415.0000     0.4050     0.0000
 1415.5000     0.4291     0.0000
 1416.0000     0.4343     0.0000
 1416.5000     0.4339     0.0000
 1417.0000     0.4026     0.0000
 1417.5000     0.3713     0.0000
 1418.0000     0.3400     0.0000
 1418.5000     0.3397     0.0000
 1419.0000     0.3291     0.0000
 1419.5000     0.3185     0.0000
 1420.0000     0.3180     0.0000
 1420.5000     0.3075     0.0000
 1421.0000     0.3072     0.0000
 1421.5000     0.3069     0.0000
 1422.0000     0.3066     0.0000
 1422.5000     0.3063     0.0000
 1423.0000     0.3081     0.0000
 1423.5000     0.3209     0.0000
 1424.0000     0.3392     0.0000
 1424.5000     0.3557     0.0000
 1425.0000     0.3840     0.0000
 1425.5000     0.4087     0.2353
 1426.0000     0.4404     0.2642
 1426.5000     0.4588     0.0960
 1427.0000     0.4442     0.0000
 1427.5000     0.4221     0.0000
 1428.0000     0.4165     0.0000
 1428.5000     0.4162     0.0000
 1429.0000     0.4098     0.0248
 1429.5000     0.4117     0.0536
 1430.0000     0.4153     0.0826
 1430.5000     0.4150     0.1114
 1431.0000     0.4147     0.1404
 1431.5000     0.4144     0.1743
 1432.0000     0.4140     0.2023
 1432.5000     0.4240     0.2302
 1433.0000     0.4547     0.0000
 1433.5000     0.4957     0.0000
 1434.0000     0.5236     0.0000
 1434.5000     0.4806     0.0000
 1435.0000     0.4377     0.0000
 1435.5000     0.3990     0.0000
 1436.0000     0.3667     0.0000
 1436.5000     0.3286     0.0000
 1437.0000     0.3293     0.0000
 1437.5000     0.3384     0.0000
 1438.0000     0.3396     0.0000
 1438.5000     0.3481     0.0000
 1439.0000     0.3477     0.0000
 1439.5000     0.3448     0.0000
 1440.0000     0.3338     0.0000
 1440.5000     0.3261     0.0000
 1441.0000     0.3115     0.0000
 1441.5000     0.2647     0.0000
 1442.0000     0.2012     0.0000
 1442.5000     0.2319     0.0000
 1443.0000     0.2626     0.0000
 1443.5000     0.2831     0.0000
 1444.0000     0.3140     0.0000
 1444.5000     0.3244     0.0000
 1445.0000     0.3337     0.0000
 1445.5000     0.3334     0.0000
 1446.0000     0.3347     0.0000
 1446.5000     0.3471     0.0000
 1447.0000     0.3658     0.0000
 1447.5000     0.3788     0.0000
 1448.0000     0.3968     0.0000
 1448.5000     0.4038     0.0000
 1449.0000     0.4072     0.0000
 1449.5000     0.4255     0.0000
 1450.0000     0.4614     0.0003
 1450.5000     0.4880     0.0333
 1451.0000     0.4623     0.0664
 1451.5000     0.4300     0.0994
 1452.0000     0.4025     0.1324
 1452.5000     0.3857     0.1654
 1453.0000     0.4039     0.1984
 1453.5000     0.4142     0.2314
 1454.0000     0.4211     0.2644
 1454.5000     0.4170     0.2974
 1455.0000     0.3936     0.3304
 1455.5000     0.3462     0.3634
 1456.0000     0.2752     0.3965
 1456.5000     0.3265     0.4295
 1457.0000     0.3784     0.4625
 1457.5000     0.3983     0.4955
 1458.0000     0.3979     0.5285
 1458.5000     0.3976     0.5549
 1459.0000     0.3973     0.5327
 1459.5000     0.3970     0.5143
 1460.0000     0.3967     0.4958
 1460.5000     0.3989     0.4773
 1461.0000     0.4064     0.4588
 1461.5000     0.4093     0.4403
 1462.0000     0.4100     0.4219
 1462.5000     0.4158     0.4034
 1463.0000     0.4155     0.3849
 1463.5000     0.4152     0.3664
