~VERSION INFORMATION
 VERS.                2.0:   CWLS LOG ASCII STANDARD - VERSION 2.0
 WRAP.                 NO:   ONE LINE PER DEPTH STEP
~WELL INFORMATION
#MNEM.UNIT      DATA TYPE    INFORMATION
#----------   ------------   ------------------------------
 STRT.F           40.0000:   START DEPTH
 STOP.F          876.5000:   STOP DEPTH
 STEP.F            0.5000:   STEP LENGTH
 NULL.          -999.2500:   NO VALUE
 COMP. FENIX & SCISSON INC:   COMPANY
 WELL.     NPR 3 #41-S-14:   WELL
 FLD .             TEAPOT:   FIELD
 LOC .      S14 T38N R78W:   LOCATION
 CNTY.            NATRONA:   COUNTY
 STAT.            WYOMING:   STATE
 CTRY. UNITED STATES OF AMERICA:   COUNTRY
 SRVC.            Unknown:   SERVICE COMPANY
 DATE.        12-MAR-1978:   LOGDATE
 API .       490251060200:   API NUMBER
~CURVE INFORMATION
#MNEM.UNIT       API CODE    CURVE DESCRIPTION
#----------   ------------   ------------------------------
 DEPT.F                  :   
 CALD.IN     45 280 60 00:   CALIPER FROM DENSITY LOG
 GRD .GAPI   45 310 01 00:   GAMMA RAY FROM DENSITY LOG
 RHOB.G/C3   45 350 01 00:   BULK DENSITY
 DPHI.DEC    45 890 12 00:   DENSITY POROSITY SANDSTONE
 CORR.G/C3   45 356 01 00:   DENSITY CORRECTION
 SPR .MV     05 010 01 00:   SPONTANEOUS POTENTIAL FROM RES.
 IL  .OHMM   05 120 00 00:   INDUCTION LOG
 SN  .OHMM   05 040 16 00:   SHORT NORMAL 16"
~PARAMETER INFORMATION
#MNEM.UNIT          VALUE    DESCRIPTION
#----------   ------------   ------------------------------
 PD  .                 GL:   PERMANENT DATUM
 EPD .F              5211:   ELEVATION PERMANENT DATUM
 LMF .                 KB:   LOG MEASURED FROM
 DMF .                 KB:   DRILLING MEASURED FROM
 EKB .F              5215:   KELLING BUSHING
 EGL .F              5211:   GROUND LEVEL
 DATE.            3-12-78:   RUN DATE
 RUN .                  1:   RUN NUMBER
 DD  .F               870:   DEPTH DRILLER
 DL  .F               872:   DEPTH LOGGER
 BLI .F               866:   BOTTOM LOG INTERVAL
 TLI .F                50:   TOP LOG INTERVAL
 CS  .IN            8.625:   CASING SIZE
 CBD .F                40:   CASING BOTTOM DRILLER
 CBL .F                40:   CASING BOTTOM LOGGER
 BS  .IN            7.875:   BIT SIZE
 BSD .F               870:   BIT SIZE AT DEPTH
 DFT .                KCL:   DRILLING FLUID TYPE
 DFD .                8.6:   DRILLING FLUID DENSITY
 DFV .                 33:   DRILLING FLUID VISCOSITY
 DFPH.                 10:   DRILLING FLUID PH
 DFL .               12.1:   DRILLING FLUID LOSS
 MSS .           FLOWLINE:   MUD SAMPLE SOURCE
 RMS .OHMM            .32:   RESISTIVITY MUD SAMPLE
 MST .F                54:   MUD SAMPLE TEMPERATURE
 RMF .OHMM            .36:   RESISTIVITY MUD FILTRATE SAMPLE
 MFST.F                55:   MUD FILTRATE SAMPLE TEMPERATURE
 RMC .OHMM             .5:   RESISTIVITY MUD CAKE
 MCST.F                56:   MUD CAKE SAMPLE TEMPERATURE
 MFSS.           MEASURED:   MUD FILTRATE SAMPLE SOURCE
 MCSS.           MEASURED:   MUD CAKE SAMPLE SOURCE
 RMB .OHMM            .24:   RESISTIVITY MUD AT BHT
 BHT .F                72:   BOTTOM HOLE TEMPERATURE
 TCS .HRS               4:   TIME CURCULATED STOPPED
 MRT .F                72:   MAXIMUM RECORDED TEMPERATURE
 LUN .               2958:   LOGGING UNIT NUMBER
 LUL .               CASP:   LOGGING UNIT LOCATION
 ENGI.             MILLER:   RECORDING ENGINEER
 WITN.         HARRINGTON:   WITNESSED BY
 CLNT.            A2DTECH:   CLIENT CODE
 ORIG.        2" 5" PRINT:   ORIGIN OF DATA
 UWI .       490251060200:   UNIQUE WELL ID
 DICO. A2D Technologies, Inc.:   DIGITIZING COMPANY
~OTHER INFORMATION
~A   DEPT     CALD         GRD      RHOB       DPHI       CORR        SPR         IL         SN   
# ...
  647.5000     7.7870   100.2411     2.4816     0.0870     0.0507   -54.0867     6.7237     7.3735
  648.0000     7.7831   101.8734     2.4835     0.0930     0.0457   -54.2183     6.5508     7.2928
  648.5000     7.7792   105.0852     2.4732     0.0996     0.0484   -54.3394     6.2348     7.1429
  649.0000     7.7754   108.0268     2.4660     0.0980     0.0388   -54.7001     5.9341     7.0314
  649.5000     7.7717   108.9166     2.4670     0.1020     0.0280   -55.1442     5.6479     6.9992
  650.0000     7.7662   109.2008     2.4411     0.1142     0.0230   -55.5910     5.3755     6.8493
  650.5000     7.7265   108.9341     2.4125     0.1264     0.0302   -56.0543     5.1913     6.4433
  651.0000     7.6881   109.7266     2.3838     0.1386     0.0448   -56.1690     5.2881     6.2447
  651.5000     7.6337   110.5511     2.3647     0.1508     0.0527   -55.6664     5.2791     6.2447
  652.0000     7.5624   110.1135     2.3560     0.1621     0.0699   -55.0913     5.2606     6.2447
  652.5000     7.5084   109.2024     2.3570     0.1658     0.0866   -54.8556     5.2421     6.5181
  653.0000     7.5202   108.9522     2.3689     0.1693     0.1165   -54.8514     5.2345     6.6793
  653.5000     7.5349   111.7002     2.3511     0.1729     0.1581   -54.2849     5.2288     6.7237
  654.0000     7.5476   115.2772     2.3365     0.1749     0.1452   -53.9811     5.2231     6.4379
  654.5000     7.5889   115.0167     2.3915     0.1264     0.1152   -53.9545     5.2174     6.1801
  655.0000     7.6761   110.6295     2.4226     0.1256     0.0873   -53.8149     5.2117     6.1487
  655.5000     7.7622   108.2310     2.4171     0.1296     0.0907   -54.3532     5.2059     6.1304
  656.0000     7.8478   106.4738     2.4137     0.1197     0.0936   -55.2479     5.2004     6.3623
  656.5000     7.9344   105.3680     2.4344     0.0964     0.0650   -55.7035     5.1947     6.6607
  657.0000     7.9653   103.9368     2.4811     0.0939     0.0355   -55.9160     5.1913     6.9731
  657.5000     7.9648   103.9062     2.4692     0.1040     0.0243   -56.1257     5.5381     7.1733
  658.0000     7.9639   106.4919     2.4510     0.0977     0.0232   -56.3361     5.9127     7.1579
  658.5000     7.9629   107.0498     2.4662     0.0936     0.0224   -56.3744     6.2549     7.1379
  659.0000     7.9619   103.2630     2.4752     0.0905     0.0187   -56.3757     6.3166     7.1178
  659.5000     7.9609    98.9544     2.4814     0.0875     0.0147   -56.3775     6.3789     7.0980
  660.0000     7.9600    96.3139     2.4806     0.1006     0.0108   -56.3653     6.4202     7.0783
  660.5000     7.9590    96.9531     2.4701     0.0992     0.0070   -55.9356     5.9138     7.0593
  661.0000     7.9581   100.8814     2.4590     0.1062     0.0057   -55.4683     5.5029     6.9956
  661.5000     7.9571   101.9829     2.4478     0.1113     0.0130   -55.5939     5.1206     6.6337
  662.0000     7.9562   101.9659     2.4406     0.1128     0.0203   -55.6445     4.7332     6.2903
  662.5000     7.9552   103.6087     2.4306     0.1208     0.0271   -55.2574     4.7103     5.9657
  663.0000     7.9543   105.3324     2.4158     0.1290     0.0306   -54.8689     4.6780     5.7465
  663.5000     7.9534   102.0294     2.4080     0.1328     0.0232   -54.8800     4.6460     5.7465
  664.0000     7.9524    99.0442     2.4197     0.1206     0.0097   -55.0533     4.6038     5.7465
  664.5000     7.9515   103.0043     2.4410     0.1078     0.0046   -55.1212     4.6395     6.1017
  665.0000     7.9505   106.7727     2.4624     0.0964     0.0062   -54.9144     4.6929     6.4488
  665.5000     7.9496   105.7330     2.4726     0.0934     0.0045   -54.7751     4.8682     6.8164
  666.0000     7.9487   104.2843     2.4748     0.0922     0.0026   -54.7784     5.4383     7.1782
  666.5000     7.9476   103.0213     2.4856     0.0860     0.0044   -54.7783     6.0751     7.4710
  667.0000     7.9465   103.6433     2.4852     0.0865     0.0066   -54.7782     6.3587     7.7766
  667.5000     7.9219   106.2560     2.4840     0.0844     0.0085   -54.7783     6.5707     8.0882
  668.0000     7.8726   107.2037     2.4916     0.0795     0.0075   -54.7785     6.7893     8.1641
  668.5000     7.8238   104.5231     2.5002     0.0759     0.0065   -54.7782     7.0149     8.2390
  669.0000     7.7867   100.2669     2.5075     0.0728     0.0066   -54.6995     7.1128     8.3926
  669.5000     7.7877   102.3245     2.4980     0.0836     0.0081   -54.6033     7.1223     8.3982
  670.0000     7.7877   105.4210     2.4891     0.0813     0.0097   -54.7068     7.1319     8.4038
  670.5000     7.7870   107.1466     2.4932     0.0803     0.0105   -54.8957     7.1415     8.4094
  671.0000     7.8276   106.3348     2.4982     0.0793     0.0098   -55.0868     7.1511     8.4149
  671.5000     7.8882   106.3159     2.5029     0.0761     0.0091   -55.2770     7.1608     8.4205
  672.0000     7.9452   107.0870     2.5025     0.0760     0.0085   -55.4661     7.1704     8.4261
  672.5000     7.9468   107.4007     2.5012     0.0771     0.0085   -55.5757     7.1801     8.4317
  673.0000     7.9465   104.5122     2.5000     0.0776     0.0085   -55.5758     7.1898     8.4373
  673.5000     7.9464   101.1309     2.4949     0.0807     0.0085   -55.5770     7.1995     8.4429
  674.0000     7.9464   101.3578     2.4899     0.0856     0.0085   -55.5764     7.2092     8.4485
  674.5000     7.9464   101.7233     2.4849     0.0884     0.0085   -55.5669     7.2190     8.4541
  675.0000     7.9464   101.1692     2.4858     0.0872     0.0076   -55.8674     7.2284     8.4597
  675.5000     7.9465   100.6399     2.4862     0.0880     0.0066   -56.2278     7.2376     8.4649
  676.0000     7.9465   101.2845     2.4821     0.0881     0.0057   -56.2996     7.2747     8.4704
  676.5000     7.9461   102.6037     2.4820     0.0888     0.0045   -56.1688     7.3925     8.6002
  677.0000     7.9207   106.6419     2.4811     0.0911     0.0109   -55.7599     7.7191     8.7498
  677.5000     7.8504   109.2825     2.4761     0.0952     0.0235   -55.3333     8.0579     8.9545
  678.0000     7.7800   103.2916     2.4712     0.0960     0.0362   -54.9077     8.3926     8.8735
  678.5000     7.7109    99.0143     2.4736     0.0939     0.0449   -54.4827     8.3306     8.7010
  679.0000     7.6853    99.6575     2.4760     0.0916     0.0529   -54.0572     8.2721     8.5318
  679.5000     7.6570   100.7465     2.4751     0.0920     0.0586   -53.6286     7.7851     8.3659
  680.0000     7.6242   101.0891     2.4708     0.0974     0.0575   -53.1977     6.8268     8.1122
  680.5000     7.5906   106.5013     2.4636     0.1038     0.0581   -53.1783     5.9865     7.5642
  681.0000     7.5974   115.5339     2.4390     0.1141     0.0618   -53.1809     5.5478     7.0533
  681.5000     7.6131   125.9681     2.4143     0.1252     0.0660   -53.1815     5.5529     6.5769
  682.0000     7.6287   122.5093     2.3897     0.1357     0.0703   -53.1826     5.5679     6.2447
  682.5000     7.6432   111.7888     2.3652     0.1470     0.0682   -53.1834     5.5879     6.2861
  683.0000     7.7296   101.1548     2.3531     0.1549     0.0591   -53.3725     5.5381     6.6885
  683.5000     7.8491    95.9757     2.3717     0.1399     0.0555   -53.7435     5.6678     7.0416
  684.0000     7.9748    93.2728     2.4222     0.1086     0.0523   -54.1129     5.9034     8.5265
  684.5000     7.9854    95.2113     2.4698     0.0800     0.0358   -54.4097     6.5635     9.4063
  685.0000     7.9868    99.0917     2.4946     0.0829     0.0191   -54.4990     7.4544     9.9128
  685.5000     7.9862   101.0549     2.4908     0.0856     0.0175   -54.5918     8.4662    10.1891
  686.0000     7.9861   101.2957     2.4879     0.0848     0.0182   -54.6850     9.4636    10.3928
  686.5000     7.9861   101.7849     2.4947     0.0788     0.0136   -54.7777     9.4636    10.4313
  687.0000     7.9861   101.9944     2.4972     0.0776     0.0088   -54.8716     9.2495    10.4698
  687.5000     7.9861   102.0010     2.4934     0.0825     0.0041   -54.9688     8.9533    10.5086
