~VERSION INFORMATION
 VERS.                2.0:   CWLS LOG ASCII STANDARD - VERSION 2.0
 WRAP.                 NO:   ONE LINE PER DEPTH STEP
~WELL INFORMATION
#MNEM.UNIT      DATA TYPE    INFORMATION
#----------   ------------   ------------------------------
 STRT.F           88.0000:   START DEPTH
 STOP.F          893.0000:   STOP DEPTH
 STEP.F            0.5000:   STEP LENGTH
 NULL.          -999.2500:   NO VALUE
 COMP.          U.S. NAVY:   COMPANY
 WELL. RES 3 TEAPOT DOM #24S-35:   WELL
 FLD .        TEAPOT DOME:   FIELD
 LOC .      S35 T39N R78W:   LOCATION
 CNTY.            NATRONA:   COUNTY
 STAT.            WYOMING:   STATE
 CTRY. UNITED STATES OF AMERICA:   COUNTRY
 SRVC.       Schlumberger:   SERVICE COMPANY
 DATE.        26-JUL-1963:   LOGDATE
 API .       490250654800:   API NUMBER
~CURVE INFORMATION
#MNEM.UNIT       API CODE    CURVE DESCRIPTION
#----------   ------------   ------------------------------
 DEPT.F                  :   
 CALS.IN     60 280 50 00:   CALIPER FROM SONIC LOG
 DT  .US/F   60 520 00 00:   INTERVAL TRANSIT TIME
 GR  .GAPI   30 310 01 00:   GAMMA RAY
 ASN .OHMM   05 041 16 00:   AMPLIFIED SHORT NORMAL 16"
 CILD.MMHO   05 110 46 00:   CONDUCTIVITY INDUCTION LOG DEEP
 ILD .OHMM   05 120 46 00:   INDUCTION LOG DEEP
 SPR .MV     05 010 01 00:   SPONTANEOUS POTENTIAL FROM RES.
~PARAMETER INFORMATION
#MNEM.UNIT          VALUE    DESCRIPTION
#----------   ------------   ------------------------------
 PD  .                 GL:   PERMANENT DATUM
 EPD .F              5116:   ELEVATION PERMANENT DATUM
 LMF .                 KB:   LOG MEASURED FROM
 DAPD.F                 5:   FEET ABOVE PERMANENT DATUM
 DMF .                 KB:   DRILLING MEASURED FROM
 EKB .F              5121:   KELLING BUSHING
 EGL .F              5116:   GROUND LEVEL
 DATE.        26-JUL-1963:   RUN DATE
 RUN .                  1:   RUN NUMBER
 DD  .F               900:   DEPTH DRILLER
 DL  .F               894:   DEPTH LOGGER
 BLI .F               893:   BOTTOM LOG INTERVAL
 TLI .F                88:   TOP LOG INTERVAL
 CBD .F                10:   CASING BOTTOM DRILLER
 BS  .IN             6.75:   BIT SIZE
 BSD .F               900:   BIT SIZE AT DEPTH
 DFT .            GEL-OIL:   DRILLING FLUID TYPE
 DFD .                9.5:   DRILLING FLUID DENSITY
 DFV .                 92:   DRILLING FLUID VISCOSITY
 DFPH.                9.5:   DRILLING FLUID PH
 DFL .                5.8:   DRILLING FLUID LOSS
 MSS .           FLOWLINE:   MUD SAMPLE SOURCE
 RMS .OHMM           4.05:   RESISTIVITY MUD SAMPLE
 MST .F                75:   MUD SAMPLE TEMPERATURE
 RMF .OHMM           3.91:   RESISTIVITY MUD FILTRATE SAMPLE
 MFST.F                75:   MUD FILTRATE SAMPLE TEMPERATURE
 RMC .OHMM           3.54:   RESISTIVITY MUD CAKE
 MCST.F                75:   MUD CAKE SAMPLE TEMPERATURE
 MFSS.               MEAS:   MUD FILTRATE SAMPLE SOURCE
 MCSS.               MEAS:   MUD CAKE SAMPLE SOURCE
 TCS .HRS             0.5:   TIME CURCULATED STOPPED
 LUN .               4507:   LOGGING UNIT NUMBER
 LUL .               CSPR:   LOGGING UNIT LOCATION
 ENGI.             KNOBEL:   RECORDING ENGINEER
 WITN.          JORGENSON:   WITNESSED BY
 CLNT.            A2DTECH:   CLIENT CODE
 ORIG.           5" PRINT:   ORIGIN OF DATA
 UWI .       490250654800:   UNIQUE WELL ID
 DICO. A2D Technologies, Inc.:   DIGITIZING COMPANY
~OTHER INFORMATION
~A   DEPT     CALS         DT         GR          ASN      CILD         ILD      SPR   
# ...
  406.5000     6.6502   117.3150  -999.2500     3.6006   330.8043     2.9819   -16.4465
  407.0000     6.6663   117.7992  -999.2500     3.4493   336.8741     2.9028   -16.4607
  407.5000     6.6519   118.2906  -999.2500     3.4039   339.1882     2.8244   -16.7739
  408.0000     6.6530   117.6859  -999.2500     3.3737   343.7026     2.7459   -16.7853
  408.5000     6.6539   116.3267  -999.2500     3.3283   350.5311     2.7136   -16.9476
  409.0000     6.6548   116.7033  -999.2500     3.2504   366.4643     2.6646   -16.8083
  409.5000     6.6557   118.8913  -999.2500     3.1316   380.8801     2.6616   -16.5181
  410.0000     6.6566   120.6264  -999.2500     3.0408   420.7893     2.5071   -16.3816
  410.5000     6.6575   122.3615  -999.2500     2.9047   453.7177     2.4287   -16.2394
  411.0000     6.6432   124.3300  -999.2500     2.7837   456.7527     2.3502   -16.2537
  411.5000     6.6441   127.2627  -999.2500     2.8325   441.5782     2.3473   -16.0327
  412.0000     6.6450   129.1516  -999.2500     2.9803   422.6100     2.4225   -15.9759
  412.5000     6.6459   129.6036  -999.2500     2.9803   406.2972     2.4926   -15.8937
  413.0000     6.6620   127.2633  -999.2500     3.0408   386.1912     2.6408   -15.6992
  413.5000     6.6935   124.9984  -999.2500     3.2526   371.7754     2.7890   -15.8615
  414.0000     6.6944   122.9599  -999.2500     3.5020   342.1851     3.0119   -16.0241
  414.5000     6.7105   119.8649  -999.2500     3.7670   294.3854     3.2356   -16.1890
  415.0000     6.6962   116.8453  -999.2500     3.9032   271.1683     3.3838   -16.5021
  415.5000     6.6515   113.7502  -999.2500     3.9788   260.2428     3.5320   -16.6644
  416.0000     6.6523   113.3721  -999.2500     4.0091   257.9666     3.6046   -16.6759
  416.5000     6.6378   114.0504  -999.2500     4.0393   258.7253     3.6010   -16.9894
  417.0000     6.6389   114.0497  -999.2500     4.0545   261.7603     3.5981   -17.1523
  417.5000     6.6398   113.8980  -999.2500     4.0242   267.2484     3.5196   -17.1656
  418.0000     6.6407   114.0484  -999.2500     3.9788   272.3824     3.3650   -17.1771
  418.5000     6.6568   114.1984  -999.2500     3.9334   277.6935     3.2866   -17.3394
  419.0000     6.6578   114.4241  -999.2500     3.9030   283.7633     3.2085   -17.3538
  419.5000     6.6588   114.6498  -999.2500     3.8275   289.8331     3.0542   -17.2115
  420.0000     6.6597   115.0264  -999.2500     3.7368   304.7548     2.9758   -17.0751
  420.5000     6.6606   115.4121  -999.2500     3.6762   321.6996     2.8967   -17.0251
  421.0000     6.6615   115.9416  -999.2500     3.6157   342.1851     2.7427   -16.7964
  421.5000     6.6776   116.7599  -999.2500     3.5401   376.3278     2.6643   -16.6570
  422.0000     6.6631   117.9667  -999.2500     3.4039   400.6070     2.5859   -16.5205
  422.5000     6.6642   120.1546  -999.2500     3.3132   431.6382     2.5830   -16.5320
  423.0000     6.6651   123.0973  -999.2500     3.1770   452.9590     2.5876   -16.2389
  423.5000     6.6660   124.6060  -999.2500     3.0408   458.2701     2.6528   -15.9447
  424.0000     6.6669   128.3034  -999.2500     3.0098   451.4416     2.8757   -15.6614
  424.5000     6.6678   130.2729  -999.2500     3.2179   436.2671     3.0246   -15.5221
  425.0000     6.6712   128.6038  -999.2500     3.4039   411.2291     3.3231   -15.5364
  425.5000     6.7154   126.0834  -999.2500     3.2526   382.3976     3.5481   -15.8495
  426.0000     6.7315   122.6399  -999.2500     3.1165   343.7026     3.7705   -16.1750
  426.5000     6.6868   117.0542  -999.2500     3.6611   297.4203     4.0690   -16.6295
  427.0000     6.6418   113.0535  -999.2500     4.0944   262.5190     4.2179   -16.7918
  427.5000     6.6123   110.4869  -999.2500     4.4932   229.1351     4.5164   -16.9541
  428.0000     6.6134   112.2218  -999.2500     4.7655   211.6844     4.6646   -16.9656
  428.5000     6.6143   112.9758  -999.2500     4.9319   203.3384     4.8128   -17.1282
  429.0000     6.6152   113.6543  -999.2500     5.0076   200.3035     4.9602   -17.1422
  429.5000     6.6313   113.1253  -999.2500     5.1471   195.7511     5.0515   -17.0015
  430.0000     6.6626   111.8969  -999.2500     5.4009   191.9575     5.1561   -17.0143
  430.5000     6.6635   110.7319  -999.2500     5.6581   186.6464     5.2887   -16.8748
  431.0000     6.6644   109.2738  -999.2500     5.9455   180.5766     5.4043   -16.7356
  431.5000     6.6351   107.9146  -999.2500     6.2179   174.5068     5.5500   -16.4454
  432.0000     6.6208   106.4799  -999.2500     6.3710   169.9342     5.6982   -16.4598
  432.5000     6.6217   105.4980  -999.2500     6.5507   166.9196     5.8463   -16.4713
  433.0000     6.6378   105.7237  -999.2500     6.6717   169.9545     5.9190   -16.3318
  433.5000     6.6387   105.8739  -999.2500     6.7020   171.4719     5.9909   -16.3462
  434.0000     6.6395   105.8732  -999.2500     6.6868   172.2307     6.1391   -16.3577
  434.5000     6.6405   106.0254  -999.2500     6.6717   173.3801     6.1355   -16.5200
  435.0000     6.6414   106.7220  -999.2500     6.6112   174.5068     6.2088   -16.8332
  435.5000     6.6423   107.3802  -999.2500     6.5961   176.0243     5.9786   -16.9955
  436.0000     6.6584   106.4738  -999.2500     6.5809   176.7830     5.9002   -17.1606
  436.5000     6.6441   106.3223  -999.2500     6.5809   176.7830     5.8973   -17.4738
  437.0000     6.6425   106.6988  -999.2500     6.6112   177.5417     5.8937   -17.6361
  437.5000     6.6306   106.7737  -999.2500     6.6263   177.5417     5.9671   -17.6475
  438.0000     6.6318   106.8484  -999.2500     6.6415   177.5417     6.1145   -17.6590
  438.5000     6.6327   106.7720  -999.2500     6.6415   177.5417     6.1116   -17.5197
  439.0000     6.6335   106.7713  -999.2500     6.6263   176.0243     6.1087   -17.2323
  439.5000     6.6344   106.7706  -999.2500     6.6112   174.5068     6.1813   -17.2438
  440.0000     6.6353   106.8453  -999.2500     6.5809   173.7481     6.1778   -17.2553
  440.5000     6.6362   107.1463  -999.2500     6.5809   172.2307     6.2504   -17.2668
  441.0000     6.6371   107.0701  -999.2500     6.5809   170.7132     6.2475   -17.1274
  441.5000     6.6380   106.7675  -999.2500     6.6112   168.4370     6.3958   -16.9880
  442.0000     6.6541   106.3139  -999.2500     6.7322   163.7632     6.4708   -16.7007
  442.5000     6.6398   105.3320  -999.2500     7.0424   156.2974     6.6913   -16.7122
  443.0000     6.6407   104.3502  -999.2500     7.3525   151.7451     6.7647   -16.5728
  443.5000     6.6416   103.5192  -999.2500     7.5189   146.4340     6.9121   -16.5872
  444.0000     6.6426   102.9821  -999.2500     7.6399   138.0880     7.0603   -16.7495
  444.5000     6.6436   102.7509  -999.2500     7.8215   131.9450     7.2084   -16.7610
  445.0000     6.6445   102.6112  -999.2500     7.9597   128.9833     7.3566   -17.0741
  445.5000     6.6454   102.6105  -999.2500     8.0938   128.9833     7.4293   -17.2368
  446.0000     6.6463   102.4588  -999.2500     8.1543   129.7420     7.5774   -17.5524
  446.5000     6.6317   102.4580  -999.2500     8.1543   131.2595     7.6501   -17.8655
  447.0000     6.6024   102.2309  -999.2500     8.0635   132.8628     7.6465   -18.0278
  447.5000     6.5426   101.8528  -999.2500     7.9259   135.0531     7.4169   -18.1901
  448.0000     6.4523   100.7200  -999.2500     7.7005   139.6055     7.1113   -17.9028
  448.5000     6.2835    99.2098  -999.2500     7.4887   147.1927     6.5041   -17.7606
  449.0000     6.3427   103.1336  -999.2500     7.2920   158.5736     5.5949   -17.4704
  449.5000     6.5768   103.2838  -999.2500     7.0045   184.3997     4.2325   -17.4848
  450.0000     6.4712   102.9057  -999.2500     6.3691   234.4461     3.2477   -17.3454
  450.5000     6.2896   103.4498  -999.2500     6.1269   292.1246     2.4133   -16.7618
  451.0000     6.2294   104.2808  -999.2500     5.6124   339.9421     2.1083   -16.3263
  451.5000     6.2303   108.4079  -999.2500     4.6743   385.4798     1.9544   -16.0458
