~VERSION INFORMATION
 VERS.                2.0:   CWLS LOG ASCII STANDARD - VERSION 2.0
 WRAP.                 NO:   ONE LINE PER DEPTH STEP
~WELL INFORMATION
#MNEM.UNIT      DATA TYPE    INFORMATION
#----------   ------------   ------------------------------
 STRT.F           80.5000:   START DEPTH
 STOP.F          768.0000:   STOP DEPTH
 STEP.F            0.5000:   STEP LENGTH
 NULL.          -999.2500:   NO VALUE
 COMP. U S NAVY/INTEX OIL CO:   COMPANY
 WELL. N.P.R. #3 #84-S-34:   WELL
 FLD .             TEAPOT:   FIELD
 LOC .      S34 T39N R78W:   LOCATION
 CNTY.            NATRONA:   COUNTY
 STAT.            WYOMING:   STATE
 CTRY. UNITED STATES OF AMERICA:   COUNTRY
 SRVC. Schlumberger Well Surveying Corp:   SERVICE COMPANY
 DATE.        17-FEB-1961:   LOGDATE
 API .       490250654000:   API NUMBER
~CURVE INFORMATION
#MNEM.UNIT       API CODE    CURVE DESCRIPTION
#----------   ------------   ------------------------------
 DEPT.F                  :   
 SPR .MV     05 010 01 00:   SPONTANEOUS POTENTIAL
 ASN .OHMM   05 041 16 00:   AMPLIFIED SHORT NORMAL 16"
 ILD .OHMM   05 120 46 00:   INDUCTION LOG DEEP
 CILD.MMHO   05 110 46 00:   CONDUCTIVITY INDUCTION LOG DEEP
 GR  .GAPI   30 310 01 00:   GAMMA RAY
~PARAMETER INFORMATION
#MNEM.UNIT          VALUE    DESCRIPTION
#----------   ------------   ------------------------------
 PD  .                 GL:   PERMANENT DATUM
 EPD .F              5083:   ELEVATION PERMANENT DATUM
 LMF .                 KB:   LOG MEASURED FROM
 DAPD.F                 4:   FEET ABOVE PERMANENT DATUM
 DMF .                 KB:   DRILLING MEASURED FROM
 EKB .F              5087:   KELLING BUSHING
 EGL .F              5083:   GROUND LEVEL
 DATE.            2-17-61:   RUN DATE
 RUN .                  1:   RUN NUMBER
 DD  .F               770:   DEPTH DRILLER
 DL  .F               769:   DEPTH LOGGER
 BLI .F               768:   BOTTOM LOG INTERVAL
 TLI .F                80:   TOP LOG INTERVAL
 CBD .F                12:   CASING BOTTOM DRILLER
 BS  .IN            7.875:   BIT SIZE
 BSD .F               770:   BIT SIZE AT DEPTH
 DFT .       GEL/OIL EMUL:   DRILLING FLUID TYPE
 DFD .                9.5:   DRILLING FLUID DENSITY
 DFV .                 50:   DRILLING FLUID VISCOSITY
 DFPH.                  8:   DRILLING FLUID PH
 DFL .                1.8:   DRILLING FLUID LOSS
 MSS .           FLOWLINE:   MUD SAMPLE SOURCE
 RMS .OHMM             .9:   RESISTIVITY MUD SAMPLE
 MST .F                69:   MUD SAMPLE TEMPERATURE
 RMF .OHMM            .54:   RESISTIVITY MUD FILTRATE SAMPLE
 MFST.F                69:   MUD FILTRATE SAMPLE TEMPERATURE
 RMC .OHMM           1.64:   RESISTIVITY MUD CAKE
 MCST.F                69:   MUD CAKE SAMPLE TEMPERATURE
 MFSS.                  M:   MUD FILTRATE SAMPLE SOURCE
 MCSS.                  M:   MUD CAKE SAMPLE SOURCE
 RMB .OHMM             .8:   RESISTIVITY MUD AT BHT
 BHT .F                78:   BOTTOM HOLE TEMPERATURE
 TCS .HRS               1:   TIME CURCULATED STOPPED
 MRT .F                78:   MAXIMUM RECORDED TEMPERATURE
 LUN .               2523:   LOGGING UNIT NUMBER
 LUL .               CSPR:   LOGGING UNIT LOCATION
 ENGI.             KNOBEL:   RECORDING ENGINEER
 WITN.          JORGENSEN:   WITNESSED BY
 CLNT.            A2DTECH:   CLIENT CODE
 ORIG.       2", 5" PRINT:   ORIGIN OF DATA
 UWI .       490250654000:   UNIQUE WELL ID
 DICO. A2D Technologies, Inc.:   DIGITIZING COMPANY
~OTHER INFORMATION
~A   DEPT      SPR        ASN        ILD       CILD         GR   
# ...
  324.5000   -21.9575     7.9649     5.8084   166.1039  -999.2500
  325.0000   -21.9000     8.0213     5.8339   164.6057  -999.2500
  325.5000   -21.8426     8.1793     5.9468   162.3519  -999.2500
  326.0000   -21.7853     8.3355     6.0583   160.0980  -999.2500
  326.5000   -21.7279     8.4917     6.1699   157.8441  -999.2500
  327.0000   -21.6706     8.6481     6.2816   155.5902  -999.2500
  327.5000   -21.6132     8.8044     6.3932   153.3363  -999.2500
  328.0000   -21.5557     8.9612     6.5048   151.0824  -999.2500
  328.5000   -21.4985     9.1161     6.6164   148.8285  -999.2500
  329.0000   -21.4449     9.1489     6.7280   146.5746  -999.2500
  329.5000   -21.4946     9.1659     6.8397   144.3207  -999.2500
  330.0000   -21.5877     9.2139     6.9513   142.0668  -999.2500
  330.5000   -21.6810     9.3121     7.0630   139.8129  -999.2500
  331.0000   -21.7745     9.4097     7.1747   137.5590  -999.2500
  331.5000   -21.8680     9.5075     7.2859   135.6136  -999.2500
  332.0000   -21.9615     9.6048     7.3963   134.1187  -999.2500
  332.5000   -22.0550     9.7015     7.4631   132.6238  -999.2500
  333.0000   -22.1480     9.7679     7.4637   131.0021  -999.2500
  333.5000   -22.2419     9.7798     7.4624   131.9598  -999.2500
  334.0000   -22.2393     9.7614     7.3528   133.0898  -999.2500
  334.5000   -22.1725     9.7101     7.2313   135.4971  -999.2500
  335.0000   -22.1051     9.5912     7.1100   138.1133  -999.2500
  335.5000   -22.0371     9.4728     6.9888   140.7294  -999.2500
  336.0000   -21.9692     9.3542     6.8676   143.3455  -999.2500
  336.5000   -21.9014     9.2355     6.7464   145.9616  -999.2500
  337.0000   -21.8336     9.1169     6.6250   148.5778  -999.2500
  337.5000   -21.7658     8.9982     6.5044   151.1939  -999.2500
  338.0000   -21.6979     8.8799     6.3843   153.9666  -999.2500
  338.5000   -21.6301     8.7617     6.3366   154.1514  -999.2500
  339.0000   -21.5623     8.6759     6.3842   154.5699  -999.2500
  339.5000   -21.4945     8.6757     6.4312   155.0104  -999.2500
  340.0000   -21.4262     8.7541     6.4789   153.9757  -999.2500
  340.5000   -21.3571     8.8373     6.5265   152.8837  -999.2500
  341.0000   -21.2911     8.7946     6.5741   151.7918  -999.2500
  341.5000   -21.3238     8.7442     6.6216   150.6998  -999.2500
  342.0000   -21.9064     8.7523     6.6692   149.6079  -999.2500
  342.5000   -22.4884     8.8309     6.7168   148.5159  -999.2500
  343.0000   -23.0616     8.9087     6.7642   147.4240  -999.2500
  343.5000   -23.5176     8.9867     6.8115   146.3320  -999.2500
  344.0000   -23.3024     9.0012     6.8312   145.2401  -999.2500
  344.5000   -23.1029     8.9420     6.8190   144.1481  -999.2500
  345.0000   -22.9057     8.8863     6.8068   143.0562  -999.2500
  345.5000   -22.7076     8.9469     6.7945   142.4290  -999.2500
  346.0000   -22.5095     9.0138     6.7821   142.3127  -999.2500
  346.5000   -22.3121     9.0803     6.7698   142.1964  -999.2500
  347.0000   -22.1140     9.1467     6.7574   142.0801  -999.2500
  347.5000   -21.9026     9.2137     6.7445   141.9639  -999.2500
  348.0000   -22.1697     9.2763     6.7354   141.8476  -999.2500
  348.5000   -22.5967     9.2174     6.8302   141.7313  -999.2500
  349.0000   -22.7035     9.1585     6.9299   141.6151  -999.2500
  349.5000   -22.4495     9.2428     7.0292   141.4988  -999.2500
  350.0000   -22.1142     9.3331     7.1283   140.6576  -999.2500
  350.5000   -21.7771     9.4227     7.2275   139.0879  -999.2500
  351.0000   -21.4397     9.4612     7.3267   137.5183  -999.2500
  351.5000   -21.0941     9.4493     7.4258   135.9486  -999.2500
  352.0000   -21.1339     9.4369     7.5248   134.3789  -999.2500
  352.5000   -21.2713     9.4294     7.6239   132.8092  -999.2500
  353.0000   -21.4124     9.5415     7.6714   131.2396  -999.2500
  353.5000   -21.5530     9.6575     7.6570   129.6699  -999.2500
  354.0000   -21.6932     9.7729     7.6422   128.9910  -999.2500
  354.5000   -21.8334     9.8844     7.6272   129.1281  -999.2500
  355.0000   -21.9735     9.9425     7.6122   129.2655  -999.2500
  355.5000   -22.1139     9.9981     7.5970   129.4051  -999.2500
  356.0000   -22.2541    10.0539     7.5812   129.5449  -999.2500
  356.5000   -22.3144    10.1097     7.5722   129.6844  -999.2500
  357.0000   -22.3567    10.1655     7.7017   129.8239  -999.2500
  357.5000   -22.3986    10.2213     7.8335   129.9583  -999.2500
  358.0000   -22.4406    10.2768     7.9645   127.1840  -999.2500
  358.5000   -22.4826    10.3314     8.0953   124.5097  -999.2500
  359.0000   -22.5247    10.3929     8.2261   121.8354  -999.2500
  359.5000   -22.5668    10.6214     8.3569   119.1612  -999.2500
  360.0000   -22.6089    10.8497     8.4877   116.4869  -999.2500
  360.5000   -22.6518    11.0767     8.6185   113.8126  -999.2500
  361.0000   -22.6932    11.3036     8.7493   111.1384  -999.2500
  361.5000   -22.5017    11.5304     8.8801   108.4632  -999.2500
  362.0000   -22.2725    11.7430     9.0110   105.9491  -999.2500
  362.5000   -22.0425    11.8290     9.1418   105.3943  -999.2500
  363.0000   -21.8130    11.9092     9.2726   104.9038  -999.2500
  363.5000   -21.5837    11.9896     9.4038   104.5877  -999.2500
  364.0000   -21.4429    12.0702     9.5356   104.2887  -999.2500
  364.5000   -21.6513    12.1502     9.6502   103.9897  -999.2500
  365.0000   -21.8855    12.2309     9.5509   104.3424  -999.2500
  365.5000   -22.1178    12.2074     9.4503   105.1795  -999.2500
  366.0000   -22.3440    12.1110     9.3510   105.9499  -999.2500
  366.5000   -22.2973    12.0138     9.2518   106.8191  -999.2500
  367.0000   -22.1359    11.9159     9.1527   107.6241  -999.2500
  367.5000   -21.9873    11.8181     9.0535   108.4290  -999.2500
  368.0000   -21.8346    11.7203     8.9543   109.2340  -999.2500
  368.5000   -21.6815    11.6227     8.8555   110.0389  -999.2500
  369.0000   -21.5275    11.5353     8.7557   110.8439  -999.2500
  369.5000   -21.4515    11.5522     8.7438   110.9018  -999.2500
  370.0000   -21.8965    11.5822     8.7878   110.4533  -999.2500
  370.5000   -22.3766    11.6120     8.8323   110.0049  -999.2500
  371.0000   -22.8559    11.6420     8.8773   109.5564  -999.2500
  371.5000   -23.1121    11.6719     8.9222   109.1079  -999.2500
  372.0000   -22.9609    11.7017     8.9670   108.6594  -999.2500
  372.5000   -22.8001    11.7324     9.0125   108.2109  -999.2500
  373.0000   -22.6377    11.7000     9.0066   108.3586  -999.2500
  373.5000   -22.4755    11.6307     8.9705   108.8813  -999.2500
  374.0000   -22.3147    11.5609     8.9342   109.4046  -999.2500
  374.5000   -22.1538    11.4911     8.8977   109.9280  -999.2500
  375.0000   -22.1622    11.4214     8.8613   110.4515  -999.2500
  375.5000   -22.3420    11.3502     8.8249   110.9747  -999.2500
  376.0000   -22.5218    11.3756     8.7885   111.6075  -999.2500
  376.5000   -22.6940    11.4535     8.7521   112.3052  -999.2500
  377.0000   -22.6322    11.5323     8.7157   113.0028  -999.2500
  377.5000   -22.5024    11.6115     8.6794   113.7004  -999.2500
  378.0000   -22.3732    11.6096     8.6430   114.3980  -999.2500
  378.5000   -22.2437    11.4010     8.5999   115.0957  -999.2500
  379.0000   -22.1139    11.1914     8.5162   115.7933  -999.2500
  379.5000   -21.9834    10.9822     8.4324   116.4323  -999.2500
  380.0000   -21.8673    10.7630     8.3487   116.7313  -999.2500
  380.5000   -21.9622    10.7525     8.2653   117.0303  -999.2500
  381.0000   -22.0606    10.8281     8.1655   117.3293  -999.2500
  381.5000   -22.1579    10.9069     7.9956   119.9201  -999.2500
  382.0000   -22.2550    10.9931     7.8229   123.7135  -999.2500
  382.5000   -22.3519    10.7934     7.6505   127.5069  -999.2500
  383.0000   -22.4497    10.4663     7.4781   131.3002  -999.2500
  383.5000   -22.4881    10.1370     7.3057   135.0936  -999.2500
  384.0000   -22.4604     9.7858     7.1335   138.8870  -999.2500
  384.5000   -22.4331     9.5919     6.9612   142.6804  -999.2500
  385.0000   -22.4059     9.3997     6.7824   146.5107  -999.2500
