~VERSION INFORMATION
 VERS.                2.0:   CWLS LOG ASCII STANDARD - VERSION 2.0
 WRAP.                 NO:   ONE LINE PER DEPTH STEP
~WELL INFORMATION
#MNEM.UNIT      DATA TYPE    INFORMATION
#----------   ------------   ------------------------------
 STRT.F            0.0000:   START DEPTH
 STOP.F         2230.0000:   STOP DEPTH
 STEP.F            0.5000:   STEP LENGTH
 NULL.          -999.2500:   NO VALUE
 COMP. LAWRENCE/ALLISON INC:   COMPANY
 WELL. NPR 3 SH X 34 #48-34:   WELL
 FLD .            WILDCAT:   FIELD
 LOC .      S34 T39N R78W:   LOCATION
 CNTY.            NATRONA:   COUNTY
 STAT.            WYOMING:   STATE
 CTRY. UNITED STATES OF AMERICA:   COUNTRY
 SRVC.            Unknown:   SERVICE COMPANY
 DATE.        02-SEP-1991:   LOGDATE
 API .       490251110600:   API NUMBER
~CURVE INFORMATION
#MNEM.UNIT       API CODE    CURVE DESCRIPTION
#----------   ------------   ------------------------------
 DEPT.F                  :   
 ROP .MIN/FT 91 810 01 00:   RAT OF DRILLING PENETRATION
 TGAS.UNITS  91 830 01 00:   TOTAL GAS FROM HOTWIRE
 C1  .VF     91 831 01 00:   METHANE
 C2  .VF     91 832 01 00:   ETHANE
 C3  .VF     91 833 01 00:   PROPANE
 C4  .VF     91 834 01 00:   BUTANE
 TT  .US/F   81 520 00 00:   TRANSIT TIME
 GR  .GAPI   81 310 01 00:   GAMMA RAY FROM CEMENT BOND LOG
~PARAMETER INFORMATION
#MNEM.UNIT          VALUE    DESCRIPTION
#----------   ------------   ------------------------------
 EKB .F              5145:   KELLING BUSHING
 EGL .F              5135:   GROUND LEVEL
 DATE.          09-2-1991:   RUN DATE
 RUN .                  1:   RUN NUMBER
 BLI .F              2400:   BOTTOM LOG INTERVAL
 TLI .F              2200:   TOP LOG INTERVAL
 ENGI.           C. TOWER:   RECORDING ENGINEER
 WITN.            R. HUSK:   WITNESSED BY
 CLNT.            A2DTECH:   CLIENT CODE
 ORIG.           5" PRINT:   ORIGIN OF DATA
 UWI .       490251110600:   UNIQUE WELL ID
 DICO. A2D Technologies, Inc.:   DIGITIZING COMPANY
~OTHER INFORMATION
~A    DEPT     ROP       TGAS         C1         C2         C3         C4          TT         GR  
# ...
 2106.0000     0.5401    43.4177    15.2381     2.1760     1.4555     0.0000  -999.2500  -999.2500
 2106.5000     0.5407    43.3583    15.1925     2.2032     1.4429     0.0000  -999.2500  -999.2500
 2107.0000     0.5414    43.2990    15.1470     2.2305     1.4303     0.0000  -999.2500  -999.2500
 2107.5000     0.5421    43.2396    15.1014     2.2578     1.4177     0.0000  -999.2500  -999.2500
 2108.0000     0.5428    43.1803    15.0558     2.2852     1.4049     0.0027  -999.2500  -999.2500
 2108.5000     0.5435    43.1209    15.0102     2.3126     1.3934     0.0109  -999.2500  -999.2500
 2109.0000     0.5441    43.0616    14.9650     2.3400     1.4200     0.0190  -999.2500  -999.2500
 2109.5000     0.5448    43.0022    14.9208     2.3669     1.4485     0.0271  -999.2500  -999.2500
 2110.0000     0.5455    42.9429    14.8700     2.3776     1.4768     0.0353  -999.2500  -999.2500
 2110.5000     0.5462    42.8835    14.6717     2.3412     1.5051     0.0434  -999.2500  -999.2500
 2111.0000     0.5469    42.8242    14.4804     2.3064     1.5333     0.0516  -999.2500  -999.2500
 2111.5000     0.5476    42.7648    14.2907     2.2717     1.5616     0.0597  -999.2500  -999.2500
 2112.0000     0.5483    42.7055    14.1013     2.2369     1.5899     0.0678  -999.2500  -999.2500
 2112.5000     0.5489    42.6461    13.9118     2.2022     1.6181     0.0760  -999.2500  -999.2500
 2113.0000     0.5496    42.5868    13.7223     2.1668     1.6458     0.0841  -999.2500  -999.2500
 2113.5000     0.5503    42.5275    13.5328     2.1761     1.6728     0.0922  -999.2500  -999.2500
 2114.0000     0.5510    42.4681    13.3432     2.2051     1.6994     0.1004  -999.2500  -999.2500
 2114.5000     0.5517    42.4087    13.1536     2.2345     1.7259     0.1086  -999.2500  -999.2500
 2115.0000     0.5524    42.3494    12.9660     2.2640     1.7524     0.1166  -999.2500  -999.2500
 2115.5000     0.5530    42.2901    12.8104     2.2934     1.7789     0.1187  -999.2500  -999.2500
 2116.0000     0.5537    42.2307    12.6658     2.3228     1.8055     0.0862  -999.2500  -999.2500
 2116.5000     0.5544    42.1714    12.5208     2.3524     1.8322     0.0540  -999.2500  -999.2500
 2117.0000     0.5551    42.1120    12.3758     2.3830     1.8579     0.0218  -999.2500  -999.2500
 2117.5000     0.5558    42.0527    12.2307     2.3551     1.8835     0.0000  -999.2500  -999.2500
 2118.0000     0.5565    41.9933    12.0850     2.3185     1.7517     0.0000  -999.2500  -999.2500
 2118.5000     0.5572    41.9339    11.9531     2.2812     1.4455     0.0000  -999.2500  -999.2500
 2119.0000     0.5575    41.8742    12.0621     2.2436     1.1380     0.0000  -999.2500  -999.2500
 2119.5000     0.5568    41.7490    12.1746     2.2071     0.8338     0.0000  -999.2500  -999.2500
 2120.0000     0.5561    41.7652    12.1717     2.1648     0.5280     0.9476  -999.2500  -999.2500
 2120.5000     0.5554    41.4763    12.2431     2.3525     0.1402     8.2930  -999.2500  -999.2500
 2121.0000     0.5548    58.1757    21.9632     3.9907     3.9576    15.3765  -999.2500  -999.2500
 2121.5000     0.5541   116.4477   110.6263     5.7982     9.6385    20.9664  -999.2500  -999.2500
 2122.0000     0.5534   179.3153   172.5183     7.6110    10.0314    20.8033  -999.2500  -999.2500
 2122.5000     0.5527   178.4697   177.1944     9.4219     9.9990    20.6232  -999.2500  -999.2500
 2123.0000     0.5521   179.5444   177.1510    11.2131    10.0006    20.5578  -999.2500  -999.2500
 2123.5000     0.5514   180.8466   176.8073    12.7066    10.0055    20.1571  -999.2500  -999.2500
 2124.0000     0.5507   181.1308   176.7500    12.3129     9.7360    21.4143  -999.2500  -999.2500
 2124.5000     0.5500   169.2264   149.9578    11.5008     9.3421     4.7565  -999.2500  -999.2500
 2125.0000     0.5494   147.2797   109.7079    10.6701     8.9461     4.0248  -999.2500  -999.2500
 2125.5000     0.5487   125.1647    69.4511    10.1918     8.5498     4.0246  -999.2500  -999.2500
 2126.0000     0.5480   102.3308    31.6701     9.7913     8.1540     4.0546  -999.2500  -999.2500
 2126.5000     0.5473    99.4919    31.0462     9.3972     7.7585     4.0501  -999.2500  -999.2500
 2127.0000     0.5467    99.7172    31.2939     9.0060     7.3583     4.0425  -999.2500  -999.2500
 2127.5000     0.5460    99.7530    31.3167     8.7457     7.2479     4.0349  -999.2500  -999.2500
 2128.0000     0.5453    99.7486    31.4528     8.7502     7.2953     4.0273  -999.2500  -999.2500
 2128.5000     0.5446    99.7500    31.5842     8.7498     7.3446     4.0197  -999.2500  -999.2500
 2129.0000     0.5440    99.7500    31.7157     8.7496     7.3943     4.0121  -999.2500  -999.2500
 2129.5000     0.5433    99.7500    31.8460     8.7155     7.4438     4.0044  -999.2500  -999.2500
 2130.0000     0.5426    99.7500    31.9548     8.6496     7.4932     3.9968  -999.2500  -999.2500
 2130.5000     0.5419    99.7500    31.9513     8.5836     7.5426     3.9892  -999.2500  -999.2500
 2131.0000     0.5413    99.7500    31.9511     8.5174     7.5920     3.9816  -999.2500  -999.2500
 2131.5000     0.5406    99.7500    31.9513     8.4512     7.6414     3.9740  -999.2500  -999.2500
 2132.0000     0.5399    99.7500    31.9512     8.3851     7.6905     3.9664  -999.2500  -999.2500
 2132.5000     0.5393    99.7500    31.9512     8.3176     7.7220     3.9588  -999.2500  -999.2500
 2133.0000     0.5386    99.7500    31.9512     8.3238     7.7215     3.9512  -999.2500  -999.2500
 2133.5000     0.5379    99.7500    31.9512     8.3666     7.7215     3.9436  -999.2500  -999.2500
 2134.0000     0.5372    99.7500    31.9512     8.4098     7.7215     3.9360  -999.2500  -999.2500
 2134.5000     0.5366    99.7500    31.9512     8.4532     7.7215     3.9283  -999.2500  -999.2500
 2135.0000     0.5359    99.7500    31.9512     8.4966     7.7215     3.9207  -999.2500  -999.2500
 2135.5000     0.5352    99.7500    31.9512     8.5531     7.7215     3.9131  -999.2500  -999.2500
 2136.0000     0.5345    99.7500    31.9512     8.6309     7.7215     3.9055  -999.2500  -999.2500
 2136.5000     0.5339    99.7500    31.9512     8.7085     7.7215     3.8979  -999.2500  -999.2500
 2137.0000     0.5332    99.7500    31.9512     8.7862     7.7215     3.8903  -999.2500  -999.2500
 2137.5000     0.5326    99.7500    31.9512     8.8637     7.7215     3.8827  -999.2500  -999.2500
 2138.0000     0.5333    99.7500    31.9512     8.9408     7.7215     3.8751  -999.2500  -999.2500
 2138.5000     0.5339    99.7500    31.9512     8.9593     7.7215     3.8675  -999.2500  -999.2500
 2139.0000     0.5346    99.7500    31.9512     8.8977     7.7215     3.8599  -999.2500  -999.2500
 2139.5000     0.5353    99.7500    31.9512     8.8383     7.7215     3.8523  -999.2500  -999.2500
 2140.0000     0.5359    99.7500    31.9512     8.7788     7.7215     3.8447  -999.2500  -999.2500
 2140.5000     0.5365    99.7500    31.9512     8.7192     7.7215     3.8371  -999.2500  -999.2500
 2141.0000     0.5372    99.7500    31.9512     8.6597     7.7215     3.8292  -999.2500  -999.2500
 2141.5000     0.5379    99.7500    31.9512     8.6002     7.7215     3.8272  -999.2500  -999.2500
 2142.0000     0.5385    99.7500    31.9512     8.5387     7.7215     3.8271  -999.2500  -999.2500
 2142.5000     0.5391    99.7500    31.9512     8.5231     7.7215     3.8272  -999.2500  -999.2500
 2143.0000     0.5398    99.7500    31.9512     8.5225     7.7215     3.8272  -999.2500  -999.2500
 2143.5000     0.5404    99.7500    31.9512     8.5227     7.7215     3.8272  -999.2500  -999.2500
 2144.0000     0.5411    99.7500    31.9512     8.5227     7.7215     3.8272  -999.2500  -999.2500
 2144.5000     0.5418    99.7500    31.9512     8.5227     7.7215     3.8272  -999.2500  -999.2500
 2145.0000     0.5424    99.7500    31.9512     8.5227     7.7215     3.8272  -999.2500  -999.2500
 2145.5000     0.5430    99.7500    31.9512     8.5227     7.7215     3.8320  -999.2500  -999.2500
 2146.0000     0.5437    99.7500    31.9512     8.5227     7.7215     3.8415  -999.2500  -999.2500
