~VERSION INFORMATION
 VERS.                2.0:   CWLS LOG ASCII STANDARD - VERSION 2.0
 WRAP.                 NO:   ONE LINE PER DEPTH STEP
~WELL INFORMATION
#MNEM.UNIT      DATA TYPE    INFORMATION
#----------   ------------   ------------------------------
 STRT.F            8.0000:   START DEPTH
 STOP.F          420.0000:   STOP DEPTH
 STEP.F            0.5000:   STEP LENGTH
 NULL.          -999.2500:   NO VALUE
 COMP.    FENIX & SCISSON:   COMPANY
 WELL.    NPR 3 SX #61-10:   WELL
 FLD .             TEAPOT:   FIELD
 LOC .      S10 T38N R78W:   LOCATION
 CNTY.            NATRONA:   COUNTY
 STAT.            WYOMING:   STATE
 CTRY. UNITED STATES OF AMERICA:   COUNTRY
 SRVC.            Unknown:   SERVICE COMPANY
 DATE.        20-NOV-1978:   LOGDATE
 API .       490251074900:   API NUMBER
~CURVE INFORMATION
#MNEM.UNIT       API CODE    CURVE DESCRIPTION
#----------   ------------   ------------------------------
 DEPT.F                  :   
 ILD .OHMM   01 120 46 00:   LOG INDUCTION
 SN  .OHMM   01 040 00 00:   SHORT NORMAL
 SPR .MV     01 010 01 00:   SPONTANEOUS POTENSIAL
 CALD.IN     45 280 60 00:   CALIPER
 GRD .GAPI   45 310 01 00:   GAMMA RAY FROM DENSITY LOG
 DPHI.DEC    45 890 12 00:   DENSITY POROSITY SANDSTONE
 RHOB.G/C3   45 350 01 00:   BULK DENSITY
 CORR.G/C3   45 356 01 00:   DENSITY CORRECTION
~PARAMETER INFORMATION
#MNEM.UNIT          VALUE    DESCRIPTION
#----------   ------------   ------------------------------
 PD  .                 GL:   PERMANENT DATUM
 EPD .F              5145:   ELEVATION PERMANENT DATUM
 LMF .                 KB:   LOG MEASURED FROM
 DAPD.F                 4:   FEET ABOVE PERMANENT DATUM
 DMF .                 KB:   DRILLING MEASURED FROM
 EKB .F              5149:   KELLING BUSHING
 EGL .F              5145:   GROUND LEVEL
 DATE.        20-NOV-1978:   RUN DATE
 RUN .                  1:   RUN NUMBER
 DD  .F               435:   DEPTH DRILLER
 DL  .F               426:   DEPTH LOGGER
 BLI .F               420:   BOTTOM LOG INTERVAL
 TLI .F                48:   TOP LOG INTERVAL
 CS  .IN            8.625:   CASING SIZE
 CBD .F                40:   CASING BOTTOM DRILLER
 CBL .F                42:   CASING BOTTOM LOGGER
 BS  .IN            7.875:   BIT SIZE
 BSD .F               435:   BIT SIZE AT DEPTH
 DFT .                KCL:   DRILLING FLUID TYPE
 DFD .                8.6:   DRILLING FLUID DENSITY
 DFV .                 38:   DRILLING FLUID VISCOSITY
 DFPH.                9.8:   DRILLING FLUID PH
 DFL .                 10:   DRILLING FLUID LOSS
 MSS .           FLOWLINE:   MUD SAMPLE SOURCE
 RMS .OHMM            .39:   RESISTIVITY MUD SAMPLE
 MST .F                54:   MUD SAMPLE TEMPERATURE
 RMF .OHMM            .26:   RESISTIVITY MUD FILTRATE SAMPLE
 MFST.F                72:   MUD FILTRATE SAMPLE TEMPERATURE
 RMC .OHMM            .34:   RESISTIVITY MUD CAKE
 MCST.F                74:   MUD CAKE SAMPLE TEMPERATURE
 MFSS.           MEASURED:   MUD FILTRATE SAMPLE SOURCE
 RMB .OHMM            .33:   RESISTIVITY MUD AT BHT
 BHT .F                63:   BOTTOM HOLE TEMPERATURE
 TCS .HRS               1:   TIME CURCULATED STOPPED
 MRT .F                63:   MAXIMUM RECORDED TEMPERATURE
 LUN .               2958:   LOGGING UNIT NUMBER
 LUL .               CASP:   LOGGING UNIT LOCATION
 ENGI.             MILLER:   RECORDING ENGINEER
 WITN.              AMEND:   WITNESSED BY
 CLNT.            A2DTECH:   CLIENT CODE
 ORIG.        2" 5" PRINT:   ORIGIN OF DATA
 UWI .       490251074900:   UNIQUE WELL ID
 DICO. A2D Technologies, Inc.:   DIGITIZING COMPANY
~OTHER INFORMATION
~A    DEPT     ILD         SN        SPR       CALD         GRD      DPHI       RHOB       CORR   
# ...
   48.5000     6.1135     9.3398    -9.8966     7.5656   104.5656     0.1642     2.3932     0.0426
   49.0000     5.9171     9.1537   -10.0265     7.4634   104.8700     0.1558     2.4008     0.0488
   49.5000     5.9223     9.2917    -9.8536     7.3895   104.7267     0.1380     2.4241     0.0550
   50.0000     5.9688     9.4298    -9.6854     7.2858   101.7060     0.1329     2.4505     0.0566
   50.5000     6.0996     9.6364    -9.6663     7.1672   101.0163     0.1347     2.4619     0.0537
   51.0000     6.3203     9.7120    -9.6472     7.1676   101.0217     0.1428     2.4598     0.0478
   51.5000     6.5489     9.8563    -9.6281     7.1681   102.9606     0.1470     2.4431     0.0433
   52.0000     6.7858    10.4274    -9.6090     7.1685   105.3459     0.1485     2.4364     0.0480
   52.5000     7.0313    10.2172    -9.7392     7.1689   105.6479     0.1420     2.4432     0.0496
   53.0000     7.2857    10.4695    -9.7199     7.1991   112.0511     0.1357     2.4575     0.0482
   53.5000     7.5493    10.7490   -10.4550     7.1996   112.7995     0.1337     2.4621     0.0438
   54.0000     7.7683    10.3921   -11.5052     7.2149   111.4646     0.1388     2.4606     0.0349
   54.5000     7.9938    12.1171   -12.8967     7.2302   109.3854     0.1369     2.4591     0.0365
   55.0000     8.2258    12.1278   -14.7057     7.2158   109.6876     0.1306     2.4641     0.0459
   55.5000     8.4685    12.0520   -14.8404     7.2311   109.6920     0.1315     2.4660     0.0553
   56.0000     8.6582    12.7532   -14.5185     7.2465   109.3987     0.1290     2.4668     0.0716
   56.5000     8.8415    13.4921   -14.6532     7.3511   109.2542     0.1091     2.4833     0.0898
   57.0000     8.9728    13.4108   -15.2254     7.5599   111.4918     0.0991     2.5111     0.1065
   57.5000     8.9808    13.2350   -16.2496     7.6496   114.4724     0.0881     2.5375     0.1081
   58.0000     8.8650    13.5280   -17.1246     7.7096   114.6256     0.0947     2.5330     0.0857
   58.5000     8.6903    13.9206   -17.4084     7.7100   113.7371     0.1259     2.4948     0.0511
   59.0000     8.5171    14.0298   -17.5383     7.6807   108.0867     0.1397     2.4700     0.0451
   59.5000     8.4074    13.7421   -17.6635     7.6661   107.7923     0.1499     2.4491     0.0453
   60.0000     8.2990    13.2048   -17.9424     7.6518   103.1847     0.1553     2.4341     0.0499
   60.5000     8.2490    13.4971   -18.2214     7.5927   101.5521     0.1619     2.4191     0.0516
   61.0000     8.3734    13.6030   -18.3517     7.5336   106.5466     0.1601     2.4085     0.0517
   61.5000     8.4978    13.5210   -18.3322     7.5178   108.2573     0.1596     2.4063     0.0518
   62.0000     8.6240    12.9818   -18.1639     7.4278   102.4592     0.1579     2.4095     0.0504
   62.5000     8.7521    12.1233   -18.1446     7.3416   102.6123     0.1414     2.4366     0.0488
   63.0000     9.0104    12.0502   -17.9762     7.2676   102.1703     0.1372     2.4496     0.0446
   63.5000     9.2763    12.0609   -17.8039     7.2085   106.4901     0.1308     2.4603     0.0402
   64.0000     9.5385    12.0716   -17.6358     7.1791   111.4052     0.1227     2.4735     0.0464
   64.5000     9.7476    11.9988   -17.6167     7.1797   103.8203     0.1176     2.4818     0.0586
   65.0000    10.0304    11.9262   -17.2995     7.1651   103.5259     0.1157     2.4886     0.0602
   65.5000    10.2502    11.9371   -16.9823     7.1805    99.2159     0.1160     2.4946     0.0618
   66.0000    10.4749    11.9477   -16.8142     7.2107    98.6250     0.1154     2.4932     0.0695
   66.5000    10.6305    12.0489   -16.7951     7.2409    95.0579     0.1034     2.4992     0.0832
   67.0000    10.7884    12.2343   -16.9298     7.2860    97.0803     0.0997     2.5150     0.0954
   67.5000    10.9487    12.7532   -16.9059     7.3021   105.1868     0.0991     2.5354     0.1015
   68.0000    11.1886    13.1233   -16.8868     7.4520   106.6782     0.1069     2.5264     0.0926
   68.5000    11.3548    13.2262   -16.8677     7.4982   103.5586     0.1117     2.5069     0.0714
   69.0000    11.5235    13.2379   -17.2957     7.5259   104.0094     0.1086     2.4972     0.0593
   69.5000    11.6139    13.5280   -17.8733     7.5264   100.1447     0.1035     2.5032     0.0462
   70.0000    11.7865    13.9206   -17.7046     7.5269   101.3396     0.0996     2.5191     0.0358
   70.5000    11.9617    14.1273   -17.3874     7.5123    95.8378     0.1101     2.5131     0.0283
   71.0000    12.1509    14.2382   -16.9210     7.5724    95.8427     0.1152     2.5026     0.0269
   71.5000    12.4080    14.2508   -16.7526     7.6175    96.1447     0.1134     2.4922     0.0240
   72.0000    12.6799    14.3626   -16.7332     7.6477    96.8931     0.1206     2.4855     0.0227
   72.5000    12.7794    14.3753   -16.7101     7.6629    95.7070     0.1223     2.4803     0.0243
   73.0000    12.8797    14.3882   -16.6910     7.6039    94.5209     0.1250     2.4773     0.0289
   73.5000    12.9808    14.4011   -16.3738     7.5448    94.5412     0.1211     2.4788     0.0321
   74.0000    12.9923    14.3140   -15.4606     7.6048    96.2540     0.1202     2.4819     0.0337
   74.5000    13.0038    14.2277   -15.4415     7.6039    99.8922     0.1235     2.4834     0.0308
   75.0000    13.1059    14.0474   -15.4224     7.5759    98.5573     0.1316     2.4775     0.0279
   75.5000    13.1175    14.0598   -15.2012     7.5466    95.4366     0.1367     2.4647     0.0250
   76.0000    13.1291    13.9720   -16.0373     7.5321    94.6970     0.1398     2.4591     0.0236
   76.5000    13.0496    13.8908   -16.6629     7.5177    94.7013     0.1417     2.4506     0.0252
   77.0000    13.0616    13.8041   -16.6448     7.5331    94.8545     0.1402     2.4484     0.0254
   77.5000    12.9829    13.6291   -16.6269     7.5185    95.3053     0.1378     2.4514     0.0240
   78.0000    12.7213    13.6412   -16.7549     7.4893    95.4585     0.1362     2.4552     0.0271
   78.5000    12.3790    13.5585   -17.0358     7.4600    91.2961     0.1353     2.4568     0.0333
   79.0000    12.3153    13.4770   -17.1719     7.4306    90.2588     0.1401     2.4583     0.0334
   79.5000    12.3290    13.3960   -17.4484     7.3716    91.1364     0.1413     2.4531     0.0320
   80.0000    12.4257    13.4080   -17.4308     7.3571    96.9651     0.1425     2.4501     0.0367
   80.5000    12.5232    13.4201   -17.2639     7.3427    99.9456     0.1418     2.4502     0.0443
   81.0000    12.6215    13.4346   -16.9478     7.2811    98.9083     0.1391     2.4525     0.0565
   81.5000    12.8090    13.5400   -16.6317     7.1255    93.8532     0.1288     2.4631     0.0627
   82.0000    12.9095    13.4554   -17.0663     6.9870    88.3516     0.1255     2.4700     0.0643
   82.5000    12.9210    13.3772   -16.4472     6.9874    87.7596     0.1243     2.4752     0.0564
   83.0000    12.9324    13.2937   -16.2804     7.0771    87.9139     0.1243     2.4752     0.0449
   83.5000    12.9439    13.2135   -16.1135     7.1966    89.5551     0.1225     2.4760     0.0405
   84.0000    12.8655    13.0461   -17.3035     7.2417    93.4445     0.1195     2.4738     0.0391
   84.5000    12.6122    12.8779   -17.4216     7.2868    96.2604     0.1164     2.4633     0.0393
   85.0000    12.3638    12.7974   -17.1011     7.3319    95.6705     0.1317     2.4566     0.0439
   85.5000    12.2893    12.8116   -16.9342     7.3770    95.2284     0.1368     2.4567     0.0486
   86.0000    12.1309    12.7344   -16.9166     7.3774    94.7864     0.1350     2.4575     0.0456
   86.5000    12.1443    12.6576   -17.0527     7.3778    94.6408     0.1383     2.4545     0.0442
   87.0000    12.1551    12.5735   -17.3336     7.3783    91.3725     0.1389     2.4515     0.0459
   87.5000    12.1658    12.5055   -17.6145     7.4097    89.7399     0.1397     2.4501     0.0505
   88.0000    12.0090    12.5193   -18.0403     7.4411    88.7026     0.1313     2.4533     0.0612
   88.5000    11.3689    12.5304   -17.8734     7.5136    89.8975     0.1138     2.4676     0.0764
