~VERSION INFORMATION
 VERS.                2.0:   CWLS LOG ASCII STANDARD - VERSION 2.0
 WRAP.                 NO:   ONE LINE PER DEPTH STEP
~WELL INFORMATION
#MNEM.UNIT      DATA TYPE    INFORMATION
#----------   ------------   ------------------------------
 STRT.F          160.0000:   START DEPTH
 STOP.F         1181.5000:   STOP DEPTH
 STEP.F            0.5000:   STEP LENGTH
 NULL.          -999.2500:   NO VALUE
 COMP.            US NAVY:   COMPANY
 WELL. RES 3 TEAPOT DOM #71-SX-14:   WELL
 FLD .             TEAPOT:   FIELD
 LOC .      S14 T38N R78W:   LOCATION
 CNTY.            NATRONA:   COUNTY
 STAT.            WYOMING:   STATE
 CTRY. UNITED STATES OF AMERICA:   COUNTRY
 SRVC.       Schlumberger:   SERVICE COMPANY
 DATE.        23-AUG-1959:   LOGDATE
 API .       490250632200:   API NUMBER
~CURVE INFORMATION
#MNEM.UNIT       API CODE    CURVE DESCRIPTION
#----------   ------------   ------------------------------
 DEPT.F                  :   
 SPR .MV     05 010 01 00:   SPONTANEOUS POTENTIAL FROM RES.
 IL  .OHMM   05 120 00 00:   INDUCTION LOG
 ASN .OHMM   05 041 16 00:   AMPLIFIED SHORT NORMAL 16"
 CIL .MMHO   05 110 00 00:   CONDUCTIVITY INDUCTION LOG
~PARAMETER INFORMATION
#MNEM.UNIT          VALUE    DESCRIPTION
#----------   ------------   ------------------------------
 PD  .                 GL:   PERMANENT DATUM
 EPD .F              5259:   ELEVATION PERMANENT DATUM
 LMF .                 KB:   LOG MEASURED FROM
 DAPD.F                 4:   FEET ABOVE PERMANENT DATUM
 DMF .                 KB:   DRILLING MEASURED FROM
 EKB .F              5263:   KELLING BUSHING
 EGL .F              5259:   GROUND LEVEL
 DATE.            8-23-59:   RUN DATE
 RUN .                  1:   RUN NUMBER
 DD  .F              1190:   DEPTH DRILLER
 DL  .F              1186:   DEPTH LOGGER
 BLI .F              1180:   BOTTOM LOG INTERVAL
 TLI .F               150:   TOP LOG INTERVAL
 CBD .F                17:   CASING BOTTOM DRILLER
 BS  .IN             6.75:   BIT SIZE
 BSD .F              1190:   BIT SIZE AT DEPTH
 DFT .                GEL:   DRILLING FLUID TYPE
 DFD .                9.5:   DRILLING FLUID DENSITY
 DFV .                 52:   DRILLING FLUID VISCOSITY
 MSS .           FLOWLINE:   MUD SAMPLE SOURCE
 RMS .OHMM            2.6:   RESISTIVITY MUD SAMPLE
 MST .F                62:   MUD SAMPLE TEMPERATURE
 MFSS.                  M:   MUD FILTRATE SAMPLE SOURCE
 MCSS.                  M:   MUD CAKE SAMPLE SOURCE
 RMB .OHMM            2.2:   RESISTIVITY MUD AT BHT
 BHT .F                80:   BOTTOM HOLE TEMPERATURE
 TCS .HRS               1:   TIME CURCULATED STOPPED
 MRT .F                80:   MAXIMUM RECORDED TEMPERATURE
 LUN .               2523:   LOGGING UNIT NUMBER
 LUL .               CSPR:   LOGGING UNIT LOCATION
 ENGI.             ATWOOD:   RECORDING ENGINEER
 WITN.             MARTIN:   WITNESSED BY
 CLNT.            A2DTECH:   CLIENT CODE
 ORIG.     1", 2.5" PRINT:   ORIGIN OF DATA
 UWI .       490250632200:   UNIQUE WELL ID
 DICO. A2D Technologies, Inc.:   DIGITIZING COMPANY
~OTHER INFORMATION
~A   DEPT      SPR           IL        ASN      CIL   
# ...
  817.0000   -40.5231     8.1991     8.7444   143.2008
  817.5000   -40.6580     8.3597     8.8447   141.7860
  818.0000   -40.8791     8.5214     9.0183   140.1751
  818.5000   -41.0844     8.6807     9.2232   138.0245
  819.0000   -41.2870     8.8414     9.4253   135.5278
  819.5000   -41.4955     9.0016     9.6315   133.0311
  820.0000   -41.6971     9.1619     9.8277   130.5345
  820.5000   -41.9049     9.3222    10.0467   128.0378
  821.0000   -41.9689     9.4825    10.2000   125.5411
  821.5000   -41.9646     9.6427    10.3479   123.0444
  822.0000   -41.9642     9.8029    10.5147   120.5477
  822.5000   -41.9653     9.9633    10.7218   118.0510
  823.0000   -41.9644    10.1234    10.8984   115.5544
  823.5000   -41.9648    10.2839    11.0744   113.0577
  824.0000   -41.9646    10.4443    11.2565   110.5610
  824.5000   -41.9645    10.6036    11.4346   108.0643
  825.0000   -41.9653    10.7664    11.6140   105.5676
  825.5000   -41.9631    10.9237    11.7925   103.0710
  826.0000   -41.9629    11.0744    11.9744   100.5743
  826.5000   -41.8571    11.0799    12.1493    98.1517
  827.0000   -41.7118    11.0851    12.3175    98.1517
  827.5000   -41.5652    11.0804    12.3199    98.1517
  828.0000   -41.4271    11.0765    12.3152    98.1517
  828.5000   -41.2837    10.9858    12.1513    99.5143
  829.0000   -41.3590    10.8987    11.9978   100.8005
  829.5000   -41.5051    10.8073    11.8354   102.0867
  830.0000   -41.6505    10.7182    11.6768   103.3728
  830.5000   -41.7924    10.6287    11.5173   104.6600
  831.0000   -41.9375    10.5387    11.3585   105.9460
  831.5000   -42.0808    10.4497    11.1978   107.2325
  832.0000   -42.2239    10.3593    11.0386   108.5188
  832.5000   -42.3712    10.2696    10.9078   109.8044
  833.0000   -42.5077    10.1969    10.9055   111.0901
  833.5000   -42.6691    10.1957    10.9026   112.1595
  834.0000   -42.6757    10.1941    10.9043   112.1595
  834.5000   -42.6766    10.1951    10.9040   112.1595
  835.0000   -42.4972    10.1950    10.9040   112.1595
  835.5000   -42.2833    10.1949    10.9044   112.1595
  836.0000   -42.0655    10.1954    10.9043   112.1595
  836.5000   -41.8512    10.1949    10.9049   112.1595
  837.0000   -41.6348    10.1953    10.9042   112.1595
  837.5000   -41.4193    10.1966    10.9046   112.1595
  838.0000   -41.2052    10.1732    10.9069   112.1520
  838.5000   -40.9848    10.0884    10.8663   112.1513
  839.0000   -40.7778    10.0054    10.7206   112.6963
  839.5000   -40.5499     9.9206    10.5810   114.6628
  840.0000   -40.5382     9.8363    10.4375   116.6304
  840.5000   -40.5347     9.7521    10.2832   118.5985
  841.0000   -40.6089     9.6678    10.1681   120.5683
  841.5000   -40.6863     9.5835    10.1184   122.5400
  842.0000   -40.7672     9.4992    10.0548   124.5131
  842.5000   -40.8474     9.4149     9.9826   126.4857
  843.0000   -40.9272     9.3306     9.8919   128.4553
  843.5000   -41.0061     9.2462     9.7999   129.8443
  844.0000   -41.0896     9.1622     9.7065   130.2325
  844.5000   -41.1641     9.0772     9.6065   130.6185
  845.0000   -41.2393     8.9936     9.5550   131.0045
  845.5000   -41.1125     8.9098     9.5404   131.3927
  846.0000   -40.9729     8.8201     9.5243   131.7782
  846.5000   -40.8256     8.7723     9.5593   132.1712
  847.0000   -40.6834     8.7774     9.4445   132.5642
  847.5000   -40.5394     8.7764     9.2740   132.9572
  848.0000   -40.3951     8.7761     9.2969   133.1712
  848.5000   -40.2524     8.7767     9.2617   133.1712
  849.0000   -40.1070     8.7764     9.1506   132.8911
  849.5000   -39.9643     8.7766     9.0496   132.3016
  850.0000   -39.8298     8.7769     8.9113   131.7121
  850.5000   -39.8295     8.7764     9.1309   131.1226
  851.0000   -39.9559     8.7775     9.3941   130.5331
  851.5000   -40.0900     8.7768     9.3390   129.9436
  852.0000   -40.2262     8.7753     9.3208   130.6148
  852.5000   -40.3606     8.7837     9.2552   132.3833
  853.0000   -40.4949     8.7049     9.1264   134.1517
  853.5000   -40.6305     8.5529     9.0098   135.9202
  854.0000   -40.7662     8.4106     8.9097   138.5773
  854.5000   -40.8859     8.2683     8.6822   141.8932
  855.0000   -40.8820     8.1235     8.3624   145.2091
  855.5000   -40.7212     7.9812     8.0633   148.5251
  856.0000   -40.5607     7.8370     7.7491   151.8409
  856.5000   -40.3950     7.6935     7.6586   155.1569
  857.0000   -40.2327     7.5526     7.7206   158.4728
  857.5000   -40.0693     7.4033     7.7674   161.8427
  858.0000   -39.9057     7.3773     7.8130   161.8362
  858.5000   -39.7423     7.4243     7.8628   160.0600
  859.0000   -39.5797     7.4639     7.9100   158.2800
  859.5000   -39.4148     7.5025     7.9581   156.4991
  860.0000   -39.2524     7.5434     8.0052   154.7198
  860.5000   -39.1114     7.5829     8.0543   152.9434
  861.0000   -39.1095     7.6228     8.0680   151.1697
  861.5000   -39.1018     7.6627     8.0920   149.4027
  862.0000   -39.1090     7.7025     8.1041   148.9300
  862.5000   -39.1215     7.7423     8.1034   148.9300
  863.0000   -39.3352     7.7821     8.1599   148.1907
  863.5000   -39.5273     7.8219     8.2388   147.2082
  864.0000   -39.7311     7.8619     8.3161   146.2257
  864.5000   -39.9300     7.9016     8.3955   145.2432
  865.0000   -40.1302     7.9411     8.4691   144.2607
  865.5000   -40.3265     7.9821     8.5576   143.2782
  866.0000   -40.5338     8.0197     8.5639   142.2957
  866.5000   -40.7268     8.0637     8.5941   141.3132
  867.0000   -40.8677     8.0486     8.6298   140.1751
  867.5000   -40.5794     8.0273     8.6635   140.1751
  868.0000   -40.3341     8.0036     8.7010   141.1163
  868.5000   -40.0643     7.9818     8.6330   142.2216
  869.0000   -39.8051     7.9595     8.5515   143.3268
  869.5000   -39.5445     7.9362     8.4632   144.4321
  870.0000   -39.2821     7.9151     8.4279   145.5374
  870.5000   -39.0205     7.8923     8.4776   146.6427
  871.0000   -38.7606     7.9107     8.5413   147.7480
  871.5000   -38.4975     7.9323     8.6035   148.9300
  872.0000   -38.2345     7.9555     8.6657   147.6132
  872.5000   -38.0372     7.9777     8.6683   146.1984
  873.0000   -38.0352     7.9997     8.6438   144.7837
  873.5000   -38.0706     8.0233     8.6144   143.3689
  874.0000   -38.2266     8.0442     8.5856   141.9261
  874.5000   -38.3779     8.0640     8.5577   141.9261
  875.0000   -38.5331     8.0225     8.5296   141.9261
  875.5000   -38.6866     7.9792     8.5297   142.9366
  876.0000   -38.8408     7.9333     8.5274   143.9472
  876.5000   -38.9976     7.8889     8.5245   144.9577
  877.0000   -39.1072     7.8442     8.4538   145.9683
  877.5000   -39.1062     7.7992     8.3840   146.9789
  878.0000   -39.1083     7.7547     8.3112   147.9894
  878.5000   -39.1082     7.7100     8.2400   148.9300
  879.0000   -39.1072     7.6644     8.1681   148.9300
  879.5000   -39.1077     7.6218     8.0974   150.4568
  880.0000   -39.1113     7.5742     8.0242   151.8716
  880.5000   -39.0536     7.5279     7.9567   153.2864
  881.0000   -38.8723     7.3944     7.8492   154.7012
  881.5000   -38.6932     7.2729     7.7577   155.9339
  882.0000   -38.5150     7.1452     7.6513   160.9241
  882.5000   -38.3361     7.0205     7.5537   165.3453
  883.0000   -38.1415     6.8952     7.2852   169.7665
  883.5000   -38.0249     6.7690     7.0512   174.1877
  884.0000   -38.0383     6.6444     6.8019   178.6089
  884.5000   -38.0309     6.5182     6.5569   183.0302
  885.0000   -38.0858     6.3913     6.3668   187.4514
  885.5000   -38.2459     6.2959     6.4037   191.8726
  886.0000   -38.3978     6.2946     6.5664   196.2938
  886.5000   -38.5511     6.2906     6.7332   200.1167
  887.0000   -38.7123     6.3323     6.9009   194.2218
  887.5000   -38.8551     6.4894     7.0681   188.3268
  888.0000   -39.0157     6.6438     7.2375   182.4319
  888.5000   -39.1726     6.8012     7.3741   176.5370
  889.0000   -38.5245     6.9596     7.4328   170.6420
  889.5000   -36.9931     7.1145     7.4949   165.8050
