~VERSION INFORMATION
 VERS.                2.0:   CWLS LOG ASCII STANDARD - VERSION 2.0
 WRAP.                 NO:   ONE LINE PER DEPTH STEP
~WELL INFORMATION
#MNEM.UNIT      DATA TYPE    INFORMATION
#----------   ------------   ------------------------------
 STRT.F           14.0000:   START DEPTH
 STOP.F          500.0000:   STOP DEPTH
 STEP.F            0.1000:   STEP LENGTH
 NULL.          -999.2500:   NO VALUE
 COMP. LAWRENCE/ALLISON INC:   COMPANY
 WELL.    72-46 SX #10-10:   WELL
 FLD .             TEAPOT:   FIELD
 LOC .      S10 T38N R78W:   LOCATION
 CNTY.            NATRONA:   COUNTY
 STAT.            WYOMING:   STATE
 CTRY. UNITED STATES OF AMERICA:   COUNTRY
 SRVC.           Gearhart:   SERVICE COMPANY
 DATE.        22-MAY-1988:   LOGDATE
 API .       490251122600:   API NUMBER
~CURVE INFORMATION
#MNEM.UNIT       API CODE    CURVE DESCRIPTION
#----------   ------------   ------------------------------
 DEPT.F                  :   
 GRR .GAPI   07 310 01 00:   GAMMA RAY
 RILD.OHMM   07 120 46 00:   INDUCTION LOG DEEP RESISTIVITY
 RILM.OHMM   07 120 44 00:   INDUCTION LOG MEDIUM RESISTIVITY
~PARAMETER INFORMATION
#MNEM.UNIT          VALUE    DESCRIPTION
#----------   ------------   ------------------------------
 PD  .                 GL:   PERMANENT DATUM
 EPD .F              5173:   ELEVATION PERMANENT DATUM
 LMF .                 KB:   LOG MEASURED FROM
 DAPD.F              10.2:   FEET ABOVE PERMANENT DATUM
 DMF .                 KB:   DRILLING MEASURED FROM
 EKB .F            5183.2:   KELLING BUSHING
 EGL .F              5173:   GROUND LEVEL
 DATE.        22-MAY-1988:   RUN DATE
 RUN .                  1:   RUN NUMBER
 DD  .F               505:   DEPTH DRILLER
 DL  .F               504:   DEPTH LOGGER
 BLI .F               500:   BOTTOM LOG INTERVAL
 TLI .F                50:   TOP LOG INTERVAL
 CS  .IN            9.625:   CASING SIZE
 CBD .F                52:   CASING BOTTOM DRILLER
 CBL .F                50:   CASING BOTTOM LOGGER
 BS  .IN             8.75:   BIT SIZE
 BSD .F               505:   BIT SIZE AT DEPTH
 DFT .                AIR:   DRILLING FLUID TYPE
 TLAB.HRS            1339:   TIME LOGGER AT BOTTOM
 LUN .               7597:   LOGGING UNIT NUMBER
 LUL .           GILLETTE:   LOGGING UNIT LOCATION
 ENGI.          HUCKFELDT:   RECORDING ENGINEER
 WITN.             STRONG:   WITNESSED BY
 CLNT.            A2DTECH:   CLIENT CODE
 ORIG.           5" PRINT:   ORIGIN OF DATA
 UWI .       490251122600:   UNIQUE WELL ID
 DICO. A2D Technologies, Inc.:   DIGITIZING COMPANY
~OTHER INFORMATION
~A   DEPT       GRR      RILD       RILM   
# ...
  250.6000   134.9972     5.2012     5.2036
  250.7000   134.4962     5.1966     5.1782
  250.8000   133.9667     5.1648     5.1781
  250.9000   133.2580     5.1646     5.1497
  251.0000   132.5052     5.1645     5.1419
  251.1000   131.8848     5.1488     5.1419
  251.2000   131.3842     5.1283     5.1418
  251.3000   130.8568     5.1282     5.1453
  251.4000   130.0277     5.1280     5.1777
  251.5000   129.3516     5.1546     5.1776
  251.6000   128.5991     5.1637     5.1986
  251.7000   127.9678     5.1779     5.2287
  251.8000   127.4671     5.2078     5.2677
  251.9000   126.9824     5.2397     5.3289
  252.0000   126.6975     5.3092     5.3988
  252.1000   126.7001     5.3618     5.4535
  252.2000   126.7032     5.4444     5.5382
  252.3000   126.8165     5.5252     5.6200
  252.4000   127.0137     5.5967     5.6935
  252.5000   127.0218     5.6941     5.7942
  252.6000   127.3248     5.8123     5.9527
  252.7000   127.5316     5.8947     6.0689
  252.8000   127.7866     5.9976     6.1882
  252.9000   127.9422     6.1021     6.2963
  253.0000   127.9918     6.2084     6.4063
  253.1000   128.2527     6.3191     6.5181
  253.2000   128.2557     6.4634     6.6323
  253.3000   128.4521     6.5556     6.6864
  253.4000   128.5662     6.6315     6.7711
  253.5000   128.5693     6.7083     6.8591
  253.6000   128.5723     6.7860     6.9056
  253.7000   128.5755     6.8698     6.9887
  253.8000   128.5784     6.9441     7.0277
  253.9000   128.5814     7.0247     7.0684
  254.0000   128.5845     7.0848     7.1092
  254.1000   128.5875     7.1256     7.1503
  254.2000   128.5906     7.1707     7.1917
  254.3000   128.5939     7.2630     7.2364
  254.4000   128.5966     7.2628     7.2363
  254.5000   128.5997     7.2912     7.2663
  254.6000   128.6028     7.3332     7.2869
  254.7000   128.6058     7.3755     7.2995
  254.8000   128.6089     7.4180     7.3377
  254.9000   128.6123     7.4673     7.3376
  255.0000   128.6149     7.4671     7.3375
  255.1000   128.6180     7.4944     7.3663
  255.2000   128.6210     7.5189     7.3887
  255.3000   128.6241     7.5187     7.3886
  255.4000   128.6271     7.5185     7.3885
  255.5000   128.6307     7.5183     7.3884
  255.6000   128.6332     7.5181     7.3883
  255.7000   128.6362     7.5179     7.3882
  255.8000   128.6393     7.5177     7.3881
  255.9000   128.5980     7.5175     7.3880
  256.0000   128.3410     7.5173     7.3872
  256.1000   128.3440     7.5171     7.3364
  256.2000   128.3470     7.4840     7.3363
  256.3000   128.3501     7.4644     7.3108
  256.4000   128.3531     7.4495     7.2850
  256.5000   128.3562     7.4008     7.2771
  256.6000   128.3594     7.3091     7.2341
  256.7000   128.1296     7.2701     7.1528
  256.8000   128.0609     7.1690     7.0705
  256.9000   128.0639     7.0661     6.9892
  257.0000   128.0670     6.9494     6.9087
  257.1000   128.0475     6.7543     6.8290
  257.2000   127.7690     6.5817     6.7456
  257.3000   127.7717     6.4495     6.6728
  257.4000   127.6056     6.3265     6.5410
  257.5000   127.4734     6.2177     6.4105
  257.6000   127.4122     6.1019     6.3001
  257.7000   127.1749     5.9652     6.1840
  257.8000   127.1786     5.8854     5.9901
  257.9000   126.9704     5.8288     5.8975
  258.0000   126.8797     5.7618     5.7960
  258.1000   126.8828     5.6955     5.6963
  258.2000   126.9921     5.6367     5.5981
  258.3000   127.4992     5.6040     5.5060
  258.4000   128.2583     5.5717     5.4698
  258.5000   129.0168     5.5395     5.4156
  258.6000   129.7751     5.5260     5.3735
  258.7000   130.5338     5.5258     5.3562
  258.8000   131.2928     5.5257     5.3487
  258.9000   132.0823     5.5255     5.3188
  259.0000   132.8096     5.5560     5.3187
  259.1000   133.7569     5.5639     5.3440
  259.2000   134.4949     5.5812     5.3558
  259.3000   135.0018     5.6134     5.3684
  259.4000   135.5084     5.6417     5.3994
  259.5000   136.0581     5.6415     5.4309
  259.6000   136.2915     5.6713     5.4621
  259.7000   136.0123     5.7040     5.5188
  259.8000   135.6371     5.7534     5.5642
  259.9000   135.2427     5.8103     5.5964
  260.0000   134.5103     5.8437     5.6340
  260.1000   133.9456     5.8817     5.7025
  260.2000   133.5091     5.9113     5.7657
  260.3000   133.0086     5.9682     5.8075
  260.4000   132.6223     6.0373     5.8411
  260.5000   132.4973     6.0985     5.8862
  260.6000   132.7521     6.1349     5.9545
  260.7000   133.0508     6.2183     6.0296
  260.8000   133.0533     6.2781     6.0937
  260.9000   133.3685     6.3280     6.1646
  261.0000   133.7717     6.3797     6.2362
  261.1000   134.0265     6.4459     6.3195
  261.2000   134.2831     6.4833     6.4266
  261.3000   134.5364     6.5580     6.5105
  261.4000   134.5936     6.6340     6.6104
  261.5000   134.5967     6.6885     6.6999
  261.6000   134.5072     6.7414     6.7777
  261.7000   134.2183     6.8131     6.8665
  261.8000   133.6927     6.8543     6.9845
  261.9000   133.2171     6.9298     7.0789
  262.0000   132.7163     7.0101     7.1132
  262.1000   132.2156     7.0694     7.1806
  262.2000   131.7151     7.1371     7.2819
  262.3000   131.2146     7.2516     7.3998
  262.4000   130.6670     7.2973     7.4856
  262.5000   130.2130     7.4129     7.5727
  262.6000   129.7124     7.4814     7.6608
  262.7000   129.3350     7.5674     7.7498
  262.8000   129.0156     7.6742     7.8398
  262.9000   128.5147     7.7216     7.9227
  263.0000   127.9456     7.8233     7.9699
  263.1000   127.5137     7.8622     8.0597
  263.2000   127.1777     7.9376     8.1174
  263.3000   126.8165     8.0088     8.1644
  263.4000   126.3757     8.0549     8.2116
  263.5000   126.1269     8.1026     8.2590
  263.6000   125.8331     8.2135     8.3102
  263.7000   125.4227     8.2524     8.3101
  263.8000   125.0760     8.2999     8.3448
  263.9000   124.8272     8.3477     8.3931
  264.0000   124.6265     8.3957     8.4416
  264.1000   124.6302     8.4449     8.4904
  264.2000   124.3852     8.4928     8.5449
  264.3000   124.1364     8.5418     8.5448
  264.4000   124.0304     8.5910     8.5786
  264.5000   124.0335     8.6404     8.6044
  264.6000   124.0366     8.6902     8.6176
  264.7000   124.0398     8.7432     8.6675
  264.8000   124.0426     8.7906     8.7251
  264.9000   124.0456     8.8040     8.7681
  265.0000   124.1806     8.8305     8.7859
  265.1000   124.3562     8.8651     8.7859
  265.2000   124.3860     8.8703     8.7974
  265.3000   124.6670     8.9267     8.8472
  265.4000   124.6697     8.9265     8.8470
  265.5000   124.6728     8.9262     8.8469
  265.6000   124.7967     8.9508     8.8468
  265.7000   125.0517     8.9882     8.8467
  265.8000   125.2907     8.9880     8.8466
  265.9000   125.2942     8.9877     8.8464
  266.0000   125.2968     9.0319     8.8967
  266.1000   125.4625     9.0501     8.9082
  266.2000   125.6073     9.0499     8.9081
  266.3000   125.6678     9.0496     8.9079
  266.4000   125.9179     9.0494     8.9078
  266.5000   125.9214     9.0491     8.9077
  266.6000   125.9239     9.0489     8.9075
  266.7000   125.7754     9.0486     8.9455
  266.8000   125.6256     9.0483     8.9697
  266.9000   125.5821     9.0481     8.9696
  267.0000   125.3273     9.0478     8.9754
  267.1000   125.0845     9.0987     9.0322
  267.2000   124.6424     9.1107     9.0321
  267.3000   124.1416     9.1105     9.0319
  267.4000   123.5529     9.1102     9.0318
  267.5000   122.8361     9.1100     9.0317
  267.6000   122.3016     9.1097     9.0316
  267.7000   121.8347     9.1094     9.0314
  267.8000   121.3341     9.1091     9.0313
  267.9000   120.8335     9.1089     9.0312
  268.0000   120.3328     9.1086     9.0311
  268.1000   119.8566     9.1084     9.0310
  268.2000   119.5803     9.1081     9.0308
  268.3000   119.3591     9.1079     9.0306
  268.4000   119.2816     9.1076     9.0305
  268.5000   119.2846     9.1074     9.0304
  268.6000   119.2877     9.1071     9.0303
  268.7000   119.3043     9.1069     9.0302
