~VERSION INFORMATION
 VERS.                2.0:   CWLS LOG ASCII STANDARD - VERSION 2.0
 WRAP.                 NO:   ONE LINE PER DEPTH STEP
~WELL INFORMATION
#MNEM.UNIT      DATA TYPE    INFORMATION
#----------   ------------   ------------------------------
 STRT.F           78.5000:   START DEPTH
 STOP.F         1021.0000:   STOP DEPTH
 STEP.F            0.5000:   STEP LENGTH
 NULL.          -999.2500:   NO VALUE
 COMP. U S NAVY/INTEX OIL CO:   COMPANY
 WELL.     NRR 3 ##65S-11:   WELL
 FLD .             TEAPOT:   FIELD
 LOC .      S11 T38N R78W:   LOCATION
 CNTY.            NATRONA:   COUNTY
 STAT.            WYOMING:   STATE
 CTRY. UNITED STATES OF AMERICA:   COUNTRY
 SRVC.       Schlumberger:   SERVICE COMPANY
 DATE.        09-MAR-1960:   LOGDATE
 API .       490250634100:   API NUMBER
~CURVE INFORMATION
#MNEM.UNIT       API CODE    CURVE DESCRIPTION
#----------   ------------   ------------------------------
 DEPT.F                  :   
 SPR .MV     05 010 01 00:   SPONTANEOUS POTENTIAL FROM RES.
 ILD .OHMM   05 120 46 00:   INDUCTION LOG DEEP
 CILD.MMHO   05 110 00 00:   CONDUCTIVITY INDUCTION LOG
 ASN .OHMM   05 041 16 00:   AMPLIFIED SHORT NORMAL 16"
~PARAMETER INFORMATION
#MNEM.UNIT          VALUE    DESCRIPTION
#----------   ------------   ------------------------------
 PD  .                 GL:   PERMANENT DATUM
 EPD .F              5227:   ELEVATION PERMANENT DATUM
 LMF .                 KB:   LOG MEASURED FROM
 DAPD.F                 5:   FEET ABOVE PERMANENT DATUM
 DMF .                 KB:   DRILLING MEASURED FROM
 EKB .F              5232:   KELLING BUSHING
 EGL .F              5227:   GROUND LEVEL
 DATE.             3-9-60:   RUN DATE
 RUN .                  1:   RUN NUMBER
 DD  .F              1025:   DEPTH DRILLER
 DL  .F              1026:   DEPTH LOGGER
 BLI .F              1021:   BOTTOM LOG INTERVAL
 TLI .F                80:   TOP LOG INTERVAL
 CBD .F                12:   CASING BOTTOM DRILLER
 BS  .IN            7.875:   BIT SIZE
 BSD .F              1025:   BIT SIZE AT DEPTH
 DFT .          OIL EMULS:   DRILLING FLUID TYPE
 DFD .               10.2:   DRILLING FLUID DENSITY
 DFV .                 36:   DRILLING FLUID VISCOSITY
 DFPH.                7.5:   DRILLING FLUID PH
 DFL .                  4:   DRILLING FLUID LOSS
 MSS .          FLOW LINE:   MUD SAMPLE SOURCE
 RMS .OHMM           2.18:   RESISTIVITY MUD SAMPLE
 MST .F                64:   MUD SAMPLE TEMPERATURE
 RMF .OHMM           1.17:   RESISTIVITY MUD FILTRATE SAMPLE
 MFST.F                63:   MUD FILTRATE SAMPLE TEMPERATURE
 RMC .OHMM           2.02:   RESISTIVITY MUD CAKE
 MCST.F                64:   MUD CAKE SAMPLE TEMPERATURE
 MFSS.                  M:   MUD FILTRATE SAMPLE SOURCE
 MCSS.                  M:   MUD CAKE SAMPLE SOURCE
 TCS .HRS             .75:   TIME CURCULATED STOPPED
 LUN .               2795:   LOGGING UNIT NUMBER
 LUL .               CSPR:   LOGGING UNIT LOCATION
 ENGI.              SCOTT:   RECORDING ENGINEER
 WITN.          JORGENSEN:   WITNESSED BY
 CLNT.            A2DTECH:   CLIENT CODE
 ORIG.           2" PRINT:   ORIGIN OF DATA
 UWI .       490250634100:   UNIQUE WELL ID
 DICO. A2D Technologies, Inc.:   DIGITIZING COMPANY
~OTHER INFORMATION
~A   DEPT      SPR        ILD       CILD        ASN   
# ...
  589.5000   -50.7277     8.3619   123.1105    10.6619
  590.0000   -50.6113     8.3421   122.8171    10.6177
  590.5000   -50.4645     8.3197   122.5236    10.5684
  591.0000   -50.4529     8.3026   122.2302    10.5239
  591.5000   -50.6245     8.2729   121.9367    10.4870
  592.0000   -50.7736     8.3113   121.1590    10.7165
  592.5000   -50.9357     8.4551   119.4472    11.0404
  593.0000   -51.0905     8.5915   117.7355    11.3347
  593.5000   -51.2495     8.7333   116.0237    11.4236
  594.0000   -51.4059     8.8720   114.3120    11.5349
  594.5000   -51.5646     9.0126   112.6002    11.6508
  595.0000   -51.7200     9.1522   110.9719    11.7659
  595.5000   -51.8816     9.2924   109.4314    11.8810
  596.0000   -52.0090     9.4319   107.8908    11.9962
  596.5000   -51.9819     9.5724   106.3502    12.1110
  597.0000   -51.9434     9.7110   104.8096    12.2266
  597.5000   -51.9061     9.8540   103.2690    12.3409
  598.0000   -51.8686     9.9662   101.7285    12.4579
  598.5000   -51.8311     9.9691   100.1879    12.5698
  599.0000   -51.7933     9.9918    99.6994    12.6925
  599.5000   -51.7562    10.0290    99.6994    12.7616
  600.0000   -51.7177    10.0605    99.8640    12.6592
  600.5000   -51.6823    10.0287   100.0890    12.5647
  601.0000   -51.6411     9.9642   100.3140    12.4671
  601.5000   -51.6187     9.9058   100.5389    12.3719
  602.0000   -51.6096     9.8445   100.9604    12.2749
  602.5000   -51.6754     9.7848   101.8923    12.1796
  603.0000   -51.7840     9.7243   102.8241    12.0824
  603.5000   -51.8737     9.6642   103.7560    11.9878
  604.0000   -51.9719     9.6039   104.6878    11.8841
  604.5000   -52.0649     9.5438   105.6197    11.8862
  605.0000   -52.1620     9.4837   106.7134    11.9431
  605.5000   -52.2544     9.4235   106.9220    11.9869
  606.0000   -52.3550     9.3634   107.1743    12.0502
  606.5000   -52.4154     9.3032   107.4267    12.0381
  607.0000   -52.3546     9.2431   107.6791    11.9172
  607.5000   -52.2979     9.1829   107.9315    11.8046
  608.0000   -52.2393     9.1228   108.1839    11.6886
  608.5000   -52.1820     9.0624   108.4362    11.5710
  609.0000   -52.1240     9.0024   108.6886    11.4609
  609.5000   -52.0662     8.9413   108.9410    11.3313
  610.0000   -52.0087     8.8826   109.1934    11.2874
  610.5000   -51.9504     8.8197   109.4458    11.3564
  611.0000   -51.8936     8.7645   109.6982    11.4082
  611.5000   -51.8357     8.6938   109.9505    11.4695
  612.0000   -51.8160     8.7038   110.2029    11.4618
  612.5000   -51.8186     8.8157   110.4553    11.4314
  613.0000   -51.8177     8.9090   110.7077    11.4039
  613.5000   -51.8182     9.0204   110.9601    11.3745
  614.0000   -51.8187     9.0751   111.2124    11.3471
  614.5000   -51.8177     9.0561   111.4663    11.3164
  615.0000   -51.8203     8.9149   111.7263    11.2911
  615.5000   -51.8159     8.7472   113.2062    11.2359
  616.0000   -51.8253     8.5860   114.7231    11.1569
  616.5000   -51.7537     8.4216   116.2386    11.0551
  617.0000   -51.6285     8.2588   117.7465    10.7771
  617.5000   -51.5214     8.0950   120.9363    10.4583
  618.0000   -51.4067     7.9315   124.1075    10.1971
  618.5000   -51.2953     7.7681   127.2781    10.0733
  619.0000   -51.1836     7.6044   130.4475    10.0633
  619.5000   -51.0693     7.4418   133.6190     9.6247
  620.0000   -50.9611     7.2771   136.7980     9.1883
  620.5000   -50.8424     7.1152   139.8046     9.1814
  621.0000   -50.8318     6.9654   140.2482     9.1306
  621.5000   -50.8923     7.0292   140.6654     9.2688
  622.0000   -50.9402     7.1772   139.4096     9.6347
  622.5000   -50.9878     7.3065   136.9160    10.0430
  623.0000   -51.0580     7.4447   134.4159    10.0944
  623.5000   -51.1503     7.5778   131.9149    10.2030
  624.0000   -51.2327     7.7129   129.4168    10.2615
  624.5000   -51.3192     7.8041   126.9231    10.3005
  625.0000   -51.4037     7.8630   124.7390    10.3560
  625.5000   -51.4887     7.9262   124.3512    10.4003
  626.0000   -51.5743     7.9832   124.0033    10.4611
  626.5000   -51.6579     8.0493   123.7475    10.4155
  627.0000   -51.7465     8.0404   122.9760    10.3041
  627.5000   -51.8083     7.9808   123.5042    10.2024
  628.0000   -51.7506     7.9341   124.6579    10.1116
  628.5000   -51.6880     7.8805   125.8116     9.9675
  629.0000   -51.6258     7.8325   126.9654     9.8640
  629.5000   -51.5638     7.7782   128.1191     9.8027
  630.0000   -51.5015     7.7330   129.2728     9.7566
  630.5000   -51.4393     7.6729   130.4266     9.8502
  631.0000   -51.3770     7.7291   129.7764     9.9150
  631.5000   -51.3146     7.8556   128.3883    10.0566
  632.0000   -51.2528     7.9559   127.0003    10.2470
  632.5000   -51.1900     8.0724   125.6122    10.3853
  633.0000   -51.1292     8.1720   124.2241    10.5633
  633.5000   -51.0638     8.3002   122.8360    10.6724
  634.0000   -51.0210     8.3725   121.4479    10.6423
  634.5000   -51.1000     8.4225   119.7395    10.5332
  635.0000   -51.1859     8.4595   120.5160    10.4238
  635.5000   -51.2711     8.3966   121.5256    10.3120
  636.0000   -51.3559     8.3490   122.5351    10.2026
  636.5000   -51.4420     8.2924   123.5446    10.0854
  637.0000   -51.5254     8.2408   124.7495    10.1149
  637.5000   -51.6137     8.1866   124.8270    10.1832
  638.0000   -51.6932     8.1337   124.9116    10.2423
  638.5000   -51.7892     8.0801   125.0160    10.3074
  639.0000   -51.7748     8.0271   125.1159    10.3665
  639.5000   -51.6648     7.9718   125.2132    10.4360
  640.0000   -51.5740     7.9646   125.3085    10.4728
  640.5000   -51.4738     7.9662   125.4030    10.4217
  641.0000   -51.3787     7.9657   125.4970    10.3660
  641.5000   -51.2807     7.9661   125.5923    10.3040
  642.0000   -51.1841     7.9661   125.6923    10.2515
  642.5000   -51.0868     7.9640   125.9598    10.2091
  643.0000   -50.9902     7.9301   126.5015    10.1623
  643.5000   -50.8929     7.8877   127.0432    10.1176
  644.0000   -50.7969     7.8467   127.5849    10.0711
  644.5000   -50.6978     7.8050   128.1266    10.0268
  645.0000   -50.6153     7.7636   128.6683     9.9796
  645.5000   -50.6433     7.7221   129.2100     9.9375
  646.0000   -50.6834     7.6807   129.7517     9.8574
  646.5000   -50.7214     7.6392   130.2934     9.7387
  647.0000   -50.7603     7.5978   130.8351     9.7337
  647.5000   -50.7986     7.5564   131.3768     9.7494
  648.0000   -50.8377     7.5150   131.9185     9.7620
  648.5000   -50.8754     7.4736   132.4602     9.7767
  649.0000   -50.9156     7.4320   133.0019     9.7849
  649.5000   -50.9512     7.3906   133.5435     9.7426
  650.0000   -50.9955     7.3486   134.0852     9.6931
  650.5000   -50.9896     7.3081   134.6269     9.6448
  651.0000   -50.9336     7.2648   135.1686     9.5962
  651.5000   -50.8852     7.2265   135.7103     9.5485
  652.0000   -50.8346     7.1786   136.2520     9.5090
  652.5000   -50.7820     7.1904   136.7735     9.4685
  653.0000   -50.7362     7.2569   136.3547     9.4906
  653.5000   -50.6768     7.3131   135.9509     9.5815
  654.0000   -50.6427     7.3744   134.8898     9.6698
  654.5000   -50.4541     7.4328   133.3034     9.7588
  655.0000   -50.4349     7.4928   131.7170     9.8492
  655.5000   -50.4975     7.5521   130.1306     9.9264
  656.0000   -50.5341     7.6116   128.5442     9.9850
  656.5000   -50.5835     7.6692   126.9578    10.1930
  657.0000   -50.6262     7.7394   125.3715    10.2907
  657.5000   -50.6724     7.8070   124.7495    10.3048
  658.0000   -50.7166     7.8741   124.7495    10.3307
  658.5000   -50.7631     7.9423   124.7495    10.3526
  659.0000   -50.7994     8.0087   124.7495    10.3668
  659.5000   -50.7314     8.0682   125.7512    10.3301
  660.0000   -50.6460     8.0254   126.6345    10.2931
  660.5000   -50.5638     7.9430   127.5179    10.2566
  661.0000   -50.4803     7.8721   128.4012    10.2197
  661.5000   -50.3974     7.7962   129.2845    10.1845
  662.0000   -50.3142     7.7230   130.1678    10.1087
