~VERSION INFORMATION
 VERS.                2.0:   CWLS LOG ASCII STANDARD - VERSION 2.0
 WRAP.                 NO:   ONE LINE PER DEPTH STEP
~WELL INFORMATION
#MNEM.UNIT      DATA TYPE    INFORMATION
#----------   ------------   ------------------------------
 STRT.F           16.0000:   START DEPTH
 STOP.F         2438.0000:   STOP DEPTH
 STEP.F            0.5000:   STEP LENGTH
 NULL.          -999.2500:   NO VALUE
 COMP. FENIX & SCISSON INC:   COMPANY
 WELL.      15 SHX #27-27:   WELL
 FLD .             TEAPOT:   FIELD
 LOC .      S27 T39N R78W:   LOCATION
 CNTY.            NATRONA:   COUNTY
 STAT.            WYOMING:   STATE
 CTRY. UNITED STATES OF AMERICA:   COUNTRY
 SRVC.            Unknown:   SERVICE COMPANY
 DATE.        09-JUN-1978:   LOGDATE
 API .       490251064100:   API NUMBER
~CURVE INFORMATION
#MNEM.UNIT       API CODE    CURVE DESCRIPTION
#----------   ------------   ------------------------------
 DEPT.F                  :   
 CALD.IN     45 280 60 00:   CALIPER FROM DENSITY LOG
 GRD .GAPI   45 310 01 00:   GAMMA RAY FROM DENSITY LOG
 CORR.G/C3   45 356 01 00:   DENSITY CORRECTION
 RHOB.G/C3   45 350 01 00:   BULK DENSITY
 DPHI.DEC    45 890 10 00:   DENSITY POROSITY LIMESTONE
~PARAMETER INFORMATION
#MNEM.UNIT          VALUE    DESCRIPTION
#----------   ------------   ------------------------------
 PD  .                 GL:   PERMANENT DATUM
 EPD .F              5062:   ELEVATION PERMANENT DATUM
 LMF .                 KB:   LOG MEASURED FROM
 DAPD.F                10:   FEET ABOVE PERMANENT DATUM
 DMF .                 KB:   DRILLING MEASURED FROM
 EKB .F              5072:   KELLING BUSHING
 EGL .F              5062:   GROUND LEVEL
 DATE.        09-JUN-1978:   RUN DATE
 RUN .                  1:   RUN NUMBER
 DD  .F              2450:   DEPTH DRILLER
 DL  .F              2445:   DEPTH LOGGER
 BLI .F              2438:   BOTTOM LOG INTERVAL
 TLI .F                10:   TOP LOG INTERVAL
 CS  .IN            9.625:   CASING SIZE
 CBD .F               688:   CASING BOTTOM DRILLER
 CBL .F               694:   CASING BOTTOM LOGGER
 BS  .IN             8.75:   BIT SIZE
 BSD .F              2450:   BIT SIZE AT DEPTH
 DFT .           AIR MIST:   DRILLING FLUID TYPE
 TCS .HRS               1:   TIME CURCULATED STOPPED
 LUN .               2958:   LOGGING UNIT NUMBER
 LUL .                CPR:   LOGGING UNIT LOCATION
 ENGI.             MILLER:   RECORDING ENGINEER
 WITN.           MCGINLEY:   WITNESSED BY
 CLNT.            A2DTECH:   CLIENT CODE
 ORIG.           5" PRINT:   ORIGIN OF DATA
 UWI .       490251064100:   UNIQUE WELL ID
 DICO. A2D Technologies, Inc.:   DIGITIZING COMPANY
~OTHER INFORMATION
~A   DEPT     CALD         GRD      CORR       RHOB       DPHI   
# ...
 1480.0000    10.3684    77.9109  -999.2500     2.5601    -0.0076
 1480.5000    10.3699    77.9260  -999.2500     2.5556    -0.0037
 1481.0000    10.3714    75.3333  -999.2500     2.5418     0.0093
 1481.5000    10.3729    74.7300  -999.2500     2.5465    -0.0006
 1482.0000    10.3586    76.1311  -999.2500     2.5520     0.0037
 1482.5000    10.3145    79.0646  -999.2500     2.5512     0.0031
 1483.0000    10.2700    82.3053  -999.2500     2.5529    -0.0047
 1483.5000    10.2101    82.9346  -999.2500     2.5630    -0.0081
 1484.0000    10.1632    83.2567  -999.2500     2.5615    -0.0081
 1484.5000    10.1214    85.5986  -999.2500     2.5593    -0.0056
 1485.0000    10.1072    86.9769  -999.2500     2.5555    -0.0027
 1485.5000    10.0934    88.6815  -999.2500     2.5509     0.0023
 1486.0000    10.0646    90.5397  -999.2500     2.5470     0.0066
 1486.5000    10.0350    89.0185  -999.2500     2.5418     0.0069
 1487.0000     9.9602    82.7353  -999.2500     2.5396     0.0078
 1487.5000     9.8850    78.4492  -999.2500     2.5366     0.0102
 1488.0000     9.8711    78.1567  -999.2500     2.5359     0.0127
 1488.5000     9.9037    75.4126  -999.2500     2.5352     0.0145
 1489.0000     9.9205    71.8886  -999.2500     2.5353     0.0138
 1489.5000     9.9220    77.1300  -999.2500     2.5400     0.0065
 1490.0000     9.9235    80.6779  -999.2500     2.5447     0.0006
 1490.5000     9.8786    82.9969  -999.2500     2.5472     0.0027
 1491.0000     9.8650    83.1654  -999.2500     2.5487     0.0052
 1491.5000     9.8666    79.0328  -999.2500     2.5526    -0.0001
 1492.0000     9.8681    74.7466  -999.2500     2.5542    -0.0050
 1492.5000     9.8853    74.6079  -999.2500     2.5458     0.0020
 1493.0000     9.8868    77.2379  -999.2500     2.5428     0.0072
 1493.5000     9.8882    78.1745  -999.2500     2.5452     0.0035
 1494.0000     9.9051    79.7254  -999.2500     2.5599    -0.0091
 1494.5000     9.9066    82.5053  -999.2500     2.5623    -0.0089
 1495.0000     9.8314    84.3635  -999.2500     2.5616     0.0019
 1495.5000     9.7868    86.2217  -999.2500     2.5517     0.0059
 1496.0000     9.9110    87.0047  -999.2500     2.5464     0.0062
 1496.5000     9.9125    87.0200  -999.2500     2.5457     0.0028
 1497.0000     9.8530    86.1165  -999.2500     2.5519    -0.0006
 1497.5000     9.7778    85.0561  -999.2500     2.5535    -0.0019
 1498.0000     9.7636    70.9389  -999.2500     2.5529    -0.0010
 1498.5000     9.9495    68.8033  -999.2500     2.5498     0.0011
 1499.0000    10.0120    69.1254  -999.2500     2.5468     0.0060
 1499.5000     9.9064    77.1280  -999.2500     2.5415     0.0094
 1500.0000     9.8773    80.9831  -999.2500     2.5384     0.0116
 1500.5000    10.0018    82.2281  -999.2500     2.5371     0.0122
 1501.0000    10.1108    82.8574  -999.2500     2.5371     0.0038
 1501.5000    10.1071    82.7211  -999.2500     2.5413    -0.0098
 1502.0000     9.6543    82.4251  -999.2500     2.5812    -0.0003
 1502.5000     9.6713    81.5220  -999.2500     2.5720     0.0013
 1503.0000     9.7189    80.3080  -999.2500     2.5551    -0.0018
 1503.5000     9.7508    79.0939  -999.2500     2.5552    -0.0136
 1504.0000     9.6911    78.8016  -999.2500     2.5822    -0.0225
 1504.5000     9.7852    79.7418  -999.2500     2.5792    -0.0087
 1505.0000     9.8645    80.6784  -999.2500     2.5631    -0.0094
 1505.5000     9.8808    82.9974  -999.2500     2.5701    -0.0171
 1506.0000     9.8825    85.0092  -999.2500     2.5995    -0.0399
 1506.5000     9.8841    83.6415  -999.2500     2.6118    -0.0339
 1507.0000     9.8857    83.0209  -999.2500     2.6058     0.0048
 1507.5000     9.8716    85.0538  -999.2500     2.5542     0.0320
 1508.0000     9.8737    82.3758  -999.2500     2.5111    -0.0184
 1508.5000     9.8446    85.8553  -999.2500     2.5638    -0.0206
 1509.0000     9.8773    86.1774  -999.2500     2.5791    -0.0077
 1509.5000     9.9710    85.5778  -999.2500     2.5606    -0.0006
 1510.0000     9.9879    84.9782  -999.2500     2.5538    -0.0093
 1510.5000     9.9742    80.6920  -999.2500     2.5623    -0.0038
 1511.0000     9.9448    74.8697  -999.2500     2.5508     0.0042
 1511.5000     9.9314    74.7309  -999.2500     2.5485    -0.0017
 1512.0000     9.9331    77.6681  -999.2500     2.5558    -0.0063
 1512.5000     9.9348    77.8366  -999.2500     2.5595    -0.0051
 1513.0000     9.9521    77.8514  -999.2500     2.5557    -0.0045
 1513.5000     9.9691    78.0199  -999.2500     2.5535    -0.0079
 1514.0000     9.9707    78.1884  -999.2500     2.5566    -0.0107
 1514.5000     9.9724    78.0496  -999.2500     2.5636    -0.0058
 1515.0000     9.9740    72.2273  -999.2500     2.5653    -0.0098
 1515.5000     9.9447    66.7122  -999.2500     2.5587     0.0006
 1516.0000     9.8370    68.2669  -999.2500     2.5400     0.0089
 1516.5000     9.7646    72.7365  -999.2500     2.5408    -0.0019
 1517.0000     9.7662    75.5163  -999.2500     2.5524    -0.0047
 1517.5000     9.7985    75.9920  -999.2500     2.5648    -0.0066
 1518.0000     9.8308    75.6997  -999.2500     2.5641    -0.0112
 1518.5000     9.8324    71.7207  -999.2500     2.5619    -0.0008
 1519.0000     9.8341    70.5067  -999.2500     2.5571    -0.0048
 1519.5000     9.8031    76.6696  -999.2500     2.5474     0.0057
 1520.0000     9.7457    79.9103  -999.2500     2.5552    -0.0005
 1520.5000     9.7162    81.4613  -999.2500     2.5606    -0.0098
 1521.0000     9.7336    79.9400  -999.2500     2.5615    -0.0015
 1521.5000     9.7813    75.3466  -999.2500     2.5592     0.0062
 1522.0000     9.8442    77.8192  -999.2500     2.5423     0.0083
 1522.5000     9.8612    77.5269  -999.2500     2.5472     0.0043
 1523.0000     9.8782    77.0809  -999.2500     2.5510    -0.0022
 1523.5000     9.8956    86.7732  -999.2500     2.5526    -0.0050
 1524.0000     9.8814    82.3371  -999.2500     2.5526    -0.0057
 1524.5000     9.7915    82.6592  -999.2500     2.5512    -0.0051
 1525.0000     9.7011    82.6740  -999.2500     2.5505    -0.0023
 1525.5000     9.6260    79.3095  -999.2500     2.5513     0.0023
 1526.0000     9.6123    76.5285  -999.2500     2.5546    -0.0045
 1526.5000     9.5986    78.8784  -999.2500     2.5607    -0.0095
 1527.0000     9.6006    75.2104  -999.2500     2.5631    -0.0086
 1527.5000     9.5865    73.0747  -999.2500     2.5608    -0.0031
 1528.0000     9.5885    70.4782  -999.2500     2.5594    -0.0024
 1528.5000     9.5902    69.4140  -999.2500     2.5563    -0.0056
 1529.0000     9.6838    74.1945  -999.2500     2.5518    -0.0052
 1529.5000     9.9615    82.0435  -999.2500     2.5480    -0.0013
 1530.0000    10.1625    82.6728  -999.2500     2.5473     0.0027
 1530.5000    10.0875    82.0732  -999.2500     2.5474     0.0051
 1531.0000    10.1202    83.4743  -999.2500     2.5505    -0.0048
 1531.5000    10.1985    81.0314  -999.2500     2.5583    -0.0103
 1532.0000    10.2155    83.1968  -999.2500     2.5608     0.0091
 1532.5000    10.2631    83.5189  -999.2500     2.5584     0.0118
 1533.0000    10.2801    81.3832  -999.2500     2.5484     0.0130
 1533.5000    10.2971    78.3259  -999.2500     2.5424     0.0130
 1534.0000    10.2991    77.5727  -999.2500     2.5402     0.0130
 1534.5000    10.2697    81.8924  -999.2500     2.5394     0.0126
 1535.0000    10.2559    79.7567  -999.2500     2.5388     0.0123
 1535.5000    10.3040    75.0097  -999.2500     2.5381     0.0117
 1536.0000    10.3823    73.3348  -999.2500     2.5381     0.0110
 1536.5000    10.3839    72.7352  -999.2500     2.5431     0.0088
 1537.0000    10.3387    72.4424  -999.2500     2.5498     0.0048
 1537.5000    10.2645    73.5330  -999.2500     2.5514    -0.0008
 1538.0000    10.2508    79.0680  -999.2500     2.5484     0.0032
 1538.5000    10.2371    80.3253  -999.2500     2.5454     0.0053
 1539.0000    10.1778    78.0360  -999.2500     2.5432     0.0062
 1539.5000    10.1330    71.1385  -999.2500     2.5417     0.0065
 1540.0000    10.1196    70.6888  -999.2500     2.5410     0.0068
 1540.5000    10.1213    71.7826  -999.2500     2.5411     0.0068
