~VERSION INFORMATION
 VERS.                2.0:   CWLS LOG ASCII STANDARD - VERSION 2.0
 WRAP.                 NO:   ONE LINE PER DEPTH STEP
~WELL INFORMATION
#MNEM.UNIT      DATA TYPE    INFORMATION
#----------   ------------   ------------------------------
 STRT.F           66.0000:   START DEPTH
 STOP.F          892.0000:   STOP DEPTH
 STEP.F            0.5000:   STEP LENGTH
 NULL.          -999.2500:   NO VALUE
 COMP. LAWRENCE/ALLISON INC:   COMPANY
 WELL. NPR #3 #31-11 SX 2:   WELL
 FLD .             TEAPOT:   FIELD
 LOC .       S2 T38N R78W:   LOCATION
 CNTY.            NATRONA:   COUNTY
 STAT.            WYOMING:   STATE
 CTRY. UNITED STATES OF AMERICA:   COUNTRY
 SRVC.      Dresser Atlas:   SERVICE COMPANY
 DATE.        10-AUG-1985:   LOGDATE
 API .       490251103900:   API NUMBER
~CURVE INFORMATION
#MNEM.UNIT       API CODE    CURVE DESCRIPTION
#----------   ------------   ------------------------------
 DEPT.F                  :   
 PORD.DEC    45 890 12 00:   POROSITY DENSITY SANDSTONE
 CNC .DEC    42 890 03 00:   NEUTRON POROSITY SANDSTONE
 CORR.G/C3   45 356 01 00:   DENSITY CORRECTION
 DEN .G/C3   45 350 01 00:   COMPENSATED BULK DENSTIY
 CALD.IN     45 280 60 00:   CALIPER FROM DENSITY LOG
 SPR .MV     07 010 01 00:   SPONTANEOUS POTENTIAL
 RILD.OHMM   07 120 46 00:   INDUCTION LOG DEEP RESISTIVITY
 RILM.OHMM   07 120 44 00:   INDUCTION LOG MEDIUM RESISTIVITY
 RFOC.OHMM   07 220 04 00:   RESISTIVITY FOCUSED LOG
~PARAMETER INFORMATION
#MNEM.UNIT          VALUE    DESCRIPTION
#----------   ------------   ------------------------------
 PD  .                 GL:   PERMANENT DATUM
 EPD .F              5110:   ELEVATION PERMANENT DATUM
 LMF .                 GL:   LOG MEASURED FROM
 DMF .                 GL:   DRILLING MEASURED FROM
 EKB .F              5115:   KELLING BUSHING
 EGL .F              5110:   GROUND LEVEL
 DATE.        10-AUG-1985:   RUN DATE
 RUN .                  1:   RUN NUMBER
 DD  .F               899:   DEPTH DRILLER
 DL  .F               895:   DEPTH LOGGER
 BLI .F               892:   BOTTOM LOG INTERVAL
 CS  .IN            8.625:   CASING SIZE
 CBD .F                75:   CASING BOTTOM DRILLER
 CBL .F                78:   CASING BOTTOM LOGGER
 BS  .IN            7.875:   BIT SIZE
 BSD .F               899:   BIT SIZE AT DEPTH
 DFT .                KCL:   DRILLING FLUID TYPE
 MSS .           FLOWLINE:   MUD SAMPLE SOURCE
 RMS .OHMM            .21:   RESISTIVITY MUD SAMPLE
 MST .F                75:   MUD SAMPLE TEMPERATURE
 TCS .HRS            0200:   TIME CURCULATED STOPPED
 MRT .F               100:   MAXIMUM RECORDED TEMPERATURE
 LUN .               6274:   LOGGING UNIT NUMBER
 LUL .               GLTE:   LOGGING UNIT LOCATION
 ENGI.             RAUTIO:   RECORDING ENGINEER
 WITN.        LINDA FIVAS:   WITNESSED BY
 CLNT.            A2DTECH:   CLIENT CODE
 ORIG.           5" PRINT:   ORIGIN OF DATA
 UWI .       490251103900:   UNIQUE WELL ID
 DICO. A2D Technologies, Inc.:   DIGITIZING COMPANY
~OTHER INFORMATION
~A   DEPT     PORD        CNC       CORR        DEN       CALD        SPR       RILD       RILM       RFOC   
# ...
  504.0000     0.1415     0.2835     0.0405     2.4414     8.1250   -77.0789    11.2454    11.1985    11.0995
  504.5000     0.1412     0.2753     0.0450     2.4466     8.1244   -77.5414    11.4027    11.5132    11.5724
  505.0000     0.1349     0.2675     0.0404     2.4551     8.1087   -78.0039    11.3225    11.3511    11.4911
  505.5000     0.1322     0.2657     0.0231     2.4578     8.1081   -77.5587    11.1650    11.2629    11.2529
  506.0000     0.1385     0.2672    -0.0214     2.4450     8.1075   -77.2648    11.0095    11.0342    11.0073
  506.5000     0.1512     0.3007    -0.0290     2.4314     8.1069   -76.8217    10.8563    10.7288    10.7909
  507.0000     0.1515     0.3010    -0.0260     2.4284     8.1062   -76.3765    10.6309    10.5048    10.6410
  507.5000     0.1459     0.2971    -0.0111     2.4347     8.1057   -76.3852    10.3378    10.2854    10.4204
  508.0000     0.1334     0.2745     0.0220     2.4478     8.1051   -76.2404    10.0528    10.0706    10.2756
  508.5000     0.1322     0.2693     0.0249     2.4584     8.1045   -76.0999    10.1933    10.1390    10.0625
  509.0000     0.1446     0.2718     0.0158     2.4433     8.1039   -75.9355    10.1216    10.2079     9.7854
  509.5000     0.1527     0.2727    -0.0203     2.4297     8.1185   -75.8147    10.0506    10.2053     9.7847
  510.0000     0.1515     0.2721    -0.0369     2.4281     8.1330   -75.5208     9.9801    10.2033     9.7841
  510.5000     0.1497     0.2724    -0.0325     2.4296     8.1475   -75.2290     9.9101     9.9903     9.7834
  511.0000     0.1476     0.2733    -0.0085     2.4326     8.1619   -75.2377     9.8405     9.7817     9.7828
  511.5000     0.1440     0.2790     0.0050     2.4363     8.1613   -75.5492    10.0478    10.0556     9.8505
  512.0000     0.1407     0.2814     0.0125     2.4409     8.1757   -75.1059    10.6234    10.3377    10.1985
  512.5000     0.1391     0.2799     0.0169     2.4460     8.1751   -74.6607    10.5489    10.7774    10.4858
  513.0000     0.1398     0.2790     0.0184     2.4460     8.1595   -74.3668    10.3299    10.1906    10.3402
  513.5000     0.1389     0.2793     0.0153     2.4452     8.1741   -74.0726    10.2574    10.1178    10.3395
  514.0000     0.1377     0.2947    -0.0103     2.4489     8.1583   -73.6158    10.2566    10.2577    10.1930
  514.5000     0.1371     0.2972    -0.0149     2.4504     8.1576   -73.1825    10.1139    10.1840     9.8462
  515.0000     0.1371     0.2934     0.0106     2.4518     8.1570   -73.0398     9.8350     9.7651     9.4428
  515.5000     0.1398     0.2848     0.0336     2.4465     8.1564   -72.8972     9.6308     9.2339     9.1191
  516.0000     0.1546     0.2761     0.0285     2.4277     8.1559   -72.7564     9.4968     9.2320     9.1185
  516.5000     0.1591     0.2749     0.0089     2.4179     8.1553   -72.6141     9.3645     9.2297     9.1179
  517.0000     0.1591     0.2815    -0.0017     2.4126     8.1547   -72.3224     9.2989     9.2279     9.2451
  517.5000     0.1600     0.3002    -0.0093     2.4118     8.1540   -72.3310     9.2336     9.1620     9.1166
  518.0000     0.1612     0.3286    -0.0199     2.4095     8.1534   -72.1862     9.1052     9.1602     8.9899
  518.5000     0.1618     0.3280    -0.0320     2.4094     8.1528   -72.0436     9.0394     9.0928     8.8650
  519.0000     0.1612     0.3216    -0.0395     2.4094     8.1522   -71.9031     8.9154     8.9044     8.8644
  519.5000     0.1594     0.3063    -0.0397     2.4124     8.1517   -71.6114     8.7913     8.9027     8.8638
  520.0000     0.1558     0.2743    -0.0131     2.4259     8.1510   -71.6201     8.7907     8.9009     8.8631
  520.5000     0.1504     0.2704     0.0235     2.4371     8.1504   -71.7800     8.7901     8.8373     8.8010
  521.0000     0.1421     0.2707     0.0565     2.4491     8.1498   -71.9399     8.7896     8.7133     8.7394
  521.5000     0.1359     0.2729     0.0715     2.4514     8.1644   -71.7973     8.7888     8.6506     8.7388
  522.0000     0.1353     0.3084     0.0592     2.4438     8.1633   -71.2030     8.6665     8.6489     8.6776
  522.5000     0.1392     0.3163     0.0127     2.4392     8.1479   -70.9091     8.5460     8.5275     8.4918
  523.0000     0.1456     0.3063     0.0066     2.4317     8.1473   -70.6130     8.3685     8.4079     8.2636
  523.5000     0.1501     0.2982     0.0036     2.4256     8.1619   -70.1700     8.1947     8.2899     8.2631
  524.0000     0.1523     0.2891     0.0020     2.4211     8.1613   -70.0272     8.1372     8.1735     8.2625
  524.5000     0.1534     0.2864    -0.0042     2.4180     8.1607   -69.7126     8.3087     8.2861     8.3778
  525.0000     0.1549     0.2837    -0.0162     2.4089     8.1753   -69.2904     8.3661     8.2845     8.5540
  525.5000     0.1583     0.2791    -0.0388     2.3976     8.1897   -69.2991     8.3656     8.3412     8.7340
  526.0000     0.1634     0.2732    -0.0404     2.3938     8.1891   -69.3077     8.3650     8.2812     8.9176
  526.5000     0.1698     0.2774    -0.0329     2.3961     8.2037   -69.3164     8.3063     8.2795     9.0422
  527.0000     0.1707     0.2825    -0.0164     2.3998     8.2029   -69.3253     8.2480     8.2200     8.9787
  527.5000     0.1698     0.2883    -0.0075     2.4042     8.2023   -69.4871     8.1901     8.1613     8.7315
  528.0000     0.1676     0.2913     0.0000     2.4080     8.2018   -69.7984     7.9643     7.8803     8.4276
  528.5000     0.1649     0.2937     0.0015     2.4117     8.2011   -69.8070     7.6909     7.5562     7.9748
  529.0000     0.1616     0.2955    -0.0169     2.4162     8.1854   -69.8157     7.4779     7.3984     7.4900
  529.5000     0.1585     0.2961    -0.0212     2.4192     8.1849   -69.8245     7.3235     7.3452     7.2838
  530.0000     0.1565     0.2961    -0.0108     2.4206     8.1994   -69.8352     7.2721     7.3438     7.1826
  530.5000     0.1556     0.2955    -0.0003     2.4221     8.1987   -69.6904     7.2211     7.2913     7.1821
  531.0000     0.1550     0.2949     0.0072     2.4228     8.1981   -69.5499     7.0712     7.0895     7.4611
  531.5000     0.1544     0.2924     0.0011     2.4265     8.1975   -69.5586     7.0216     7.0389     7.9715
  532.0000     0.1534     0.2862    -0.0035     2.4295     8.1970   -69.5673     7.1197     7.1442     8.2533
  532.5000     0.1514     0.2953     0.0055     2.4483     8.1964   -69.2755     7.2696     7.3874     7.9704
  533.0000     0.1477     0.2892     0.0205     2.4565     8.1957   -69.1307     7.4228     7.5419     7.6438
  533.5000     0.1357     0.2829     0.0479     2.4610     8.1951   -68.8390     7.6322     7.5935     7.5376
  534.0000     0.1321     0.2829     0.0610     2.4572     8.1945   -68.3938     7.5786     7.5389     7.8585
  534.5000     0.1336     0.2865     0.0579     2.4534     8.1939   -68.2511     7.5255     7.5373     8.0799
  535.0000     0.1348     0.3016     0.0473     2.4526     8.1933   -68.2619     7.5249     7.5355     8.2500
  535.5000     0.1357     0.3128     0.0382     2.4548     8.1927   -68.4219     7.5244     7.5340     8.0788
  536.0000     0.1354     0.3179     0.0382     2.4595     8.1921   -68.4305     7.5239     7.5855     7.9666
  536.5000     0.1339     0.3152     0.0366     2.4638     8.1915   -68.7418     7.5760     7.6367     7.8014
  537.0000     0.1312     0.3056     0.0320     2.4592     8.1909   -68.4479     7.6285     7.6917     7.6929
  537.5000     0.1291     0.2986     0.0079     2.4501     8.1903   -68.3052     7.6812     7.7948     7.5860
  538.0000     0.1360     0.2926    -0.0042     2.4509     8.1897   -68.1626     7.7886     7.8478     7.5855
  538.5000     0.1372     0.2923     0.0063     2.4606     8.1890   -68.0200     7.8974     7.9011     7.6380
  539.0000     0.1336     0.2911     0.0137     2.4779     8.1884   -67.8773     7.8969     7.8991     7.9124
  539.5000     0.1206     0.2935     0.0257     2.4921     8.1879   -67.5856     7.9516     7.8975     8.2446
  540.0000     0.1082     0.3086     0.0317     2.4981     8.1873   -67.4430     8.0626     7.9511     8.3018
