~VERSION INFORMATION
 VERS.                2.0:   CWLS LOG ASCII STANDARD - VERSION 2.0
 WRAP.                 NO:   ONE LINE PER DEPTH STEP
~WELL INFORMATION
#MNEM.UNIT      DATA TYPE    INFORMATION
#----------   ------------   ------------------------------
 STRT.F           80.0000:   START DEPTH
 STOP.F          740.0000:   STOP DEPTH
 STEP.F            0.5000:   STEP LENGTH
 NULL.          -999.2500:   NO VALUE
 COMP. U S NAVY/INTEX OIL CO:   COMPANY
 WELL. NPR 3 TEAPOT DOME #73-S-34:   WELL
 FLD .             TEAPOT:   FIELD
 LOC .      S34 T39N R78W:   LOCATION
 CNTY.            NATRONA:   COUNTY
 STAT.            WYOMING:   STATE
 CTRY. UNITED STATES OF AMERICA:   COUNTRY
 SRVC. Schlumberger Well Surveying Corp:   SERVICE COMPANY
 DATE.        19-FEB-1961:   LOGDATE
 API .       490250655200:   API NUMBER
~CURVE INFORMATION
#MNEM.UNIT       API CODE    CURVE DESCRIPTION
#----------   ------------   ------------------------------
 DEPT.F                  :   
 GR  .CPS    99 310 30 00:   GAMMA RAY FROM PERFORATING FORMATION COLLAR CHART
 SPR .MV     05 010 01 00:   SPONTANEOUS POTENTIAL
 ILD .OHMM   05 120 46 00:   INDUCTION LOG DEEP
 CILD.MMHO   05 110 46 00:   CONDUCTIVITY INDUCTION LOG DEEP
 ASN .OHMM   05 041 16 00:   AMPLIFIED SHORT NORMAL 16"
~PARAMETER INFORMATION
#MNEM.UNIT          VALUE    DESCRIPTION
#----------   ------------   ------------------------------
 LMF .                 KB:   LOG MEASURED FROM
 DMF .                 KB:   DRILLING MEASURED FROM
 EKB .F              5044:   KELLING BUSHING
 EGL .F              5040:   GROUND LEVEL
 DATE.          2-19-1961:   RUN DATE
 RUN .                  1:   RUN NUMBER
 DD  .F               740:   DEPTH DRILLER
 DL  .F               741:   DEPTH LOGGER
 BLI .F               740:   BOTTOM LOG INTERVAL
 TLI .F                80:   TOP LOG INTERVAL
 CBD .F               740:   CASING BOTTOM DRILLER
 CBL .F               741:   CASING BOTTOM LOGGER
 BS  .IN            7.875:   BIT SIZE
 BSD .F               740:   BIT SIZE AT DEPTH
 DFT .       GEL-OIL EMUL:   DRILLING FLUID TYPE
 DFD .                9.2:   DRILLING FLUID DENSITY
 DFV .                 49:   DRILLING FLUID VISCOSITY
 DFPH.                  8:   DRILLING FLUID PH
 DFL .               11.4:   DRILLING FLUID LOSS
 MSS .           FLOWLINE:   MUD SAMPLE SOURCE
 RMS .OHMM            .84:   RESISTIVITY MUD SAMPLE
 MST .F                74:   MUD SAMPLE TEMPERATURE
 RMF .OHMM            .83:   RESISTIVITY MUD FILTRATE SAMPLE
 MFST.F                75:   MUD FILTRATE SAMPLE TEMPERATURE
 RMC .OHMM            .52:   RESISTIVITY MUD CAKE
 MCST.F                74:   MUD CAKE SAMPLE TEMPERATURE
 RMB .OHMM           1.98:   RESISTIVITY MUD AT BHT
 BHT .F                70:   BOTTOM HOLE TEMPERATURE
 TCS .HRS               1:   TIME CURCULATED STOPPED
 MRT .F                70:   MAXIMUM RECORDED TEMPERATURE
 LUN .               2523:   LOGGING UNIT NUMBER
 LUL .               CSPR:   LOGGING UNIT LOCATION
 ENGI.             KNOBEL:   RECORDING ENGINEER
 WITN.          JORGENSEN:   WITNESSED BY
 CLNT.            A2DTECH:   CLIENT CODE
 ORIG.        2" 5" PRINT:   ORIGIN OF DATA
 UWI .       490250655200:   UNIQUE WELL ID
 DICO. A2D Technologies, Inc.:   DIGITIZING COMPANY
~OTHER INFORMATION
~A   DEPT       GR        SPR          ILD      CILD         ASN 
# ...
  141.0000  -999.2500   -20.5236     6.0510   170.1245     7.9563
  141.5000  -999.2500   -20.5043     6.2274   165.0860     8.1229
  142.0000  -999.2500   -20.4082     6.3275   160.7884     8.2887
  142.5000  -999.2500   -20.3113     6.3801   160.5809     8.4599
  143.0000  -999.2500   -20.2141     6.3623   160.9958     8.4967
  143.5000  -999.2500   -20.1172     6.3379   161.5573     8.4495
  144.0000  -999.2500   -20.0202     6.3138   162.6052     8.3871
  144.5000  -999.2500   -19.9230     6.2899   163.6408     8.3245
  145.0000  -999.2500   -19.8257     6.2660   164.6785     8.2596
  145.5000  -999.2500   -19.7335     6.2420   165.7161     8.2826
  146.0000  -999.2500   -19.7805     6.2181   166.7552     8.3298
  146.5000  -999.2500   -19.8760     6.1941   167.6786     8.3771
  147.0000  -999.2500   -19.9712     6.1702   168.2721     8.4087
  147.5000  -999.2500   -20.0664     6.1463   168.8649     8.3842
  148.0000  -999.2500   -20.1614     6.1223   169.4576     8.3610
  148.5000  -999.2500   -20.2534     6.0983   169.0223     8.3378
  149.0000  -999.2500   -20.3615     6.0732   168.2443     8.3134
  149.5000  -999.2500   -20.5143     6.0642   167.4663     8.3402
  150.0000  -999.2500   -20.4447     6.2597   166.6883     8.3812
  150.5000  -999.2500   -20.3706     6.5135   163.1872     8.4226
  151.0000  -999.2500   -20.2953     6.7686   158.7785     8.5144
  151.5000  -999.2500   -20.2203     7.0233   154.3698     8.6928
  152.0000  -999.2500   -20.1454     7.2779   149.9611     8.8673
  152.5000  -999.2500   -20.0704     7.5325   142.8942     9.0416
  153.0000  -999.2500   -19.9955     7.7872   134.9412     9.2156
  153.5000  -999.2500   -19.9205     8.0418   126.9882     9.3655
  154.0000  -999.2500   -19.8454     8.2965   121.8880     9.4389
  154.5000  -999.2500   -19.7698     8.5521   118.5166     9.5126
  155.0000  -999.2500   -19.7348     8.8099   117.4792     9.5867
  155.5000  -999.2500   -19.8813     8.9250   116.9606     9.6657
  156.0000  -999.2500   -20.0362     8.6779   117.9979     9.5315
  156.5000  -999.2500   -20.1928     8.4407   120.3319     9.3377
  157.0000  -999.2500   -20.3523     8.2102   127.3859     9.1402
  157.5000  -999.2500   -20.5398     7.5195   136.8992     8.8825
  158.0000  -999.2500   -20.4690     6.6342   146.2697     8.3722
  158.5000  -999.2500   -20.3681     5.4544   193.9272     7.8692
  159.0000  -999.2500   -20.2705     4.2958   254.0950     7.2111
  159.5000  -999.2500   -20.1735     3.1091   314.3053     6.4948
  160.0000  -999.2500   -20.0766     2.5948   374.4981     5.7778
  160.5000  -999.2500   -19.9795     2.3128   435.1813     5.0620
  161.0000  -999.2500   -19.8825     2.2591   486.3875     4.3444
  161.5000  -999.2500   -19.7859     2.2004   581.5496     3.7933
  162.0000  -999.2500   -19.7317     2.1350   630.7448     3.7557
  162.5000  -999.2500   -19.7751     2.2283   630.5165     3.7125
  163.0000  -999.2500   -19.8762     2.4894   553.2736     3.7678
  163.5000  -999.2500   -19.9765     2.8327   528.3027     4.0731
  164.0000  -999.2500   -20.0771     3.1669   509.4075     4.3700
  164.5000  -999.2500   -20.1776     4.3918   413.6098     4.6500
  165.0000  -999.2500   -20.2782     5.8849   281.7312     6.7521
  165.5000  -999.2500   -20.3787     7.3832   215.6639     8.1995
  166.0000  -999.2500   -20.4792     8.8804   157.1577     9.6887
  166.5000  -999.2500   -20.5798    10.3773   110.4772    10.0036
  167.0000  -999.2500   -20.6803    11.8779    72.3509    10.9157
  167.5000  -999.2500   -20.7808    13.4352    70.5074    12.1161
  168.0000  -999.2500   -20.8814    13.4520    68.8775    12.9915
  168.5000  -999.2500   -20.9819    12.1627    77.2822    12.8463
  169.0000  -999.2500   -21.0824    11.2507    90.3354    12.2333
  169.5000  -999.2500   -21.1830    10.3360   109.3534    11.4628
  170.0000  -999.2500   -21.2835     9.0235   128.3682    10.6946
  170.5000  -999.2500   -21.3841     7.5701   147.3947    10.0791
  171.0000  -999.2500   -21.4846     6.1226   166.4254     9.3107
  171.5000  -999.2500   -21.5852     5.0128   185.4352     6.9729
  172.0000  -999.2500   -21.6859     5.0656   200.2928     6.8957
  172.5000  -999.2500   -21.7850     5.0967   202.3070     6.8869
  173.0000  -999.2500   -21.8325     5.1204   204.8755     7.1579
  173.5000  -999.2500   -21.8717     5.4761   205.9129     7.4877
  174.0000  -999.2500   -21.9109     5.9334   191.9087     8.7998
  174.5000  -999.2500   -21.9501     6.4919   168.5685     9.9914
  175.0000  -999.2500   -21.9894     7.4749   144.4502     9.8334
  175.5000  -999.2500   -22.0286     8.4366   124.6542    10.3212
  176.0000  -999.2500   -22.0679     9.3934   110.6735    10.7362
  176.5000  -999.2500   -22.1072    10.1686   104.2796    11.1039
  177.0000  -999.2500   -22.1465    10.3349   100.7152    11.3309
  177.5000  -999.2500   -22.1858    10.5094    99.0948    11.5571
  178.0000  -999.2500   -22.2142    10.6847    97.4715    11.7832
  178.5000  -999.2500   -22.1010    10.8602    95.8432    12.0097
  179.0000  -999.2500   -21.9732    11.0363    94.2119    12.2435
  179.5000  -999.2500   -21.8450    11.2194    92.5830    12.3161
  180.0000  -999.2500   -21.7170    11.1510    90.9529    12.4303
  180.5000  -999.2500   -21.5891    11.0138    90.1193    12.5398
  181.0000  -999.2500   -21.4612    10.8742    91.6753    12.6495
  181.5000  -999.2500   -21.3333    10.7369    93.2313    12.7593
  182.0000  -999.2500   -21.2053    10.6665    94.7873    12.8692
  182.5000  -999.2500   -21.0774    10.8397    95.5394    12.9789
  183.0000  -999.2500   -20.9495    11.0062    93.8797    13.0884
  183.5000  -999.2500   -20.8216    11.1722    92.2199    13.2028
  184.0000  -999.2500   -20.6935    11.3382    90.5602    13.2766
  184.5000  -999.2500   -20.5654    11.5042    88.9004    13.3846
  185.0000  -999.2500   -20.4397    11.6705    87.2407    13.4585
  185.5000  -999.2500   -20.3898    11.8378    85.5809    13.5313
  186.0000  -999.2500   -20.5219    11.9858    83.9212    13.6045
  186.5000  -999.2500   -20.6504    11.9427    83.7137    13.6777
  187.0000  -999.2500   -20.7793    11.8907    83.9903    13.7510
  187.5000  -999.2500   -20.9081    11.8387    84.2669    13.8245
  188.0000  -999.2500   -21.0368    11.7867    84.5436    13.8972
  188.5000  -999.2500   -21.1654    11.7342    84.8202    13.9385
  189.0000  -999.2500   -21.2956    11.6817    85.0968    13.8659
  189.5000  -999.2500   -21.5158    11.7250    85.3734    13.7965
  190.0000  -999.2500   -21.5048    11.9853    85.1271    13.7409
  190.5000  -999.2500   -21.3995    12.2384    83.3117    13.8652
  191.0000  -999.2500   -21.2917    12.4910    81.4964    14.0250
  191.5000  -999.2500   -21.1846    12.7436    79.6810    14.1856
  192.0000  -999.2500   -21.0777    12.9961    77.8749    14.3460
  192.5000  -999.2500   -20.9709    13.2487    76.0966    14.5063
  193.0000  -999.2500   -20.8640    13.5013    74.3183    14.6666
  193.5000  -999.2500   -20.7572    13.7538    72.5400    14.8270
  194.0000  -999.2500   -20.6503    14.0065    70.7617    14.9873
  194.5000  -999.2500   -20.5434    14.2600    68.9834    15.1476
  195.0000  -999.2500   -20.4365    14.5157    67.2051    15.3084
  195.5000  -999.2500   -20.3295    14.6369    65.8714    15.4761
  196.0000  -999.2500   -20.2227    14.4200    65.8714    15.3912
  196.5000  -999.2500   -20.1401    14.2117    66.0788    15.2367
  197.0000  -999.2500   -20.2662    14.0042    66.9087    15.0805
  197.5000  -999.2500   -20.4244    13.7967    67.7386    14.9248
  198.0000  -999.2500   -20.5832    13.5892    69.3292    14.7692
  198.5000  -999.2500   -20.7419    13.3817    71.1733    14.6136
  199.0000  -999.2500   -20.9010    13.1741    73.0175    14.4576
  199.5000  -999.2500   -21.0585    12.9670    74.8617    14.2958
  200.0000  -999.2500   -21.1539    12.7888    76.1705    14.3307
  200.5000  -999.2500   -21.0258    12.7027    75.8735    14.4194
  201.0000  -999.2500   -20.9035    12.6162    75.5764    14.5080
  201.5000  -999.2500   -20.7817    12.5295    75.2793    14.5392
