~VERSION INFORMATION
 VERS.                2.0:   CWLS LOG ASCII STANDARD - VERSION 2.0
 WRAP.                 NO:   ONE LINE PER DEPTH STEP
~WELL INFORMATION
#MNEM.UNIT      DATA TYPE    INFORMATION
#----------   ------------   ------------------------------
 STRT.F           24.0000:   START DEPTH
 STOP.F          609.0000:   STOP DEPTH
 STEP.F            0.5000:   STEP LENGTH
 NULL.          -999.2500:   NO VALUE
 COMP. FENIX & SCISSON INC:   COMPANY
 WELL.        S 34 #48-34:   WELL
 FLD .            NPR - 3:   FIELD
 LOC .      S34 T39N R78W:   LOCATION
 CNTY.            NATRONA:   COUNTY
 STAT.            WYOMING:   STATE
 CTRY. UNITED STATES OF AMERICA:   COUNTRY
 SRVC.              Welex:   SERVICE COMPANY
 DATE.        03-MAY-1977:   LOGDATE
 API .       490251035700:   API NUMBER
~CURVE INFORMATION
#MNEM.UNIT       API CODE    CURVE DESCRIPTION
#----------   ------------   ------------------------------
 DEPT.F                  :   
 CALD.IN     45 280 60 00:   CALIPER FROM DENSITY LOG
 CORR.G/C3   45 356 01 00:   DENSITY CORRECTION
 DPHI.DEC    45 890 12 00:   DENSITY POROSITY SANDSTONE
 GRD .GAPI   45 310 01 00:   GAMMA RAY FROM DENSITY LOG
 RHOB.G/C3   45 350 01 00:   BULK DENSITY
 GURD.OHMM   07 220 05 00:   SHALLOW GUARD RESISTIVITY
 ILD .OHMM   07 120 46 00:   INDUCTION LOG DEEP
 ILM .OHMM   07 120 44 00:   INDUCTION LOG MEDIUM
 SPR .MV     07 010 01 00:   SPONTANEOUS POTENTIAL FROM RES.
~PARAMETER INFORMATION
#MNEM.UNIT          VALUE    DESCRIPTION
#----------   ------------   ------------------------------
 PD  .                 GL:   PERMANENT DATUM
 EPD .F              5160:   ELEVATION PERMANENT DATUM
 LMF .                 GL:   LOG MEASURED FROM
 DMF .                 GL:   DRILLING MEASURED FROM
 EGL .F              5160:   GROUND LEVEL
 DATE.        03-MAY-1977:   RUN DATE
 RUN .                  1:   RUN NUMBER
 DD  .F               610:   DEPTH DRILLER
 DL  .F               611:   DEPTH LOGGER
 BLI .F               609:   BOTTOM LOG INTERVAL
 TLI .F                30:   TOP LOG INTERVAL
 CS  .IN            8.625:   CASING SIZE
 CBD .F                40:   CASING BOTTOM DRILLER
 CBL .F                32:   CASING BOTTOM LOGGER
 BS  .IN            7.875:   BIT SIZE
 BSD .F               610:   BIT SIZE AT DEPTH
 DFT .            KCL GEL:   DRILLING FLUID TYPE
 DFD .                8.9:   DRILLING FLUID DENSITY
 DFV .                 33:   DRILLING FLUID VISCOSITY
 DFPH.                8.0:   DRILLING FLUID PH
 DFL .                7.2:   DRILLING FLUID LOSS
 MSS .            MUD PIT:   MUD SAMPLE SOURCE
 RMS .OHMM           0.19:   RESISTIVITY MUD SAMPLE
 MST .F                65:   MUD SAMPLE TEMPERATURE
 RMF .OHMM           0.16:   RESISTIVITY MUD FILTRATE SAMPLE
 MFST.F                65:   MUD FILTRATE SAMPLE TEMPERATURE
 RMC .OHMM           0.24:   RESISTIVITY MUD CAKE
 MCST.F                65:   MUD CAKE SAMPLE TEMPERATURE
 MFSS.               MEAS:   MUD FILTRATE SAMPLE SOURCE
 MCSS.               MEAS:   MUD CAKE SAMPLE SOURCE
 RMB .OHMM           0.17:   RESISTIVITY MUD AT BHT
 BHT .F                72:   BOTTOM HOLE TEMPERATURE
 TCS .HRS               2:   TIME CURCULATED STOPPED
 MRT .F                72:   MAXIMUM RECORDED TEMPERATURE
 LUN .               8766:   LOGGING UNIT NUMBER
 LUL .             CASPER:   LOGGING UNIT LOCATION
 ENGI.          T. JOYNER:   RECORDING ENGINEER
 WITN.           ROB LYON:   WITNESSED BY
 CLNT.            A2DTECH:   CLIENT CODE
 ORIG.           5" PRINT:   ORIGIN OF DATA
 UWI .       490251035700:   UNIQUE WELL ID
 DICO. A2D Technologies, Inc.:   DIGITIZING COMPANY
~OTHER INFORMATION
~A   DEPT       CALD      CORR        DPHI      GRD         RHOB     GURD        ILD        ILM        SPR   
# ...
  498.5000     7.7796     0.0096     0.1733    77.8338     2.3912    27.6029    20.0036    19.6829   -10.7672
  499.0000     7.7808     0.0098     0.1739    76.0059     2.3905    27.0650    20.0255    20.1112   -10.8984
  499.5000     7.7821     0.0099     0.1742    73.1309     2.3883    27.2830    20.1866    20.2662   -10.8807
  500.0000     7.7833     0.0130     0.1702    71.9570     2.4004    27.6939    20.3490    20.2815   -11.0119
  500.5000     7.7845     0.0165     0.1612    77.7650     2.4192    27.9050    20.3786    19.2029   -10.9940
  501.0000     7.7827     0.0282     0.1537    80.3046     2.4260    28.8968    20.6783    18.4317   -10.9762
  501.5000     7.7717     0.0404     0.1543    81.5089     2.4246    29.3137    20.7012    18.5773   -10.9583
  502.0000     7.7581     0.0420     0.1590    83.7518     2.4149    29.1254    20.5858    19.5147   -11.0901
  502.5000     7.7593     0.0406     0.1632    86.8849     2.4053    29.1399    20.6083    20.3580   -11.0680
  503.0000     7.7456     0.0407     0.1662    85.1218     2.4008    29.4222    20.7741    20.5149   -11.0504
  503.5000     7.7469     0.0393     0.1673    84.5457     2.4017    32.7945    21.0866    20.3848   -11.0327
  504.0000     7.7480     0.0365     0.1646    88.7498     2.4055    35.1813    20.9584    20.4040   -11.0151
  504.5000     7.7493     0.0351     0.1634    91.7033     2.4056    30.0193    20.8366    19.9995   -11.1507
  505.0000     7.7353     0.0337     0.1649    88.6088     2.4033    27.4481    20.5727    19.4678   -11.1286
  505.5000     7.7368     0.0293     0.1670    85.8073     2.4011    25.9813    20.0385    19.2139   -11.1109
  506.0000     7.7381     0.0294     0.1681    84.0399     2.3989    26.9096    19.7847    19.0959   -11.2421
  506.5000     7.7393     0.0278     0.1695    83.4639     2.3967    27.6754    19.6644    19.3772   -11.3777
  507.0000     7.7553     0.0252     0.1704    84.6726     2.3940    26.9356    19.8280    19.7989   -11.6532
  507.5000     7.7712     0.0238     0.1698    88.2509     2.3970    26.3944    19.8497    19.9516   -11.6356
  508.0000     7.7575     0.0239     0.1671    91.3840     2.4016    26.9615    19.7344    19.6705   -11.9200
  508.5000     7.7589     0.0241     0.1658    90.8080     2.4039    27.1619    19.6189    19.1520   -12.3443
  509.0000     7.7600     0.0242     0.1661    89.4901     2.4033    26.4326    19.2377    18.7665   -13.0707
  509.5000     7.7759     0.0243     0.1667    87.4304     2.4026    25.7228    19.1256    18.4193   -13.9459
  510.0000     7.7622     0.0244     0.1645    88.9713     2.4049    25.0291    18.8837    18.4332   -13.3330
  510.5000     7.7485     0.0245     0.1624    88.8585     2.4065    25.3935    18.7678    18.1934   -12.7201
  511.0000     7.7499     0.0246     0.1612    86.5968     2.4088    25.5792    18.6525    18.1980   -13.0001
  511.5000     7.7510     0.0279     0.1591    84.8338     2.4141    24.7235    18.1752    18.2001   -13.2801
  512.0000     7.7522     0.0309     0.1545    84.2534     2.4217    24.3923    17.9450    18.2024   -13.5774
  512.5000     7.7533     0.0295     0.1515    85.1654     2.4248    24.7473    17.7177    18.4690   -13.9888
  513.0000     7.7546     0.0266     0.1518    89.0404     2.4233    25.4547    17.6148    18.6102   -14.4176
  513.5000     7.7557     0.0268     0.1529    91.7284     2.4212    25.6408    17.3965    18.4941   -14.6976
  514.0000     7.7719     0.0314     0.1532    86.6970     2.4242    25.1257    17.2907    18.5074   -14.9775
  514.5000     7.7730     0.0315     0.1511    87.3122     2.4288    24.7921    17.0717    18.3918   -15.1846
  515.0000     7.7742     0.0316     0.1469    90.2970     2.4334    24.4658    16.8601    18.2774   -15.3983
  515.5000     7.7755     0.0332     0.1444    96.2611     2.4372    24.1409    16.7621    18.2931   -15.6151
  516.0000     7.7615     0.0318     0.1438    97.7503     2.4395    24.1525    16.4357    18.3057   -16.0516
  516.5000     7.7629     0.0305     0.1432    93.3210     2.4389    23.9974    16.2231    18.4456   -16.6369
  517.0000     7.7640     0.0261     0.1443    90.3711     2.4359    23.8430    15.9115    18.5865   -17.0734
  517.5000     7.7652     0.0202     0.1449    87.8663     2.4345    23.5264    15.5974    18.7254   -17.3611
  518.0000     7.7665     0.0143     0.1452    84.4712     2.4369    23.2141    15.1882    18.1036   -17.9137
  518.5000     7.7676     0.0129     0.1455    83.0006     2.4392    22.7479    14.7938    17.3788   -18.0478
  519.0000     7.7688     0.0100     0.1442    85.5447     2.4385    22.1350    14.6064    16.7989   -18.1855
  519.5000     7.7700     0.0117     0.1412    89.1229     2.4438    21.2288    14.3219    16.2355   -18.4647
  520.0000     7.7564     0.0133     0.1394    90.4713     2.4484    20.1109    13.9462    15.9154   -18.8964
  520.5000     7.7575     0.0149     0.1375    86.3388     2.4515    20.4015    13.5945    15.8137   -19.1792
  521.0000     7.7589     0.0195     0.1366    84.5758     2.4530    20.6960    13.3770    15.6069   -19.4621
  521.5000     7.7449     0.0212     0.1363    83.0919     2.4539    20.5217    13.2773    15.4028   -19.5998
  522.0000     7.7463     0.0213     0.1360    83.5549     2.4539    20.0107    13.2865    14.2853   -19.5814
  522.5000     7.7325     0.0214     0.1362    86.4128     2.4533    19.7449    13.0982    13.7134   -19.8679
  523.0000     7.7188     0.0215     0.1371    86.1335     2.4503    19.6181    12.4173    14.8090   -20.0020
  523.5000     7.7202     0.0187     0.1380    84.6673     2.4459    19.4921    12.2529    15.6633   -20.1360
  524.0000     7.7213     0.0158     0.1391    82.1624     2.4475    19.5038    12.4344    15.4585   -20.4152
  524.5000     7.7227     0.0159     0.1400    79.9544     2.4498    19.5132    12.2719    14.3321   -20.5529
  525.0000     7.7238     0.0145     0.1406    81.1587     2.4491    19.9325    11.9450    14.8497   -20.6870
  525.5000     7.7248     0.0101     0.1414    82.9566     2.4462    19.6678    11.7869    15.8156   -20.6685
  526.0000     7.7111     0.0102     0.1414    85.9414     2.4440    19.4066    12.0445    14.2650   -20.6538
  526.5000     7.6828     0.0059     0.1413    84.7718     2.4433    19.0144    11.9676    14.2748   -20.7878
  527.0000     7.6691     0.0045     0.1395    84.0474     2.4479    18.8923    11.8932    15.4153   -21.0707
  527.5000     7.6702     0.0046     0.1380    85.6969     2.4480    18.7710    11.8193    15.9693   -21.3536
  528.0000     7.6713     0.0047     0.1377    82.7513     2.4466    18.5217    11.6669    14.1037   -21.4881
  528.5000     7.6727     0.0050     0.1359    81.8742     2.4504    18.4027    11.5924    13.7315   -21.7708
  529.0000     7.6738     0.0110     0.1340    82.7862     2.4557    18.2845    11.6023    15.0587   -21.9048
  529.5000     7.6749     0.0111     0.1322    85.1775     2.4596    18.0417    11.6103    15.7930   -22.1874
  530.0000     7.6761     0.0142     0.1310    86.9753     2.4619    18.1780    11.6990    14.3177   -22.4702
  530.5000     7.6774     0.0158     0.1315    89.0699     2.4618    18.4404    11.7070    14.2544   -22.7531
  531.0000     7.6785     0.0175     0.1324    91.1645     2.4574    18.7066    11.7150    15.1179   -22.8872
  531.5000     7.6796     0.0131     0.1333    93.2591     2.4545    19.1085    11.8864    15.8365   -22.8720
  532.0000     7.6808     0.0117     0.1342    94.1667     2.4532    19.1177    11.8946    14.0898   -22.8571
  532.5000     7.6820     0.0073     0.1347    94.4809     2.4533    19.1269    11.9028    14.3955   -22.8423
  533.0000     7.6832     0.0059     0.1350    94.9515     2.4533    19.1362    11.9109    15.2260   -22.8244
  533.5000     7.6846     0.0030     0.1353    95.7864     2.4534    18.8798    11.8367    14.7154   -22.8097
  534.0000     7.6857     0.0002     0.1343    98.9885     2.4550    18.6309    11.6016    15.6752   -23.0925
  534.5000     7.6868     0.0003     0.1325   101.0831     2.4566    18.0059    11.4501    16.1265   -23.0778
