~VERSION INFORMATION
 VERS.                2.0:   CWLS LOG ASCII STANDARD - VERSION 2.0
 WRAP.                 NO:   ONE LINE PER DEPTH STEP
~WELL INFORMATION
#MNEM.UNIT      DATA TYPE    INFORMATION
#----------   ------------   ------------------------------
 STRT.F           30.0000:   START DEPTH
 STOP.F          458.0000:   STOP DEPTH
 STEP.F            0.5000:   STEP LENGTH
 NULL.          -999.2500:   NO VALUE
 COMP. FENIX & SCISSON INC:   COMPANY
 WELL. NPR 3 #53 SX 10-10:   WELL
 FLD .             TEAPOT:   FIELD
 LOC .      S10 T38N R78W:   LOCATION
 CNTY.            NATRONA:   COUNTY
 STAT.            WYOMING:   STATE
 CTRY. UNITED STATES OF AMERICA:   COUNTRY
 SRVC.              Welex:   SERVICE COMPANY
 DATE.        16-APR-1977:   LOGDATE
 API .       490251033200:   API NUMBER
~CURVE INFORMATION
#MNEM.UNIT       API CODE    CURVE DESCRIPTION
#----------   ------------   ------------------------------
 DEPT.F                  :   
 SPR .MV     07 010 01 00:   SPONTANEOUS POTENTIAL FROM RES.
 ILD .OHMM   07 120 46 00:   INDUCTION LOG DEEP
 ILM .OHMM   07 120 44 00:   INDUCTION LOG MEDIUM
 SGRD.OHMM   07 220 05 00:   SHALLOW GUARD RESISTIVITY
 GRD .GAPI   45 310 01 00:   GAMMA RAY FROM DENSITY LOG
 CALD.IN     45 280 60 00:   CALIPER FROM DENSITY LOG
 CORR.G/C3   45 356 01 00:   DENSITY CORRECTION
 RHOB.G/C3   45 350 01 00:   BULK DENSITY
 DPHI.DEC    45 890 12 00:   DENSITY POROSITY SANDSTONE
~PARAMETER INFORMATION
#MNEM.UNIT          VALUE    DESCRIPTION
#----------   ------------   ------------------------------
 PD  .                 GL:   PERMANENT DATUM
 EPD .F              5180:   ELEVATION PERMANENT DATUM
 LMF .                 GL:   LOG MEASURED FROM
 DMF .                 GL:   DRILLING MEASURED FROM
 EGL .F              5180:   GROUND LEVEL
 DATE.        16-APR-1977:   RUN DATE
 RUN .                  1:   RUN NUMBER
 DD  .F               455:   DEPTH DRILLER
 DL  .F               461:   DEPTH LOGGER
 BLI .F               459:   BOTTOM LOG INTERVAL
 TLI .F                30:   TOP LOG INTERVAL
 CS  .IN            8.625:   CASING SIZE
 BS  .IN            7.875:   BIT SIZE
 BSD .F               455:   BIT SIZE AT DEPTH
 DFT .            KCL MUD:   DRILLING FLUID TYPE
 DFD .                8.9:   DRILLING FLUID DENSITY
 TCS .HRS            0600:   TIME CURCULATED STOPPED
 MRT .F                66:   MAXIMUM RECORDED TEMPERATURE
 ENGI.               DOAK:   RECORDING ENGINEER
 WITN.      B. HARRINGTON:   WITNESSED BY
 CLNT.            A2DTECH:   CLIENT CODE
 ORIG.           5" PRINT:   ORIGIN OF DATA
 UWI .       490251033200:   UNIQUE WELL ID
 DICO. A2D Technologies, Inc.:   DIGITIZING COMPANY
~OTHER INFORMATION
~A   DEPT      SPR        ILD        ILM       SGRD         GRD        CALD      CORR        RHOB     DPHI   
# ...
  285.5000   -41.7224    17.8675    27.2395    31.3454    88.9644     7.8068     0.0264     2.3923     0.1523
  286.0000   -41.7022    18.1263    28.6785    32.2360    87.0363     7.8087     0.0250     2.3924     0.1523
  286.5000   -41.6860    18.3888    28.8203    28.0893    84.6721     7.8105     0.0253     2.3932     0.1525
  287.0000   -41.6698    18.7845    19.9911    27.9058    83.5067     7.8127     0.0254     2.3941     0.1537
  287.5000   -41.6536    18.9252    19.0543    27.7302    82.4789     7.8146     0.0256     2.3919     0.1549
  288.0000   -41.6374    19.0670    22.5094    27.3591    79.5550     7.8165     0.0243     2.3890     0.1569
  288.5000   -41.7723    19.2098    21.7563    27.1837    78.2320     7.8035     0.0214     2.3801     0.1617
  289.0000   -41.7521    19.0879    20.0349    26.6383    80.0390     7.8054     0.0201     2.3711     0.1656
  289.5000   -41.7359    18.4493    22.5464    26.6543    83.4756     7.7925     0.0203     2.3622     0.1713
  290.0000   -41.7197    17.8322    20.0569    25.9396    84.8272     7.7944     0.0205     2.3646     0.1694
  290.5000   -41.7035    17.1169    19.1170    25.2411    80.8344     7.7963     0.0207     2.3720     0.1655
  291.0000   -41.6873    17.0059    20.0788    25.0792    82.4928     7.7833     0.0224     2.3752     0.1631
  291.5000   -41.8236    16.8980    28.3874    26.7055    84.1463     7.7852     0.0241     2.3776     0.1630
  292.0000   -41.9558    16.9096    39.0393    28.0434    86.3942     7.7871     0.0258     2.3777     0.1639
  292.5000   -42.0846    16.9188    28.0282    28.8437    88.4936     7.7890     0.0274     2.3778     0.1636
  293.0000   -42.0677    16.9281    21.4120    28.8575    90.2957     7.7909     0.0276     2.3745     0.1652
  293.5000   -42.0515    17.0549    25.1202    27.5072    91.5035     7.8227     0.0233     2.3678     0.1684
  294.0000   -42.0353    17.4219    22.6577    26.4020    92.1170     7.8246     0.0174     2.3578     0.1728
  294.5000   -42.1677    17.5524    22.6701    25.8723    90.7988     7.8267     0.0176     2.3579     0.1734
  295.0000   -42.1513    17.4410    23.3186    24.6617    89.3320     7.8063     0.0178     2.3625     0.1697
  295.5000   -42.2883    17.0919    24.6584    24.0004    88.3110     7.7933     0.0180     2.3693     0.1673
  296.0000   -42.5641    16.6307    24.9629    24.0121    87.4385     7.7878     0.0209     2.3747     0.1651
  296.5000   -42.6963    16.5296    24.3463    23.9643    86.7117     7.7899     0.0196     2.3755     0.1624
  297.0000   -42.8284    16.5387    23.8477    23.8694    86.5852     7.7918     0.0168     2.3726     0.1651
  297.5000   -42.9606    16.2080    24.1172    25.4946    88.7443     7.7937     0.0170     2.3704     0.1659
  298.0000   -43.0928    16.1052    25.4199    25.7805    90.5310     7.7956     0.0157     2.3698     0.1683
  298.5000   -43.0726    15.7832    24.5723    23.9037    87.0930     7.7975     0.0114     2.3638     0.1707
  299.0000   -43.0564    15.3631    23.9151    25.8035    85.4728     7.7995     0.0056     2.3602     0.1721
  299.5000   -43.0402    14.9502    23.2754    26.7261    86.8340     7.8014    -0.0002     2.3603     0.1718
  300.0000   -43.0266    14.5503    21.5806    23.2871    88.1866     7.8033     0.0106     2.3671     0.1665
  300.5000   -43.0088    14.5604    21.0078    22.9769    90.1518     7.8054     0.0183     2.3822     0.1589
  301.0000   -42.9911    14.5684    22.0665    23.9668    91.0715     7.8074     0.0245     2.3974     0.1478
  301.5000   -42.9733    14.9853    21.0399    24.8237    91.8426     7.8095     0.0293     2.4087     0.1427
  302.0000   -42.9554    15.4141    21.0559    23.8281    92.4581     7.8115     0.0310     2.4126     0.1420
  302.5000   -42.9376    15.6374    21.9747    22.7117    90.1159     7.8136     0.0282     2.4071     0.1423
  303.0000   -42.9198    15.3248    21.2344    22.7274    88.3610     7.8158     0.0209     2.3993     0.1497
  303.5000   -42.9020    14.9150    19.9684    22.2732    87.6392     7.8178     0.0165     2.3904     0.1557
  304.0000   -42.8842    14.5162    17.8906    21.5252    87.2287     7.8199     0.0137     2.3834     0.1596
  304.5000   -42.8663    14.2241    16.8240    21.3888    85.9196     7.8220     0.0124     2.3801     0.1610
  305.0000   -42.9969    13.8437    17.0713    22.1566    82.9760     7.8241     0.0142     2.3806     0.1613
  305.5000   -43.1274    13.4754    16.5037    21.7137    80.7754     7.8262     0.0159     2.3857     0.1571
  306.0000   -43.4065    13.4828    16.2803    20.9846    80.4993     7.8133     0.0191     2.3913     0.1525
  306.5000   -43.3885    13.4903    17.2291    20.9991    82.0204     7.8005     0.0208     2.3982     0.1486
  307.0000   -43.3707    13.4978    16.5415    20.7222    83.8317     7.7877     0.0210     2.4017     0.1468
  307.5000   -43.5015    13.7883    16.7846    19.8884    85.0486     7.7898     0.0212     2.4049     0.1455
  308.0000   -43.4834    13.7009    18.0000    19.3593    85.6711     7.7918     0.0215     2.4072     0.1452
  308.5000   -43.4656    13.0608    19.1704    19.7760    84.5035     7.7790     0.0217     2.4096     0.1430
  309.0000   -43.4478    12.7115    19.5871    20.4831    83.4986     7.7811     0.0219     2.4134     0.1403
  309.5000   -43.4300    12.3716    19.4665    21.8104    83.0811     7.7832     0.0221     2.4173     0.1358
  310.0000   -43.4122    12.1226    19.6170    22.1233    83.8522     7.8002     0.0268     2.4234     0.1309
  310.5000   -43.3943    12.1310    20.4829    21.0926    85.8120     7.7873     0.0285     2.4296     0.1258
  311.0000   -43.3765    12.1377    19.6469    19.9658    88.0690     7.7894     0.0333     2.4409     0.1207
  311.5000   -43.5071    12.1445    19.1250    20.9705    90.0289     7.7766     0.0380     2.4508     0.1164
  312.0000   -43.4893    12.4059    19.4276    19.9908    91.8401     7.7638     0.0412     2.4607     0.1140
  312.5000   -43.6202    12.8476    19.1541    19.3221    94.6915     7.7808     0.0444     2.4660     0.1116
  313.0000   -43.7507    12.5041    18.5179    19.0647    92.4908     7.7828     0.0461     2.4631     0.1115
  313.5000   -43.7325    12.1714    18.0258    19.8861    91.3303     7.7849     0.0418     2.4573     0.1178
  314.0000   -43.7147    11.8459    18.4183    21.1747    90.1698     7.7870     0.0405     2.4499     0.1210
  314.5000   -43.6969    11.7692    19.4807    21.1865    87.6720     7.7891     0.0362     2.4447     0.1237
  315.0000   -43.6791    11.6945    20.3214    20.6199    86.6530     7.8061     0.0304     2.4366     0.1273
  315.5000   -43.6613    11.7838    19.2424    19.9303    90.5515     7.8084     0.0246     2.4277     0.1332
  316.0000   -43.6434    11.9545    19.1208    22.4288    93.5515     7.8105     0.0218     2.4210     0.1389
  316.5000   -43.6256    12.4678    20.5092    23.2274    96.2543     7.7977     0.0190     2.4211     0.1362
  317.0000   -43.6078    13.0934    20.3834    21.2453    93.9050     7.7998     0.0192     2.4243     0.1265
  317.5000   -43.5900    13.6556    19.3012    20.2499    89.7727     7.8018     0.0194     2.4281     0.1292
  318.0000   -43.5722    13.7561    18.7854    21.7404    87.4235     7.8039     0.0196     2.4215     0.1373
  318.5000   -43.5543    13.5747    20.1495    20.6731    85.0743     7.7910     0.0214     2.4171     0.1396
  319.0000   -43.5365    13.2135    18.8176    21.3615    83.4680     7.7931     0.0216     2.4157     0.1390
  319.5000   -43.5187    12.8602    18.6986    21.5981    82.3004     7.7952     0.0234     2.4188     0.1351
  320.0000   -43.6499    12.5671    18.4594    19.9728    83.8215     7.7824     0.0251     2.4234     0.1293
  320.5000   -43.9282    11.9298    18.2197    19.4918    85.1870     7.7845     0.0268     2.4295     0.1266
  321.0000   -44.0593    11.5157    16.5513    19.1022    86.8497     7.7866     0.0301     2.4349     0.1250
  321.5000   -44.1893    11.2858    15.6725    18.8384    88.2152     7.7887     0.0317     2.4380     0.1241
