~VERSION INFORMATION
 VERS.                2.0:   CWLS LOG ASCII STANDARD - VERSION 2.0
 WRAP.                 NO:   ONE LINE PER DEPTH STEP
~WELL INFORMATION
#MNEM.UNIT      DATA TYPE    INFORMATION
#----------   ------------   ------------------------------
 STRT.F           46.0000:   START DEPTH
 STOP.F          670.0000:   STOP DEPTH
 STEP.F            0.5000:   STEP LENGTH
 NULL.          -999.2500:   NO VALUE
 COMP. FENIX & SCISSON INC:   COMPANY
 WELL. TEAPOT #27 62SX 11WI-11:   WELL
 FLD .             TEAPOT:   FIELD
 LOC .      S11 T38N R78W:   LOCATION
 CNTY.            NATRONA:   COUNTY
 STAT.            WYOMING:   STATE
 CTRY. UNITED STATES OF AMERICA:   COUNTRY
 SRVC.      Dresser Atlas:   SERVICE COMPANY
 DATE.        27-JUL-1980:   LOGDATE
 API .       490251084000:   API NUMBER
~CURVE INFORMATION
#MNEM.UNIT       API CODE    CURVE DESCRIPTION
#----------   ------------   ------------------------------
 DEPT.F                  :   
 GRD .GAPI   45 310 01 00:   GAMMA RAY FROM DENSITY LOG
 RHOB.G/C3   45 350 01 00:   BULK DENSITY
 CORR.G/C3   45 356 01 00:   DENSITY CORRECTION
 CALD.IN     45 280 60 00:   CALIPER
 DPOR.DEC    45 890 12 00:   DENSITY POROSITY SANDSTONE
 SPR .MV     07 010 01 00:   SPONTANEOUS POTENTIAL
 SFL .OHMM   07 220 01 00:   SHALLOW FOCUSED LOG RESISTIVITY
 ILD .OHMM   07 120 46 00:   INDUCTION LOG DEEP
 ILM .OHMM   07 120 44 00:   INDUCTION LOG MEDIUM
~PARAMETER INFORMATION
#MNEM.UNIT          VALUE    DESCRIPTION
#----------   ------------   ------------------------------
 PD  .                 GL:   PERMANENT DATUM
 EPD .F              5186:   ELEVATION PERMANENT DATUM
 LMF .                 KB:   LOG MEASURED FROM
 DAPD.F                 5:   FEET ABOVE PERMANENT DATUM
 DMF .                 KB:   DRILLING MEASURED FROM
 EKB .F              5191:   KELLING BUSHING
 EGL .F              5186:   GROUND LEVEL
 DATE.            7-27-80:   RUN DATE
 RUN .                  1:   RUN NUMBER
 DD  .F               660:   DEPTH DRILLER
 DL  .F               663:   DEPTH LOGGER
 BLI .F               661:   BOTTOM LOG INTERVAL
 TLI .F                46:   TOP LOG INTERVAL
 BS  .IN            7.875:   BIT SIZE
 BSD .F               660:   BIT SIZE AT DEPTH
 DFT .           CHEM GEL:   DRILLING FLUID TYPE
 DFD .                9.5:   DRILLING FLUID DENSITY
 DFV .                 50:   DRILLING FLUID VISCOSITY
 DFPH.                 11:   DRILLING FLUID PH
 DFL .                  6:   DRILLING FLUID LOSS
 MSS .           FLOWLINE:   MUD SAMPLE SOURCE
 RMS .OHMM            .08:   RESISTIVITY MUD SAMPLE
 MST .F                70:   MUD SAMPLE TEMPERATURE
 RMC .OHMM            .08:   RESISTIVITY MUD CAKE
 MCST.F                70:   MUD CAKE SAMPLE TEMPERATURE
 MFSS.               MEAS:   MUD FILTRATE SAMPLE SOURCE
 MCSS.               MEAS:   MUD CAKE SAMPLE SOURCE
 RMB .OHMM            .06:   RESISTIVITY MUD AT BHT
 BHT .F                90:   BOTTOM HOLE TEMPERATURE
 TCS .HRS               5:   TIME CURCULATED STOPPED
 MRT .F                90:   MAXIMUM RECORDED TEMPERATURE
 LUN .               6145:   LOGGING UNIT NUMBER
 LUL .              GLTTE:   LOGGING UNIT LOCATION
 ENGI.              HENRY:   RECORDING ENGINEER
 WITN.              AMEND:   WITNESSED BY
 CLNT.            A2DTECH:   CLIENT CODE
 ORIG.       2", 5" PRINT:   ORIGIN OF DATA
 UWI .       490251084000:   UNIQUE WELL ID
 DICO. A2D Technologies, Inc.:   DIGITIZING COMPANY
~OTHER INFORMATION
~A   DEPT      GRD       RHOB       CORR       CALD       DPOR        SPR          SFL        ILD      ILM   
   46.0000  -999.2500  -999.2500  -999.2500  -999.2500  -999.2500   -41.0661     4.3816     4.3822  -999.2500
   46.5000  -999.2500  -999.2500  -999.2500  -999.2500  -999.2500   -40.9066     4.3836     4.3412  -999.2500
   47.0000  -999.2500  -999.2500  -999.2500  -999.2500  -999.2500   -41.2104     4.1383     4.1603  -999.2500
   47.5000  -999.2500  -999.2500  -999.2500  -999.2500  -999.2500   -41.5652     3.9752     3.9869  -999.2500
   48.0000  -999.2500  -999.2500  -999.2500  -999.2500  -999.2500   -41.7890     3.8185     3.8207  -999.2500
   48.5000  -999.2500  -999.2500  -999.2500  -999.2500  -999.2500   -41.5978     3.7247     3.7351  -999.2500
   49.0000  -999.2500  -999.2500  -999.2500  -999.2500  -999.2500   -41.4141     3.6382     3.6743  -999.2500
   49.5000  -999.2500  -999.2500  -999.2500  -999.2500  -999.2500   -41.2379     3.6450     3.6451  -999.2500
   50.0000  -999.2500  -999.2500  -999.2500  -999.2500  -999.2500   -41.6200     3.6730     3.6769     3.7107
   50.5000  -999.2500  -999.2500  -999.2500  -999.2500  -999.2500   -42.0498    15.3160     3.7131     3.7104
   51.0000  -999.2500  -999.2500  -999.2500  -999.2500  -999.2500   -42.4681    13.4649     3.6341     4.1158
   51.5000  -999.2500  -999.2500  -999.2500  -999.2500  -999.2500   -42.7581    13.9440     3.5498     4.5910
   52.0000  -999.2500  -999.2500  -999.2500  -999.2500  -999.2500   -43.0552    14.4830     3.4817     4.2345
   52.5000  -999.2500  -999.2500  -999.2500  -999.2500  -999.2500   -43.3465    13.9761     3.4817     3.9515
   53.0000  -999.2500  -999.2500  -999.2500  -999.2500  -999.2500   -43.9581    14.7729     3.7310     3.6868
   53.5000  -999.2500  -999.2500  -999.2500  -999.2500  -999.2500   -44.8577    15.2853     3.9211     3.5607
   54.0000  -999.2500  -999.2500  -999.2500  -999.2500  -999.2500   -45.8557    16.8205     4.1088     3.4817
   54.5000  -999.2500  -999.2500  -999.2500  -999.2500  -999.2500   -46.8986    18.3854     4.4821     3.5287
   55.0000  -999.2500  -999.2500  -999.2500  -999.2500  -999.2500   -49.0740    19.8168     4.8657     3.6289
   55.5000  -999.2500  -999.2500  -999.2500  -999.2500  -999.2500   -50.3688    21.3856     5.0959     3.8032
   56.0000  -999.2500  -999.2500  -999.2500  -999.2500  -999.2500   -51.6479    20.5598     5.2797     4.1240
   56.5000  -999.2500  -999.2500  -999.2500  -999.2500  -999.2500   -52.9360    22.4375     5.4902     4.4426
   57.0000  -999.2500  -999.2500  -999.2500  -999.2500  -999.2500   -53.9314    26.2682     5.6793     4.8045
   57.5000  -999.2500  -999.2500  -999.2500  -999.2500  -999.2500   -54.3338    31.3604     5.7487     4.7751
   58.0000  -999.2500  -999.2500  -999.2500  -999.2500  -999.2500   -54.3392    41.4741     6.0616     4.5789
   58.5000  -999.2500  -999.2500  -999.2500  -999.2500  -999.2500   -54.2223    75.9595     6.6233     4.2951
   59.0000  -999.2500  -999.2500  -999.2500    11.2039  -999.2500   -53.9657    65.3885     6.9409     4.1088
   59.5000    68.1383  -999.2500     0.0327    12.3174     0.3250   -53.4376    57.9820     6.6190     4.8236
   60.0000    68.0239     1.8814     0.0296    12.3853     0.4856   -52.5839    18.0748     6.5090     5.6252
   60.5000    67.7345     1.7949     0.0264    12.5321     0.5477   -51.4884    20.2374     6.5090     5.1252
   61.0000    67.8890     2.0318     0.0267    12.6218     0.4667   -50.3831    23.6936     6.5416     4.3420
   61.5000    68.8600     2.0114     0.0287    12.4433     0.3904   -49.5849    27.9062     6.7550     4.7268
   62.0000    67.7429     1.9679     0.0296    12.2495     0.4214   -48.6639    30.8160     6.5532     5.6059
   62.5000    66.2161     1.9499     0.0296    12.2821     0.4301   -47.1449    17.3417     6.2355     6.2184
   63.0000    65.4485     1.9377     0.0296    12.4312     0.4262   -45.6514    14.7511     6.0471     5.7623
   63.5000    66.1157     2.0652     0.0296    12.5564     0.3267   -44.1533    12.2708     6.6226     5.6154
   64.0000    67.6081     2.1419     0.0296    12.4655     0.3920   -42.3749    10.4701     7.2023     6.1650
   64.5000    69.4661     1.9917     0.0296    12.1699     0.4198   -40.2818     9.6221     7.2023     7.1397
   65.0000    69.7443     1.8990     0.0296    12.5818     0.4596   -38.2037     8.9409     6.5520     8.8794
   65.5000    68.9764     1.7774     0.0296    12.1478     0.5192   -36.1247     8.7375     5.6943    11.9689
   66.0000    70.0448     1.7143     0.0294    11.5858     0.5738   -33.9858     9.1279     4.7086    16.9473
   66.5000    71.6657     1.6735     0.0315    11.0808     0.6039   -31.7508     9.8478     3.7558    10.7949
   67.0000    74.1075     2.0142     0.0316    10.5131     0.5013   -29.5176     9.1489     3.0609     5.8928
   67.5000    76.1759     2.0633     0.0311    10.0508     0.3615   -27.2745     7.1270     2.6663     3.6456
   68.0000    79.9390     2.1587     0.0282     9.5971     0.3020   -25.5384     5.5243     2.3161     2.7158
   68.5000    84.6273     2.1936     0.0254     9.1692     0.2789   -24.3165     4.4178     2.0667     2.3778
   69.0000    88.5622     2.2127     0.0226     9.0227     0.2850   -23.4892     3.9943     2.0120     2.1242
   69.5000    91.3840     2.2037     0.0157     9.0045     0.3437   -23.1884     3.8862     1.9588     2.0232
   70.0000    92.6178     2.0138     0.0042     9.0717     0.4077   -23.3460     3.7838     1.9083     1.9103
   70.5000    93.6078     1.9615    -0.0106     9.2181     0.4274   -23.6152     3.6892     1.8294     1.8191
   71.0000    95.6645     1.9398    -0.0249     9.4844     0.4369   -23.8938     3.5642     1.7786     1.7775
   71.5000    99.2347     1.9317    -0.0280     9.7598     0.4438   -24.0377     3.4153     1.8453     1.8369
   72.0000   101.3761     1.9236    -0.0306    10.0056     0.4509   -24.1549     3.2947     1.9514     2.0306
   72.5000   103.3629     1.9111    -0.0327     9.9351     0.4581   -24.2715     3.4498     2.3098     2.4987
   73.0000   104.5092     1.8913    -0.0307     9.8634     0.4692   -24.3883     4.6558     2.7998     3.0748
   73.5000   104.7400     1.8714    -0.0283     9.7467     0.4801   -24.5033     6.2835     3.3937     3.7837
   74.0000   104.1122     1.8575    -0.0257     9.6238     0.4879   -24.8372     8.4801     4.1137     4.6561
   74.5000   103.2593     1.9460    -0.0216     9.4840     0.4920   -25.2429    10.3114     4.8998     5.7295
   75.0000   101.7477     2.1225    -0.0300     9.1583     0.3130   -25.6532     9.3976     5.8197     7.0585
   75.5000    99.1208     2.2918    -0.0131     8.9633     0.2159   -25.8922     9.4114     6.8030     8.8100
   76.0000    95.8208     2.4117     0.0115     8.8462     0.1757   -26.0451     9.7866     7.8314     9.4145
   76.5000    92.5096     2.4190     0.0297     8.8433     0.1554   -26.0009    11.0287     9.3188     9.1482
   77.0000    89.2120     2.4299     0.0409     8.8429     0.1485   -25.7221    12.3106     8.2698     9.3153
   77.5000    86.3956     2.4442     0.0473     8.8851     0.1412   -25.4442    12.9783     7.5241     8.8690
   78.0000    84.9197     2.4582     0.0538     8.9040     0.1337   -25.1667    10.7064     7.2689     7.7941
   78.5000    83.4470     2.4712     0.0623     8.8976     0.1262   -24.9955    10.2170     7.1364     6.4553
   79.0000    81.9637     2.4759     0.0700     8.8701     0.1221   -25.4876    10.2586     6.9140     5.8238
   79.5000    80.4576     2.3630     0.0548     8.8436     0.1725   -25.9734    10.3114     6.6267     6.7949
   80.0000    81.1591     2.2402     0.0377     8.8172     0.2570   -26.4571    10.1234     6.5711     7.8844
   80.5000    84.1554     2.2617     0.0257     8.7900     0.2492   -26.9249    10.6000     6.7669     7.7620
   81.0000    89.1052     2.3029     0.0288     8.7796     0.2217   -27.2734    10.2452     7.0195     7.6815
   81.5000    92.8853     2.3527     0.0315     8.7659     0.1941   -27.6152     9.8116     7.2778     7.8443
   82.0000    93.5890     2.3848     0.0305     8.7526     0.1760   -27.7749     9.6682     7.3350     8.0683
