~VERSION INFORMATION
 VERS.                2.0:   CWLS LOG ASCII STANDARD - VERSION 2.0
 WRAP.                 NO:   ONE LINE PER DEPTH STEP
~WELL INFORMATION
#MNEM.UNIT      DATA TYPE    INFORMATION
#----------   ------------   ------------------------------
 STRT.F           34.0000:   START DEPTH
 STOP.F          534.0000:   STOP DEPTH
 STEP.F            0.5000:   STEP LENGTH
 NULL.          -999.2500:   NO VALUE
 COMP.    FENIX & SCISSON:   COMPANY
 WELL.      33 SX 3 #33-3:   WELL
 FLD .             TEAPOT:   FIELD
 LOC .       S3 T38N R78W:   LOCATION
 CNTY.            NATRONA:   COUNTY
 STAT.            WYOMING:   STATE
 CTRY. UNITED STATES OF AMERICA:   COUNTRY
 SRVC.       Schlumberger:   SERVICE COMPANY
 DATE.        23-FEB-1977:   LOGDATE
 API .       490251028500:   API NUMBER
~CURVE INFORMATION
#MNEM.UNIT       API CODE    CURVE DESCRIPTION
#----------   ------------   ------------------------------
 DEPT.F                  :   
 SPR .MV     07 010 01 00:   SPONTANEOUS POTENTIAL
 LL8 .OHMM   07 220 08 00:   LATEROLOG-8 RES.
 ILD .OHMM   07 120 46 00:   INDUCTION LOG DEEP
 ILM .OHMM   07 120 44 00:   INDUCTION LOG MEDIUM
 CALD.IN     45 280 60 00:   CALIPER
 GRD .GAPI   45 310 01 00:   GAMMA RAY FROM DENSITY LOG
 RHOB.G/C3   45 350 01 00:   BULK DENSITY
 DPOR.DEC    45 890 12 00:   DENSITY POROSITY SANDSTONE
 CORR.G/C3   45 356 01 00:   DENSITY CORRECTION
~PARAMETER INFORMATION
#MNEM.UNIT          VALUE    DESCRIPTION
#----------   ------------   ------------------------------
 PD  .                 GL:   PERMANENT DATUM
 EPD .F              5170:   ELEVATION PERMANENT DATUM
 LMF .                 KB:   LOG MEASURED FROM
 DAPD.F                 5:   FEET ABOVE PERMANENT DATUM
 DMF .                 KB:   DRILLING MEASURED FROM
 EKB .F              5175:   KELLING BUSHING
 EGL .F              5170:   GROUND LEVEL
 DATE.            2-23-77:   RUN DATE
 RUN .                  1:   RUN NUMBER
 DD  .F               550:   DEPTH DRILLER
 DL  .F               535:   DEPTH LOGGER
 BLI .F               525:   BOTTOM LOG INTERVAL
 TLI .F                47:   TOP LOG INTERVAL
 CS  .IN            8.625:   CASING SIZE
 CBD .F                40:   CASING BOTTOM DRILLER
 CBL .F                47:   CASING BOTTOM LOGGER
 BS  .IN            7.875:   BIT SIZE
 BSD .F               550:   BIT SIZE AT DEPTH
 DFT .                KCL:   DRILLING FLUID TYPE
 DFD .                  9:   DRILLING FLUID DENSITY
 DFV .                 36:   DRILLING FLUID VISCOSITY
 MSS .            MUDTANK:   MUD SAMPLE SOURCE
 RMS .OHMM           .255:   RESISTIVITY MUD SAMPLE
 MST .F                74:   MUD SAMPLE TEMPERATURE
 RMF .OHMM           .246:   RESISTIVITY MUD FILTRATE SAMPLE
 MFST.F                74:   MUD FILTRATE SAMPLE TEMPERATURE
 RMC .OHMM            .38:   RESISTIVITY MUD CAKE
 MCST.F                74:   MUD CAKE SAMPLE TEMPERATURE
 MFSS.                  M:   MUD FILTRATE SAMPLE SOURCE
 MCSS.                  C:   MUD CAKE SAMPLE SOURCE
 RMB .OHMM            .34:   RESISTIVITY MUD AT BHT
 BHT .F                55:   BOTTOM HOLE TEMPERATURE
 TCS .HRS            0600:   TIME CURCULATED STOPPED
 TLAB.HRS            0730:   TIME LOGGER AT BOTTOM
 MRT .F                55:   MAXIMUM RECORDED TEMPERATURE
 LUN .               5642:   LOGGING UNIT NUMBER
 LUL .               CSPR:   LOGGING UNIT LOCATION
 ENGI.                FIX:   RECORDING ENGINEER
 WITN.         STUEBINGER:   WITNESSED BY
 CLNT.            A2DTECH:   CLIENT CODE
 ORIG.       2", 5" PRINT:   ORIGIN OF DATA
 UWI .       490251028500:   UNIQUE WELL ID
 DICO. A2D Technologies, Inc.:   DIGITIZING COMPANY
~OTHER INFORMATION
~A   DEPT      SPR        LL8        ILD        ILM       CALD         GRD      RHOB       DPOR       CORR   
# ...
  508.5000   -60.9548     5.3997     3.7417     4.5915     8.4285   105.9236     2.3614     0.1753     0.0124
  509.0000   -61.5920     4.4016     3.2982     4.0034     8.4295   104.9702     2.3075     0.2009     0.0194
  509.5000   -62.0409     3.5880     2.9147     3.4907     8.4305   105.6423     2.2761     0.2235     0.0252
  510.0000   -62.1252     2.9248     2.5744     3.0436     8.4316   106.4238     2.2474     0.2409     0.0398
  510.5000   -62.2838     2.6380     2.5190     2.7372     8.4326   103.0989     2.2451     0.2498     0.0657
  511.0000   -62.8588     3.1083     2.7724     2.7120     8.4338    99.6871     2.2944     0.2390     0.0846
  511.5000   -63.4493     3.9807     3.0269     3.3012     8.4344    98.6010     2.3534     0.2069     0.1074
  512.0000   -63.6875     5.8250     3.3654     3.8480     8.4238    98.6042     2.3636     0.1745     0.0478
  512.5000   -63.5644     8.3613     3.8207     4.4854     8.3775    99.8316     2.4242     0.1399     0.0008
  513.0000   -62.6003     8.4519     4.3887     5.2283     8.3319   101.2352     2.4789     0.1045     0.0216
  513.5000   -60.8681     8.2089     5.0735     6.0930     8.3163   102.5641     2.4679     0.1048     0.0327
  514.0000   -58.1508     8.4041     5.8646     7.0781     8.3178   102.5523     2.4618     0.1052     0.0282
  514.5000   -61.3839     8.8813     6.7783     7.4801     8.3221   101.1329     2.4787     0.1020     0.0276
  515.0000   -72.2587     9.3860     7.8372     7.7511     8.3264   100.1584     2.4915     0.0959     0.0345
  515.5000   -82.0092     9.9196     7.9871     8.0939     8.3306   101.0525     2.5080     0.0906     0.0301
  516.0000   -84.9962    10.2435     8.1380     8.4519     8.3350   102.8373     2.4956     0.0867     0.0507
  516.5000   -85.8382    10.2110     8.1372     8.8373     8.3360   104.7008     2.4944     0.0920     0.0251
  517.0000   -86.6476    10.1836     8.1349     8.9260     8.3360   106.3829     2.5094     0.0852     0.0329
  517.5000   -87.4020    10.1563     8.1355     8.9445     8.3360   108.2288     2.4988     0.0960     0.0377
  518.0000   -87.8795    10.1494     7.9880     8.9631     8.3360   114.6610     2.4864     0.0963     0.0062
  518.5000   -88.3419    10.2347     7.8950     8.9818     8.3360   130.1694     2.4827     0.0966     0.0169
  519.0000   -88.7723    10.3527     7.8030     9.0004     8.3360   132.7371     2.4804     0.0994     0.0095
  519.5000   -88.5636    10.4720     7.7122     9.0191     8.3360   132.3757     2.4761     0.1008    -0.0003
  520.0000   -88.3359    10.6297     7.6223     9.0379     8.3360   131.9829     2.4774     0.0988     0.0125
  520.5000   -88.4232    10.5330     7.5336     9.0567     8.3360   132.2063     2.4805     0.1000     0.0057
  521.0000   -89.0199    10.3423     7.4454     9.0755     8.3360   132.5369     2.5018     0.0936     0.0142
  521.5000   -89.6068    10.1494     7.3592     9.0854     8.3360   132.9662     2.5104     0.0904     0.0314
  522.0000   -89.9610    10.1494     7.3478     8.9412     8.3360   132.8299     2.4954     0.0908     0.0322
  522.5000   -89.8887    10.5342     7.2135     8.8501     8.3360   132.6613     2.4956     0.0908     0.0345
  523.0000   -89.8270    10.4661     7.2035     8.7614     8.3360   132.5409     2.4980     0.0925     0.0404
  523.5000   -89.8683    10.1922     7.1625     8.6733     8.3360   132.4202     2.5004     0.0932     0.0482
  524.0000   -90.1621     9.9243     7.1217     8.5874     8.3360   132.4574     2.4981     0.0788     0.0546
  524.5000   -90.4439     9.6656     7.0811     8.5129     8.3360   132.5341     2.4940     0.0944     0.0279
  525.0000   -90.7127     9.4271     7.0408     8.3663     8.3360   132.6114     2.4899     0.0935     0.0127
  525.5000  -999.2500  -999.2500  -999.2500  -999.2500     8.3360   132.6887     2.4820     0.0976     0.0191
  526.0000  -999.2500  -999.2500  -999.2500  -999.2500     8.3360   132.7657     2.4735     0.0952     0.0246
  526.5000  -999.2500  -999.2500  -999.2500  -999.2500     8.3360   132.8429     2.4636     0.1236    -0.0186
  527.0000  -999.2500  -999.2500  -999.2500  -999.2500     8.3360   132.9204     2.4756     0.1110     0.0216
  527.5000  -999.2500  -999.2500  -999.2500  -999.2500     8.3360   133.0005     2.4917     0.0980     0.0156
  528.0000  -999.2500  -999.2500  -999.2500  -999.2500     8.3360   133.0780     2.5068     0.0884     0.0093
  528.5000  -999.2500  -999.2500  -999.2500  -999.2500     8.3360   133.1581     2.5059     0.0872     0.0255
  529.0000  -999.2500  -999.2500  -999.2500  -999.2500     8.3360   133.0784     2.4916     0.0936     0.0074
  529.5000  -999.2500  -999.2500  -999.2500  -999.2500     8.3345   132.8332     2.4726     0.1030    -0.0004
  530.0000  -999.2500  -999.2500  -999.2500  -999.2500     8.3315   132.6136     2.4536     0.1123    -0.0051
  530.5000  -999.2500  -999.2500  -999.2500  -999.2500     8.3284   132.7496     2.4378     0.1160    -0.0060
  531.0000  -999.2500  -999.2500  -999.2500  -999.2500     8.3254   132.8924     2.4638     0.1028     0.0056
  531.5000  -999.2500  -999.2500  -999.2500  -999.2500     8.3225   132.9929     2.4950     0.0952     0.0240
  532.0000  -999.2500  -999.2500  -999.2500  -999.2500     8.3198   132.5745     2.4490     0.1160     0.0012
  532.5000  -999.2500  -999.2500  -999.2500  -999.2500     8.3131   132.2118     2.4530     0.1136     0.0143
  533.0000  -999.2500  -999.2500  -999.2500  -999.2500     8.2720   131.9682     2.4571     0.1092     0.0310
  533.5000  -999.2500  -999.2500  -999.2500  -999.2500     8.2211   131.5719     2.4485     0.1139     0.0476
  534.0000  -999.2500  -999.2500  -999.2500  -999.2500     8.1543   128.2018     2.4224     0.1371     0.0666
