~VERSION INFORMATION
 VERS.                2.0:   CWLS LOG ASCII STANDARD - VERSION 2.0
 WRAP.                 NO:   ONE LINE PER DEPTH STEP
~WELL INFORMATION
#MNEM.UNIT      DATA TYPE    INFORMATION
#----------   ------------   ------------------------------
 STRT.F           90.0000:   START DEPTH
 STOP.F         1032.5000:   STOP DEPTH
 STEP.F            0.5000:   STEP LENGTH
 NULL.          -999.2500:   NO VALUE
 COMP. U S NAVY/INTEX OIL CO:   COMPANY
 WELL. NAVAL PETROLEUM RESERVE 3  #62-S-14:   WELL
 FLD .        TEAPOT DOME:   FIELD
 LOC .      S14 T38N R78W:   LOCATION
 CNTY.            NATRONA:   COUNTY
 STAT.            WYOMING:   STATE
 CTRY. UNITED STATES OF AMERICA:   COUNTRY
 SRVC.       Schlumberger:   SERVICE COMPANY
 DATE.        04-JUL-1962:   LOGDATE
 API .       490250631700:   API NUMBER
~CURVE INFORMATION
#MNEM.UNIT       API CODE    CURVE DESCRIPTION
#----------   ------------   ------------------------------
 DEPT.F                  :   
 GR  .GAPI   30 310 01 00:   GAMMA RAY
 CALM.IN     15 280 01 00:   CALIPER FROM MICRO LOG
 SPR .MV     06 010 01 00:   SPONTANEOUS POTENTIAL FROM RES.
 ASN .OHMM   06 041 16 00:   AMPLIFIED SHORT NORMAL 16"
 ILD .OHMM   06 120 46 00:   INDUCTION LOG DEEP
 CILD.MMHO   06 110 46 00:   CONDUCTIVITY INDUCTION LOG DEEP
~PARAMETER INFORMATION
#MNEM.UNIT          VALUE    DESCRIPTION
#----------   ------------   ------------------------------
 PD  .                 GL:   PERMANENT DATUM
 EPD .F              5246:   ELEVATION PERMANENT DATUM
 LMF .                 KB:   LOG MEASURED FROM
 DAPD.F                 5:   FEET ABOVE PERMANENT DATUM
 DMF .                 KB:   DRILLING MEASURED FROM
 EKB .F              5251:   KELLING BUSHING
 EGL .F              5246:   GROUND LEVEL
 DATE.             7-4-62:   RUN DATE
 RUN .                  1:   RUN NUMBER
 DD  .F              1036:   DEPTH DRILLER
 DL  .F              1033:   DEPTH LOGGER
 BLI .F              1032:   BOTTOM LOG INTERVAL
 TLI .F                90:   TOP LOG INTERVAL
 CBD .F                10:   CASING BOTTOM DRILLER
 BS  .IN             6.75:   BIT SIZE
 BSD .F              1036:   BIT SIZE AT DEPTH
 DFT .                GEL:   DRILLING FLUID TYPE
 DFD .               10.2:   DRILLING FLUID DENSITY
 DFV .                 48:   DRILLING FLUID VISCOSITY
 DFL .                4.8:   DRILLING FLUID LOSS
 MSS .          FLOW LINE:   MUD SAMPLE SOURCE
 RMS .OHMM            5.6:   RESISTIVITY MUD SAMPLE
 MST .F                70:   MUD SAMPLE TEMPERATURE
 RMF .OHMM           5.57:   RESISTIVITY MUD FILTRATE SAMPLE
 MFST.F                70:   MUD FILTRATE SAMPLE TEMPERATURE
 RMC .OHMM           5.32:   RESISTIVITY MUD CAKE
 MCST.F                70:   MUD CAKE SAMPLE TEMPERATURE
 MFSS.                  M:   MUD FILTRATE SAMPLE SOURCE
 MCSS.                  M:   MUD CAKE SAMPLE SOURCE
 RMB .OHMM            4.3:   RESISTIVITY MUD AT BHT
 BHT .F                90:   BOTTOM HOLE TEMPERATURE
 TCS .HRS               1:   TIME CURCULATED STOPPED
 MRT .F                90:   MAXIMUM RECORDED TEMPERATURE
 LUN .               2503:   LOGGING UNIT NUMBER
 LUL .               CSPR:   LOGGING UNIT LOCATION
 ENGI.             KNOBEL:   RECORDING ENGINEER
 WITN.          JORGENSEN:   WITNESSED BY
 CLNT.            A2DTECH:   CLIENT CODE
 ORIG.   1", 2", 5" PRINT:   ORIGIN OF DATA
 UWI .       490250631700:   UNIQUE WELL ID
 DICO. A2D Technologies, Inc.:   DIGITIZING COMPANY
~OTHER INFORMATION
~A   DEPT       GR       CALM        SPR          ASN        ILD      CILD  
# ...
  610.0000  -999.2500  -999.2500   -49.0456     9.6620     9.0234   110.2079
  610.5000  -999.2500  -999.2500   -49.3345     9.5343     9.1575   108.7599
  611.0000  -999.2500  -999.2500   -49.3053     9.2991     9.2917   106.9707
  611.5000  -999.2500  -999.2500   -49.1315     9.2378     9.4258   105.1816
  612.0000  -999.2500  -999.2500   -48.9556     9.8235     9.5599   103.3924
  612.5000  -999.2500  -999.2500   -48.7799    10.5867     9.6941   101.5965
  613.0000  -999.2500  -999.2500   -48.6046    10.8037     9.8301   100.8656
  613.5000  -999.2500  -999.2500   -48.4291    11.0001     9.8860   101.1947
  614.0000  -999.2500  -999.2500   -48.2504    11.0580     9.9210   101.5252
  614.5000  -999.2500  -999.2500   -48.1271    11.1164     9.9551   101.4604
  615.0000  -999.2500  -999.2500   -47.9762    11.1742     9.9893   100.5114
  615.5000  -999.2500  -999.2500   -47.8278    11.2322    10.0236    99.5746
  616.0000  -999.2500  -999.2500   -47.6800    11.2901    10.0578    98.6369
  616.5000  -999.2500  -999.2500   -47.6393    11.3481    10.0921    97.6992
  617.0000  -999.2500  -999.2500   -47.7435    11.4061    10.1264    96.7615
  617.5000  -999.2500  -999.2500   -47.8459    11.4641    10.1607    95.8237
  618.0000  -999.2500  -999.2500   -47.9490    11.5222    10.1950    94.8860
  618.5000  -999.2500  -999.2500   -48.0515    11.5802    10.2294    93.9483
  619.0000  -999.2500  -999.2500   -48.1559    11.6370    10.2651    93.0106
  619.5000  -999.2500  -999.2500   -48.1331    11.6337    10.2354    92.0728
  620.0000  -999.2500  -999.2500   -48.0299    11.5276    10.1915    92.4098
  620.5000  -999.2500  -999.2500   -47.9253    11.4233    10.1471    93.6523
  621.0000  -999.2500  -999.2500   -47.8205    11.3186    10.1029    94.8948
  621.5000  -999.2500  -999.2500   -47.7159    11.2091    10.0587    96.1373
  622.0000  -999.2500  -999.2500   -47.6110    11.0948    10.0146    97.3798
  622.5000  -999.2500  -999.2500   -47.5052    10.9809     9.9704    97.9162
  623.0000  -999.2500  -999.2500   -47.4010    10.8670     9.9263    99.4808
  623.5000  -999.2500  -999.2500   -47.4894    10.7531     9.8824   101.0449
  624.0000  -999.2500  -999.2500   -47.5930    10.6392     9.7670   102.6100
  624.5000  -999.2500  -999.2500   -47.6962    10.5253     9.6254   104.1747
  625.0000  -999.2500  -999.2500   -47.7990    10.4122     9.4833   105.7393
  625.5000  -999.2500  -999.2500   -47.9019    10.3005     9.3413   107.3039
  626.0000  -999.2500  -999.2500   -48.0047    10.1463     9.1992   108.8685
  626.5000  -999.2500  -999.2500   -48.1075     9.9347     9.0572   110.4331
  627.0000  -999.2500  -999.2500   -48.2104     9.8493     8.9136   111.9977
  627.5000  -999.2500  -999.2500   -48.3132     9.7708     8.8683   113.5623
  628.0000  -999.2500  -999.2500   -48.4164     9.6728     8.8676   115.7315
  628.5000  -999.2500  -999.2500   -48.5197     9.5487     8.8677   115.2665
  629.0000  -999.2500  -999.2500   -48.5935     9.4747     8.8677   114.8248
  629.5000  -999.2500  -999.2500   -48.4513     9.4104     8.8677   114.3830
  630.0000  -999.2500  -999.2500   -48.3082     9.3469     8.8677   113.9412
  630.5000  -999.2500  -999.2500   -48.1655     9.3327     8.8677   113.4994
  631.0000  -999.2500  -999.2500   -48.0198     9.3930     8.8678   113.0577
  631.5000  -999.2500  -999.2500   -48.0531     9.4400     8.8678   112.6159
  632.0000  -999.2500  -999.2500   -48.1242     9.4670     8.8673   112.1741
  632.5000  -999.2500  -999.2500   -48.1927     9.4831     8.8423   111.7273
  633.0000  -999.2500  -999.2500   -48.1507     9.4262     8.7740   112.6954
  633.5000  -999.2500  -999.2500   -48.1028     9.2879     8.7063   114.4080
  634.0000  -999.2500  -999.2500   -48.0550     9.1495     8.6386   116.1139
  634.5000  -999.2500  -999.2500   -48.0037     9.0585     8.5677   117.8179
  635.0000  -999.2500  -999.2500   -48.1199     9.0009     8.4365   119.5219
  635.5000  -999.2500  -999.2500   -48.2848     8.9697     8.2984   121.2244
  636.0000  -999.2500  -999.2500   -48.4511     8.9447     8.1602   122.9151
  636.5000  -999.2500  -999.2500   -48.6189     8.9202     8.0222   125.9672
  637.0000  -999.2500  -999.2500   -48.7877     8.8078     7.8841   130.2182
  637.5000  -999.2500  -999.2500   -48.6404     8.5865     7.7460   134.4832
  638.0000  -999.2500  -999.2500   -48.4637     8.3155     7.6080   138.7432
  638.5000  -999.2500  -999.2500   -48.2877     8.0437     7.4699   142.5368
  639.0000  -999.2500  -999.2500   -48.1122     7.7726     7.3315   145.1680
  639.5000  -999.2500  -999.2500   -47.9365     7.5625     7.1923   147.7991
  640.0000  -999.2500  -999.2500   -47.7600     7.4832     7.0717   150.4303
  640.5000  -999.2500  -999.2500   -47.5943     7.4463     7.1942   148.5112
  641.0000  -999.2500  -999.2500   -47.7293     7.4863     7.3199   145.8444
  641.5000  -999.2500  -999.2500   -47.8889     7.6261     7.4444   143.1776
  642.0000  -999.2500  -999.2500   -48.0486     7.9134     7.5687   140.5108
  642.5000  -999.2500  -999.2500   -48.2079     8.2667     7.6927   137.8440
  643.0000  -999.2500  -999.2500   -48.3684     8.3640     7.8183   135.1772
  643.5000  -999.2500  -999.2500   -48.4392     8.3244     7.8493   132.5104
  644.0000  -999.2500  -999.2500   -48.4921     8.3164     7.8248   129.8436
  644.5000  -999.2500  -999.2500   -48.5459     8.3312     7.7993   130.1438
  645.0000  -999.2500  -999.2500   -48.5883     8.3464     7.7737   132.4826
  645.5000  -999.2500  -999.2500   -48.3203     8.3137     7.7483   134.8214
  646.0000  -999.2500  -999.2500   -48.0351     8.2367     7.7228   136.8205
  646.5000  -999.2500  -999.2500   -47.7755     8.1547     7.6973   137.1045
  647.0000  -999.2500  -999.2500   -47.6892     8.0722     7.6713   137.3885
  647.5000  -999.2500  -999.2500   -47.6006     7.9892     7.6477   137.6725
  648.0000  -999.2500  -999.2500   -47.6831     7.9646     7.6239   137.9565
  648.5000  -999.2500  -999.2500   -47.7785     7.9473     7.6003   138.2405
  649.0000  -999.2500  -999.2500   -47.8735     7.9644     7.5769   138.5245
  649.5000  -999.2500  -999.2500   -47.9724     7.9812     7.5856   138.6039
  650.0000  -999.2500  -999.2500   -47.9957     8.0190     7.6545   136.9299
  650.5000  -999.2500  -999.2500   -47.9964     8.0656     7.7231   135.2588
  651.0000  -999.2500  -999.2500   -47.8999     8.1135     7.7920   133.5890
  651.5000  -999.2500  -999.2500   -47.7084     8.1794     7.8489   131.7635
  652.0000  -999.2500  -999.2500   -47.5170     8.2584     8.0747   130.9924
  652.5000  -999.2500  -999.2500   -47.3282     8.3425     8.0645   129.9011
  653.0000  -999.2500  -999.2500   -47.1999     8.3698     8.0661   128.8098
  653.5000  -999.2500  -999.2500   -47.2723     8.3872     8.0662   127.7185
  654.0000  -999.2500  -999.2500   -47.3422     8.3868     8.0659   126.9410
  654.5000  -999.2500  -999.2500   -47.4124     8.3715     8.0475   128.5603
  655.0000  -999.2500  -999.2500   -47.4824     8.3420     7.9855   130.1797
  655.5000  -999.2500  -999.2500   -47.5524     8.3125     7.9243   131.7991
  656.0000  -999.2500  -999.2500   -47.6226     8.2785     7.8630   133.4185
  656.5000  -999.2500  -999.2500   -47.6923     8.2148     7.8018   135.0378
  657.0000  -999.2500  -999.2500   -47.7630     8.1334     7.7406   136.7735
  657.5000  -999.2500  -999.2500   -47.7336     8.0498     7.6791   136.8770
  658.0000  -999.2500  -999.2500   -47.6185     8.0340     7.6177   137.1561
  658.5000  -999.2500  -999.2500   -47.5028     8.0304     7.5644   137.4415
  659.0000  -999.2500  -999.2500   -47.3868     8.0452     7.6233   137.7286
  659.5000  -999.2500  -999.2500   -47.2709     8.0596     7.6865   138.0155
  660.0000  -999.2500  -999.2500   -47.1551     8.0739     7.7516   138.3023
  660.5000  -999.2500  -999.2500   -47.0392     8.0848     7.7571   138.5892
  661.0000  -999.2500  -999.2500   -46.9233     8.0722     7.7463   138.8760
  661.5000  -999.2500  -999.2500   -46.8068     8.0319     7.7350   139.1629
