~VERSION INFORMATION
 VERS.                2.0:   CWLS LOG ASCII STANDARD - VERSION 2.0
 WRAP.                 NO:   ONE LINE PER DEPTH STEP
~WELL INFORMATION
#MNEM.UNIT      DATA TYPE    INFORMATION
#----------   ------------   ------------------------------
 STRT.F           30.0000:   START DEPTH
 STOP.F          759.0000:   STOP DEPTH
 STEP.F            0.5000:   STEP LENGTH
 NULL.          -999.2500:   NO VALUE
 COMP. FENIX & SCISSON INC:   COMPANY
 WELL.    NPR ##3 15-S-14:   WELL
 FLD .             TEAPOT:   FIELD
 LOC .      S14 T38N R78W:   LOCATION
 CNTY.            NATRONA:   COUNTY
 STAT.            WYOMING:   STATE
 CTRY. UNITED STATES OF AMERICA:   COUNTRY
 SRVC.              Welex:   SERVICE COMPANY
 DATE.        23-FEB-1977:   LOGDATE
 API .       490251027600:   API NUMBER
~CURVE INFORMATION
#MNEM.UNIT       API CODE    CURVE DESCRIPTION
#----------   ------------   ------------------------------
 DEPT.F                  :   
 GURD.OHMM   07 220 05 00:   SHALLOW SHORT GUARD RESISTIVITY
 ILD .OHMM   07 120 46 00:   INDUCTION LOG DEEP
 ILM .OHMM   07 120 44 00:   INDUCTION LOG MEDIUM
 SPR .MV     07 010 01 00:   SPONTANEOUS POTENTIAL
 CALD.IN     45 280 60 00:   CALIPER FROM DENSITY LOG
 CORR.G/C3   45 356 01 00:   DENSITY CORRECTION
 DPHI.DEC    45 890 12 00:   DENSITY POROSITY SANDSTONE
 GRD .GAPI   45 310 01 00:   GAMMA RAY FROM DENSITY LOG
 RHOB.G/C3   45 350 01 00:   BULK DENSITY
~PARAMETER INFORMATION
#MNEM.UNIT          VALUE    DESCRIPTION
#----------   ------------   ------------------------------
 PD  .                 GL:   PERMANENT DATUM
 EPD .F            5229.2:   ELEVATION PERMANENT DATUM
 LMF .                 GL:   LOG MEASURED FROM
 DMF .                 GL:   DRILLING MEASURED FROM
 EGL .F            5229.2:   GROUND LEVEL
 DATE.        23-FEB-1977:   RUN DATE
 RUN .                  1:   RUN NUMBER
 DD  .F               764:   DEPTH DRILLER
 DL  .F               762:   DEPTH LOGGER
 BLI .F               760:   BOTTOM LOG INTERVAL
 TLI .F                40:   TOP LOG INTERVAL
 CS  .IN            8.625:   CASING SIZE
 CBD .F                40:   CASING BOTTOM DRILLER
 CBL .F                40:   CASING BOTTOM LOGGER
 BS  .IN            7.875:   BIT SIZE
 BSD .F               764:   BIT SIZE AT DEPTH
 DFT .           CHEM/GEL:   DRILLING FLUID TYPE
 DFD .                9.4:   DRILLING FLUID DENSITY
 DFV .                 50:   DRILLING FLUID VISCOSITY
 DFPH.               11.0:   DRILLING FLUID PH
 DFL .               12.2:   DRILLING FLUID LOSS
 MSS .           FLOWLINE:   MUD SAMPLE SOURCE
 RMS .OHMM           0.23:   RESISTIVITY MUD SAMPLE
 MST .F                38:   MUD SAMPLE TEMPERATURE
 RMF .OHMM           0.15:   RESISTIVITY MUD FILTRATE SAMPLE
 MFST.F                38:   MUD FILTRATE SAMPLE TEMPERATURE
 RMC .OHMM           0.54:   RESISTIVITY MUD CAKE
 MCST.F                38:   MUD CAKE SAMPLE TEMPERATURE
 MFSS.               MEAS:   MUD FILTRATE SAMPLE SOURCE
 MCSS.               MEAS:   MUD CAKE SAMPLE SOURCE
 RMB .OHMM           .148:   RESISTIVITY MUD AT BHT
 BHT .F                59:   BOTTOM HOLE TEMPERATURE
 TCS .HRS               2:   TIME CURCULATED STOPPED
 MRT .F                59:   MAXIMUM RECORDED TEMPERATURE
 LUN .               8611:   LOGGING UNIT NUMBER
 LUL .           GILLETTE:   LOGGING UNIT LOCATION
 ENGI.             C.DOAK:   RECORDING ENGINEER
 WITN.         STUEBINGER:   WITNESSED BY
 CLNT.            A2DTECH:   CLIENT CODE
 ORIG.           5" PRINT:   ORIGIN OF DATA
 UWI .       490251027600:   UNIQUE WELL ID
 DICO. A2D Technologies, Inc.:   DIGITIZING COMPANY
~OTHER INFORMATION
~A   DEPT     GURD        ILD        ILM        SPR         CALD      CORR      DPHI         GRD        RHOB 
# ...
  322.0000    12.3731     8.2667    10.8929   -51.0358     8.2608     0.1028     0.0745   116.0060     2.5292
  322.5000    12.1192     8.2673    10.8921   -51.1604     8.2601     0.1043     0.0755   117.2747     2.5224
  323.0000    11.7889     8.3251    10.9669   -51.1597     8.2593     0.1102     0.0798   117.8644     2.5156
  323.5000    11.5470     8.3833    11.1188   -51.1589     8.2586     0.1176     0.0738   116.2153     2.5135
  324.0000    11.8795     8.4419    11.4327   -51.1582     8.2579     0.1236     0.0651   114.2677     2.5352
  324.5000    12.4779     8.5009    11.5878   -51.1575     8.2571     0.1265     0.0603   113.8127     2.5464
  325.0000    13.2890     8.5604    11.5870   -51.1567     8.2564     0.1250     0.0600   113.6561     2.5494
  325.5000    12.8080     8.5021    11.4270   -51.1560     8.2555     0.1220     0.0591   111.7085     2.5479
  326.0000    11.7889     8.5027    11.1918   -51.1552     8.2548     0.1174     0.0591   110.0594     2.5450
  326.5000    11.2323     8.4448    10.9615   -51.1544     8.2540     0.1129     0.0645   109.6043     2.5397
  327.0000    11.0781     8.3873    10.8103   -51.1537     8.2684     0.1083     0.0786   110.3594     2.5277
  327.5000    11.4675     8.3302    10.9600   -51.1530     8.2675     0.1036     0.0851   114.4403     2.5120
  328.0000    11.7077     8.2735    10.6605   -51.1522     8.2668     0.0978     0.0944   117.1925     2.4960
  328.5000    11.5470     8.2172    10.4411   -51.1514     8.2661     0.0947     0.0950   115.3942     2.4881
  329.0000    11.2323     8.1612    10.5128   -51.1508     8.2504     0.0932     0.0909   116.5809     2.5031
  329.5000    11.4675     8.1619    10.5850   -51.0007     8.2496     0.0917     0.0827   117.7695     2.5128
  330.0000    11.0781     8.1062    10.6578   -51.0000     8.2489     0.0916     0.0779   116.7156     2.5173
  330.5000    10.9261     8.1069    10.6569   -50.8500     8.2631     0.0931     0.0773   119.3948     2.5188
  331.0000    11.4675     8.0516    10.6562   -50.8492     8.2472     0.0930     0.0791   121.0293     2.5181
  331.5000    11.5470     7.9967    10.5821   -50.8485     8.2465     0.0945     0.0779   119.9772     2.5173
  332.0000    11.3886     7.9423    10.5813   -50.6984     8.2458     0.0974     0.0758   119.3729     2.5196
  332.5000    11.1549     7.8341    10.6540   -50.6976     8.2450     0.0989     0.0728   121.4552     2.5271
  333.0000    11.0781     7.8347    10.6532   -50.5476     8.2293     0.1003     0.0703   123.7105     2.5278
  333.5000    11.3101     7.7813    10.5790   -50.5469     8.2286     0.1018     0.0757   125.0642     2.5200
  334.0000    11.3101     7.7818    10.5783   -50.3969     8.2278     0.1032     0.0805   126.0583     2.5076
  334.5000    11.0781     7.8363    10.5776   -50.2469     8.2271     0.1032     0.0798   125.4540     2.5039
  335.0000    11.7077     7.8911    10.5040   -49.9477     8.2300     0.1031     0.0769   121.4168     2.5174
  335.5000    11.7889     7.9462    10.5033   -49.6485     8.2406     0.1046     0.0814   119.3200     2.5159
  336.0000    11.1549     8.0019    10.4303   -49.3492     8.2399     0.1060     0.0799   118.1186     2.5136
  336.5000    11.5470     8.0578    10.1453   -48.9008     8.2541     0.1075     0.0730   117.0665     2.5256
  337.0000    12.0358     8.1142     9.9365   -48.4403     8.2533     0.1104     0.0673   116.7607     2.5369
  337.5000    11.5470     8.1147     9.9358   -47.9788     8.2375     0.1119     0.0661   121.8281     2.5324
  338.0000    10.3385     8.1153    10.2843   -47.5551     8.2368     0.1134     0.0718   125.8506     2.5219
  338.5000    10.1966     8.1158    10.7189   -47.4051     8.2510     0.1148     0.0745   124.0402     2.5266
  339.0000    11.0018     8.1164    11.0186   -47.5538     8.2353     0.1163     0.0727   118.3971     2.5294
  339.5000    11.5470     8.0611    11.2488   -47.5529     8.2346     0.1192     0.0741   114.4045     2.5204
  340.0000    11.7889     8.0061    11.3258   -47.7016     8.2339     0.1192     0.0789   113.1330     2.5137
  340.5000    12.0358     7.9516    10.7710   -47.7007     8.2331     0.1191     0.0816   112.8272     2.5085
  341.0000    11.2323     7.8976    10.2092   -47.8494     8.2324     0.1206     0.0791   109.8348     2.5100
  341.5000    10.6992     7.8438     9.9991   -48.1470     8.2316     0.1220     0.0732   105.9469     2.5205
  342.0000    10.3319     7.7369     9.8612   -48.4448     8.2307     0.1205     0.0690   108.0291     2.5310
  342.5000    10.0567     7.6816     9.7252   -48.8968     8.2300     0.1203     0.0753   110.4099     2.5295
  343.0000     9.9875     7.5794     9.6575   -49.3873     8.2293     0.1174     0.0834   110.8522     2.5167
  343.5000    10.1264     7.5278     9.6569   -49.7678     8.2285     0.1143     0.0875   110.3953     2.5046
  344.0000    10.5551     7.4252     9.6562   -50.1483     8.2278     0.1098     0.0881   114.2686     2.4995
  344.5000    11.9529     7.3240     9.7899   -50.5287     8.2271     0.1068     0.0809   117.5587     2.5340
  345.0000    12.2879     7.2242     9.9943   -50.6792     8.2263     0.1052     0.0719   118.6020     2.5437
  345.5000    11.7077     7.1749     9.9936   -50.6783     8.2256     0.1028     0.0665   120.8120     2.5408
  346.0000    11.1549     7.0771     9.9241   -50.6776     8.2399     0.1015     0.0644   123.3420     2.5295
  346.5000    11.0781     7.0776     9.8551   -50.5276     8.2391     0.0991     0.0682   124.3795     2.5198
  347.0000    11.2323     7.1271     9.7866   -50.3776     8.2384     0.0991     0.0735   124.0737     2.5176
  347.5000    11.3886     7.2266     9.7186   -50.3768     8.2375     0.1008     0.0773   122.8723     2.5138
  348.0000    11.5470     7.4293     9.7179   -50.2268     8.2368     0.1035     0.0821   119.2830     2.5086
  348.5000    11.5470     7.5852     9.7846   -50.2261     8.2360     0.1049     0.0839   117.4846     2.5033
  349.0000    11.3886     7.6911     9.8518   -50.0761     8.2503     0.1064     0.0815   117.9254     2.5052
  349.5000    11.5470     7.7449     9.9194   -49.9260     8.2495     0.1093     0.0788   115.9774     2.5153
  350.0000    11.8706     7.7990     9.8503   -49.9254     8.2640     0.1138     0.0802   117.7612     2.5206
  350.5000    11.6596     7.8501     9.7818   -49.9246     8.2631     0.1137     0.0787   118.0524     2.5214
  351.0000    11.4487     7.8373     9.7752   -49.7745     8.2771     0.1122     0.0736   119.1413     2.5236
  351.5000    11.2377     7.8245     9.7578   -49.7738     8.2749     0.1091     0.0703   120.4240     2.5319
  352.0000    11.0771     7.8117     9.7405   -49.6239     8.2727     0.1059     0.0709   121.0156     2.5349
  352.5000    10.9298     7.8017     9.7231   -49.6231     8.2705     0.1026     0.0788   120.8572     2.5251
  353.0000    11.1597     7.8023     9.7111   -49.6224     8.2683     0.0993     0.0859   120.1036     2.5122
  353.5000    11.2378     7.7985     9.5771   -49.4724     8.2661     0.0958     0.0904   118.8773     2.4959
  354.0000    11.1610     7.7497     9.5106   -49.3224     8.2639     0.0943     0.0982   117.0792     2.4823
  354.5000    11.0088     7.6969     9.4444   -49.3216     8.2617     0.0928     0.1033   116.1779     2.4823
  355.0000    10.8582     7.6976     9.3788   -49.1567     8.2593     0.0928     0.1021   117.4889     2.4830
  355.5000    11.0866     7.6981     9.3781   -48.8723     8.2739     0.0930     0.1003   121.2503     2.4852
  356.0000    11.4771     7.7519     9.4425   -48.7223     8.2735     0.0958     0.0973   121.8449     2.4942
  356.5000    11.3988     7.7524     9.5074   -48.4230     8.2730     0.0990     0.0880   119.1488     2.5084
  357.0000    11.0110     7.7529     9.6389   -48.1238     8.2876     0.1018     0.0796   117.7091     2.5174
  357.5000    10.7786     7.7534     9.7723   -47.9738     8.2894     0.1063     0.0775   115.5442     2.5249
  358.0000    11.0142     7.8077     9.8396   -47.8239     8.3017     0.1093     0.0736   113.4745     2.5278
