~VERSION INFORMATION
 VERS.                2.0:   CWLS LOG ASCII STANDARD - VERSION 2.0
 WRAP.                 NO:   ONE LINE PER DEPTH STEP
~WELL INFORMATION
#MNEM.UNIT      DATA TYPE    INFORMATION
#----------   ------------   ------------------------------
 STRT.F           80.0000:   START DEPTH
 STOP.F          930.0000:   STOP DEPTH
 STEP.F            0.5000:   STEP LENGTH
 NULL.          -999.2500:   NO VALUE
 COMP. U S NAVY-INTEX OIL:   COMPANY
 WELL. RES 3 TEAPOT DOM #56-S-2:   WELL
 FLD .             TEAPOT:   FIELD
 LOC .       S2 T38N R78W:   LOCATION
 CNTY.            NATRONA:   COUNTY
 STAT.            WYOMING:   STATE
 CTRY. UNITED STATES OF AMERICA:   COUNTRY
 SRVC.       Schlumberger:   SERVICE COMPANY
 DATE.        24-JUN-1962:   LOGDATE
 API .       490250641900:   API NUMBER
~CURVE INFORMATION
#MNEM.UNIT       API CODE    CURVE DESCRIPTION
#----------   ------------   ------------------------------
 DEPT.F                  :   
 ASN .OHMM   05 041 16 00:   AMPLIFIED SHORT NORMAL 16"
 ILD .OHMM   05 120 46 00:   INDUCTION LOG DEEP
 CILD.MMHO   05 110 46 00:   CONDUCTIVITY INDUCTION LOG DEEP
 SPR .MV     05 010 01 00:   SPONTANEOUS POTENTIAL FROM RES.
 GR  .GAPI   30 310 01 00:   GAMMA RAY
~PARAMETER INFORMATION
#MNEM.UNIT          VALUE    DESCRIPTION
#----------   ------------   ------------------------------
 PD  .                 KB:   PERMANENT DATUM
 LMF .                 KB:   LOG MEASURED FROM
 DMF .                 KB:   DRILLING MEASURED FROM
 EKB .F              5179:   KELLING BUSHING
 EGL .F              5174:   GROUND LEVEL
 DATE.        24-JUN-1962:   RUN DATE
 RUN .                  1:   RUN NUMBER
 DD  .F               942:   DEPTH DRILLER
 DL  .F               931:   DEPTH LOGGER
 BLI .F               930:   BOTTOM LOG INTERVAL
 TLI .F                80:   TOP LOG INTERVAL
 BS  .IN             6.75:   BIT SIZE
 BSD .F               942:   BIT SIZE AT DEPTH
 DFT .       OIL EMULSION:   DRILLING FLUID TYPE
 DFD .                9.9:   DRILLING FLUID DENSITY
 DFV .                 55:   DRILLING FLUID VISCOSITY
 DFL .                3.7:   DRILLING FLUID LOSS
 RMS .OHMM            4.2:   RESISTIVITY MUD SAMPLE
 MST .F                79:   MUD SAMPLE TEMPERATURE
 RMF .OHMM            3.7:   RESISTIVITY MUD FILTRATE SAMPLE
 MFST.F                79:   MUD FILTRATE SAMPLE TEMPERATURE
 RMC .OHMM            4.0:   RESISTIVITY MUD CAKE
 MCST.F                79:   MUD CAKE SAMPLE TEMPERATURE
 TCS .HRS               1:   TIME CURCULATED STOPPED
 LUN .               2503:   LOGGING UNIT NUMBER
 LUL .               CSPR:   LOGGING UNIT LOCATION
 ENGI.             DANNER:   RECORDING ENGINEER
 WITN.          JORGENSEN:   WITNESSED BY
 CLNT.            A2DTECH:   CLIENT CODE
 ORIG.           5" PRINT:   ORIGIN OF DATA
 UWI .       490250641900:   UNIQUE WELL ID
 DICO. A2D Technologies, Inc.:   DIGITIZING COMPANY
~OTHER INFORMATION
~A   DEPT        ASN        ILD      CILD       SPR         GR   
# ...
  141.0000     6.0335     6.7434   168.6657   -59.1236  -999.2500
  141.5000     6.2730     6.8192   164.9175   -58.6707  -999.2500
  142.0000     6.3779     6.8199   159.6702   -58.2178  -999.2500
  142.5000     6.3932     6.8957   159.6702   -58.0639  -999.2500
  143.0000     6.3934     6.8212   159.6702   -58.0595  -999.2500
  143.5000     6.3638     6.8221   161.1694   -58.0551  -999.2500
  144.0000     6.2894     6.8229   162.6687   -57.9011  -999.2500
  144.5000     6.2299     6.8236   164.1679   -57.8967  -999.2500
  145.0000     6.1555     6.8994   164.1679   -58.1913  -999.2500
  145.5000     6.1558     6.8251   164.1679   -58.7847  -999.2500
  146.0000     6.1561     6.8258   163.4183   -59.3782  -999.2500
  146.5000     6.2313     6.9017   161.1694   -59.6727  -999.2500
  147.0000     6.3526     6.9024   158.9205   -59.6681  -999.2500
  147.5000     6.3961     7.0533   156.6340   -59.6637  -999.2500
  148.0000     6.3986     7.1372   154.3426   -59.6592  -999.2500
  148.5000     6.4167     7.2800   152.1739   -59.2054  -999.2500
  149.0000     6.5243     7.3560   150.6747   -58.7525  -999.2500
  149.5000     6.6215     7.5069   149.9250   -58.7481  -999.2500
  150.0000     6.7713     7.5075   148.9167   -58.7437  -999.2500
  150.5000     6.9660     7.5082   145.7706   -58.5897  -999.2500
  151.0000     6.9803     7.5090   142.4443   -58.5857  -999.2500
  151.5000     6.9652     7.5098   140.2010   -58.5812  -999.2500
  152.0000     6.9329     7.5105   140.2103   -58.5768  -999.2500
  152.5000     6.9051     7.5113   140.2177   -58.5723  -999.2500
  153.0000     6.8900     7.5120   140.9748   -58.5679  -999.2500
  153.5000     6.8749     7.6629   140.2324   -58.7130  -999.2500
  154.0000     6.9793     7.7387   138.7408   -58.7085  -999.2500
  154.5000     7.1287     7.9647   137.2490   -58.7040  -999.2500
  155.0000     7.2930     8.0430   135.0076   -58.6996  -999.2500
  155.5000     7.3078     8.1164   133.5157   -58.8446  -999.2500
  156.0000     7.3076     7.9669   133.5232   -58.8560  -999.2500
  156.5000     7.2776     7.8819   135.0723   -58.9852  -999.2500
  157.0000     7.2176     7.7432   137.3516   -59.3333  -999.2500
  157.5000     7.1278     7.5940   142.3170   -59.7237  -999.2500
  158.0000     7.0230     7.3695   152.2939   -59.7182  -999.2500
  158.5000     6.8883     7.2199   153.0509   -59.7137  -999.2500
  159.0000     6.6640     7.1458   154.5592   -59.7093  -999.2500
  159.5000     6.5442     7.1465   155.3163   -59.4059  -999.2500
  160.0000     6.5291     7.0720   156.0733   -57.9067  -999.2500
  160.5000     6.5290     7.0729   156.0808   -58.0517  -999.2500
  161.0000     6.5288     7.1487   155.3367   -58.1978  -999.2500
  161.5000     6.7081     7.1495   152.3475   -58.3418  -999.2500
  162.0000     6.8126     7.3755   148.6068   -58.3373  -999.2500
  162.5000     6.8722     7.5264   142.6173   -58.3329  -999.2500
  163.0000     6.9468     7.7523   137.3773   -58.4790  -999.2500
  163.5000     7.1260     7.9783   135.8855   -58.4735  -999.2500
  164.0000     7.2006     8.2043   134.3919   -58.4690  -999.2500
  164.5000     7.2481     8.3552   131.4026   -58.4646  -999.2500
  165.0000     7.4455     8.4310   128.4116   -58.4601  -999.2500
  165.5000     7.6568     8.5068   125.4205   -58.4557  -999.2500
  166.0000     7.9324     8.5075   121.6799   -58.6009  -999.2500
  166.5000     8.0070     8.6584   118.6888   -58.4468  -999.2500
  167.0000     8.0517     8.8093   117.9447   -58.4424  -999.2500
  167.5000     8.0366     9.0353   117.2026   -58.4379  -999.2500
  168.0000     7.9767     9.1862   117.2119   -58.4335  -999.2500
  168.5000     7.8868     9.1119   117.2193   -58.4290  -999.2500
  169.0000     8.0212     9.0330   116.4768   -58.4245  -999.2500
  169.5000     8.2453     8.8881   117.2342   -58.2706  -999.2500
  170.0000     8.0956     8.8138   118.7409   -58.1166  -999.2500
  170.5000     8.0955     8.7267   120.9972   -58.1121  -999.2500
  171.0000     8.0953     8.5152   123.2535   -58.1067  -999.2500
  171.5000     8.0354     8.3658   125.5098   -58.2518  -999.2500
  172.0000     7.7961     8.2912   128.5158   -58.8463  -999.2500
  172.5000     7.7212     8.2169   130.0352   -58.8408  -999.2500
  173.0000     7.6613     8.1426   131.5292   -58.5374  -999.2500
  173.5000     7.6462     8.0684   132.2863   -58.0845  -999.2500
  174.0000     7.6012     8.0692   133.0435   -57.9306  -999.2500
  174.5000     7.5711     8.0699   132.3011   -58.0756  -999.2500
  175.0000     7.5262     8.0707   132.3088   -58.0712  -999.2500
  175.5000     7.4812     8.0714   131.5663   -58.0667  -999.2500
  176.0000     7.4643     8.0722   130.8260   -58.0623  -999.2500
  176.5000     7.4360     8.0729   130.8335   -58.2085  -999.2500
  177.0000     7.3910     8.0736   130.8409   -58.6513  -999.2500
  177.5000     7.5257     8.0744   131.5980   -58.6469  -999.2500
  178.0000     7.5552     8.0751   131.6054   -58.6424  -999.2500
  178.5000     7.5550     8.0759   131.6129   -58.4885  -999.2500
  179.0000     7.5380     8.0766   132.3699   -58.1851  -999.2500
  179.5000     7.5050     8.0774   133.1270   -57.7322  -999.2500
  180.0000     7.3303     8.0030   134.6337   -57.7278  -999.2500
  180.5000     7.3302     7.9287   135.3907   -57.7234  -999.2500
  181.0000     7.3300     7.8544   136.8974   -57.7189  -999.2500
  181.5000     7.2530     7.7800   139.1537   -57.8640  -999.2500
  182.0000     7.1203     7.7808   141.4101   -58.9058  -999.2500
  182.5000     7.0605     7.7064   142.1671   -58.6023  -999.2500
  183.0000     7.0604     7.7072   142.9242   -58.4484  -999.2500
  183.5000     7.0602     7.6329   142.9316   -58.4440  -999.2500
  184.0000     7.0601     7.7087   142.1876   -58.4394  -999.2500
  184.5000     7.1346     7.6343   141.4454   -58.5836  -999.2500
  185.0000     7.1495     7.6353   141.4547   -58.7297  -999.2500
  185.5000     7.1344     7.6360   142.9614   -59.0932  -999.2500
  186.0000     6.9698     7.6368   143.7185   -59.3092  -999.2500
  186.5000     6.9547     7.6375   143.7259   -59.4635  -999.2500
  187.0000     7.0592     7.6383   143.7333   -59.4589  -999.2500
  187.5000     7.1039     7.5637   142.9910   -59.3049  -999.2500
  188.0000     6.9841     7.5647   142.9986   -59.1510  -999.2500
  188.5000     6.8943     7.4903   143.0060   -59.1456  -999.2500
  189.0000     6.8942     7.4911   143.0135   -59.2906  -999.2500
  189.5000     6.9389     7.4918   142.9938   -59.2862  -999.2500
  190.0000     6.9985     7.6427   142.2787   -59.4312  -999.2500
  190.5000     7.1179     7.7185   142.2139   -59.5762  -999.2500
  191.0000     7.2075     7.7193   141.5440   -60.0202  -999.2500
  191.5000     7.2970     7.7951   140.8018   -60.3158  -999.2500
  192.0000     7.3716     7.7958   140.0596   -60.4608  -999.2500
  192.5000     7.2843     7.7966   138.5678   -60.4552  -999.2500
  193.0000     7.1172     7.8724   137.0760   -60.4507  -999.2500
  193.5000     7.1021     7.8731   136.3338   -60.4463  -999.2500
  194.0000     7.2365     7.9490   134.8420   -60.4418  -999.2500
  194.5000     7.4483     8.1749   134.0998   -60.4374  -999.2500
  195.0000     7.6697     8.4009   132.6080   -60.4329  -999.2500
  195.5000     7.7893     8.4017   130.3684   -60.4284  -999.2500
  196.0000     7.9534     8.4024   128.1251   -60.1250  -999.2500
  196.5000     7.9072     8.4031   125.8856   -59.8216  -999.2500
  197.0000     7.8766     8.4790   123.6441   -59.6677  -999.2500
  197.5000     7.8804     8.5548   122.1523   -59.6632  -999.2500
  198.0000     7.9733     8.6306   121.4083   -59.6587  -999.2500
  198.5000     8.1469     8.7066   120.6661   -59.6543  -999.2500
  199.0000     8.4009     8.7073   119.1761   -59.6498  -999.2500
  199.5000     8.3858     8.7832   118.4321   -59.6453  -999.2500
  200.0000     7.9522     8.8638   117.3935   -59.6409  -999.2500
  200.5000     7.9376     8.9249   115.6019   -59.6364  -999.2500
  201.0000     8.2969     8.9859   114.7077   -59.6320  -999.2500
  201.5000     8.6112     8.9363   114.7152   -59.7781  -999.2500
