~VERSION INFORMATION
 VERS.                2.0:   CWLS LOG ASCII STANDARD - VERSION 2.0
 WRAP.                 NO:   ONE LINE PER DEPTH STEP
~WELL INFORMATION
#MNEM.UNIT      DATA TYPE    INFORMATION
#----------   ------------   ------------------------------
 STRT.F           80.0000:   START DEPTH
 STOP.F          739.0000:   STOP DEPTH
 STEP.F            0.5000:   STEP LENGTH
 NULL.          -999.2500:   NO VALUE
 COMP. U S NAVY-INTEX OIL:   COMPANY
 WELL.        NPR #36-S-2:   WELL
 FLD .             TEAPOT:   FIELD
 LOC .       S2 T38N R78W:   LOCATION
 CNTY.            NATRONA:   COUNTY
 STAT.            WYOMING:   STATE
 CTRY. UNITED STATES OF AMERICA:   COUNTRY
 SRVC.       Schlumberger:   SERVICE COMPANY
 DATE.        23-JUN-1962:   LOGDATE
 API .       490250641800:   API NUMBER
~CURVE INFORMATION
#MNEM.UNIT       API CODE    CURVE DESCRIPTION
#----------   ------------   ------------------------------
 DEPT.F                  :   
 ASN .OHMM   05 041 16 00:   AMPLIFIED SHORT NORMAL 16"
 ILD .OHMM   05 120 46 00:   INDUCTION LOG DEEP
 CILD.MMHO   05 110 46 00:   CONDUCTIVITY INDUCTION LOG DEEP
 SPR .MV     05 010 01 00:   SPONTANEOUS POTENTIAL FROM RES.
 GR  .GAPI   30 310 01 00:   GAMMA RAY
~PARAMETER INFORMATION
#MNEM.UNIT          VALUE    DESCRIPTION
#----------   ------------   ------------------------------
 PD  .                 KB:   PERMANENT DATUM
 EPD .F              5143:   ELEVATION PERMANENT DATUM
 EKB .F              5143:   KELLING BUSHING
 EGL .F              5138:   GROUND LEVEL
 DATE.        23-JUN-1962:   RUN DATE
 RUN .                  1:   RUN NUMBER
 DD  .F               738:   DEPTH DRILLER
 DL  .F               740:   DEPTH LOGGER
 BLI .F               739:   BOTTOM LOG INTERVAL
 TLI .F                80:   TOP LOG INTERVAL
 BS  .IN             6.75:   BIT SIZE
 BSD .F               738:   BIT SIZE AT DEPTH
 DFT .       OIL EMULSION:   DRILLING FLUID TYPE
 DFD .               10.0:   DRILLING FLUID DENSITY
 DFV .                 53:   DRILLING FLUID VISCOSITY
 DFL .                3.8:   DRILLING FLUID LOSS
 RMS .OHMM            3.9:   RESISTIVITY MUD SAMPLE
 MST .F                66:   MUD SAMPLE TEMPERATURE
 RMF .OHMM            2.9:   RESISTIVITY MUD FILTRATE SAMPLE
 MFST.F                66:   MUD FILTRATE SAMPLE TEMPERATURE
 RMC .OHMM            4.4:   RESISTIVITY MUD CAKE
 MCST.F                66:   MUD CAKE SAMPLE TEMPERATURE
 TCS .HRS               1:   TIME CURCULATED STOPPED
 LUN .               2503:   LOGGING UNIT NUMBER
 LUL .               CSPR:   LOGGING UNIT LOCATION
 ENGI.             DANNER:   RECORDING ENGINEER
 WITN.          JORGENSON:   WITNESSED BY
 CLNT.            A2DTECH:   CLIENT CODE
 ORIG.           5" PRINT:   ORIGIN OF DATA
 UWI .       490250641800:   UNIQUE WELL ID
 DICO. A2D Technologies, Inc.:   DIGITIZING COMPANY
~OTHER INFORMATION
~A   DEPT        ASN        ILD      CILD       SPR         GR   
# ...
  385.0000     8.8117     8.8660   129.1291   -47.2978  -999.2500
  385.5000     8.7670     8.7187   129.8799   -47.4437  -999.2500
  386.0000     8.7074     8.6453   129.8799   -47.2888  -999.2500
  386.5000     8.6925     8.4974   129.1291   -46.6873  -999.2500
  387.0000     8.7526     8.5002   127.6276   -46.5336  -999.2500
  387.5000     8.8876     8.5024   124.6246   -46.6784  -999.2500
  388.0000     9.2321     8.5798   121.6216   -46.9735  -999.2500
  388.5000     9.3071     8.7322   120.1201   -46.5201  -999.2500
  389.0000     9.4270     8.8846   119.3694   -46.5156  -999.2500
  389.5000     9.3524     8.9619   118.6186   -46.3619  -999.2500
  390.0000     9.1130     9.1143   117.8679   -46.3574  -999.2500
  390.5000     9.4126     9.2667   117.8679   -46.3529  -999.2500
  391.0000     9.7721     9.3440   117.8679   -46.1991  -999.2500
  391.5000     9.5028     9.4214   117.8679   -46.1947  -999.2500
  392.0000     9.3533     9.4987   117.8679   -46.3405  -999.2500
  392.5000     9.3535     9.5760   117.8679   -46.4853  -999.2500
  393.0000     9.3687     9.6533   118.6186   -46.4806  -999.2500
  393.5000     9.3688     9.5805   119.3694   -46.4761  -999.2500
  394.0000     9.2493     9.5071   119.3694   -47.1165  -999.2500
  394.5000     9.1297     9.2847   120.1201   -47.3629  -999.2500
  395.0000     9.1149     9.0617   120.8709   -47.0597  -999.2500
  395.5000     9.1001     8.8382   121.6216   -46.7568  -999.2500
  396.0000     9.0854     8.6158   123.1231   -46.4538  -999.2500
  396.5000     9.0556     8.4673   123.8739   -46.4632  -999.2500
  397.0000     8.9660     8.2444   126.1261   -47.0419  -999.2500
  397.5000     8.8314     8.0220   127.6276   -46.8780  -999.2500
  398.0000     8.7119     7.9486   130.6306   -46.4358  -999.2500
  398.5000     8.6073     7.9514   132.8829   -46.4314  -999.2500
  399.0000     8.4727     7.9536   135.8859   -46.4269  -999.2500
  399.5000     8.3531     7.9559   136.6366   -46.4224  -999.2500
  400.0000     8.2785     7.9682   137.3874   -46.2687  -999.2500
  400.5000     8.2188     8.0316   136.5107   -46.4423  -999.2500
  401.0000     8.2040     8.0951   135.8995   -46.6158  -999.2500
  401.5000     8.1892     8.1173   136.6583   -46.8523  -999.2500
  402.0000     8.2792     8.1954   135.9150   -47.1463  -999.2500
  402.5000     8.4141     8.2734   134.4228   -47.1343  -999.2500
  403.0000     8.5341     8.4265   132.9287   -47.1283  -999.2500
  403.5000     8.5942     8.5797   130.6839   -47.1224  -999.2500
  404.0000     8.6392     8.7328   128.4372   -47.1164  -999.2500
  404.5000     8.6954     8.8859   125.4435   -46.3508  -999.2500
  405.0000     8.7603     9.0391   123.9475   -46.0597  -999.2500
  405.5000     8.8019     9.1171   122.4550   -46.0537  -999.2500
  406.0000     8.7874     9.1201   121.7117   -46.0657  -999.2500
  406.5000     8.8934     9.1231   120.9685   -46.7883  -999.2500
  407.0000     9.0296     9.2012   120.2252   -46.7821  -999.2500
  407.5000     9.1657     9.2042   119.4820   -46.7761  -999.2500
  408.0000     9.2717     9.2823   119.4895   -46.9196  -999.2500
  408.5000     9.2573     9.2853   119.4970   -46.9134  -999.2500
  409.0000     9.1825     9.2131   119.5045   -46.9074  -999.2500
  409.5000     9.0928     9.2168   120.2628   -46.8731  -999.2500
  410.0000     9.0331     9.1447   121.7733   -46.2973  -999.2500
  410.5000     8.9584     9.0719   123.2822   -45.9929  -999.2500
  411.0000     8.9139     8.9254   125.5419   -45.9869  -999.2500
  411.5000     8.8994     8.9284   125.5493   -45.9809  -999.2500
  412.0000     8.8841     8.8556   126.3075   -45.9750  -999.2500
  412.5000     8.8542     8.7091   127.0657   -45.9690  -999.2500
  413.0000     8.8409     8.6363   127.0731   -45.9631  -999.2500
  413.5000     8.8717     8.6400   126.3279   -45.9571  -999.2500
  414.0000     8.9024     8.5672   126.3372   -45.9512  -999.2500
  414.5000     8.8879     8.5709   125.5920   -45.9452  -999.2500
  415.0000     8.9188     8.5739   125.6013   -45.9393  -999.2500
  415.5000     9.0248     8.6520   124.1053   -45.9333  -999.2500
  416.0000     9.1911     8.8051   122.6113   -45.9273  -999.2500
  416.5000     9.4025     9.0333   120.3683   -45.9214  -999.2500
  417.0000     9.5688     9.2615   118.1235   -45.9154  -999.2500
  417.5000     9.7501     9.4146   116.6291   -45.9095  -999.2500
  418.0000     9.9314     9.6428   112.8831   -45.9035  -999.2500
  418.5000     9.9705     9.8710   110.6383   -45.7483  -999.2500
  419.0000     9.9104    10.0992   108.3934   -45.8916  -999.2500
  419.5000    10.1892    10.1773   106.8818   -46.0349  -999.2500
  420.0000    10.4910    10.4055   104.6545   -46.1797  -999.2500
  420.5000    10.7175    10.4836   102.3272   -46.1723  -999.2500
  421.0000    10.9440    10.6367   100.8005   -46.4663  -999.2500
  421.5000    11.1705    10.7898    97.9219   -46.7589  -999.2500
  422.0000    11.3217    10.8679    95.6771   -46.9021  -999.2500
  422.5000    11.5482    11.0961    94.1812   -47.1947  -999.2500
  423.0000    11.6994    11.2527    91.9382   -47.4858  -999.2500
  423.5000    11.9259    11.4024    89.6915   -47.7798  -999.2500
  424.0000    12.0018    11.6387    87.4467   -47.9231  -999.2500
  424.5000    12.1530    11.7940    85.9545   -47.9157  -999.2500
  425.0000    12.2289    12.0120    85.2093   -47.7604  -999.2500
  425.5000    12.3801    12.1658    85.2186   -47.7545  -999.2500
  426.0000    12.3807    12.2438    84.4734   -47.3023  -999.2500
  426.5000    12.3060    12.2468    84.4827   -48.1918  -999.2500
  427.0000    12.0807    12.2498    84.4901   -47.8859  -999.2500
  427.5000    11.7801    12.1026    85.2483   -47.2829  -999.2500
  428.0000    11.6291    11.8804    86.7572   -47.7247  -999.2500
  428.5000    11.4801    11.7325    88.2661   -46.8247  -999.2500
  429.0000    11.4807    11.4359    90.5258   -47.7143  -999.2500
  429.5000    11.4060    11.2887    92.7855   -47.7069  -999.2500
  430.0000    11.3313    11.1408    95.0452   -47.2531  -999.2500
  430.5000    11.2566    10.9936    95.8033   -47.6949  -999.2500
  431.0000    11.2572    10.8472    96.5615   -47.6890  -999.2500
  431.5000    11.3332    10.9253    95.8182   -47.6830  -999.2500
  432.0000    11.4091    10.9282    95.0749   -47.6771  -999.2500
  432.5000    11.5603    10.9312    94.2191   -47.5219  -999.2500
  433.0000    11.6362    11.0093    92.8375   -47.5159  -999.2500
  433.5000    11.6368    11.0873    92.8468   -47.5100  -999.2500
  434.0000    11.0350    11.1654    92.8542   -47.5040  -999.2500
  434.5000    11.1862    11.1684    92.8616   -48.0951  -999.2500
  435.0000    11.6386    11.1713    92.8690   -48.0891  -999.2500
  435.5000    11.7144    11.0242    94.3780   -48.0831  -999.2500
  436.0000    11.3386    10.8770    95.1362   -47.9279  -999.2500
  436.5000    10.8874    10.7298    96.6451   -47.9220  -999.2500
  437.0000    10.5868    10.5826    97.4033   -47.9160  -999.2500
  437.5000    10.3615    10.4355    99.6629   -47.9101  -999.2500
  438.0000    10.2114    10.2883   101.1719   -47.7549  -999.2500
  438.5000    10.1367    10.1412   101.9300   -47.4504  -999.2500
  439.0000    10.1374     9.9940   103.4390   -47.1459  -999.2500
  439.5000     9.9844     9.9970   104.9479   -46.9907  -999.2500
  440.0000     9.9682     9.9199   105.7061   -47.1340  -999.2500
  440.5000     9.9521     9.8528   106.4643   -47.5758  -999.2500
  441.0000     9.9359     9.7713   107.9732   -47.4206  -999.2500
  441.5000     9.9197     9.7086   108.7314   -47.1162  -999.2500
  442.0000     9.9036     9.6365   110.2403   -46.9610  -999.2500
  442.5000     9.8856     9.5651   110.9985   -46.6565  -999.2500
  443.0000     9.8710     9.5681   111.7567   -46.5013  -999.2500
  443.5000     9.8565     9.4953   112.5150   -46.4953  -999.2500
  444.0000     9.8421     9.4239   113.2733   -46.4894  -999.2500
  444.5000     9.7824     9.4269   113.2808   -46.4834  -999.2500
  445.0000     9.7079     9.4299   113.2897   -46.4775  -999.2500
  445.5000     9.6631     9.3571   113.2971   -46.9193  -999.2500
