~VERSION INFORMATION
 VERS.                2.0:   CWLS LOG ASCII STANDARD - VERSION 2.0
 WRAP.                 NO:   ONE LINE PER DEPTH STEP
~WELL INFORMATION
#MNEM.UNIT      DATA TYPE    INFORMATION
#----------   ------------   ------------------------------
 STRT.F           31.0000:   START DEPTH
 STOP.F          590.0000:   STOP DEPTH
 STEP.F            0.1000:   STEP LENGTH
 NULL.          -999.2500:   NO VALUE
 COMP. LAWRENCE/ALLISON INC:   COMPANY
 WELL. NPR 3 73-61 SX #3-3:   WELL
 FLD .             TEAPOT:   FIELD
 LOC .       S3 T38N R78W:   LOCATION
 CNTY.            NATRONA:   COUNTY
 STAT.            WYOMING:   STATE
 CTRY. UNITED STATES OF AMERICA:   COUNTRY
 SRVC.           Gearhart:   SERVICE COMPANY
 DATE.        14-AUG-1988:   LOGDATE
 API .       490251124200:   API NUMBER
~CURVE INFORMATION
#MNEM.UNIT       API CODE    CURVE DESCRIPTION
#----------   ------------   ------------------------------
 DEPT.F                  :   
 GRR .GAPI   07 310 01 00:   GAMMA RAY
 RILD.OHMM   07 120 46 00:   INDUCTION LOG DEEP RESISTIVITY
 RILM.OHMM   07 120 44 00:   INDUCTION LOG MEDIUM RESISTIVITY
~PARAMETER INFORMATION
#MNEM.UNIT          VALUE    DESCRIPTION
#----------   ------------   ------------------------------
 PD  .                 GL:   PERMANENT DATUM
 EPD .F              5136:   ELEVATION PERMANENT DATUM
 LMF .                 KB:   LOG MEASURED FROM
 DAPD.F                10:   FEET ABOVE PERMANENT DATUM
 DMF .                 KB:   DRILLING MEASURED FROM
 EKB .F              5146:   KELLING BUSHING
 EDF .F              5144:   DRILLING FLOOR
 EGL .F              5136:   GROUND LEVEL
 DATE.        14-AUG-1988:   RUN DATE
 RUN .                  1:   RUN NUMBER
 DD  .F               597:   DEPTH DRILLER
 DL  .F               598:   DEPTH LOGGER
 BLI .F               590:   BOTTOM LOG INTERVAL
 TLI .F                50:   TOP LOG INTERVAL
 CS  .IN            9.625:   CASING SIZE
 CBD .F                50:   CASING BOTTOM DRILLER
 CBL .F                50:   CASING BOTTOM LOGGER
 BS  .IN             8.75:   BIT SIZE
 BSD .F               597:   BIT SIZE AT DEPTH
 DFT .                AIR:   DRILLING FLUID TYPE
 TCS .HRS            1930:   TIME CURCULATED STOPPED
 TLAB.HRS            2030:   TIME LOGGER AT BOTTOM
 MRT .F                70:   MAXIMUM RECORDED TEMPERATURE
 LUN .               7597:   LOGGING UNIT NUMBER
 LUL .           GILLETTE:   LOGGING UNIT LOCATION
 ENGI.         WEATHERMON:   RECORDING ENGINEER
 WITN.             STRONG:   WITNESSED BY
 CLNT.            A2DTECH:   CLIENT CODE
 ORIG.           5" PRINT:   ORIGIN OF DATA
 UWI .       490251124200:   UNIQUE WELL ID
 DICO. A2D Technologies, Inc.:   DIGITIZING COMPANY
~OTHER INFORMATION
~A   DEPT       GRR      RILD       RILM   
# ...
   85.6000   116.8725     6.6462     6.1099
   85.7000   116.7816     6.6458     6.1102
   85.8000   116.5306     6.6454     6.1104
   85.9000   116.2756     6.6709     6.1106
   86.0000   116.0281     6.6909     6.1108
   86.1000   115.3745     6.6906     6.1263
   86.2000   114.9216     6.6902     6.1538
   86.3000   114.5663     6.6898     6.1540
   86.4000   114.0617     6.7248     6.1543
   86.5000   113.5568     6.7357     6.1884
   86.6000   112.9696     6.7559     6.1976
   86.7000   112.5474     6.7818     6.1978
   86.8000   112.0425     6.7814     6.2138
   86.9000   111.5378     6.7810     6.2414
   87.0000   111.1661     6.8184     6.2452
   87.1000   111.1686     6.8274     6.2854
   87.2000   111.1713     6.8271     6.2856
   87.3000   111.3964     6.8419     6.3146
   87.4000   111.8267     6.8739     6.3299
   87.5000   112.3362     6.8734     6.3301
   87.6000   112.9233     6.9208     6.3406
   87.7000   113.6578     6.9205     6.3746
   87.8000   114.2068     6.9452     6.3748
   87.9000   114.6768     6.9679     6.3750
   88.0000   115.0009     6.9772     6.4049
   88.1000   115.3937     7.0156     6.4200
   88.2000   115.8152     7.0152     6.4374
   88.3000   116.0712     7.0500     6.4651
   88.4000   116.3360     7.0633     6.4653
   88.5000   116.5831     7.0826     6.4656
   88.6000   116.8390     7.1236     6.4658
   88.7000   116.9474     7.1608     6.4660
   88.8000   116.8508     7.1603     6.4663
   88.9000   116.5492     7.1978     6.4841
   89.0000   116.0463     7.2094     6.5118
   89.1000   115.7491     7.2311     6.5169
   89.2000   115.3369     7.2729     6.5576
   89.3000   114.9907     7.3089     6.5578
   89.4000   114.6295     7.3084     6.5581
   89.5000   114.1249     7.3487     6.5583
   89.6000   113.6330     7.3585     6.5768
   89.7000   113.3466     7.3826     6.6164
   89.8000   112.9128     7.4089     6.6507
   89.9000   112.5774     7.4167     6.6510
   90.0000   112.2053     7.4596     6.6512
   90.1000   111.7730     7.4591     6.6835
   90.2000   111.5218     7.4588     6.7237
   90.3000   111.2462     7.4853     6.7449
   90.4000   111.2483     7.5099     6.7452
   90.5000   111.0704     7.5199     6.7513
   90.6000   110.8193     7.5613     6.7927
   90.7000   110.5682     7.5608     6.7929
   90.8000   110.3169     7.5983     6.7931
   90.9000   110.0521     7.6126     6.7934
   91.0000   110.0544     7.6122     6.8133
   91.1000   109.8657     7.6245     6.8412
   91.2000   109.7571     7.6644     6.8414
   91.3000   109.7595     7.6639     6.8417
   91.4000   109.7619     7.7040     6.8896
   91.5000   109.7644     7.7486     6.9239
   91.6000   109.7668     7.7697     6.9381
   91.7000   109.5672     7.7844     6.9589
   91.8000   109.4695     7.8230     7.0008
   91.9000   109.4719     7.8224     7.0429
   92.0000   109.4180     7.8656     7.0852
   92.1000   109.1745     7.8760     7.1349
   92.2000   109.1774     7.9019     7.1707
   92.3000   109.1794     7.9299     7.2139
   92.4000   109.0175     7.9383     7.2354
   92.5000   108.8822     7.9843     7.2503
   92.6000   108.8846     7.9837     7.2940
   92.7000   108.8870     8.0212     7.3378
   92.8000   108.8897     8.0385     7.3888
   92.9000   108.8918     8.0380     7.4264
   93.0000   108.7190     8.0488     7.4408
   93.1000   108.5946     8.0931     7.4410
   93.2000   108.6751     8.0926     7.4569
   93.3000   108.9311     8.0922     7.5017
   93.4000   109.2062     8.0917     7.5459
   93.5000   109.6777     8.1138     7.5462
   93.6000   110.0011     8.1472     7.5850
   93.7000   110.2571     8.1467     7.5993
   93.8000   110.5132     8.1462     7.6234
   93.9000   110.7692     8.1458     7.6528
   94.0000   111.0333     8.1453     7.6530
   94.1000   111.0357     8.1449     7.6546
   94.2000   111.0381     8.1445     7.7070
   94.3000   111.0405     8.1373     7.7470
   94.4000   110.9429     8.0872     7.7612
   94.5000   110.6917     8.0868     7.7862
   94.6000   110.4407     8.0864     7.8158
   94.7000   110.1442     8.0859     7.8257
   94.8000   109.7305     8.0854     7.8709
   94.9000   109.2258     8.0850     7.8712
   95.0000   108.8318     8.0846     7.8714
   95.1000   108.5186     8.0282     7.8717
   95.2000   108.0274     8.0278     7.8976
   95.3000   107.7417     8.0273     7.9271
   95.4000   107.5251     8.0269     7.9274
   95.5000   107.2739     8.0265     7.9276
   95.6000   107.1444     8.0237     7.9280
   95.7000   107.2198     7.9700     7.8866
   95.8000   107.5005     7.9696     7.8736
   95.9000   108.0582     7.9692     7.8738
   96.0000   108.7491     7.9468     7.8741
   96.1000   109.5126     7.9133     7.8640
   96.2000   110.2756     7.9129     7.8202
   96.3000   111.0386     7.9123     7.8205
   96.4000   111.8019     7.8704     7.7793
   96.5000   112.6044     7.8568     7.7669
   96.6000   113.0876     7.8564     7.7153
   96.7000   113.7894     7.8408     7.6602
   96.8000   114.4090     7.8012     7.6605
   96.9000   114.9184     7.8008     7.6608
   97.0000   115.4281     7.8004     7.6611
   97.1000   115.9420     7.7999     7.6202
   97.2000   116.1958     7.7995     7.6086
   97.3000   116.2489     7.7818     7.5829
   97.4000   116.4056     7.7447     7.5381
   97.5000   116.5559     7.7443     7.4935
   97.6000   116.6156     7.7438     7.4493
   97.7000   116.8628     7.7435     7.4014
   97.8000   116.5635     7.7430     7.3614
   97.9000   116.3519     7.7233     7.3506
   98.0000   116.1007     7.6886     7.3254
   98.1000   115.7330     7.6882     7.2821
   98.2000   115.2284     7.6877     7.2500
   98.3000   114.7235     7.6873     7.2465
   98.4000   114.1610     7.6572     7.2003
   98.5000   113.9386     7.6334     7.1611
   98.6000   113.3353     7.6330     7.1509
   98.7000   112.5770     7.6326     7.1512
   98.8000   111.8978     7.6321     7.1514
   98.9000   111.3320     7.6317     7.1517
   99.0000   110.2479     7.6313     7.1561
   99.1000   109.5437     7.6309     7.2021
   99.2000   109.1592     7.6305     7.2023
   99.3000   108.7698     7.6300     7.2355
   99.4000   108.2652     7.6295     7.2791
   99.5000   107.8016     7.6291     7.3229
   99.6000   107.5433     7.6627     7.3669
   99.7000   107.2993     7.6814     7.4113
   99.8000   107.2459     7.6981     7.4584
   99.9000   107.0991     7.7426     7.4586
  100.0000   106.8130     7.7874     7.5285
  100.1000   106.4736     7.8870     7.5912
  100.2000   106.1342     7.9498     7.6369
  100.3000   105.7948     7.9491     7.6699
  100.4000   105.4555     7.9484     7.6755
  100.5000   105.1258     7.9478     7.7238
  100.6000   104.8523     7.9471     7.7680
  100.7000   104.2054     7.9465     7.8148
  100.8000   102.9846     7.9458     7.8327
  100.9000   101.7188     7.9452     7.8543
  101.0000   100.7855     7.9445     7.8879
  101.1000   100.0333     7.9438     7.8881
  101.2000    99.3112     7.9431     7.8884
  101.3000    98.7602     7.9425     7.8886
  101.4000    98.4007     7.9418     7.8889
  101.5000    98.2326     7.9411     7.8892
  101.6000    98.2154     7.9405     7.8676
  101.7000    97.9370     7.9399     7.8352
  101.8000    97.7281     7.9392     7.8354
  101.9000    97.6405     7.9386     7.8357
  102.0000    97.7442     7.9379     7.7818
  102.1000    97.9940     7.9372     7.7820
  102.2000    98.2539     7.9366     7.7823
  102.3000    98.7302     7.9359     7.7605
  102.4000    99.2266     7.9206     7.7146
  102.5000    99.9748     7.8797     7.6757
  102.6000   100.8944     7.8790     7.6760
  102.7000   101.6524     7.8784     7.6574
  102.8000   102.8041     7.8488     7.6092
  102.9000   104.2516     7.8227     7.5697
  103.0000   105.8308     7.8130     7.5262
  103.1000   107.4100     7.7673     7.5026
  103.2000   109.0994     7.7237     7.4917
  103.3000   110.6739     7.6794     7.4486
  103.4000   112.0663     7.6354     7.4059
  103.5000   113.5499     7.6048     7.3634
  103.6000   114.7915     7.6007     7.3450
  103.7000   115.7158     7.5509     7.3296
