~VERSION INFORMATION
 VERS.                2.0:   CWLS LOG ASCII STANDARD - VERSION 2.0
 WRAP.                 NO:   ONE LINE PER DEPTH STEP
~WELL INFORMATION
#MNEM.UNIT      DATA TYPE    INFORMATION
#----------   ------------   ------------------------------
 STRT.F           28.0000:   START DEPTH
 STOP.F          551.0000:   STOP DEPTH
 STEP.F            0.5000:   STEP LENGTH
 NULL.          -999.2500:   NO VALUE
 COMP. FENIX & SCISSON, INC.:   COMPANY
 WELL.        NPR #85-S-3:   WELL
 FLD .             TEAPOT:   FIELD
 LOC .       S3 T38N R78W:   LOCATION
 CNTY.            NATRONA:   COUNTY
 STAT.            WYOMING:   STATE
 CTRY. UNITED STATES OF AMERICA:   COUNTRY
 SRVC.            Unknown:   SERVICE COMPANY
 DATE.        22-JAN-1977:   LOGDATE
 API .       490251055800:   API NUMBER
~CURVE INFORMATION
#MNEM.UNIT       API CODE    CURVE DESCRIPTION
#----------   ------------   ------------------------------
 DEPT.F                  :   
 ILD .OHMM   05 120 46 00:   INDUCTION LOG DEEP
 SN  .OHMM   05 040 16 00:   SHORT NORMAL 16"
 SPR .MV     05 010 01 00:   SPONTANEOUS POTENTIAL FROM RES.
 CALD.IN     45 280 60 00:   CALIPER FROM DENSITY LOG
 CORR.G/C3   45 356 01 00:   DENSITY CORRECTION
 DPHI.DEC    45 890 12 00:   DENSITY POROSITY SANDSTONE
 GRD .GAPI   45 310 01 00:   GAMMA RAY FROM DENSITY LOG
 RHOB.G/C3   45 350 01 00:   BULK DENSITY
~PARAMETER INFORMATION
#MNEM.UNIT          VALUE    DESCRIPTION
#----------   ------------   ------------------------------
 PD  .                 GL:   PERMANENT DATUM
 EPD .F              5132:   ELEVATION PERMANENT DATUM
 LMF .                 KB:   LOG MEASURED FROM
 DAPD.F                 4:   FEET ABOVE PERMANENT DATUM
 DMF .                 KB:   DRILLING MEASURED FROM
 EKB .F              5136:   KELLING BUSHING
 EGL .F              5132:   GROUND LEVEL
 DATE.          1-22-1977:   RUN DATE
 RUN .                  1:   RUN NUMBER
 DD  .F               550:   DEPTH DRILLER
 DL  .F               550:   DEPTH LOGGER
 BLI .F               545:   BOTTOM LOG INTERVAL
 TLI .F                50:   TOP LOG INTERVAL
 CS  .IN            8.625:   CASING SIZE
 CBD .F                40:   CASING BOTTOM DRILLER
 CBL .F                40:   CASING BOTTOM LOGGER
 BS  .IN            7.875:   BIT SIZE
 BSD .F               550:   BIT SIZE AT DEPTH
 DFT .                KCL:   DRILLING FLUID TYPE
 DFD .                8.6:   DRILLING FLUID DENSITY
 DFV .                 36:   DRILLING FLUID VISCOSITY
 DFPH.                 10:   DRILLING FLUID PH
 DFL .                7.2:   DRILLING FLUID LOSS
 MSS .           FLOWLINE:   MUD SAMPLE SOURCE
 RMS .OHMM             .3:   RESISTIVITY MUD SAMPLE
 MST .F                56:   MUD SAMPLE TEMPERATURE
 RMF .OHMM             .3:   RESISTIVITY MUD FILTRATE SAMPLE
 MFST.F                58:   MUD FILTRATE SAMPLE TEMPERATURE
 RMC .OHMM             .3:   RESISTIVITY MUD CAKE
 MCST.F                58:   MUD CAKE SAMPLE TEMPERATURE
 MFSS.           MEASURED:   MUD FILTRATE SAMPLE SOURCE
 MCSS.           MEASURED:   MUD CAKE SAMPLE SOURCE
 RMB .OHMM            .25:   RESISTIVITY MUD AT BHT
 BHT .F                68:   BOTTOM HOLE TEMPERATURE
 TCS .HRS               3:   TIME CURCULATED STOPPED
 MRT .F                68:   MAXIMUM RECORDED TEMPERATURE
 LUN .               2958:   LOGGING UNIT NUMBER
 LUL .             CASPER:   LOGGING UNIT LOCATION
 ENGI.           REYNOLDS:   RECORDING ENGINEER
 WITN.             GINLEY:   WITNESSED BY
 CLNT.            A2DTECH:   CLIENT CODE
 ORIG.           5" PRINT:   ORIGIN OF DATA
 UWI .       490251055800:   UNIQUE WELL ID
 DICO. A2D Technologies, Inc.:   DIGITIZING COMPANY
~OTHER INFORMATION
~A   DEPT      ILD         SN        SPR       CALD       CORR       DPHI         GRD      RHOB   
# ...
  149.5000     9.2175     8.9913   -45.2540     7.5592     0.2774     0.1425   118.3972     2.4321
  150.0000     9.2194     8.9938   -45.2409     7.5745     0.2579     0.1539   115.7235     2.4261
  150.5000     9.2213     8.9963   -45.2278     7.5924     0.2324     0.1611   116.9246     2.4156
  151.0000     9.2232     8.9987   -45.2147     7.6228     0.2249     0.1691   119.7651     2.3879
  151.5000     9.1610     8.8775   -45.2016     7.6515     0.2247     0.1769   113.9617     2.3722
  152.0000     9.0998     8.8181   -45.1885     7.6650     0.2245     0.1779   113.1992     2.3699
  152.5000     8.9771     8.5803   -45.1754     7.6785     0.2243     0.1769   116.6620     2.3677
  153.0000     8.9790     8.4063   -45.1623     7.6921     0.2241     0.1754   117.8631     2.3692
  153.5000     8.9185     8.3501   -45.1492     7.6977     0.2240     0.1715   119.0642     2.3730
  154.0000     8.8589     8.2948   -45.1361     7.7132     0.2238     0.1619   120.2653     2.3828
  154.5000     8.9226     8.2976   -45.1230     7.7435     0.2237     0.1541   118.9171     2.4031
  155.0000     8.9245     8.2999   -45.1099     7.7739     0.2117     0.1490   116.8356     2.4107
  155.5000     8.9263     8.3599   -45.0968     7.8191     0.2088     0.1474   115.4595     2.4198
  156.0000     8.9901     8.3622   -45.0837     7.8792     0.1983     0.1456   112.3662     2.4234
  156.5000     9.0544     8.4225   -45.0706     7.9245     0.1923     0.1420   115.0562     2.4243
  157.0000     9.2461     8.5423   -45.0199     7.9251     0.1937     0.1390   116.5524     2.4337
  157.5000     9.3768     8.6637   -44.5800     7.9255     0.1922     0.1366   114.1738     2.4445
  158.0000     9.5093     8.7869   -44.5740     7.9254     0.1907     0.1360   113.1351     2.4460
  158.5000     9.5773     8.9118   -44.5665     7.9253     0.1907     0.1355   112.3973     2.4451
  159.0000     9.6457     8.9761   -44.5590     7.9252     0.1893     0.1355   111.9547     2.4443
  159.5000     9.7146     9.1037   -44.5516     7.9251     0.1923     0.1355   113.1543     2.4435
  160.0000     9.7841     9.1062   -44.5441     7.9250     0.1923     0.1352   111.3719     2.4429
  160.5000     9.7861     9.1720   -44.5366     7.9249     0.1924     0.1352   112.5701     2.4429
  161.0000     9.7881     9.1745   -44.5291     7.9248     0.1924     0.1352   113.1706     2.4437
  161.5000     9.7902     9.1712   -44.5217     7.9247     0.1924     0.1373   111.8368     2.4430
  162.0000     9.7922     9.1658   -44.5142     7.9246     0.1925     0.1400   112.1407     2.4377
  162.5000     9.7942     9.1604   -44.5067     7.9245     0.1940     0.1418   113.4880     2.4310
  163.0000     9.7798     9.1549   -44.4993     7.9244     0.1940     0.1427   114.9842     2.4302
  163.5000     9.7606     9.1495   -44.4918     7.9243     0.1971     0.1430   116.9275     2.4310
  164.0000     9.7413     9.1441   -44.4843     7.9242     0.1986     0.1423   113.6548     2.4333
  164.5000     9.7221     9.1386   -44.4689     7.9241     0.2016     0.1406   112.9140     2.4355
  165.0000     9.7097     9.1332   -44.3099     7.9240     0.2062     0.1394   114.1137     2.4386
  165.5000     9.7139     9.1277   -44.1629     7.9239     0.2137     0.1388   115.4609     2.4401
  166.0000     9.6503     9.1223   -44.1555     7.9238     0.2213     0.1388   116.0615     2.4401
  166.5000     9.6536     9.1178   -43.9985     7.9237     0.2288     0.1391   111.1509     2.4401
  167.0000     9.6569     9.1201   -43.9910     7.9236     0.2319     0.1391   112.0510     2.4401
  167.5000     9.5928     9.0586   -43.9836     7.9235     0.2364     0.1385   115.6337     2.4401
  168.0000     9.5308     9.0610   -43.9761     7.9234     0.2379     0.1361   119.6634     2.4424
  168.5000     9.6003     9.0628   -43.9686     7.8941     0.2410     0.1354   114.3042     2.4432
  169.0000     9.6702     9.1277   -43.9399     7.8649     0.2410     0.1354   112.6706     2.4432
  169.5000     9.8082     9.1929   -43.9056     7.8357     0.2410     0.1360   113.1238     2.4432
  170.0000     9.9482     9.2587   -43.8712     7.8213     0.2411     0.1336   113.4377     2.4447
  170.5000    10.0903     9.3249   -43.8369     7.8221     0.2396     0.1324   109.8570     2.4470
  171.0000    10.1638     9.4568   -43.8026     7.8077     0.2335     0.1324   108.3726     2.4492
  171.5000    10.3088     9.6572   -43.7741     7.8083     0.2290     0.1321   104.9464     2.4493
  172.0000    10.5285     9.7938   -43.4677     7.8089     0.2229     0.1345   103.9135     2.4493
  172.5000    10.6788    10.0013   -43.3108     7.8095     0.2155     0.1399   106.6319     2.4492
  173.0000    10.8313    10.0728   -43.0044     7.8101     0.2097     0.1456   105.9682     2.4366
  173.5000    11.0621    10.2486   -42.6980     7.7958     0.2127     0.1501   104.9745     2.4216
  174.0000    11.2979    10.3401   -42.5411     7.7815     0.2174     0.1510   104.6886     2.4171
  174.5000    11.4591    10.5421   -42.3841     7.7673     0.2205     0.1483   101.2181     2.4186
  175.0000    11.7033    10.6182   -42.3767     7.7530     0.2248     0.1450   102.2851     2.4231
  175.5000    11.8704    10.8072   -42.3663     7.7238     0.2251     0.1429   101.4366     2.4261
  176.0000    12.1234    10.9616   -42.3473     7.7095     0.2279     0.1420    97.7031     2.4284
  176.5000    12.2964    11.1136   -42.3283     7.7101     0.2264     0.1420    98.7523     2.4299
  177.0000    12.3860    11.1159   -42.3093     7.7107     0.2219     0.1426    99.0562     2.4307
  177.5000    12.6500    11.1954   -42.2903     7.7113     0.2159     0.1456    99.9564     2.4202
  178.0000    12.7421    11.1977   -42.2712     7.7119     0.2100     0.1504   101.4526     2.4127
  178.5000    12.8350    11.2000   -42.2522     7.7125     0.2055     0.1565   101.7551     2.4135
  179.0000    12.8394    11.2024   -42.2332     7.7131     0.2025     0.1643    99.8251     2.4000
  179.5000    12.8438    11.2047   -42.2142     7.7137     0.2010     0.1685    97.5956     2.3865
  180.0000    12.7595    11.2075   -42.1952     7.7144     0.2011     0.1699    97.3019     2.3812
  180.5000    12.7641    11.2098   -42.1762     7.7150     0.2026     0.1717    98.3526     2.3798
  181.0000    12.7766    11.2117   -42.1572     7.7156     0.2041     0.1726   100.1469     2.3775
  181.5000    12.7728    11.2144   -42.1382     7.7162     0.2057     0.1693   100.5999     2.3760
  182.0000    12.6891    11.2167   -42.1226     7.7317     0.2087     0.1654   100.9039     2.3866
  182.5000    12.6061    11.2191   -42.1151     7.7322     0.2117     0.1621   101.2079     2.3918
  183.0000    12.5235    11.1440   -42.1076     7.7477     0.2133     0.1642   101.5119     2.3918
  183.5000    12.3558    11.1463   -42.1002     7.7483     0.2133     0.1651   101.6668     2.3911
  184.0000    12.2726    11.0717   -42.0927     7.7638     0.2118     0.1633   101.9708     2.3904
  184.5000    12.1945    10.9212   -42.0852     7.7793     0.2013     0.1642   102.5714     2.3896
  185.0000    12.1987    10.6991   -42.0777     7.7947     0.1968     0.1648   100.7889     2.3896
  185.5000    12.1188    10.6275   -42.0703     7.8102     0.1969     0.1642   103.1808     2.3897
  186.0000    12.1231    10.5564   -42.0628     7.8257     0.1969     0.1623    99.1629     2.3927
  186.5000    12.1273    10.4140   -42.0553     7.8296     0.1969     0.1599    98.1241     2.3980
  187.0000    12.1315    10.4161   -42.0478     7.8417     0.1970     0.1575    99.4728     2.4033
  187.5000    12.1356    10.3459   -42.0404     7.8423     0.1970     0.1590    99.4788     2.4047
  188.0000    12.0562    10.3486   -42.0329     7.8429     0.1970     0.1566    99.6337     2.4047
  188.5000    11.9770    10.3507   -42.0254     7.8435     0.1971     0.1536   102.0241     2.4063
  189.0000    11.8986    10.3528   -42.0179     7.8441     0.1956     0.1527   101.2849     2.4108
  189.5000    11.8109    10.3550   -42.0105     7.8447     0.1956     0.1524    99.6515     2.4130
