~VERSION INFORMATION
 VERS.                2.0:   CWLS LOG ASCII STANDARD - VERSION 2.0
 WRAP.                 NO:   ONE LINE PER DEPTH STEP
~WELL INFORMATION
#MNEM.UNIT      DATA TYPE    INFORMATION
#----------   ------------   ------------------------------
 STRT.F           16.0000:   START DEPTH
 STOP.F         1334.0000:   STOP DEPTH
 STEP.F            0.5000:   STEP LENGTH
 NULL.          -999.2500:   NO VALUE
 COMP. U S NAVY/INTEX OIL CO:   COMPANY
 WELL.  S-11 NPR 3 #87-11:   WELL
 FLD .             TEAPOT:   FIELD
 LOC .      S11 T38N R78W:   LOCATION
 CNTY.            NATRONA:   COUNTY
 STAT.            WYOMING:   STATE
 CTRY. UNITED STATES OF AMERICA:   COUNTRY
 SRVC.       Schlumberger:   SERVICE COMPANY
 DATE.        17-JUN-1966:   LOGDATE
 API .       490250958900:   API NUMBER
~CURVE INFORMATION
#MNEM.UNIT       API CODE    CURVE DESCRIPTION
#----------   ------------   ------------------------------
 DEPT.F                  :   
 GRD .GAPI   45 310 01 00:   GAMMA RAY FROM DENSITY LOG
 CALD.IN     45 280 60 00:   CALIPER
 RHOB.G/C3   45 350 01 00:   BULK DENSITY
 DPOR.DEC    45 890 12 00:   DENSITY POROSITY SANDSTONE
 DRHO.G/C3   45 356 01 00:   DENSITY CORRECTION
 ASN .OHMM   05 041 16 00:   AMPLIFIED SHORT NORMAL 16"
 ILD .OHMM   05 120 46 00:   INDUCTION LOG DEEP
 CILD.MMHO   05 110 46 00:   CONDUCTIVITY INDUCTION LOG DEEP
 SPR .MV     05 010 01 00:   SPONTANEOUS POTENTIAL FROM RES.
~PARAMETER INFORMATION
#MNEM.UNIT          VALUE    DESCRIPTION
#----------   ------------   ------------------------------
 PD  .                 GL:   PERMANENT DATUM
 EPD .F              5284:   ELEVATION PERMANENT DATUM
 LMF .                 KB:   LOG MEASURED FROM
 DAPD.F                 5:   FEET ABOVE PERMANENT DATUM
 DMF .                 KB:   DRILLING MEASURED FROM
 EKB .F              5289:   KELLING BUSHING
 EGL .F              5284:   GROUND LEVEL
 DATE.          8-17-1966:   RUN DATE
 RUN .                  1:   RUN NUMBER
 DD  .F              1335:   DEPTH DRILLER
 DL  .F              1335:   DEPTH LOGGER
 BLI .F              1334:   BOTTOM LOG INTERVAL
 TLI .F                50:   TOP LOG INTERVAL
 CS  .IN            8.625:   CASING SIZE
 CBD .F                10:   CASING BOTTOM DRILLER
 BS  .IN            7.875:   BIT SIZE
 BSD .F              1335:   BIT SIZE AT DEPTH
 DFT .           GEL-CHEM:   DRILLING FLUID TYPE
 DFD .                9.3:   DRILLING FLUID DENSITY
 DFV .                 50:   DRILLING FLUID VISCOSITY
 MSS .          FLOW LINE:   MUD SAMPLE SOURCE
 RMS .OHMM           1.38:   RESISTIVITY MUD SAMPLE
 MST .F                80:   MUD SAMPLE TEMPERATURE
 RMF .OHMM           1.09:   RESISTIVITY MUD FILTRATE SAMPLE
 MFST.F                77:   MUD FILTRATE SAMPLE TEMPERATURE
 MFSS.                  M:   MUD FILTRATE SAMPLE SOURCE
 RMB .OHMM           1.70:   RESISTIVITY MUD AT BHT
 BHT .F               108:   BOTTOM HOLE TEMPERATURE
 TCS .HRS               1:   TIME CURCULATED STOPPED
 MRT .F               108:   MAXIMUM RECORDED TEMPERATURE
 LUN .               4507:   LOGGING UNIT NUMBER
 LUL .               CSPR:   LOGGING UNIT LOCATION
 ENGI.            MANGOLD:   RECORDING ENGINEER
 WITN.                MAY:   WITNESSED BY
 CLNT.            A2DTECH:   CLIENT CODE
 ORIG.       2", 5" PRINT:   ORIGIN OF DATA
 UWI .       490250958900:   UNIQUE WELL ID
 DICO. A2D Technologies, Inc.:   DIGITIZING COMPANY
~OTHER INFORMATION
~A   DEPT       GRD      CALD       RHOB       DPOR       DRHO        ASN        ILD       CILD        SPR   
# ...
  600.0000   108.3313     8.4612     2.5106     0.0891     0.0680     5.6641     4.9479   208.6522   -44.5293
  600.5000   111.1177     8.4628     2.5164     0.0926     0.0569     5.6549     4.9872   208.0437   -44.4551
  601.0000   108.9660     8.4643     2.4819     0.0964     0.0456     5.6457     5.0266   206.6322   -44.3809
  601.5000   106.3358     8.4621     2.4753     0.1017     0.0347     5.6370     5.0659   205.0789   -44.3066
  602.0000   104.2814     8.4562     2.4709     0.1077     0.0291     5.6456     5.1052   203.5257   -44.1969
  602.5000   106.8991     8.4503     2.4718     0.1038     0.0486     5.6940     5.1445   201.9724   -44.0142
  603.0000   106.6635     8.4444     2.4805     0.0988     0.0243     5.7419     5.1838   200.4191   -43.8615
  603.5000   108.6082     8.4395     2.4873     0.0971     0.0271     5.7894     5.2232   198.8584   -43.8938
  604.0000   110.5577     8.4345     2.4782     0.1036     0.0335     5.8207     5.2625   197.2568   -43.9230
  604.5000   112.3057     8.4295     2.4845     0.1007     0.0400     5.7560     5.3018   195.6552   -43.9516
  605.0000   108.8713     8.4244     2.4944     0.0977     0.0465     5.6924     5.3414   194.0536   -43.9802
  605.5000   105.1046     8.4194     2.5044     0.0924     0.0532     5.6300     5.3805   192.4520   -44.0088
  606.0000   103.2704     8.4144     2.5162     0.0813     0.0587     5.6131     5.3995   191.8107   -44.0373
  606.5000   104.9668     8.4094     2.4977     0.0908     0.0641     5.6733     5.3201   195.1341   -44.0659
  607.0000   102.5944     8.4046     2.4799     0.1008     0.0565     5.7267     5.2452   201.8338   -44.0945
  607.5000   100.2439     8.4014     2.4613     0.1096     0.0480     5.6613     5.0064   209.8908   -44.1231
  608.0000    99.0570     8.3981     2.4556     0.1130     0.0398     5.5075     4.6748   226.6931   -44.1516
  608.5000    99.9048     8.3948     2.4596     0.1127     0.0420     5.3330     4.3411   256.4595   -44.1803
  609.0000   102.6152     8.3915     2.4455     0.1257     0.0491     5.0536     4.0073   286.2259   -44.2091
  609.5000   105.3081     8.3882     2.4184     0.1416     0.0562     4.7874     3.6736   315.9922   -44.2370
  610.0000   107.5216     8.3849     2.3911     0.1575     0.0527     4.2966     3.3398   343.0873   -44.2359
  610.5000   109.4038     8.3815     2.3637     0.1722     0.0421     3.7824     3.0052   366.9999   -44.1447
  611.0000   110.6868     8.3783     2.3325     0.1862     0.0496     3.3521     2.6734   386.3839   -44.0577
  611.5000   108.9706     8.3750     2.3536     0.1947     0.0574     3.2812     2.5858   399.7021   -43.9707
  612.0000   107.3116     8.3716     2.3822     0.1662     0.0665     3.3473     2.5310   396.7229   -43.8838
  612.5000   111.5122     8.3683     2.4079     0.1472     0.0744     3.3001     2.7343   378.3515   -43.7968
  613.0000   109.0127     8.3650     2.4182     0.1347     0.0503     3.2942     2.9668   359.9801   -43.7098
  613.5000   105.1593     8.3617     2.4694     0.1221     0.0583     3.5460     3.2743   335.7774   -43.6225
  614.0000   101.4984     8.3584     2.4899     0.1094     0.0750     3.8001     3.6192   309.1439   -43.5359
  614.5000   102.2874     8.3551     2.4806     0.1095     0.0614     4.0533     3.9642   282.5103   -43.4765
  615.0000   101.0346     8.3519     2.4747     0.1138     0.0390     4.3063     4.3098   255.8767   -43.5551
  615.5000   102.9879     8.3490     2.4688     0.1199     0.0358     4.5595     4.6569   229.2432   -43.6315
  616.0000   105.0839     8.3425     2.4628     0.1234     0.0483     4.8134     5.0022   209.5659   -43.7075
  616.5000   102.6544     8.2646     2.4578     0.1091     0.0570     5.0681     5.0795   202.1936   -43.7834
  617.0000   100.1008     8.1849     2.4703     0.1059     0.0660     5.2298     5.1430   196.2207   -43.8594
  617.5000    99.2299     8.1297     2.4831     0.1009     0.0779     5.3893     5.2079   191.2612   -43.9353
  618.0000   102.4121     8.2607     2.4958     0.0935     0.0712     5.5497     5.2732   186.2562   -44.0113
  618.5000   105.8091     8.3828     2.5014     0.0922     0.0608     5.7075     5.3385   181.2512   -44.0872
  619.0000   109.2271     8.3859     2.4987     0.0946     0.0496     5.7920     5.4037   176.6322   -44.1632
  619.5000   112.3728     8.3832     2.5114     0.0829     0.0671     5.8720     5.4690   173.5338   -44.2391
  620.0000   112.4629     8.3783     2.5072     0.0850     0.0892     6.0020     5.5345   170.4355   -44.3151
  620.5000   113.2293     8.3735     2.5024     0.0870     0.1021     6.1412     5.6005   167.3372   -44.3910
  621.0000   114.4562     8.3687     2.5078     0.0866     0.0615     6.2809     5.6104   164.3495   -44.4671
  621.5000   113.3764     8.3640     2.5151     0.0817     0.0717     6.4198     5.5901   162.8685   -44.5427
  622.0000   109.4303     8.3592     2.4986     0.0903     0.0626     6.5314     5.5420   164.2519   -44.6195
  622.5000   106.4622     8.3546     2.4934     0.0976     0.0519     6.5058     5.4944   167.1715   -44.5928
  623.0000   106.8417     8.3506     2.5010     0.0926     0.0465     6.4232     5.4467   171.0037   -44.4840
  623.5000   106.5608     8.3394     2.4948     0.0952     0.0729     6.3250     5.3991   177.3562   -44.3743
  624.0000   106.4210     8.2200     2.5125     0.0849     0.0921     6.1530     5.3514   183.7086   -44.2644
  624.5000   109.4676     8.1030     2.4867     0.0985     0.1093     5.9860     5.3042   190.0611   -44.1547
  625.0000   106.5971     7.9886     2.4748     0.1062     0.0981     5.8193     5.2569   196.4136   -44.0449
  625.5000   102.4196     7.9140     2.4673     0.1091     0.0939     5.6526     5.1750   203.4260   -43.9352
  626.0000   106.6876     7.9487     2.4557     0.1119     0.0986     5.4865     4.8394   215.9384   -43.8254
  626.5000   105.1640     7.9810     2.4374     0.1148     0.1033     5.2862     4.4993   229.9341   -43.7156
  627.0000   103.7135     8.0135     2.4458     0.1179     0.0970     5.0132     4.1601   254.5039   -43.6059
  627.5000   102.2453     8.0460     2.4547     0.1273     0.0841     4.7407     3.8208   279.0738   -43.4961
  628.0000   100.8850     8.0786     2.4312     0.1402     0.0711     4.4685     3.4800   303.6436   -43.3864
  628.5000   106.5340     8.1116     2.4077     0.1527     0.0581     4.1958     3.1394   328.4560   -43.2766
  629.0000   114.3991     8.1431     2.3885     0.1597     0.0511     3.9213     3.0155   333.1120   -43.1667
  629.5000   112.1965     8.0796     2.4012     0.1529     0.0578     3.6688     2.9039   329.4114   -43.0567
  630.0000   108.4792     8.0078     2.4184     0.1476     0.0617     3.8253     2.9111   325.4433   -42.9491
  630.5000   105.1381     8.2865     2.4455     0.1209     0.0484     3.9511     3.1365   322.2443   -42.9106
  631.0000   103.9805     8.4398     2.4724     0.1035     0.0388     3.7492     3.3851   318.2721   -43.0529
  631.5000   101.6983     8.4397     2.4964     0.0939     0.0487     3.6425     3.6521   290.4560   -43.1916
  632.0000    99.3640     8.4366     2.5189     0.0801     0.0581     4.1488     3.9191   260.3214   -43.3306
  632.5000    98.7920     8.4329     2.5020     0.0898     0.0646     4.5207     4.1861   230.2017   -43.4696
  633.0000    99.5227     8.4294     2.4742     0.1021     0.0445     4.7855     4.4529   214.1336   -43.6090
  633.5000   100.2732     8.4258     2.4811     0.1052     0.0327     4.8958     4.7225   202.3138   -43.7475
  634.0000   101.0281     8.4289     2.4916     0.0945     0.0398     4.9677     4.8149   199.9786   -43.8440
  634.5000   101.7760     8.4353     2.4940     0.0977     0.0464     5.0141     4.8159   204.2136   -43.7149
  635.0000   102.5395     8.4418     2.4748     0.1029     0.0527     5.0153     4.8240   208.4485   -43.5892
  635.5000   101.8230     8.4482     2.4680     0.1071     0.0480     5.0152     4.7038   208.0422   -43.4641
  636.0000   100.2650     8.4547     2.4833     0.1003     0.0269     5.0137     4.5663   206.8872   -43.3391
