~VERSION INFORMATION
 VERS.                2.0:   CWLS LOG ASCII STANDARD - VERSION 2.0
 WRAP.                 NO:   ONE LINE PER DEPTH STEP
~WELL INFORMATION
#MNEM.UNIT      DATA TYPE    INFORMATION
#----------   ------------   ------------------------------
 STRT.F           34.0000:   START DEPTH
 STOP.F          638.0000:   STOP DEPTH
 STEP.F            0.5000:   STEP LENGTH
 NULL.          -999.2500:   NO VALUE
 COMP. FENIX & SCISSON INC:   COMPANY
 WELL. S N.P.R. #3 #33-34:   WELL
 FLD .             TEAPOT:   FIELD
 LOC .      S34 T39N R78W:   LOCATION
 CNTY.            NATRONA:   COUNTY
 STAT.            WYOMING:   STATE
 CTRY. UNITED STATES OF AMERICA:   COUNTRY
 SRVC.       Schlumberger:   SERVICE COMPANY
 DATE.        18-MAR-1977:   LOGDATE
 API .       490251030400:   API NUMBER
~CURVE INFORMATION
#MNEM.UNIT       API CODE    CURVE DESCRIPTION
#----------   ------------   ------------------------------
 DEPT.F                  :   
 LL8 .OHMM   07 220 08 00:   LATEROLOG-8 RES.
 ILD .OHMM   07 120 46 00:   INDUCTION LOG DEEP
 ILM .OHMM   07 120 44 00:   INDUCTION LOG MEDIUM
 SPR .MV     07 010 01 00:   SPONTANEOUS POTENTIAL
 GRD .GAPI   45 310 01 00:   GAMMA RAY FROM DENSITY LOG
 CALD.IN     45 280 60 00:   CALIPER FROM DENSITY LOG
 RHOB.G/C3   45 350 01 00:   BULK DENSITY
 CORR.G/C3   45 356 01 00:   DENSITY CORRECTION
 DPHI.DEC    45 890 12 00:   DENSITY POROSITY SANDSTONE
~PARAMETER INFORMATION
#MNEM.UNIT          VALUE    DESCRIPTION
#----------   ------------   ------------------------------
 PD  .                 GL:   PERMANENT DATUM
 EPD .F              5081:   ELEVATION PERMANENT DATUM
 LMF .                 KB:   LOG MEASURED FROM
 DAPD.F                 5:   FEET ABOVE PERMANENT DATUM
 DMF .                 KB:   DRILLING MEASURED FROM
 EKB .F              5086:   KELLING BUSHING
 EGL .F              5081:   GROUND LEVEL
 DATE.            3-18-77:   RUN DATE
 RUN .                  1:   RUN NUMBER
 DD  .F               631:   DEPTH DRILLER
 DL  .F               637:   DEPTH LOGGER
 BLI .F               631:   BOTTOM LOG INTERVAL
 TLI .F                45:   TOP LOG INTERVAL
 CS  .IN            8.625:   CASING SIZE
 CBD .F                40:   CASING BOTTOM DRILLER
 CBL .F                45:   CASING BOTTOM LOGGER
 BS  .IN            7.875:   BIT SIZE
 BSD .F               631:   BIT SIZE AT DEPTH
 DFT .            KCL MUD:   DRILLING FLUID TYPE
 DFD .                8.7:   DRILLING FLUID DENSITY
 DFV .                 31:   DRILLING FLUID VISCOSITY
 DFPH.                  8:   DRILLING FLUID PH
 DFL .                8.2:   DRILLING FLUID LOSS
 MSS .                PIT:   MUD SAMPLE SOURCE
 RMS .OHMM            .27:   RESISTIVITY MUD SAMPLE
 MST .F                60:   MUD SAMPLE TEMPERATURE
 RMF .OHMM            .25:   RESISTIVITY MUD FILTRATE SAMPLE
 MFST.F                60:   MUD FILTRATE SAMPLE TEMPERATURE
 MFSS.                  M:   MUD FILTRATE SAMPLE SOURCE
 TCS .HRS            0400:   TIME CURCULATED STOPPED
 TLAB.HRS            0530:   TIME LOGGER AT BOTTOM
 LUN .               7711:   LOGGING UNIT NUMBER
 LUL .               CSPR:   LOGGING UNIT LOCATION
 ENGI.             SAYLER:   RECORDING ENGINEER
 WITN.         STUEBINGER:   WITNESSED BY
 CLNT.            A2DTECH:   CLIENT CODE
 ORIG.        2" 5" PRINT:   ORIGIN OF DATA
 UWI .       490251030400:   UNIQUE WELL ID
 DICO. A2D Technologies, Inc.:   DIGITIZING COMPANY
~OTHER INFORMATION
~A   DEPT      LL8        ILD        ILM        SPR         GRD      CALD       RHOB       CORR       DPHI   
# ...
  253.0000    11.2561    11.7734    11.4537   -43.9604    92.9307     8.2327     2.4758     0.0184     0.1066
  253.5000    11.0488    11.5599    11.2463   -43.8830    94.7341     8.2336     2.4670     0.0157     0.1122
  254.0000    10.8454    11.4190    11.1092   -43.8057    95.9891     8.2344     2.4652     0.0181     0.1115
  254.5000    10.6456    11.3569    11.0482   -43.7283    97.1901     8.2352     2.4632     0.0164     0.1123
  255.0000    10.5397    11.2953    10.9882   -43.6510    98.2712     8.2360     2.4623     0.0126     0.1127
  255.5000    10.5139    11.2339    10.9285   -43.5737    99.2200     8.2366     2.4719     0.0193     0.1092
  256.0000    10.4750    11.1729    10.8691   -43.4963    99.2252     8.2366     2.4822     0.0267     0.1033
  256.5000    10.4362    11.1122    10.8101   -43.4190    97.7441     8.2366     2.4925     0.0341     0.0975
  257.0000    10.3976    11.0518    10.7513   -43.3416    97.0932     8.2366     2.5032     0.0407     0.0917
  257.5000    10.3591    10.9918    10.6929   -43.2642    97.5194     8.2366     2.5054     0.0396     0.0865
  258.0000    10.3207    10.9321    10.6348   -43.1871    98.2084     8.2366     2.4969     0.0320     0.0862
  258.5000    10.2825    10.8727    10.5771   -43.1094    98.9293     8.2366     2.4878     0.0243     0.1046
  259.0000    10.2412    10.8136    10.5196   -43.0257    99.6679     8.2366     2.4814     0.0202     0.1045
  259.5000    10.1893    10.7549    10.4625   -43.1793    99.7632     8.2366     2.4807     0.0170     0.1030
  260.0000    10.1376    10.6965    10.4056   -43.3965    98.2707     8.2366     2.4743     0.0132     0.1063
  260.5000    10.0862    10.6383    10.3491   -43.6161    96.6751     8.2366     2.4664     0.0089     0.1110
  261.0000    10.0350    10.5806    10.2929   -43.8354    95.5795     8.2366     2.4581     0.0045     0.1139
  261.5000     9.9841    10.5231    10.2369   -44.0541    95.1219     8.2366     2.4620     0.0042     0.1148
  262.0000     9.9337    10.4659    10.1814   -44.2368    94.8243     8.2366     2.4693     0.0063     0.1136
  262.5000     9.8834    10.4355    10.1518   -44.3379    96.8907     8.2366     2.4768     0.0083     0.1124
  263.0000     9.9245    10.4226    10.1392   -44.4389    99.2901     8.2366     2.4844     0.0104     0.1066
  263.5000     9.9657    10.4097    10.1267   -44.5399   101.6527     8.2366     2.4935     0.0124     0.0922
  264.0000    10.0072    10.3968    10.1142   -44.6410   103.8432     8.2366     2.4973     0.0122     0.0922
  264.5000    10.0490    10.3841    10.1016   -44.7420   105.5038     8.2366     2.4850     0.0109     0.0999
  265.0000    10.0910    10.3713    10.0891   -44.8444   104.9084     8.2366     2.4719     0.0062     0.1079
  265.5000    10.1540    10.3588    10.0767   -44.9492   103.3384     8.2366     2.4589     0.0007     0.1153
  266.0000    10.0934    10.3309    10.0545   -44.9663   101.5931     8.2366     2.4502     0.0014     0.1192
  266.5000     9.9190    10.2341     9.9857   -44.7932   100.4050     8.2366     2.4486     0.0051     0.1210
  267.0000     9.7476    10.1381     9.9174   -44.2921   101.8110     8.2366     2.4550     0.0098     0.1196
  267.5000     9.5792    10.0431     9.8496   -43.8001   103.4823     8.2366     2.4596     0.0145     0.1182
  268.0000     9.4350     9.9489     9.7822   -43.3956   104.9622     8.2366     2.4473     0.0081     0.1247
  268.5000     9.4177     9.8556     9.7153   -43.3276   104.7280     8.2366     2.4439     0.0003     0.1221
  269.0000     9.4004     9.7632     9.6489   -43.2458   104.6408     8.2366     2.4601     0.0021     0.1177
  269.5000     9.3827     9.6025     9.5829   -43.1631   104.2396     8.2366     2.4676     0.0007     0.1150
  270.0000     9.3647     9.3085     9.4893   -43.0811   102.6971     8.2366     2.4455    -0.0036     0.1230
  270.5000     9.3528     9.0233     9.2257   -42.9990   101.4134     8.2366     2.4363    -0.0022     0.1243
  271.0000     9.1129     8.7474     8.9694   -42.9168   100.7435     8.2366     2.4447     0.0038     0.1207
  271.5000     8.8634     8.4804     8.7206   -42.8330   100.4076     8.2366     2.4532     0.0042     0.1174
  272.0000     8.6206     8.2215     8.4781   -42.8147   101.2787     8.2366     2.4555     0.0057     0.1166
  272.5000     8.3848     7.9835     8.2241   -42.8145   104.2076     8.2366     2.4578     0.0125     0.1161
  273.0000     8.1557     7.8400     8.0869   -42.8149   106.9879     8.2366     2.4690     0.0233     0.1111
  273.5000     7.9274     7.6413     7.9274   -42.8664   108.7460     8.2366     2.4808     0.0364     0.1031
  274.0000     7.9274     7.6413     7.8549   -42.9629   109.5347     8.2366     2.4855     0.0359     0.0998
  274.5000     8.0297     7.7326     7.8746   -43.0595   108.9058     8.2366     2.4843     0.0258     0.1018
  275.0000     8.3146     7.9162     8.0666   -43.1565   107.6033     8.2366     2.4824     0.0285     0.1030
  275.5000     8.6096     8.1041     8.2632   -43.2535   105.2013     8.2366     2.4738     0.0252     0.1065
  276.0000     8.9150     8.2965     8.4646   -43.3504   101.6684     8.2366     2.4618     0.0167     0.1100
  276.5000     9.2312     8.4935     8.6709   -43.4473    98.1173     8.2366     2.4649     0.0141     0.1114
  277.0000     9.4394     8.6952     8.8823   -43.5443    95.3585     8.2366     2.4709     0.0148     0.1076
  277.5000     9.5265     8.9016     9.0988   -43.6412    95.1304     8.2366     2.4769     0.0156     0.1057
  278.0000     9.6144     9.1827     9.4394   -43.7382    95.0527     8.2366     2.4801     0.0092     0.1062
  278.5000     9.4754     9.0887     9.3714   -43.8355    94.7195     8.2366     2.4775     0.0065     0.1033
  279.0000     9.3190     8.9512     9.2296   -43.9322    94.2941     8.2366     2.4754     0.0068     0.1049
  279.5000     9.1657     8.8157     9.0899   -44.0071    93.8430     8.2366     2.4769     0.0094     0.1058
  280.0000     8.9325     8.6823     8.9523   -43.9439    92.9033     8.2366     2.4872     0.0141     0.1009
  280.5000     8.9347     8.5508     8.8168   -43.8817    91.9070     8.2366     2.4936     0.0184     0.0938
  281.0000     8.9356     8.4540     8.6902   -43.8202    90.9008     8.2366     2.4896     0.0186     0.0974
  281.5000     8.8514     8.4537     8.6902   -43.7586    90.2999     8.2366     2.4833     0.0146     0.1032
  282.0000     8.9507     8.4542     8.6902   -43.6967    91.0154     8.2366     2.4755     0.0099     0.1090
  282.5000     9.0309     8.5375     8.7593   -43.6346    92.6159     8.2366     2.4608     0.0058     0.1148
  283.0000     9.1119     8.6178     8.8419   -43.5413    95.3908     8.2366     2.4546     0.0111     0.1154
  283.5000     9.1936     8.6990     8.9253   -43.4263    98.1424     8.2366     2.4658     0.0163     0.1099
  284.0000     9.2761     8.7810     9.0094   -43.3107    98.6175     8.2366     2.4767     0.0150     0.1054
  284.5000     9.3593     8.8639     9.0944   -43.1946    97.9512     8.2366     2.4804     0.0210     0.1038
  285.0000     9.4432     8.9474     9.1802   -43.0788    97.0355     8.2366     2.4802     0.0126     0.1034
  285.5000     9.5265     9.0318     9.2666   -42.9628    97.3067     8.2366     2.4795     0.0112     0.1038
  286.0000     9.4863     9.0988     9.3537   -42.8439    97.7620     8.2366     2.4788     0.0150     0.1022
  286.5000     9.4470     9.0683     9.3319   -42.8042    98.3508     8.2366     2.4742     0.0110     0.1010
  287.0000     9.4077     9.0188     9.2809   -42.7885    98.9429     8.2366     2.4677     0.0046     0.1106
  287.5000     9.3687     8.9693     9.2302   -42.7738    99.5298     8.2366     2.4668     0.0096     0.1114
  288.0000     9.3365     8.9201     9.1796   -42.7590    99.9087     8.2366     2.4782     0.0157     0.1032
  288.5000     9.3090     8.8712     9.1293   -42.7441    99.3371     8.2366     2.4831     0.0124     0.1002
  289.0000     9.2816     8.8368     9.0888   -42.7291    99.0385     8.2366     2.4761     0.0087     0.1063
