~VERSION INFORMATION
 VERS.                2.0:   CWLS LOG ASCII STANDARD - VERSION 2.0
 WRAP.                 NO:   ONE LINE PER DEPTH STEP
~WELL INFORMATION
#MNEM.UNIT      DATA TYPE    INFORMATION
#----------   ------------   ------------------------------
 STRT.F           66.0000:   START DEPTH
 STOP.F          892.0000:   STOP DEPTH
 STEP.F            0.5000:   STEP LENGTH
 NULL.          -999.2500:   NO VALUE
 COMP. LAWRENCE/ALLISON INC:   COMPANY
 WELL. NPR #3 #31-11 SX 2:   WELL
 FLD .             TEAPOT:   FIELD
 LOC .       S2 T38N R78W:   LOCATION
 CNTY.            NATRONA:   COUNTY
 STAT.            WYOMING:   STATE
 CTRY. UNITED STATES OF AMERICA:   COUNTRY
 SRVC.      Dresser Atlas:   SERVICE COMPANY
 DATE.        10-AUG-1985:   LOGDATE
 API .       490251103900:   API NUMBER
~CURVE INFORMATION
#MNEM.UNIT       API CODE    CURVE DESCRIPTION
#----------   ------------   ------------------------------
 DEPT.F                  :   
 PORD.DEC    45 890 12 00:   POROSITY DENSITY SANDSTONE
 CNC .DEC    42 890 03 00:   NEUTRON POROSITY SANDSTONE
 CORR.G/C3   45 356 01 00:   DENSITY CORRECTION
 DEN .G/C3   45 350 01 00:   COMPENSATED BULK DENSTIY
 CALD.IN     45 280 60 00:   CALIPER FROM DENSITY LOG
 SPR .MV     07 010 01 00:   SPONTANEOUS POTENTIAL
 RILD.OHMM   07 120 46 00:   INDUCTION LOG DEEP RESISTIVITY
 RILM.OHMM   07 120 44 00:   INDUCTION LOG MEDIUM RESISTIVITY
 RFOC.OHMM   07 220 04 00:   RESISTIVITY FOCUSED LOG
~PARAMETER INFORMATION
#MNEM.UNIT          VALUE    DESCRIPTION
#----------   ------------   ------------------------------
 PD  .                 GL:   PERMANENT DATUM
 EPD .F              5110:   ELEVATION PERMANENT DATUM
 LMF .                 GL:   LOG MEASURED FROM
 DMF .                 GL:   DRILLING MEASURED FROM
 EKB .F              5115:   KELLING BUSHING
 EGL .F              5110:   GROUND LEVEL
 DATE.        10-AUG-1985:   RUN DATE
 RUN .                  1:   RUN NUMBER
 DD  .F               899:   DEPTH DRILLER
 DL  .F               895:   DEPTH LOGGER
 BLI .F               892:   BOTTOM LOG INTERVAL
 CS  .IN            8.625:   CASING SIZE
 CBD .F                75:   CASING BOTTOM DRILLER
 CBL .F                78:   CASING BOTTOM LOGGER
 BS  .IN            7.875:   BIT SIZE
 BSD .F               899:   BIT SIZE AT DEPTH
 DFT .                KCL:   DRILLING FLUID TYPE
 MSS .           FLOWLINE:   MUD SAMPLE SOURCE
 RMS .OHMM            .21:   RESISTIVITY MUD SAMPLE
 MST .F                75:   MUD SAMPLE TEMPERATURE
 TCS .HRS            0200:   TIME CURCULATED STOPPED
 MRT .F               100:   MAXIMUM RECORDED TEMPERATURE
 LUN .               6274:   LOGGING UNIT NUMBER
 LUL .               GLTE:   LOGGING UNIT LOCATION
 ENGI.             RAUTIO:   RECORDING ENGINEER
 WITN.        LINDA FIVAS:   WITNESSED BY
 CLNT.            A2DTECH:   CLIENT CODE
 ORIG.           5" PRINT:   ORIGIN OF DATA
 UWI .       490251103900:   UNIQUE WELL ID
 DICO. A2D Technologies, Inc.:   DIGITIZING COMPANY
~OTHER INFORMATION
~A   DEPT     PORD        CNC       CORR        DEN       CALD        SPR       RILD       RILM       RFOC   
# ...
  285.0000     0.1612     0.2606     0.0232     2.4011     7.9908   -70.6208    18.3307    18.4092    15.5267
  285.5000     0.1648     0.2618     0.0322     2.3854     7.9900   -70.9292    18.5881    18.6712    16.2869
  286.0000     0.1709     0.2811     0.0261     2.3808     7.9891   -70.9350    18.3307    18.5453    15.5122
  286.5000     0.1763     0.3106     0.0125     2.3763     8.0035   -70.9421    18.0769    18.2814    14.4691
  287.0000     0.1806     0.2962     0.0065     2.3544     8.0024   -70.9478    17.5797    17.7931    14.2650
  287.5000     0.1929     0.2714     0.0049     2.3362     7.9864   -70.1972    16.9774    17.3084    14.9816
  288.0000     0.2026     0.2630     0.0064     2.3280     7.9854   -68.9926    16.6260    16.7192    14.3687
  288.5000     0.2092     0.2714     0.0063     2.3288     7.9844   -67.9254    16.1687    16.1500    13.3094
  289.0000     0.2083     0.2859     0.0078     2.3332     7.9837   -67.0388    15.7240    15.6963    12.6764
  289.5000     0.2065     0.3073     0.0201     2.3385     7.9979   -66.5907    15.2916    15.1752    12.4144
  290.0000     0.2034     0.3212     0.0333     2.3455     7.9819   -65.9913    15.0798    14.9682    12.5884
  290.5000     0.1983     0.3218     0.0408     2.3520     7.9809   -65.5431    14.8710    14.7633    12.7649
  291.0000     0.1941     0.3179     0.0428     2.3542     7.9952   -64.6427    14.6651    14.5626    12.6764
  291.5000     0.1932     0.3078     0.0352     2.3527     8.0094   -64.7997    14.5534    14.4644    12.6764
  292.0000     0.1938     0.2886     0.0307     2.3526     8.0237   -64.9567    14.4620    14.3668    12.4121
  292.5000     0.1932     0.2907     0.0277     2.3594     8.0379   -65.4163    14.2617    14.2699    12.0734
  293.0000     0.1911     0.2925     0.0262     2.3631     8.0367   -65.7267    14.1626    14.2735    11.9065
  293.5000     0.1883     0.2877     0.0307     2.3661     8.0511   -66.4883    14.1626    14.1772    11.9065
  294.0000     0.1853     0.2777     0.0547     2.3698     8.0500   -66.7966    14.1626    14.1807    12.0734
  294.5000     0.1829     0.2676     0.0607     2.3736     8.0491   -66.8023    14.2617    14.2827    12.3334
  295.0000     0.1817     0.2711     0.0562     2.3773     8.0482   -67.2619    14.4620    14.5873    12.6764
  295.5000     0.1821     0.2822     0.0366     2.3705     8.0474   -67.8850    14.6651    14.2884    13.0343
  296.0000     0.1868     0.2871     0.0171     2.3644     8.0465   -68.3338    13.9665    13.7994    13.3094
  296.5000     0.1877     0.2870     0.0049     2.3635     8.0456   -68.3396    12.4922    12.6100    12.9439
  297.0000     0.1829     0.2892     0.0005     2.3738     8.0446   -68.6479    10.8662    11.3609    12.5803
  297.5000     0.1666     0.2959     0.0155     2.4102     8.0437   -68.9562     9.9246    10.1646    11.0288
  298.0000     0.1460     0.3000     0.0185     2.4395     8.0428   -69.2648     9.1919     9.3512     9.3318
  298.5000     0.1424     0.2997     0.0155     2.4410     8.0419   -69.5743     8.5068     8.5377     8.2327
  299.0000     0.1473     0.3018     0.0064     2.4312     8.0411   -69.8826     7.4570     7.7512     7.6791
  299.5000     0.1548     0.3130    -0.0056     2.4221     8.0402   -70.3422     7.0525     7.0814     7.3138
  300.0000     0.1578     0.3278    -0.0177     2.4146     8.0549   -69.7428     6.9333     6.8667     7.2017
  300.5000     0.1566     0.3223    -0.0192     2.4153     8.0603   -69.0748     6.7973     6.7332     7.0625
  301.0000     0.1542     0.3190     0.0109     2.4198     8.0657   -68.3999     6.6613     6.6513     6.9186
  301.5000     0.1469     0.3187     0.0455     2.4276     8.0668   -67.8013     6.5294     6.6046     6.7280
  302.0000     0.1358     0.3196     0.0741     2.4446     8.0659   -67.2089     6.3503     6.5583     6.4994
  302.5000     0.1285     0.3211     0.0560     2.4612     8.0648   -66.6123     6.3943     6.2458     6.3654
  303.0000     0.1242     0.3238     0.0033     2.4739     8.0639   -66.1649     6.3054     6.3772     7.2157
  303.5000     0.1255     0.3268    -0.0073     2.4687     8.0631   -65.7218     6.1744     6.1584     7.7905
  304.0000     0.1300     0.3206     0.0005     2.4626     8.0622   -65.4060     6.3045     6.5109     7.9556
  304.5000     0.1360     0.3154     0.0183     2.4536     8.0613   -64.9847     6.4373     6.7884     7.3696
  305.0000     0.1403     0.3166     0.0303     2.4443     8.0602   -64.6907     6.5272     7.0777     6.6392
  305.5000     0.1448     0.3147     0.0363     2.4385     8.0594   -64.3967     6.6185     7.3408     6.9229
  306.0000     0.1473     0.3129     0.0258     2.4332     8.0585   -64.4054     6.7623     7.4305     7.0251
  306.5000     0.1493     0.3081    -0.0104     2.4310     8.0576   -64.2626     6.6638     7.1257     7.1194
  307.0000     0.1469     0.3228    -0.0120     2.4302     8.0568   -64.2734     6.5254     6.9294     6.8764
  307.5000     0.1403     0.3383     0.0203     2.4384     8.0558   -64.2820     6.4796     6.7385     6.6416
  308.0000     0.1339     0.3419     0.0739     2.4505     8.0701   -64.4418     6.4792     6.5528     6.4148
  308.5000     0.1336     0.3380     0.0708     2.4595     8.0692   -65.3603     6.5240     6.7375     6.6426
  309.0000     0.1336     0.3346     0.0543     2.4580     8.0683   -66.1253     6.6153     6.8317     6.7832
  309.5000     0.1318     0.3337     0.0347     2.4572     8.0673   -66.5878     6.7546     6.9270     6.9752
  310.0000     0.1300     0.3370     0.0302     2.4617     8.0665   -66.2935     6.7541     6.9265     7.1726
  310.5000     0.1276     0.3355     0.0362     2.4654     8.0654   -65.9998     6.7536     6.9260     7.4273
  311.0000     0.1254     0.3334     0.0542     2.4684     8.0645   -66.6157     6.7531     6.9255     7.6374
  311.5000     0.1265     0.3304     0.0602     2.4699     8.0636   -67.2294     6.7527     6.9251     7.2243
  312.0000     0.1294     0.3241     0.0542     2.4646     8.0628   -67.5406     6.7522     6.8753     7.0754
  312.5000     0.1282     0.3321     0.0572     2.4661     8.0769   -66.9440     6.6044     6.7337     7.1254
  313.0000     0.1260     0.3455     0.0767     2.4691     8.0761   -66.1983     6.3406     6.5028     7.0273
  313.5000     0.1239     0.3464     0.0782     2.4729     8.0751   -65.7531     6.2524     6.2797     6.8826
  314.0000     0.1267     0.3331     0.0361     2.4691     8.0742   -65.6082     6.1654     6.1924     6.8352
  314.5000     0.1290     0.3207     0.0135     2.4646     8.0733   -65.6190     6.2517     6.1920     6.8835
  315.0000     0.1293     0.3144     0.0043     2.4653     8.0723   -65.6278     6.4279     6.1485     6.8362
  315.5000     0.1293     0.3070     0.0119     2.4638     8.0866   -65.6383     6.3384     6.1055     6.8368
  316.0000     0.1290     0.2996     0.0330     2.4600     8.0857   -65.6469     6.2502     6.3656     6.8850
  316.5000     0.1321     0.3044     0.0420     2.4442     8.0697   -65.6555     6.2498     6.4545     6.8854
  317.0000     0.1417     0.3210     0.0856     2.4367     8.0688   -65.6641     6.2931     6.5447     6.9975
  317.5000     0.1459     0.3364     0.1217     2.4389     8.0679   -65.6748     6.3810     6.5441     7.6445
  318.0000     0.1426     0.3442     0.1323     2.4569     8.0671   -65.8347     6.4253     6.5896     8.0268
  318.5000     0.1311     0.3357     0.1093     2.4660     8.0662   -65.9946     6.4698     6.5890     7.8614
  319.0000     0.1289     0.3252     0.0465     2.4501     8.0652   -66.3057     6.6060     6.6882     7.4804
  319.5000     0.1388     0.3273     0.0088     2.4298     8.0796   -66.4677     6.7451     6.7742     7.0829
  320.0000     0.1489     0.3276    -0.0062     2.4140     8.0784   -66.4763     6.8394     6.8212     6.9368
  320.5000     0.1562     0.3252    -0.0168     2.4049     8.0776   -66.6362     6.9836     6.9165     7.0347
  321.0000     0.1676     0.3076    -0.0123     2.3982     8.0767   -66.6448     7.1306     7.1114     7.3352
