~VERSION INFORMATION
 VERS.                2.0:   CWLS LOG ASCII STANDARD - VERSION 2.0
 WRAP.                 NO:   ONE LINE PER DEPTH STEP
~WELL INFORMATION
#MNEM.UNIT      DATA TYPE    INFORMATION
#----------   ------------   ------------------------------
 STRT.F           37.5000:   START DEPTH
 STOP.F          525.5000:   STOP DEPTH
 STEP.F            0.5000:   STEP LENGTH
 NULL.          -999.2500:   NO VALUE
 COMP. LAWRENCE/ALLISON INC:   COMPANY
 WELL.    74-11 SX #10-10:   WELL
 FLD .             TEAPOT:   FIELD
 LOC .      S10 T38N R78W:   LOCATION
 CNTY.            NATRONA:   COUNTY
 STAT.            WYOMING:   STATE
 CTRY. UNITED STATES OF AMERICA:   COUNTRY
 SRVC.            Unknown:   SERVICE COMPANY
 DATE.        08-AUG-1984:   LOGDATE
 API .       490251097800:   API NUMBER
~CURVE INFORMATION
#MNEM.UNIT       API CODE    CURVE DESCRIPTION
#----------   ------------   ------------------------------
 DEPT.F                  :   
 CNC .DEC    42 890 03 00:   NEUTRON POROSITY SANDSTONE
 AC  .US/F   60 520 00 00:   ACCOUSTIC
 GRD .GAPI   45 310 01 00:   GAMMA RAY FROM DENSITY LOG
 CALD.IN     45 280 60 00:   CALIPER FROM DENSITY LOG
 CORR.G/C3   45 356 01 00:   DENSITY CORRECTION
 DPHI.DEC    45 890 12 00:   DENSITY POROSITY SANDSTONE
 DEN .G/C3   45 350 01 00:   COMPENSATED BULK DENSTIY
 RILD.OHMM   07 120 46 00:   RESISTIVITY INDUCTION LOG DEEP
 RILM.OHMM   07 120 44 00:   RESISTIVITY INDUCTION LOG MEDIUM
 RFOC.OHMM   07 220 04 00:   RESISTIVITY FOCUSED LOG
 SPR .MV     07 010 01 00:   SPONTANEOUS POTENTIAL FROM RES.
~PARAMETER INFORMATION
#MNEM.UNIT          VALUE    DESCRIPTION
#----------   ------------   ------------------------------
 PD  .                 GL:   PERMANENT DATUM
 EPD .F              5180:   ELEVATION PERMANENT DATUM
 LMF .                 GL:   LOG MEASURED FROM
 DMF .                 GL:   DRILLING MEASURED FROM
 EGL .F              5180:   GROUND LEVEL
 DATE.             8-8-84:   RUN DATE
 RUN .                  1:   RUN NUMBER
 DD  .F               525:   DEPTH DRILLER
 DL  .F               526:   DEPTH LOGGER
 BLI .F               525:   BOTTOM LOG INTERVAL
 TLI .F                42:   TOP LOG INTERVAL
 CS  .IN            9.625:   CASING SIZE
 CBD .F                42:   CASING BOTTOM DRILLER
 CBL .F                42:   CASING BOTTOM LOGGER
 BS  .IN            7.875:   BIT SIZE
 BSD .F               525:   BIT SIZE AT DEPTH
 DFT .          KCL WATER:   DRILLING FLUID TYPE
 MSS .           FLOWLINE:   MUD SAMPLE SOURCE
 RMS .OHMM           .141:   RESISTIVITY MUD SAMPLE
 MST .F                78:   MUD SAMPLE TEMPERATURE
 RMF .OHMM            .12:   RESISTIVITY MUD FILTRATE SAMPLE
 MFST.F                78:   MUD FILTRATE SAMPLE TEMPERATURE
 RMC .OHMM             .2:   RESISTIVITY MUD CAKE
 MCST.F                78:   MUD CAKE SAMPLE TEMPERATURE
 MFSS.               MEAS:   MUD FILTRATE SAMPLE SOURCE
 MCSS.               MEAS:   MUD CAKE SAMPLE SOURCE
 RMB .OHMM            .13:   RESISTIVITY MUD AT BHT
 BHT .F                89:   BOTTOM HOLE TEMPERATURE
 MRT .F                89:   MAXIMUM RECORDED TEMPERATURE
 LUN .               6307:   LOGGING UNIT NUMBER
 LUL .               GLTE:   LOGGING UNIT LOCATION
 ENGI.            JOHNSON:   RECORDING ENGINEER
 WITN.              FIVAS:   WITNESSED BY
 CLNT.            A2DTECH:   CLIENT CODE
 ORIG.           5" PRINT:   ORIGIN OF DATA
 UWI .       490251097800:   UNIQUE WELL ID
 DICO. A2D Technologies, Inc.:   DIGITIZING COMPANY
~OTHER INFORMATION
~A   DEPT      CNC         AC        GRD       CALD       CORR       DPHI        DEN       RILD       RILM       RFOC        SPR   
# ...
  281.5000     0.3028    96.1270    72.1660     8.0660     0.0400     0.1870     2.3690    42.8880    14.1590    28.6710   -55.2260
  282.0000     0.3139    95.4630    72.8870     8.0670     0.0500     0.1890     2.3620    40.7970    14.0950    28.8480   -54.9290
  282.5000     0.3142    95.6810    72.7050     8.0680     0.0620     0.1850     2.3660    38.7060    14.0030    29.0420   -54.6320
  283.0000     0.2992    95.8990    72.6930     8.0680     0.0670     0.1790     2.3770    37.2420    13.9110    28.6390   -54.3390
  283.5000     0.2726    95.9720    73.3340     8.0690     0.0670     0.1760     2.3860    38.1120    13.8190    28.1900   -53.9900
  284.0000     0.2663    95.9720    73.9620     8.0700     0.0500     0.1830     2.3800    38.9030    13.6370    27.7420   -53.6280
  284.5000     0.2681    95.9720    74.5910     8.0700     0.0320     0.1890     2.3700    39.6940    13.3650    27.2930   -53.5650
  285.0000     0.2758    95.9720    74.4650     8.0710     0.0170     0.1950     2.3600    40.0890    13.0940    26.9790   -53.7210
  285.5000     0.2789    95.9720    73.2910     8.0710     0.0290     0.1950     2.3530    39.7500    12.7950    27.4860   -53.7220
  286.0000     0.2766    96.1430    73.8400     8.0720     0.0420     0.1940     2.3540    39.4880    12.8200    27.8750   -53.7430
  286.5000     0.2756    96.3360    75.1510     8.0730     0.0550     0.1920     2.3550    39.3580    12.8480    27.9920   -53.8150
  287.0000     0.2818    96.5300    76.4710     8.0730     0.0650     0.1940     2.3560    40.4230    12.8760    27.6780   -53.8900
  287.5000     0.2969    96.7240    77.7420     8.0740     0.0690     0.1960     2.3550    41.2420    12.9130    27.3920   -53.9650
  288.0000     0.2820    96.9170    78.6870     8.0750     0.0590     0.1970     2.3490    41.9790    12.7350    27.1070   -54.0390
  288.5000     0.2791    97.1110    79.6040     8.0750     0.0530     0.1990     2.3440    39.9880    12.4800    26.8210   -54.1130
  289.0000     0.2766    97.3040    79.0530     8.0760     0.0740     0.1980     2.3450    38.1780    12.2250    26.5360   -54.1880
  289.5000     0.2768    97.4980    77.9780     8.0770     0.0920     0.1940     2.3530    36.3680    11.9960    26.2500   -54.2630
  290.0000     0.2886    97.5530    75.6360     8.0770     0.0810     0.1900     2.3610    34.5580    12.4500    25.9650   -54.2180
  290.5000     0.2987    97.4810    74.5950     8.0810     0.0690     0.1890     2.3630    33.6530    12.8630    25.6470   -54.1550
  291.0000     0.3002    97.4080    74.5520     8.0900     0.0640     0.1890     2.3640    33.6530    13.2750    24.9800   -54.0910
  291.5000     0.2887    97.2000    74.5710     8.0960     0.0520     0.1920     2.3600    33.6530    13.6470    24.3490   -54.0270
  292.0000     0.2809    97.2430    76.8650     8.0720     0.0390     0.1950     2.3530    32.1030    13.4000    23.7190   -53.9630
  292.5000     0.2850    97.2850    79.1720     8.0480     0.0460     0.1990     2.3450    30.6940    13.1260    23.0890   -53.8960
  293.0000     0.2878    97.3270    77.2080     8.0230     0.0570     0.1960     2.3500    29.2850    12.8520    22.6480   -53.8160
  293.5000     0.2897    97.3700    75.2050     7.9990     0.0570     0.1920     2.3580    27.7350    12.5780    23.0840   -53.6280
  294.0000     0.2962    97.1490    73.2140     7.9750     0.0510     0.1870     2.3660    28.2740    12.3320    23.2830   -53.4450
  294.5000     0.2998    96.7140    71.4270     7.9510     0.0570     0.1830     2.3730    29.0430    12.9430    22.2350   -53.2640
  295.0000     0.3034    96.2780    71.6400     7.9400     0.0760     0.1850     2.3690    29.5820    13.4990    22.3380   -53.0820
  295.5000     0.3081    96.2350    72.4400     7.9440     0.0910     0.1880     2.3650    29.4380    14.0550    22.4530   -52.9000
  296.0000     0.2752    96.4050    73.8350     7.9480     0.0900     0.1910     2.3610    29.1500    14.5560    22.5680   -52.7180
  296.5000     0.2776    96.5790    75.2200     7.9520     0.0770     0.1920     2.3660    28.8620    14.2810    22.6480   -52.5370
  297.0000     0.2912    96.2870    76.6160     7.9560     0.0640     0.1830     2.3740    28.7760    13.9770    22.4240   -52.3560
  297.5000     0.2998    95.9720    76.9140     7.9580     0.0550     0.1780     2.3840    29.0890    13.6720    22.2350   -52.1760
  298.0000     0.2929    96.3990    76.0540     7.9460     0.0560     0.1810     2.3790    29.3290    13.3980    22.4400   -52.1350
  298.5000     0.2904    97.1320    75.1820     7.9350     0.0570     0.1850     2.3690    29.5700    13.2250    22.8520   -52.3260
  299.0000     0.2871    97.8660    74.9610     7.9240     0.0560     0.1890     2.3640    29.8100    13.1540    23.2630   -52.5110
  299.5000     0.2841    98.6030    74.9250     7.9130     0.0550     0.1900     2.3650    30.0510    13.0840    23.7150   -52.7010
  300.0000     0.2834    98.6030    76.5250     7.9020     0.0580     0.1880     2.3690    30.4110    13.0130    23.6160   -53.1520
  300.5000     0.2809    98.3700    78.8660     7.9000     0.0610     0.1820     2.3740    29.8610    12.9420    23.4750   -53.5860
  301.0000     0.2799    98.0780    82.5750     7.9010     0.0720     0.1790     2.3800    28.7710    12.8710    23.3330   -54.0190
  301.5000     0.2833    97.7940    86.8240     7.9020     0.0830     0.1740     2.3860    27.6800    12.7950    23.1920   -54.4510
  302.0000     0.2873    97.0100    87.1610     7.9030     0.0820     0.1700     2.3920    26.8620    12.5510    22.8580   -54.8830
  302.5000     0.2823    96.2450    83.3950     7.9040     0.0470     0.1710     2.3920    29.3090    12.2190    22.3910   -55.3150
  303.0000     0.2798    95.4800    79.5680     7.9060     0.0440     0.1730     2.3910    31.5870    12.4190    22.0380   -55.7480
  303.5000     0.2742    94.7570    77.0420     7.9070     0.0430     0.1670     2.3970    33.9650    12.6890    21.6850   -56.1810
  304.0000     0.2246    93.0080    77.6440     7.9080     0.0490     0.1480     2.4080    39.9760    12.9590    21.3320   -56.6200
  304.5000     0.2124    91.1130    77.8110     7.9090     0.0530     0.1280     2.4480    45.1890    13.2290    21.0390   -56.4450
  305.0000     0.2062    86.3200    75.3270     7.9100     0.0550     0.1070     2.4880    47.3180    13.3980    23.3350   -56.2380
  305.5000     0.2009    81.8470    68.7840     7.9120     0.0570     0.0860     2.5240    45.3050    12.1730    25.2960   -56.0310
  306.0000     0.2040    77.3740    63.4320     7.9130     0.0470     0.0780     2.5520    41.4230    10.9230    29.5280   -55.8240
  306.5000     0.2197    72.9000    61.1470     7.9140     0.0350     0.0770     2.5540    37.5420     8.9340    37.2690   -55.6170
  307.0000     0.2333    68.0360    61.2800     7.9150     0.0220     0.0960     2.5340    33.6600     9.1730    45.0110   -55.4100
  307.5000     0.2488    66.0120    64.4920     7.9160     0.0270     0.1180     2.4970    29.8560     9.7570    46.4550   -55.2040
  308.0000     0.2721    67.8540    68.4480     7.9180     0.0370     0.1390     2.4620    27.6510    10.5540    37.6380   -54.9970
  308.5000     0.2766    70.0610    72.4270     7.9160     0.0430     0.1540     2.4270    25.4880    11.4780    29.4100   -54.7900
  309.0000     0.2790    78.6290    76.4430     7.9020     0.0430     0.1580     2.4140    23.3260    12.1960    21.1810   -54.5840
  309.5000     0.2901    85.0400    77.9340     7.8880     0.0540     0.1580     2.4150    21.1640    12.5610    19.5450   -54.3780
  310.0000     0.3096    88.2690    77.6370     7.8730     0.0650     0.1590     2.4180    20.6900    12.4710    19.3660   -54.1700
  310.5000     0.3017    91.0750    77.3420     7.8600     0.0770     0.1600     2.4140    20.4520    12.2730    19.3660   -54.0850
  311.0000     0.2936    92.5300    77.0590     7.8660     0.0770     0.1630     2.4090    20.2780    12.0760    19.4980   -54.1170
  311.5000     0.2850    92.8290    75.5540     7.8740     0.0780     0.1650     2.4030    20.7020    11.8780    19.6230   -54.1490
