~VERSION INFORMATION
 VERS.                2.0:   CWLS LOG ASCII STANDARD - VERSION 2.0
 WRAP.                 NO:   ONE LINE PER DEPTH STEP
~WELL INFORMATION
#MNEM.UNIT      DATA TYPE    INFORMATION
#----------   ------------   ------------------------------
 STRT.F           30.0000:   START DEPTH
 STOP.F          480.0000:   STOP DEPTH
 STEP.F            0.5000:   STEP LENGTH
 NULL.          -999.2500:   NO VALUE
 COMP. FENIX & SCISSON INC:   COMPANY
 WELL.   51-SX-10 #NPR-10:   WELL
 FLD .             TEAPOT:   FIELD
 LOC .      S10 T38N R78W:   LOCATION
 CNTY.            NATRONA:   COUNTY
 STAT.            WYOMING:   STATE
 CTRY. UNITED STATES OF AMERICA:   COUNTRY
 SRVC.              Welex:   SERVICE COMPANY
 DATE.        13-MAR-1977:   LOGDATE
 API .       490251031000:   API NUMBER
~CURVE INFORMATION
#MNEM.UNIT       API CODE    CURVE DESCRIPTION
#----------   ------------   ------------------------------
 DEPT.F                  :   
 SGRD.OHMM   07 220 05 00:   SHALLOW GUARD RESISTIVITY
 ILD .OHMM   07 120 46 00:   INDUCTION LOG DEEP
 ILM .OHMM   07 120 44 00:   INDUCTION LOG MEDIUM
 SPR .MV     07 010 01 00:   SPONTANEOUS POTENTIAL
 RHOB.G/C3   45 350 01 00:   BULK DENSITY
 DPOR.DEC    45 890 12 00:   DENSITY POROSITY SANDSTONE
 CORR.G/C3   45 356 01 00:   DENSITY CORRECTION
 GRD .GAPI   45 310 01 00:   GAMMA RAY FROM DENSITY LOG
 CALD.IN     45 280 60 00:   CALIPER FROM DENSITY LOG
~PARAMETER INFORMATION
#MNEM.UNIT          VALUE    DESCRIPTION
#----------   ------------   ------------------------------
 PD  .                 GL:   PERMANENT DATUM
 EPD .F              5216:   ELEVATION PERMANENT DATUM
 LMF .                 GL:   LOG MEASURED FROM
 DMF .                 GL:   DRILLING MEASURED FROM
 EGL .F              5216:   GROUND LEVEL
 DATE.            3-13-77:   RUN DATE
 RUN .                  1:   RUN NUMBER
 DD  .F               490:   DEPTH DRILLER
 DL  .F               485:   DEPTH LOGGER
 BLI .F               483:   BOTTOM LOG INTERVAL
 TLI .F                35:   TOP LOG INTERVAL
 CS  .IN            8.625:   CASING SIZE
 CBD .F                40:   CASING BOTTOM DRILLER
 CBL .F                36:   CASING BOTTOM LOGGER
 BS  .IN            7.875:   BIT SIZE
 BSD .F               490:   BIT SIZE AT DEPTH
 DFT .            KCL MUD:   DRILLING FLUID TYPE
 DFD .                8.9:   DRILLING FLUID DENSITY
 DFV .                 34:   DRILLING FLUID VISCOSITY
 MSS .            MUD PIT:   MUD SAMPLE SOURCE
 RMS .OHMM            .43:   RESISTIVITY MUD SAMPLE
 MST .F                60:   MUD SAMPLE TEMPERATURE
 RMF .OHMM            .37:   RESISTIVITY MUD FILTRATE SAMPLE
 MFST.F                60:   MUD FILTRATE SAMPLE TEMPERATURE
 RMC .OHMM            .47:   RESISTIVITY MUD CAKE
 MCST.F                60:   MUD CAKE SAMPLE TEMPERATURE
 MFSS.           FANN KIT:   MUD FILTRATE SAMPLE SOURCE
 MCSS.           FANN KIT:   MUD CAKE SAMPLE SOURCE
 RMB .OHMM            .40:   RESISTIVITY MUD AT BHT
 BHT .F                63:   BOTTOM HOLE TEMPERATURE
 TCS .HRS             1.5:   TIME CURCULATED STOPPED
 MRT .F                63:   MAXIMUM RECORDED TEMPERATURE
 LUN .               8611:   LOGGING UNIT NUMBER
 LUL .             CASPER:   LOGGING UNIT LOCATION
 ENGI.               DOAK:   RECORDING ENGINEER
 WITN.         STUEBINGER:   WITNESSED BY
 CLNT.            A2DTECH:   CLIENT CODE
 ORIG.       2", 5" PRINT:   ORIGIN OF DATA
 UWI .       490251031000:   UNIQUE WELL ID
 DICO. A2D Technologies, Inc.:   DIGITIZING COMPANY
~OTHER INFORMATION
~A   DEPT     SGRD        ILD        ILM        SPR       RHOB       DPOR        CORR       GRD       CALD   
# ...
  212.5000     8.7537     5.9005     6.3066   -42.2155     2.4779     0.1010     0.0869   139.2281     7.9078
  213.0000     8.9013     5.9977     6.3410   -42.3444     2.4775     0.1018     0.0861   140.3790     7.9104
  213.5000     9.0985     5.8202     6.3755   -42.4738     2.4831     0.0993     0.0852   141.2584     7.9130
  214.0000     9.2998     5.6704     6.3979   -42.6029     2.4801     0.0970     0.0843   141.5350     7.9157
  214.5000     9.5145     5.5244     6.1708   -42.7302     2.4641     0.1064     0.0835   143.4115     7.9183
  215.0000     9.1697     5.3822     5.9808   -42.7923     2.4483     0.1217     0.0817   145.4370     7.9209
  215.5000     7.8751     5.2436     5.7966   -42.7235     2.4324     0.1335     0.0785   147.1229     7.9236
  216.0000     6.7206     5.1086     5.6181   -42.6572     2.4167     0.1430     0.0754   145.5179     7.9262
  216.5000     5.8880     4.9760     5.4451   -42.5905     2.4067     0.1378     0.0731   142.9007     7.9289
  217.0000     8.0582     4.8956     5.2774   -42.5239     2.4193     0.1295     0.0742   140.2717     7.9315
  217.5000     7.5344     4.8956     5.1743   -42.4562     2.4314     0.1236     0.0751   137.6545     7.9341
  218.0000     6.5171     4.9737     5.4888   -42.3192     2.4435     0.1181     0.0761   135.6794     7.9368
  218.5000     9.0745     5.0552     5.7803   -42.0543     2.4556     0.1125     0.0771   137.4330     7.9394
  219.0000     8.9661     5.1388     5.8758   -41.7912     2.4677     0.1070     0.0796   139.6833     7.9420
  219.5000     8.6735     5.3136     5.9754   -41.5280     2.4798     0.1018     0.0821   141.3536     7.9447
  220.0000     8.8513     5.5655     6.2282   -41.2648     2.4839     0.0995     0.0847   140.4073     7.9473
  220.5000     9.3316     5.8290     6.5373   -41.0017     2.4856     0.0974     0.0847   139.2589     7.9499
  221.0000     9.8380     6.1049     6.8617   -40.7385     2.4873     0.0958     0.0844   138.1395     7.9495
  221.5000    10.3718     6.3938     7.2023   -40.4754     2.4865     0.0964     0.0841   138.0988     7.9490
  222.0000    10.8581     6.6964     7.4482   -40.2122     2.4853     0.0971     0.0838   138.1502     7.9485
  222.5000    11.0267     7.0133     7.6224   -39.9486     2.4841     0.0977     0.0835   136.0056     7.9481
  223.0000    11.1772     7.1372     7.8007   -39.6837     2.4856     0.0965     0.0832   133.3569     7.9476
  223.5000    11.2971     7.2083     7.9171   -39.4317     2.4899     0.0937     0.0836   130.6942     7.9471
  224.0000    11.4431     7.2804     7.9331   -39.5018     2.4943     0.0910     0.0849   127.9877     7.9466
  224.5000    11.2671     7.2108     7.9490   -39.5869     2.4986     0.0882     0.0861   127.1506     7.9461
  225.0000    11.0499     7.1417     7.9650   -39.6707     2.5024     0.0882     0.0866   127.3911     7.9456
  225.5000    10.8368     7.0732     7.9842   -39.7540     2.4984     0.0911     0.0848   129.6629     7.9451
  226.0000    10.6279     7.0054     7.8419   -39.8373     2.4851     0.0939     0.0831   132.1649     7.9446
  226.5000    10.4230     6.8980     7.6680   -39.9201     2.4817     0.0967     0.0815   134.6353     7.9441
  227.0000    10.2220     6.6323     7.4981   -39.9995     2.4775     0.0998     0.0798   136.3276     7.9436
  227.5000    10.0250     6.3785     7.3318   -40.2539     2.4698     0.1060     0.0781   135.6818     7.9432
  228.0000     9.8098     6.1342     7.1693   -40.5429     2.4587     0.1127     0.0765   132.2853     7.9427
  228.5000     9.5200     5.8993     7.0104   -40.8329     2.4477     0.1190     0.0750   131.0625     7.9422
  229.0000     9.2387     5.6734     6.8162   -41.1224     2.4366     0.1220     0.0750   132.4821     7.9417
  229.5000     8.9657     5.4561     6.4918   -41.4120     2.4321     0.1240     0.0750   134.2008     7.9412
  230.0000     8.7008     5.2471     6.1832   -41.7020     2.4335     0.1234     0.0772   134.9089     7.9407
  230.5000     8.4438     5.0462     5.8890   -41.9907     2.4340     0.1232     0.0794   135.4052     7.9402
  231.0000     8.1933     4.8717     5.6089   -42.2207     2.4324     0.1248     0.0805   135.9164     7.9397
  231.5000     7.9640     4.7677     5.3417   -42.2182     2.4267     0.1274     0.0791   137.0548     7.9393
  232.0000     6.6050     4.6664     5.0881   -42.0693     2.4126     0.1319     0.0776   140.9307     7.9388
  232.5000     5.3228     4.5896     4.8076   -41.8414     2.4036     0.1366     0.0762   142.2134     7.9383
  233.0000     4.5054     4.7056     5.0811   -41.6094     2.4167     0.1268     0.0754   142.0833     7.9378
  233.5000     6.5982     4.8693     5.4302   -41.2739     2.4485     0.1165     0.0783   141.9295     7.9373
  234.0000     8.7812     5.1232     5.8061   -40.9396     2.4793     0.1061     0.0812   143.0199     7.9368
  234.5000     9.9427     5.3920     6.2071   -40.6061     2.4789     0.1005     0.0824   145.1120     7.9363
  235.0000    10.2446     5.6762     6.6358   -40.2728     2.4768     0.1021     0.0807   146.3207     7.9358
  235.5000    10.5557     5.9727     7.0693   -39.9393     2.4748     0.1039     0.0791   145.4608     7.9353
  236.0000    10.9271     6.2859     7.4978   -39.6050     2.4728     0.1038     0.0794   144.1878     7.9349
  236.5000    10.6677     6.6154     7.8592   -39.2703     2.4758     0.1016     0.0797   142.8997     7.9344
  237.0000    10.3685     6.9623     7.9451   -39.2051     2.4800     0.0995     0.0801   142.5039     7.9339
  237.5000    10.1494     7.0741     8.0320   -39.1861     2.4843     0.0973     0.0804   142.5120     7.9334
  238.0000    10.8570     7.1639     8.1199   -39.1678     2.4885     0.0952     0.0808   143.2204     7.9329
  238.5000    11.3380     7.2804     8.2087   -39.1490     2.4928     0.0930     0.0812   144.8443     7.9324
  239.0000    11.3239     7.3012     8.2985   -39.1301     2.4935     0.0920     0.0816   145.8191     7.9319
  239.5000    11.3142     7.3211     8.3893   -39.1113     2.4935     0.0917     0.0819   144.0765     7.9314
  240.0000    11.3045     7.3411     8.4388   -39.0924     2.4937     0.0914     0.0823   142.3185     7.9310
  240.5000    11.2949     7.3478     8.3582   -39.0735     2.5001     0.0881     0.0827   140.5710     7.9305
  241.0000    11.2852     7.3478     8.3029   -39.0545     2.5026     0.0865     0.0829   138.8389     7.9300
  241.5000    11.2755     7.3478     8.2482   -39.0359     2.5001     0.0876     0.0808   138.1854     7.9292
  242.0000    11.2659     7.3478     8.1939   -39.0354     2.4932     0.0906     0.0786   139.4960     7.9285
  242.5000    11.2562     7.3478     8.1399   -39.0975     2.4855     0.0963     0.0764   139.6176     7.9278
  243.0000    11.2466     7.3478     8.0863   -39.1573     2.4778     0.1019     0.0742   138.3910     7.9271
  243.5000    11.2370     7.3478     8.0582   -39.2170     2.4702     0.1075     0.0730   137.2859     7.9264
  244.0000    11.1109     7.3478     8.0582   -39.2767     2.4649     0.1102     0.0730   138.2308     7.9256
  244.5000    10.9310     7.3478     8.0582   -39.3364     2.4676     0.1094     0.0731   139.3266     7.9249
  245.0000    10.7541     7.3478     8.0582   -39.3961     2.4700     0.1074     0.0765   140.7311     7.9242
  245.5000    10.6287     7.3478     8.0582   -39.4558     2.4757     0.1039     0.0799   142.7508     7.9235
  246.0000    10.8352     7.3478     8.0582   -39.5155     2.4817     0.1004     0.0832   141.9386     7.9227
  246.5000    11.0296     7.3478     8.0582   -39.5752     2.4878     0.0969     0.0850   140.8465     7.9220
  247.0000    11.1307     7.3479     8.0586   -39.6349     2.4859     0.0958     0.0850   139.7389     7.9213
  247.5000    11.0646     7.3495     8.0597   -39.6947     2.4829     0.0972     0.0850   138.6312     7.9206
  248.0000    11.0137     7.3478     8.0582   -39.7533     2.4800     0.0995     0.0850   138.6874     7.9199
  248.5000    10.9634     7.1646     7.8609   -39.8059     2.4770     0.1017     0.0850   140.2819     7.9191
