~VERSION INFORMATION
 VERS.                2.0:   CWLS LOG ASCII STANDARD - VERSION 2.0
 WRAP.                 NO:   ONE LINE PER DEPTH STEP
~WELL INFORMATION
#MNEM.UNIT      DATA TYPE    INFORMATION
#----------   ------------   ------------------------------
 STRT.F          350.0000:   START DEPTH
 STOP.F         2259.0000:   STOP DEPTH
 STEP.F            0.5000:   STEP LENGTH
 NULL.          -999.2500:   NO VALUE
 COMP. LAWRENCE/ALLISON INC:   COMPANY
 WELL.        45 X #33-33:   WELL
 FLD .             TEAPOT:   FIELD
 LOC .      S33 T39N R78W:   LOCATION
 CNTY.            NATRONA:   COUNTY
 STAT.            WYOMING:   STATE
 CTRY. UNITED STATES OF AMERICA:   COUNTRY
 SRVC.      NL McCullough:   SERVICE COMPANY
 DATE.        19-MAY-1988:   LOGDATE
 API .       490251119400:   API NUMBER
~CURVE INFORMATION
#MNEM.UNIT       API CODE    CURVE DESCRIPTION
#----------   ------------   ------------------------------
 DEPT.F                  :   
 ROP .MIN/FT 91 810 01 00:   RATE OF DRILLING PENETRATION
 GR  .GAPI   81 310 01 00:   GAMMA RAY
 TGAS.UNITS  91 830 01 00:   TOTAL GAS FROM HOTWIRE
~PARAMETER INFORMATION
#MNEM.UNIT          VALUE    DESCRIPTION
#----------   ------------   ------------------------------
 PD  .                 GL:   PERMANENT DATUM
 EPD .F              5198:   ELEVATION PERMANENT DATUM
 LMF .                 KB:   LOG MEASURED FROM
 DAPD.F                11:   FEET ABOVE PERMANENT DATUM
 DMF .                 KB:   DRILLING MEASURED FROM
 EKB .F              5209:   KELLING BUSHING
 EGL .F              5198:   GROUND LEVEL
 DATE.            5-19-88:   RUN DATE
 RUN .                  1:   RUN NUMBER
 DD  .F              2232:   DEPTH DRILLER
 DL  .F               750:   DEPTH LOGGER
 BLI .F               746:   BOTTOM LOG INTERVAL
 TLI .F               350:   TOP LOG INTERVAL
 CS  .IN                7:   CASING SIZE
 CBD .F               808:   CASING BOTTOM DRILLER
 DFT .              WATER:   DRILLING FLUID TYPE
 TCS .HRS            0830:   TIME CURCULATED STOPPED
 TLAB.HRS            0930:   TIME LOGGER AT BOTTOM
 ENGI.          SANGERTER:   RECORDING ENGINEER
 WITN.             NORMAN:   WITNESSED BY
 CLNT.            A2DTECH:   CLIENT CODE
 ORIG.           5" PRINT:   ORIGIN OF DATA
 UWI .       490251119400:   UNIQUE WELL ID
 DICO. A2D Technologies, Inc.:   DIGITIZING COMPANY
~OTHER INFORMATION
~A   DEPT      ROP          GR      TGAS   
# ...
 1351.0000     0.3919  -999.2500     3.5769
 1351.5000     0.4025  -999.2500     3.5749
 1352.0000     0.4028  -999.2500     3.5729
 1352.5000     0.4030  -999.2500     3.5708
 1353.0000     0.4032  -999.2500     3.5688
 1353.5000     0.4034  -999.2500     3.5668
 1354.0000     0.4245  -999.2500     3.5648
 1354.5000     0.4351  -999.2500     3.5628
 1355.0000     0.4771  -999.2500     3.5608
 1355.5000     0.5295  -999.2500     3.5587
 1356.0000     0.5714  -999.2500     3.5567
 1356.5000     0.5611  -999.2500     3.5547
 1357.0000     0.5300  -999.2500     3.5527
 1357.5000     0.5198  -999.2500     3.5507
 1358.0000     0.5201  -999.2500     3.5486
 1358.5000     0.4785  -999.2500     3.5466
 1359.0000     0.4683  -999.2500     3.5446
 1359.5000     0.4372  -999.2500     3.5426
 1360.0000     0.4374  -999.2500     3.5406
 1360.5000     0.4271  -999.2500     3.5386
 1361.0000     0.4169  -999.2500     3.5365
 1361.5000     0.4066  -999.2500     3.5345
 1362.0000     0.4069  -999.2500     3.5325
 1362.5000     0.4071  -999.2500     3.5305
 1363.0000     0.4073  -999.2500     3.5285
 1363.5000     0.4075  -999.2500     3.5265
 1364.0000     0.4077  -999.2500     3.5244
 1364.5000     0.4184  -999.2500     3.5224
 1365.0000     0.4290  -999.2500     3.5204
 1365.5000     0.4397  -999.2500     3.5184
 1366.0000     0.4399  -999.2500     3.5164
 1366.5000     0.4401  -999.2500     3.5143
 1367.0000     0.4403  -999.2500     3.5123
 1367.5000     0.4510  -999.2500     3.5103
 1368.0000     0.4616  -999.2500     3.5083
 1368.5000     0.4827  -999.2500     3.5063
 1369.0000     0.4829  -999.2500     3.5043
 1369.5000     0.4936  -999.2500     3.5022
 1370.0000     0.5146  -999.2500     3.5002
 1370.5000     0.5148  -999.2500     3.4982
 1371.0000     0.5046  -999.2500     3.4962
 1371.5000     0.4943  -999.2500     3.4942
 1372.0000     0.4946  -999.2500     3.4922
 1372.5000     0.4948  -999.2500     3.4901
 1373.0000     0.4950  -999.2500     3.4881
 1373.5000     0.4847  -999.2500     3.4861
 1374.0000     0.4745  -999.2500     3.4841
 1374.5000     0.4538  -999.2500     3.4821
 1375.0000     0.4436  -999.2500     3.4800
 1375.5000     0.4125  -999.2500     3.4780
 1376.0000     0.4023  -999.2500     3.4760
 1376.5000     0.4025  -999.2500     3.4740
 1377.0000     0.3922  -999.2500     3.4720
 1377.5000     0.3716  -999.2500     3.4700
 1378.0000     0.3613  -999.2500     3.4679
 1378.5000     0.3616  -999.2500     3.4659
 1379.0000     0.3513  -999.2500     3.4639
 1379.5000     0.3411  -999.2500     3.4619
 1380.0000     0.3309  -999.2500     3.4599
 1380.5000     0.3311  -999.2500     3.4579
 1381.0000     0.3313  -999.2500     3.4558
 1381.5000     0.3315  -999.2500     3.4538
 1382.0000     0.3318  -999.2500     3.4518
 1382.5000     0.3320  -999.2500     3.4498
 1383.0000     0.3530  -999.2500     3.4478
 1383.5000     0.3533  -999.2500     3.4457
 1384.0000     0.3639  -999.2500     3.4437
 1384.5000     0.3328  -999.2500     3.4417
 1385.0000     0.3330  -999.2500     3.4397
 1385.5000     0.3332  -999.2500     3.4377
 1386.0000     0.3439  -999.2500     3.4357
 1386.5000     0.3650  -999.2500     3.4336
 1387.0000     0.4069  -999.2500     3.4316
 1387.5000     0.4280  -999.2500     3.4296
 1388.0000     0.4491  -999.2500     3.4276
 1388.5000     0.4597  -999.2500     3.4256
 1389.0000     0.4599  -999.2500     3.4236
 1389.5000     0.4810  -999.2500     3.4215
 1390.0000     0.4917  -999.2500     3.4195
 1390.5000     0.4919  -999.2500     3.4175
 1391.0000     0.4921  -999.2500     3.4155
 1391.5000     0.4923  -999.2500     3.4135
 1392.0000     0.4820  -999.2500     3.4115
 1392.5000     0.4613  -999.2500     3.4094
 1393.0000     0.4616  -999.2500     3.4074
 1393.5000     0.4618  -999.2500     3.4054
 1394.0000     0.4620  -999.2500     3.4034
 1394.5000     0.4517  -999.2500     3.4014
 1395.0000     0.4520  -999.2500     3.3993
 1395.5000     0.4209  -999.2500     3.3973
 1396.0000     0.4106  -999.2500     3.3953
 1396.5000     0.4004  -999.2500     3.3933
 1397.0000     0.3797  -999.2500     3.3913
 1397.5000     0.3695  -999.2500     3.3893
 1398.0000     0.3698  -999.2500     3.3872
 1398.5000     0.3700  -999.2500     3.3852
 1399.0000     0.3702  -999.2500     3.3832
 1399.5000     0.3704  -999.2500     3.3812
 1400.0000     0.3706  -999.2500     3.3792
 1400.5000     0.3708  -999.2500     3.3772
 1401.0000     0.3710  -999.2500     3.3734
 1401.5000     0.3712  -999.2500     3.3641
 1402.0000     0.3710  -999.2500     3.3548
 1402.5000     0.3711  -999.2500     3.3455
 1403.0000     0.3816  -999.2500     3.3363
 1403.5000     0.3817  -999.2500     3.3270
 1404.0000     0.3818  -999.2500     3.3177
 1404.5000     0.3820  -999.2500     3.3084
 1405.0000     0.3820  -999.2500     3.2991
 1405.5000     0.3822  -999.2500     3.2898
 1406.0000     0.3823  -999.2500     3.2805
 1406.5000     0.3719  -999.2500     3.2712
 1407.0000     0.3825  -999.2500     3.2620
 1407.5000     0.3826  -999.2500     3.2527
 1408.0000     0.3827  -999.2500     3.2434
 1408.5000     0.3828  -999.2500     3.2341
 1409.0000     0.3933  -999.2500     3.2248
 1409.5000     0.4039  -999.2500     3.2155
 1410.0000     0.4040  -999.2500     3.2062
 1410.5000     0.4041  -999.2500     3.1969
 1411.0000     0.3937  -999.2500     3.1877
 1411.5000     0.4043  -999.2500     3.1784
 1412.0000     0.4044  -999.2500     3.1691
 1412.5000     0.4045  -999.2500     3.1598
 1413.0000     0.4046  -999.2500     3.1505
 1413.5000     0.4047  -999.2500     3.1412
 1414.0000     0.4153  -999.2500     3.1319
 1414.5000     0.4154  -999.2500     3.1226
 1415.0000     0.4155  -999.2500     3.1134
 1415.5000     0.4051  -999.2500     3.1041
 1416.0000     0.4052  -999.2500     3.0948
 1416.5000     0.4053  -999.2500     3.0855
 1417.0000     0.3845  -999.2500     3.0762
 1417.5000     0.3847  -999.2500     3.0669
 1418.0000     0.3743  -999.2500     3.0576
 1418.5000     0.3744  -999.2500     3.0483
 1419.0000     0.3432  -999.2500     3.0390
 1419.5000     0.3329  -999.2500     3.0298
 1420.0000     0.3330  -999.2500     3.0205
 1420.5000     0.3331  -999.2500     3.0112
 1421.0000     0.3332  -999.2500     3.0019
 1421.5000     0.3438  -999.2500     2.9926
 1422.0000     0.3752  -999.2500     2.9833
 1422.5000     0.4066  -999.2500     2.9740
 1423.0000     0.4589  -999.2500     2.9647
 1423.5000     0.4694  -999.2500     2.9555
 1424.0000     0.4695  -999.2500     2.9462
 1424.5000     0.4592  -999.2500     2.9369
 1425.0000     0.4280  -999.2500     2.9276
 1425.5000     0.4072  -999.2500     2.9183
 1426.0000     0.3760  -999.2500     2.9090
 1426.5000     0.3761  -999.2500     2.8997
 1427.0000     0.3657  -999.2500     2.8904
 1427.5000     0.3450  -999.2500     2.8812
 1428.0000     0.3451  -999.2500     2.8705
 1428.5000     0.3452  -999.2500     2.8495
 1429.0000     0.3453  -999.2500     2.8285
 1429.5000     0.3350  -999.2500     2.8075
 1430.0000     0.3351  -999.2500     2.7865
 1430.5000     0.3352  -999.2500     2.7655
 1431.0000     0.3353  -999.2500     2.7445
 1431.5000     0.3354  -999.2500     2.7235
 1432.0000     0.3355  -999.2500     2.7025
 1432.5000     0.3356  -999.2500     2.6815
 1433.0000     0.3357  -999.2500     2.6606
 1433.5000     0.3462  -999.2500     2.6396
 1434.0000     0.3568  -999.2500     2.6186
 1434.5000     0.3673  -999.2500     2.5976
 1435.0000     0.3675  -999.2500     2.5766
 1435.5000     0.3780  -999.2500     2.5556
 1436.0000     0.3781  -999.2500     2.5346
 1436.5000     0.3782  -999.2500     2.5136
 1437.0000     0.3783  -999.2500     2.4926
 1437.5000     0.3784  -999.2500     2.4716
 1438.0000     0.3680  -999.2500     2.4506
 1438.5000     0.3682  -999.2500     2.4296
 1439.0000     0.3578  -999.2500     2.4086
 1439.5000     0.3475  -999.2500     2.3876
 1440.0000     0.3476  -999.2500     2.3667
 1440.5000     0.3477  -999.2500     2.3457
 1441.0000     0.3374  -999.2500     2.3247
 1441.5000     0.3375  -999.2500     2.3037
