~VERSION INFORMATION
 VERS.                2.0:   CWLS LOG ASCII STANDARD - VERSION 2.0
 WRAP.                 NO:   ONE LINE PER DEPTH STEP
~WELL INFORMATION
#MNEM.UNIT      DATA TYPE    INFORMATION
#----------   ------------   ------------------------------
 STRT.F            0.0000:   START DEPTH
 STOP.F         1283.5000:   STOP DEPTH
 STEP.F            0.5000:   STEP LENGTH
 NULL.          -999.2500:   NO VALUE
 COMP.      U.S. NAVY NPR:   COMPANY
 WELL. NAVAL PETROLEUM RESERVE 3 ST-11 #88-11:   WELL
 FLD .             TEAPOT:   FIELD
 LOC .      S11 T38N R78W:   LOCATION
 CNTY.            NATRONA:   COUNTY
 STAT.            WYOMING:   STATE
 CTRY. UNITED STATES OF AMERICA:   COUNTRY
 SRVC.       Schlumberger:   SERVICE COMPANY
 DATE.        01-NOV-1958:   LOGDATE
 API .       490250632600:   API NUMBER
~CURVE INFORMATION
#MNEM.UNIT       API CODE    CURVE DESCRIPTION
#----------   ------------   ------------------------------
 DEPT.F                  :   
 GRN .GAPI   35 310 01 00:   GAMMA RAY
 NEUT.NAPI   35 330 01 00:   NEUTRON
 ASN .OHMM   01 041 16 00:   AMPLIFIED SHORT NORMAL
 LAT .OHMM   01 070 18 00:   LATERAL 18"
 LN  .OHMM   01 060 64 00:   LONG NORMAL 64"
 SPR .MV     01 010 01 00:   SPONTANEOUS POTENTIAL
 CALM.IN     15 280 01 00:   CALIPER FROM MICRO LOG
~PARAMETER INFORMATION
#MNEM.UNIT          VALUE    DESCRIPTION
#----------   ------------   ------------------------------
 LMF .                 KB:   LOG MEASURED FROM
 DMF .                 KB:   DRILLING MEASURED FROM
 EKB .F              5289:   KELLING BUSHING
 EGL .F              5279:   GROUND LEVEL
 DATE.        01-NOV-1958:   RUN DATE
 RUN .                  1:   RUN NUMBER
 DD  .F              1280:   DEPTH DRILLER
 DL  .F              1283:   DEPTH LOGGER
 BLI .F              1282:   BOTTOM LOG INTERVAL
 TLI .F               150:   TOP LOG INTERVAL
 CBD .F                45:   CASING BOTTOM DRILLER
 BS  .IN            7.875:   BIT SIZE
 BSD .F              1280:   BIT SIZE AT DEPTH
 DFT .                GEL:   DRILLING FLUID TYPE
 DFD .                9.1:   DRILLING FLUID DENSITY
 DFV .                 63:   DRILLING FLUID VISCOSITY
 DFL .                2.1:   DRILLING FLUID LOSS
 RMS .OHMM            2.4:   RESISTIVITY MUD SAMPLE
 MST .F                56:   MUD SAMPLE TEMPERATURE
 RMF .OHMM           1.45:   RESISTIVITY MUD FILTRATE SAMPLE
 MFST.F                79:   MUD FILTRATE SAMPLE TEMPERATURE
 RMC .OHMM            1.7:   RESISTIVITY MUD CAKE
 MCST.F                79:   MUD CAKE SAMPLE TEMPERATURE
 MFSS.               MEAS:   MUD FILTRATE SAMPLE SOURCE
 MCSS.               MEAS:   MUD CAKE SAMPLE SOURCE
 RMB .OHMM            1.6:   RESISTIVITY MUD AT BHT
 BHT .F                79:   BOTTOM HOLE TEMPERATURE
 TCS .HRS               1:   TIME CURCULATED STOPPED
 MRT .F                79:   MAXIMUM RECORDED TEMPERATURE
 LUN .               2544:   LOGGING UNIT NUMBER
 LUL .                 NC:   LOGGING UNIT LOCATION
 ENGI.            EARNEST:   RECORDING ENGINEER
 WITN.             MARTIN:   WITNESSED BY
 CLNT.            A2DTECH:   CLIENT CODE
 ORIG.         2.5" PRINT:   ORIGIN OF DATA
 UWI .       490250632600:   UNIQUE WELL ID
 DICO. A2D Technologies, Inc.:   DIGITIZING COMPANY
~OTHER INFORMATION
~A    DEPT       GRN     NEUT        ASN        LAT         LN        SPR       CALM   
# ...
  955.5000     5.4357   330.5886     7.5874     7.6236     6.4975   -13.3442     8.1208
  956.0000     5.6760   306.1641     7.7152     7.6250     6.6181   -13.6304     8.1213
  956.5000     5.8355   303.6671     7.7871     7.6264     6.6202   -13.8805     8.1277
  957.0000     5.9230   299.2856     7.7872     7.6277     6.6222   -13.9112     8.1496
  957.5000     6.1818   297.3983     7.7874     7.6293     6.7200   -14.1884     8.1773
  958.0000     6.0407   301.0592     7.7875     7.6307     6.7622   -14.4115     8.2051
  958.5000     5.8395   296.5218     7.8148     7.6320     6.7643   -14.4055     8.2056
  959.0000     5.8348   283.0372     7.8986     7.6333     6.7663   -14.4000     8.2062
  959.5000     5.8377   277.7624     8.0363     7.6347     6.7684   -14.3945     8.2067
  960.0000     5.5960   284.4290     8.1685     7.6360     6.7708   -14.2979     8.2074
  960.5000     5.8293   294.8424     8.3045     7.6373     6.7728   -14.0097     8.2079
  961.0000     6.0137   298.5087     8.4677     7.6387     6.7745   -13.8310     8.2084
  961.5000     5.9064   293.0848     8.5493     7.6400     6.7768   -13.8255     8.1817
  962.0000     5.8714   257.4430     8.6038     7.5054     6.7788   -13.5465     8.1823
  962.5000     5.9175   261.0945     8.6583     7.5068     6.9167   -13.5410     8.1828
  963.0000     5.9566   278.3481     8.6584     7.5082     6.9188   -13.5356     8.1562
  963.5000     5.8674   289.7447     8.7129     7.5095     6.9208   -13.5301     8.1567
  964.0000     6.0462   292.5607     8.9033     7.3749     6.9228   -13.5235     8.1572
  964.5000     6.0851   267.8998     9.0664     7.3546     6.9248   -13.7927     8.1578
  965.0000     5.9639   270.4653     9.2296     7.1058     7.0627   -13.7863     8.1583
  965.5000     5.8028   289.0734     9.3385     6.9389     7.0662   -14.0545     8.1533
  966.0000     5.6616   297.3922     9.4745     6.8368     7.2109   -14.0491     8.1321
  966.5000     5.7004   296.1370     9.6376     6.9742     7.3541   -14.3173     8.1242
  967.0000     5.3294   300.1188     9.9095     6.9755     7.4787   -14.3119     8.1060
  967.5000     5.3877   284.3934     9.9980     6.9769     7.5606   -14.5805     8.1066
  968.0000     5.4896   290.4908    10.1027     6.9783     7.7547   -14.5747     8.1072
  968.5000     5.5915   295.0774    10.2073     6.9796     7.8927   -14.5693     8.0932
  969.0000     5.6439   299.4968    10.3120     6.9810     8.0307   -14.2904     8.0811
  969.5000     5.6510   303.5968    10.4167     6.9823     8.0774   -14.2850     8.0817
  970.0000     5.3118   292.3512    10.5213     6.9840     8.2205   -14.0061     8.1094
  970.5000     5.3506   301.5729    10.6260     7.1212     8.3638   -13.9915     8.1099
  971.0000     5.3295   302.6862    10.7306     7.1225     8.5069   -13.7216     8.1105
  971.5000     5.3258   300.2730    10.8353     7.2597     8.5847   -13.7161     8.1110
  972.0000     5.4072   297.3486    10.8891     7.3125     8.6574   -13.7106     8.1116
  972.5000     5.4665   295.8055    11.2991     7.3982     8.7247   -13.7052     8.1393
  973.0000     5.4386   293.5160    11.4392     7.3996     8.8631   -13.6997     8.1398
  973.5000     5.3363   290.4803    11.7152     7.4009     9.0010   -13.9684     8.1404
  974.0000     5.2826   305.3566    11.8553     7.4022     9.1390   -13.9623     8.1409
  974.5000     5.3950   309.7842    11.9768     7.4036     9.2769   -13.9568     8.1414
  975.0000     5.5967   300.7777    11.8184     7.5408     9.4149   -13.9514     8.1420
  975.5000     5.3101   299.7456    11.7053     7.5421     9.5529   -13.9459     8.1425
  976.0000     4.9488   297.5166    11.5695     7.5435     9.5549   -14.0499     8.1431
  976.5000     4.9962   307.8474    11.5348     7.5448     9.6928   -14.2085     8.1436
  977.0000     5.2150   319.4715    11.3950     7.5462     9.6948   -14.4766     8.1442
  977.5000     5.2739   318.7946    11.2982     7.5476     9.8328   -14.6079     8.1447
  978.0000     5.3727   300.7853    11.1625     7.5489     9.8348   -14.8851     8.1453
  978.5000     5.3923   305.2685    10.9244     7.5503     9.7008   -15.1623     8.1459
  979.0000     5.2461   307.8124    10.6999     7.5516     9.6952   -15.2754     8.1463
  979.5000     5.0619   320.4498    10.4836     7.5530     9.5689   -15.2689     8.1470
  980.0000     4.9440   316.6676    10.3478     7.5543     9.4349   -14.9900     8.1475
  980.5000     4.9880   304.6758    10.2121     7.6155     9.3574   -14.7110     8.1480
  981.0000     5.2058   300.8936    10.2122     7.7255     9.3030   -14.4321     8.1485
  981.5000     5.0000   301.7116    10.2124     7.8302     9.1524   -14.4267     8.1491
  982.0000     4.6221   314.4189    10.1996     7.9674     9.0351   -14.1478     8.1224
  982.5000     4.5618   319.6331    10.1714     8.1049     8.9011   -14.1424     8.1230
  983.0000     4.5406   326.6279    10.1432     8.2421     8.8541   -14.1370     8.1235
  983.5000     4.4595   343.4841    10.1149     8.5152     8.7150   -14.1316     8.1240
  984.0000     4.5383   352.2581    10.0867     8.6524     8.6357   -14.1263     8.1246
  984.5000     4.6571   364.3042    10.0585     8.6537     8.5017   -14.1209     8.0979
  985.0000     4.9560   367.9089    10.0302     8.7909     8.3678   -14.1155     8.0618
  985.5000     5.1785   351.1656    10.0020     8.7922     8.3699   -14.1100     8.0336
  986.0000     5.3820   351.0940     9.9738     8.9294     8.2364   -14.1228     8.0055
  986.5000     5.4811   367.4843     9.9455     9.0666     8.2384   -14.3729     7.9914
  987.0000     5.3281   379.3753     9.9173     9.2038     8.1044   -14.4036     7.9647
  987.5000     4.9625   358.4273     9.8879     9.3410     8.1064   -14.6808     7.9925
  988.0000     5.0323   314.3428     9.8065     9.2065     7.9725   -14.9581     7.9931
  988.5000     5.2395   297.8316     9.7523     9.2079     7.9745   -15.2353     7.9936
  989.0000     5.1262   298.2905     9.7253     9.2092     7.9765   -15.7860     8.0213
  989.5000     5.2250   306.7280     9.7244     9.1888     7.9785   -16.2555     8.0219
  990.0000     5.2487   293.3864     9.6694     9.0760     7.9805   -16.2492     8.0768
  990.5000     5.1227   284.0016     9.6117     8.9414     7.9825   -16.5183     8.1045
  991.0000     5.0216   282.4032     9.5050     8.9429     7.9845   -16.5119     8.1871
  991.5000     4.9003   279.7237     9.4228     8.9008     7.9865   -16.1143     8.2687
  992.0000     4.7560   276.5793     9.3304     8.8095     7.9885   -15.5526     8.2388
  992.5000     4.6453   285.5026     9.1981     8.8111     7.9906   -15.2644     8.2154
  993.0000     4.4437   303.3644     9.1151     8.8125     7.9749   -14.7027     8.2160
  993.5000     4.2158   310.7773     9.0321     8.8139     7.8585   -14.1410     8.2087
  994.0000     4.3180   304.0099     8.9303     8.6793     7.7246   -14.0159     8.1898
  994.5000     4.3826   302.4667     8.8389     8.6807     7.6935   -13.4635     8.2283
  995.0000     4.4230   304.6553     8.7559     8.6823     7.5926   -13.1845     8.2453
  995.5000     4.3506   306.0976     8.6729     8.6837     7.5949   -13.1791     8.2459
  996.0000     4.3094   296.1136     8.5899     8.5489     7.4607   -13.1015     8.2464
  996.5000     4.4683   280.6169     8.5317     8.5505     7.4155   -13.1690     8.2471
  997.0000     4.5071   288.7720     8.4914     8.4158     7.3483   -13.1630     8.2203
  997.5000     4.5260   292.4532     8.4364     8.2814     7.1952   -13.4316     8.2209
  998.0000     4.4844   278.8628     8.4382     8.3403     7.1275   -13.4258     8.2214
  998.5000     4.3997   273.3376     8.4935     8.4056     7.0634   -13.4204     8.1947
  999.0000     4.4401   267.6727     8.5867     8.4212     6.9295   -13.6886     8.1953
  999.5000     4.5914   279.0061     8.6140     8.5587     6.7959   -13.9567     8.1687
 1000.0000     4.6800   267.3146     8.6413     8.5600     6.7979   -13.9514     8.1692
 1000.5000     4.8035   257.0726     8.5599     8.6972     6.7999   -13.9459     8.1682
