~VERSION INFORMATION
 VERS.                2.0:   CWLS LOG ASCII STANDARD - VERSION 2.0
 WRAP.                 NO:   ONE LINE PER DEPTH STEP
~WELL INFORMATION
#MNEM.UNIT      DATA TYPE    INFORMATION
#----------   ------------   ------------------------------
 STRT.F           17.0000:   START DEPTH
 STOP.F         1345.0000:   STOP DEPTH
 STEP.F            0.5000:   STEP LENGTH
 NULL.          -999.2500:   NO VALUE
 COMP. DEPARTMENT OF ENERGY:   COMPANY
 WELL. RES 3 TEAPOT DOME ##86S-11:   WELL
 FLD .             TEAPOT:   FIELD
 LOC .      S11 T38N R78W:   LOCATION
 CNTY.            NATRONA:   COUNTY
 STAT.            WYOMING:   STATE
 CTRY. UNITED STATES OF AMERICA:   COUNTRY
 SRVC.       Schlumberger:   SERVICE COMPANY
 DATE.        13-AUG-1959:   LOGDATE
 API .       490250633200:   API NUMBER
~CURVE INFORMATION
#MNEM.UNIT       API CODE    CURVE DESCRIPTION
#----------   ------------   ------------------------------
 DEPT.F                  :   
 SPR .MV     05 010 01 00:   SPONTANEOUS POTENTIAL FROM RES.
 CILD.MMHO   05 110 46 00:   CONDUCTIVITY INDUCTION LOG DEEP
 ILD .OHMM   05 120 46 00:   INDUCTION LOG DEEP
 ASN .OHMM   05 041 16 00:   AMPLIFIED SHORT NORMAL 16"
~PARAMETER INFORMATION
#MNEM.UNIT          VALUE    DESCRIPTION
#----------   ------------   ------------------------------
 PD  .                 GL:   PERMANENT DATUM
 EPD .F              5295:   ELEVATION PERMANENT DATUM
 LMF .                 KB:   LOG MEASURED FROM
 DAPD.F                 4:   FEET ABOVE PERMANENT DATUM
 DMF .                 KB:   DRILLING MEASURED FROM
 EKB .F              5299:   KELLING BUSHING
 EGL .F              5295:   GROUND LEVEL
 DATE.            8-13-59:   RUN DATE
 RUN .                  1:   RUN NUMBER
 DD  .F              1350:   DEPTH DRILLER
 DL  .F              1350:   DEPTH LOGGER
 BLI .F              1345:   BOTTOM LOG INTERVAL
 TLI .F                17:   TOP LOG INTERVAL
 CBD .F                17:   CASING BOTTOM DRILLER
 CBL .F                17:   CASING BOTTOM LOGGER
 BS  .IN             6.75:   BIT SIZE
 BSD .F              1350:   BIT SIZE AT DEPTH
 DFT .                GEL:   DRILLING FLUID TYPE
 DFD .                9.8:   DRILLING FLUID DENSITY
 DFV .                 65:   DRILLING FLUID VISCOSITY
 DFPH.                9.5:   DRILLING FLUID PH
 DFL .                5.4:   DRILLING FLUID LOSS
 RMS .OHMM           2.84:   RESISTIVITY MUD SAMPLE
 MST .F                69:   MUD SAMPLE TEMPERATURE
 RMF .OHMM            2.5:   RESISTIVITY MUD FILTRATE SAMPLE
 MFST.F                69:   MUD FILTRATE SAMPLE TEMPERATURE
 RMC .OHMM           2.46:   RESISTIVITY MUD CAKE
 MCST.F                69:   MUD CAKE SAMPLE TEMPERATURE
 MFSS.                  M:   MUD FILTRATE SAMPLE SOURCE
 MCSS.                  M:   MUD CAKE SAMPLE SOURCE
 TCS .HRS               1:   TIME CURCULATED STOPPED
 LUN .               2523:   LOGGING UNIT NUMBER
 LUL .               CSPR:   LOGGING UNIT LOCATION
 ENGI.             KNOBEL:   RECORDING ENGINEER
 WITN.             MARTIN:   WITNESSED BY
 CLNT.            A2DTECH:   CLIENT CODE
 ORIG.         2"5" PRINT:   ORIGIN OF DATA
 UWI .       490250633200:   UNIQUE WELL ID
 DICO. A2D Technologies, Inc.:   DIGITIZING COMPANY
~OTHER INFORMATION
~A   DEPT      SPR        CILD         ILD      ASN   
# ...
  382.0000   -27.6262   135.7281     8.0006     8.4114
  382.5000   -27.4759   136.4937     7.9329     8.3718
  383.0000   -27.3190   137.2593     7.8086     8.2317
  383.5000   -27.1655   137.9630     7.6996     8.0926
  384.0000   -27.0102   140.4568     7.5837     7.9712
  384.5000   -26.8555   142.7641     7.4714     7.9276
  385.0000   -26.7010   145.0714     7.3572     7.8923
  385.5000   -26.5457   147.3788     7.2441     7.8575
  386.0000   -26.3926   149.6861     7.1306     7.8158
  386.5000   -26.2348   151.9934     7.0173     7.7178
  387.0000   -26.0967   154.3008     6.9039     7.6151
  387.5000   -26.0807   156.6081     6.7905     7.5138
  388.0000   -26.0956   158.9154     6.6768     7.4113
  388.5000   -26.2174   161.2228     6.5638     7.3102
  389.0000   -26.3581   163.5028     6.4497     7.2062
  389.5000   -26.4921   165.8815     6.3366     7.1138
  390.0000   -26.6326   167.6733     6.2003     7.0725
  390.5000   -26.7639   168.5809     6.1904     7.0720
  391.0000   -26.9130   168.6042     6.3210     7.1979
  391.5000   -26.9903   165.7265     6.4685     7.3478
  392.0000   -26.9767   162.3380     6.6148     7.4930
  392.5000   -26.9322   159.3213     6.7615     7.6407
  393.0000   -26.8688   155.9886     6.9080     7.7986
  393.5000   -26.8116   152.6711     7.0549     7.9950
  394.0000   -26.7513   148.9245     7.2015     8.2079
  394.5000   -26.6928   144.4587     7.3484     8.4284
  395.0000   -26.6249   139.9929     7.4946     8.6311
  395.5000   -26.5020   135.5271     7.6423     8.8763
  396.0000   -26.3525   133.9392     7.7937     8.9910
  396.5000   -26.2080   138.1219     7.8197     8.7443
  397.0000   -26.0594   136.2877     7.7952     8.3754
  397.5000   -25.9162   133.4745     7.6587     8.1978
  398.0000   -25.7642   132.1791     7.4739     8.3333
  398.5000   -25.6279   134.5272     7.2812     8.1258
  399.0000   -25.4567   136.8633     7.0896     7.8315
  399.5000   -25.3866   139.7478     6.8988     7.5487
  400.0000   -25.5010   156.0894     6.7055     7.2666
  400.5000   -25.5963   172.2460     6.5173     7.1631
  401.0000   -25.7029   173.1481     6.3247     7.1024
  401.5000   -25.8034   172.0520     6.2981     7.0837
  402.0000   -25.9072   170.5794     6.3590     7.1326
  402.5000   -26.0094   169.1068     6.3957     7.1715
  403.0000   -26.1125   167.6342     6.4480     7.2107
  403.5000   -26.2147   166.1615     6.4434     7.2551
  404.0000   -26.3180   165.0285     6.3330     7.2455
  404.5000   -26.4291   168.6528     6.2333     7.0901
  405.0000   -26.4526   171.5980     6.1335     6.9529
  405.5000   -26.4238   174.5432     6.0344     6.8102
  406.0000   -26.2663   177.4885     6.0018     6.6947
  406.5000   -26.1221   180.4337     6.0069     6.5978
  407.0000   -25.9792   181.4828     6.0037     6.5121
  407.5000   -25.8334   181.7828     6.0073     6.4692
  408.0000   -25.6935   182.0828     5.9968     6.4306
  408.5000   -25.5423   182.3828     5.9295     6.4773
  409.0000   -25.3993   182.6827     5.8670     6.5561
  409.5000   -25.2745   182.9827     5.8042     6.6322
  410.0000   -25.1762   184.4095     5.7416     6.6639
  410.5000   -25.2024   186.3153     5.6785     6.4987
  411.0000   -25.2701   188.2210     5.6160     6.3448
  411.5000   -25.3408   190.1267     5.5521     6.1889
  412.0000   -25.4073   192.0325     5.4913     6.0335
  412.5000   -25.4743   193.9382     5.4247     5.9045
  413.0000   -25.5443   195.8439     5.3686     5.9123
  413.5000   -25.6066   197.7496     5.2934     6.1157
  414.0000   -25.6868   200.2137     5.3650     6.3011
  414.5000   -25.7287   197.4195     5.5299     6.4974
  415.0000   -25.7340   193.3055     5.6662     6.6439
  415.5000   -25.6479   189.1916     5.8144     6.6909
  416.0000   -25.5010   185.0776     5.9577     6.7268
  416.5000   -25.3826   180.9636     6.1010     6.7679
  417.0000   -25.2505   176.8497     6.2501     6.7917
  417.5000   -25.1280   172.7357     6.3599     6.8905
  418.0000   -24.9961   170.1529     6.3466     7.0188
  418.5000   -24.8773   168.3530     6.3290     7.1614
  419.0000   -24.7312   166.8329     6.3095     7.0748
  419.5000   -24.6438   168.4027     6.2937     6.8344
  420.0000   -24.6518   170.8025     6.2662     6.6306
  420.5000   -24.6729   173.2023     6.1732     6.4515
  421.0000   -24.7192   176.8435     6.0809     6.3661
  421.5000   -24.7535   181.1631     5.9936     6.2836
  422.0000   -24.7931   184.8765     5.8967     6.2332
  422.5000   -24.8307   187.5831     5.8433     6.2452
  423.0000   -24.8682   188.4853     5.9775     6.3788
  423.5000   -24.9081   183.0722     6.1127     6.6242
  424.0000   -24.9420   177.5670     6.2500     6.8524
  424.5000   -24.9890   172.7074     6.3821     7.0899
  425.0000   -25.0089   167.8478     6.5252     7.1997
  425.5000   -25.0196   162.9882     6.6194     7.1242
  426.0000   -24.9114   158.7132     6.5261     7.0434
  426.5000   -24.7320   157.8110     6.4161     6.9773
  427.0000   -24.5851   163.2241     6.3267     6.8306
  427.5000   -24.4243   170.1065     6.1517     6.6185
  428.0000   -24.2703   176.2774     5.9095     6.4303
  428.5000   -24.1134   182.4484     5.7650     6.2298
  429.0000   -23.9562   188.6193     5.6661     6.0388
  429.5000   -23.8029   194.7903     5.5663     5.8393
  430.0000   -23.6409   200.9612     5.4704     5.7516
  430.5000   -23.4958   206.5290     5.3663     5.8134
  431.0000   -23.3123   207.4312     5.2988     5.9049
  431.5000   -23.2230   208.3034     5.4058     5.9923
  432.0000   -23.3699   207.3786     5.5223     6.0809
  432.5000   -23.4822   201.0910     5.6366     6.1688
  433.0000   -23.6060   195.3436     5.7519     6.2572
  433.5000   -23.7245   189.6031     5.8665     6.3453
  434.0000   -23.8435   183.8555     5.9818     6.4337
  434.5000   -23.9667   178.5404     6.0963     6.5205
  435.0000   -24.0799   174.6539     6.2120     6.5893
  435.5000   -24.2175   171.0417     6.3254     6.7180
  436.0000   -24.3008   167.6777     6.4432     6.8523
  436.5000   -24.2920   164.9065     6.5404     6.9834
  437.0000   -24.2939   162.3140     6.5500     7.1161
  437.5000   -24.2984   159.7239     6.5420     7.2122
  438.0000   -24.2692   160.1030     6.4851     7.2271
  438.5000   -24.0690   162.8029     6.4235     7.0748
  439.0000   -23.8911   165.5073     6.3644     6.9078
  439.5000   -23.7106   168.3282     6.3025     6.7462
  440.0000   -23.5312   172.7647     6.2455     6.5800
  440.5000   -23.3519   178.6143     6.1726     6.4197
  441.0000   -23.1710   184.4638     5.9991     6.2501
  441.5000   -22.9937   190.3133     5.8126     6.1438
  442.0000   -22.8097   196.1629     5.6586     6.0933
  442.5000   -22.6385   202.0124     5.6669     6.0520
  443.0000   -22.4363   205.6268     5.6977     6.0246
  443.5000   -22.3037   205.6268     5.7176     6.0605
  444.0000   -22.3473   200.6708     5.7778     6.1625
  444.5000   -22.5170   195.8712     5.8730     6.2477
  445.0000   -22.6801   191.1918     5.9611     6.2874
  445.5000   -22.8386   188.6089     6.0531     6.4074
  446.0000   -23.0145   186.0891     6.1418     6.5899
  446.5000   -23.0471   182.4903     6.2340     6.7563
  447.0000   -23.0185   177.8906     6.3211     6.9348
  447.5000   -22.8753   173.2910     6.4175     7.0832
  448.0000   -22.7430   168.6914     6.4575     7.0505
  448.5000   -22.6115   164.1263     6.4429     6.9948
  449.0000   -22.4797   164.2366     6.4377     6.9428
  449.5000   -22.3480   166.2364     6.4277     6.8913
  450.0000   -22.2163   168.2363     6.4201     6.8351
  450.5000   -22.0848   170.2361     6.4116     6.8120
  451.0000   -21.9529   172.2460     6.4027     6.8526
  451.5000   -21.8216   172.2460     6.3956     6.8923
  452.0000   -21.6891   171.6565     6.3847     6.9344
  452.5000   -21.5591   170.4566     6.3811     6.9746
  453.0000   -21.4243   169.2567     6.3631     7.0170
  453.5000   -21.2985   168.0568     6.4292     7.0559
  454.0000   -21.1506   166.8329     6.5827     7.1126
  454.5000   -21.0522   163.3053     6.7227     7.3144
