~VERSION INFORMATION
 VERS.                2.0:   CWLS LOG ASCII STANDARD - VERSION 2.0
 WRAP.                 NO:   ONE LINE PER DEPTH STEP
~WELL INFORMATION
#MNEM.UNIT      DATA TYPE    INFORMATION
#----------   ------------   ------------------------------
 STRT.F            7.0000:   START DEPTH
 STOP.F          690.0000:   STOP DEPTH
 STEP.F            0.5000:   STEP LENGTH
 NULL.          -999.2500:   NO VALUE
 COMP. FENIX & SCISSON INC:   COMPANY
 WELL.  NPR#3 #26-46 SX11:   WELL
 FLD .             TEAPOT:   FIELD
 LOC .      S11 T38N R78W:   LOCATION
 CNTY.            NATRONA:   COUNTY
 STAT.            WYOMING:   STATE
 CTRY. UNITED STATES OF AMERICA:   COUNTRY
 SRVC.      Dresser Atlas:   SERVICE COMPANY
 DATE.        13-AUG-1985:   LOGDATE
 API .       490251083600:   API NUMBER
~CURVE INFORMATION
#MNEM.UNIT       API CODE    CURVE DESCRIPTION
#----------   ------------   ------------------------------
 DEPT.F                  :   
 DPHI.DEC    45 890 12 00:   DENSITY POROSITY SANDSTONE
 NPHI.DEC    42 890 03 00:   NEUTRON POROSITY SANDSTONE
 RHOB.G/C3   45 350 01 00:   BULK DENSITY
 CORR.G/C3   45 356 01 00:   DENSITY CORRECTION
 CALD.IN     45 280 60 00:   CALIPER
 SPR .MV     07 010 01 00:   SPONTANEOUS POTENTIAL
 ILD .OHMM   07 120 46 00:   INDUCTION LOG DEEP
 ILM .OHMM   07 120 44 00:   INDUCTION LOG MEDIUM
 SFL .OHMM   07 220 01 00:   SHALLOW FOCUSED LOG RESISTIVITY
 GRR .GAPI   07 310 01 00:   GAMMA RAY FROM RES. LOG.
~PARAMETER INFORMATION
#MNEM.UNIT          VALUE    DESCRIPTION
#----------   ------------   ------------------------------
 PD  .                 GL:   PERMANENT DATUM
 EPD .F              5193:   ELEVATION PERMANENT DATUM
 LMF .                 KB:   LOG MEASURED FROM
 DAPD.F                 5:   FEET ABOVE PERMANENT DATUM
 DMF .                 KB:   DRILLING MEASURED FROM
 EKB .F              5198:   KELLING BUSHING
 EGL .F              5193:   GROUND LEVEL
 DATE.          8-13-1985:   RUN DATE
 RUN .                  8:   RUN NUMBER
 DD  .F               664:   DEPTH DRILLER
 BLI .F               635:   BOTTOM LOG INTERVAL
 TLI .F               340:   TOP LOG INTERVAL
 CBL .F               340:   CASING BOTTOM LOGGER
 BS  .IN             8.75:   BIT SIZE
 BSD .F               664:   BIT SIZE AT DEPTH
 DFT .          KPC WATER:   DRILLING FLUID TYPE
 LUN .           HL- 6274:   LOGGING UNIT NUMBER
 LUL .           GILLETTE:   LOGGING UNIT LOCATION
 ENGI.             RAUTIO:   RECORDING ENGINEER
 WITN.            SCHULTE:   WITNESSED BY
 CLNT.            A2DTECH:   CLIENT CODE
 ORIG.        2" 5" PRINT:   ORIGIN OF DATA
 UWI .       490251083600:   UNIQUE WELL ID
 DICO. A2D Technologies, Inc.:   DIGITIZING COMPANY
~OTHER INFORMATION
~A    DEPT    DPHI       NPHI       RHOB       CORR       CALD         SPR       ILD        ILM        SFL        GRR   
# ...
  308.5000  -999.2500  -999.2500  -999.2500  -999.2500  -999.2500   -16.5315     7.4404     7.6115     8.9821    74.0780
  309.0000  -999.2500  -999.2500  -999.2500  -999.2500  -999.2500   -17.0476     7.4600     7.6326     8.8998    75.0445
  309.5000  -999.2500  -999.2500  -999.2500  -999.2500  -999.2500   -16.9928     7.4724     7.6545     9.0683    75.1874
  310.0000  -999.2500     0.3401  -999.2500  -999.2500  -999.2500   -18.4024     7.3417     7.6769     8.9034    75.2150
  310.5000  -999.2500     0.3401  -999.2500  -999.2500  -999.2500   -19.6948     7.2481     7.7524     9.0308    73.8287
  311.0000  -999.2500     0.3401  -999.2500  -999.2500  -999.2500   -18.1899     7.1557     7.6839     9.2375    71.8146
  311.5000  -999.2500     0.3401  -999.2500  -999.2500  -999.2500   -16.7368     6.9651     7.5655     9.0673    69.8238
  312.0000  -999.2500     0.3401  -999.2500  -999.2500  -999.2500   -16.1304     6.7539     7.2536     8.6602    70.4933
  312.5000  -999.2500     0.3358  -999.2500  -999.2500  -999.2500   -16.9832     6.5491     6.9062     8.2685    74.3934
  313.0000  -999.2500     0.3319  -999.2500  -999.2500  -999.2500   -18.9301     6.3505     6.5755     7.8948    75.4435
  313.5000  -999.2500     0.3298  -999.2500  -999.2500  -999.2500   -20.4921     6.1594     6.3853     7.5780    76.3513
  314.0000  -999.2500     0.3308  -999.2500  -999.2500  -999.2500   -19.4979     6.1155     6.2808     7.2822    76.3949
  314.5000  -999.2500     0.3320  -999.2500  -999.2500  -999.2500   -17.7620     6.0722     6.1594     7.0061    76.4097
  315.0000  -999.2500     0.3331  -999.2500  -999.2500  -999.2500   -16.2950     6.0471     6.1983     7.4813    77.4363
  315.5000  -999.2500     0.3342  -999.2500  -999.2500  -999.2500   -15.8484     6.1596     6.2462     8.0222    78.2619
  316.0000  -999.2500     0.3354  -999.2500  -999.2500  -999.2500   -16.2302     6.2400     6.3235     8.3447    78.4940
  316.5000  -999.2500     0.3364  -999.2500  -999.2500  -999.2500   -17.2611     6.3217     6.4243     8.1489    79.1505
  317.0000  -999.2500     0.3284  -999.2500  -999.2500  -999.2500   -16.2268     6.4045     6.5039     7.9629    79.8068
  317.5000  -999.2500     0.3278  -999.2500  -999.2500  -999.2500   -16.2059     6.4881     6.5845     7.8230    80.4844
  318.0000  -999.2500     0.3315  -999.2500  -999.2500  -999.2500   -16.6737     6.5692     6.6480     7.9395    80.1187
  318.5000  -999.2500     0.3348  -999.2500  -999.2500  -999.2500   -17.8179     6.5692     6.6891     8.1183    80.3359
  319.0000  -999.2500     0.3331  -999.2500  -999.2500  -999.2500   -18.9605     6.5692     6.7304     8.2495    81.2192
  319.5000  -999.2500     0.3334  -999.2500  -999.2500  -999.2500   -19.5582     6.5692     6.7641     8.3447    81.5677
  320.0000  -999.2500     0.3357  -999.2500  -999.2500  -999.2500   -17.6587     6.6127     6.7882     8.0594    80.7808
  320.5000  -999.2500     0.3323  -999.2500  -999.2500  -999.2500   -16.3798     6.6795     6.8122     7.8965    80.0208
  321.0000  -999.2500     0.3301  -999.2500  -999.2500  -999.2500   -16.7087     6.7469     6.8976     7.9376    80.4815
  321.5000  -999.2500     0.3298  -999.2500  -999.2500  -999.2500   -17.2127     6.8149     6.9939     8.0935    82.9125
  322.0000  -999.2500     0.3341  -999.2500  -999.2500  -999.2500   -17.7216     6.8785     7.0272     8.2524    85.2672
  322.5000  -999.2500     0.3330  -999.2500  -999.2500  -999.2500   -16.7926     6.9128     7.0716     8.4145    85.1670
  323.0000  -999.2500     0.3245  -999.2500  -999.2500  -999.2500   -15.1818     6.9448     7.1163     8.5085    82.7604
  323.5000  -999.2500     0.3267  -999.2500  -999.2500  -999.2500   -15.7171     6.9769     7.1613     8.5400    80.8137
  324.0000  -999.2500     0.3311  -999.2500  -999.2500  -999.2500   -17.4166     7.0062     7.2023     8.5717    79.3065
  324.5000  -999.2500     0.3381  -999.2500  -999.2500  -999.2500   -20.2707     6.9822     7.2023     8.6034    79.0129
  325.0000  -999.2500     0.3367  -999.2500  -999.2500  -999.2500   -22.8186     6.9554     7.2023     8.6353    79.3591
  325.5000  -999.2500     0.3332  -999.2500  -999.2500  -999.2500   -22.5585     6.9287     7.1833     8.6575    83.7493
  326.0000  -999.2500     0.3362  -999.2500  -999.2500  -999.2500   -19.4606     6.9023     7.1203     8.4562    85.8080
  326.5000  -999.2500     0.3370  -999.2500  -999.2500  -999.2500   -17.3803     6.8701     7.0580     8.2779    84.0504
  327.0000  -999.2500     0.3297     2.2624  -999.2500  -999.2500   -18.1276     6.7959     6.9961     8.1634    81.6484
  327.5000  -999.2500     0.3172     2.2730  -999.2500  -999.2500   -19.4095     6.7224     6.9293     8.1070    80.3702
  328.0000  -999.2500     0.3126     2.2816  -999.2500  -999.2500   -20.1803     6.6299     6.8234     8.0511    81.8927
  328.5000  -999.2500     0.3093     2.2828  -999.2500  -999.2500   -18.8381     6.6554     6.7531     7.9955    82.5887
  329.0000  -999.2500     0.3105     2.2720  -999.2500  -999.2500   -17.2642     6.7041     6.8690     7.9695    81.9010
  329.5000  -999.2500     0.3137     2.2761  -999.2500     6.3901   -16.9914     6.7532     6.9577     8.1867    81.5432
  330.0000  -999.2500     0.3150     2.2792    -0.0836     6.3756   -18.0395     6.8026     7.0476     8.3538    84.6022
  330.5000     0.2060     0.2655     2.3202    -0.0066     6.3612   -19.9028     6.8155     7.0710     8.4997    86.8388
  331.0000     0.1819     0.2505     2.3563     0.0732     6.3378   -20.2507     6.8155     7.0710     8.4997    82.9129
  331.5000     0.1629     0.2751     2.3963     0.1368     6.2526   -18.3837     6.8155     7.0711     8.2908    78.7150
  332.0000     0.1586     0.2930     2.4262     0.2096     6.1684   -16.5484     6.8155     7.0710     8.1925    79.3531
  332.5000     0.1902     0.3107     2.3714     0.2060     6.0836   -16.1888     6.8155     7.0711     8.2863    81.7342
  333.0000     0.2221     0.3212     2.3312     0.1996     6.0475   -17.6616     6.8155     7.0713     8.3452    81.0736
  333.5000     0.2285     0.3093     2.3043     0.1941     6.0468   -19.0838     6.8158     7.0715     8.3447    80.6775
  334.0000     0.2282     0.3097     2.3016     0.1905     6.0468   -19.9760     6.7890     6.9958     8.3450    81.1090
  334.5000     0.2293     0.3226     2.2992     0.1870     6.0468   -18.7085     6.7181     6.9184     8.3207    81.3343
  335.0000     0.2319     0.3393     2.2972     0.1840     6.0468   -16.8249     6.6480     6.8421     8.2569    79.5804
  335.5000     0.2305     0.3560     2.2952     0.1890     6.0468   -16.2641     6.5786     6.7667     8.1925    79.2360
  336.0000     0.2266     0.3727     2.2992     0.2019     6.0468   -16.6515     6.5090     6.6914     8.0999    80.0090
  336.5000     0.2249     0.3870     2.3034     0.2040     6.0468   -16.4620     6.4966     6.6620     8.0364    79.9998
  337.0000     0.2369     0.3883     2.3098     0.1963     6.0468   -16.1047     6.4808     6.6330     8.0011    80.0301
  337.5000     0.2442     0.3451     2.3172     0.1887     6.0468   -15.0089     6.4651     6.6038     7.9660    81.5061
  338.0000     0.2359     0.3190     2.3247     0.1840     6.0468   -13.2832     6.4509     6.5749     7.9310    84.5043
  338.5000     0.2094     0.3084     2.3321     0.2117     6.0468   -12.8112     6.2999     6.4883     7.8965    86.6809
  339.0000     0.2048     0.3264     2.3372     0.2219     6.0468   -13.0283     6.1199     6.3892     7.9580    86.9426
  339.5000     0.2175     0.3381     2.3324     0.2154     6.0468   -13.5647     5.9442     6.2916     8.0431    87.8958
  340.0000     0.2351     0.3350     2.3282     0.1894     6.0468   -14.1084     5.7738     6.1954     7.9519    89.2915
  340.5000     0.2365     0.3290     2.2947     0.1874     6.0468   -14.1479     5.6084     5.9695     7.8049    90.7092
  341.0000     0.2334     0.3297     2.2904     0.1929     6.0468   -13.8488     5.4385     5.6762     7.4511    92.1253
  341.5000     0.2303     0.3306     2.2938     0.1980     6.0468   -13.7301     5.2620     5.4339     6.9873    93.5207
