~VERSION INFORMATION
 VERS.                2.0:   CWLS LOG ASCII STANDARD - VERSION 2.0
 WRAP.                 NO:   ONE LINE PER DEPTH STEP
~WELL INFORMATION
#MNEM.UNIT      DATA TYPE    INFORMATION
#----------   ------------   ------------------------------
 STRT.F           32.0000:   START DEPTH
 STOP.F          551.0000:   STOP DEPTH
 STEP.F            0.5000:   STEP LENGTH
 NULL.          -999.2500:   NO VALUE
 COMP.    FENIX & SCISSON:   COMPANY
 WELL.   NPR ##3 84-SX-10:   WELL
 FLD .              NPR 3:   FIELD
 LOC .      S10 T38N R78W:   LOCATION
 CNTY.            NATRONA:   COUNTY
 STAT.            WYOMING:   STATE
 CTRY. UNITED STATES OF AMERICA:   COUNTRY
 SRVC.              Welex:   SERVICE COMPANY
 DATE.        25-JAN-1978:   LOGDATE
 API .       490251033700:   API NUMBER
~CURVE INFORMATION
#MNEM.UNIT       API CODE    CURVE DESCRIPTION
#----------   ------------   ------------------------------
 DEPT.F                  :   
 SPR .MV     07 010 01 00:   SPONTANEOUS POTENTIAL FROM RES.
 ILD .OHMM   07 120 46 00:   INDUCTION LOG DEEP
 ILM .OHMM   07 120 44 00:   INDUCTION LOG MEDIUM
 SGRD.OHMM   07 220 05 00:   SHALLOW GUARD RESISTIVITY
 CALD.IN     45 280 60 00:   CALIPER FROM DENSITY LOG
 GRD .GAPI   45 310 01 00:   GAMMA RAY FROM DENSITY LOG
 CORR.G/C3   45 356 01 00:   DENSITY CORRECTION
 RHOB.G/C3   45 350 01 00:   BULK DENSITY
 DPHI.DEC    45 890 12 00:   DENSITY POROSITY SANDSTONE
~PARAMETER INFORMATION
#MNEM.UNIT          VALUE    DESCRIPTION
#----------   ------------   ------------------------------
 CLNT.            A2DTECH:   CLIENT CODE
 ORIG.           5" PRINT:   ORIGIN OF DATA
 UWI .       490251033700:   UNIQUE WELL ID
 DICO. A2D Technologies, Inc.:   DIGITIZING COMPANY
~OTHER INFORMATION
~A   DEPT      SPR        ILD        ILM       SGRD         CALD      GRD       CORR       RHOB       DPHI   
# ...
  360.5000   -41.3225    20.0120    19.2743    34.4573     9.1136    77.8963     0.0369     2.3547     0.1914
  361.0000   -41.3244    20.1516    19.5410    32.3768     9.1282    78.0450     0.0444     2.3668     0.1776
  361.5000   -41.1757    20.2922    20.0877    34.4669     9.1278    81.3465     0.0489     2.3750     0.1688
  362.0000   -41.1772    20.2927    20.9377    36.1865     9.1199    82.0962     0.0428     2.3758     0.1685
  362.5000   -41.1787    20.2933    20.7909    34.9581     9.0968    81.1936     0.0383     2.3660     0.1737
  363.0000   -41.1804    20.1537    20.5033    34.2430     9.0664    80.7417     0.0390     2.3585     0.1791
  363.5000   -41.1819    20.1544    21.2228    34.2343     9.0209    80.5901     0.0442     2.3697     0.1755
  364.0000   -41.1834    20.0158    21.6660    37.2672     8.9904    81.4893     0.0487     2.3759     0.1689
  364.5000   -41.1848    19.8654    21.8142    37.4895     8.9899    83.1395     0.0487     2.3787     0.1674
  365.0000   -41.0362    19.6055    21.6608    32.8667     8.9895    84.6396     0.0486     2.3825     0.1662
  365.5000   -41.0376    19.4706    21.2131    31.9708     9.0041    85.8391     0.0486     2.3862     0.1619
  366.0000   -41.0391    19.3367    20.7747    31.7543     9.0787    86.7385     0.0486     2.3900     0.1616
  366.5000   -40.8904    19.0714    20.3454    31.7598     9.1833    87.4879     0.0501     2.3952     0.1580
  367.0000   -40.8819    19.0720    20.0634    31.7642     9.2579    87.9369     0.0500     2.3990     0.1550
  367.5000   -40.7182    18.9407    19.7853    31.3311     9.3176    88.2358     0.0530     2.4088     0.1496
  368.0000   -40.4447    18.6808    19.9207    30.6902     9.3622    88.0839     0.0567     2.4163     0.1439
  368.5000   -40.4462    18.2973    19.9185    30.0624     9.3918    87.6320     0.0604     2.4208     0.1409
  369.0000   -40.2971    18.0394    19.6352    29.4475     9.3612    87.1802     0.0559     2.4208     0.1397
  369.5000   -40.1484    17.6755    18.6291    28.6458     9.2857    86.7280     0.0484     2.4115     0.1454
  370.0000   -39.9998    17.3127    17.9475    27.8669     9.1652    86.2761     0.0423     2.4057     0.1505
  370.5000   -39.8511    16.8402    18.1959    27.6771     9.0446    85.3738     0.0423     2.4050     0.1520
  371.0000   -39.7028    16.3804    17.4530    27.8746     8.9390    83.7207     0.0438     2.4049     0.1523
  371.5000   -39.7042    16.1556    17.0928    27.8785     8.9386    81.3165     0.0422     2.4042     0.1520
  372.0000   -39.5456    16.0446    18.0640    27.8824     8.9532    84.1680     0.0377     2.4019     0.1536
  372.5000   -39.2567    16.0451    16.8536    28.0804     8.9527    86.1185     0.0362     2.3982     0.1557
  373.0000   -39.2585    16.0455    17.3251    28.0843     8.9672    81.7628     0.0377     2.3951     0.1593
  373.5000   -39.1095    16.0460    17.6869    28.4805     8.9668    85.0643     0.0451     2.3981     0.1581
  374.0000   -39.1113    16.0464    17.3214    28.6827     8.9814    86.7145     0.0496     2.4034     0.1542
  374.5000   -38.9623    16.0469    17.8055    28.7008     8.9809    88.0645     0.0526     2.4087     0.1512
  375.0000   -38.9641    16.0474    18.0519    28.8906     8.9955    88.5135     0.0541     2.4109     0.1479
  375.5000   -38.8150    16.1593    18.4288    28.8954     8.9950    86.2595     0.0495     2.4064     0.1491
  376.0000   -38.8169    16.2721    18.6844    28.8995     8.9946    87.9097     0.0465     2.4101     0.1491
  376.5000   -38.6682    16.3856    17.7978    28.5053     8.9942    88.6594     0.0435     2.4086     0.1482
  377.0000   -38.6697    16.3861    17.7959    27.9223     8.9937    87.3022     0.0419     2.4010     0.1548
  377.5000   -38.6712    16.5004    17.4282    27.9261     8.9932    86.1033     0.0419     2.4056     0.1515
  378.0000   -38.6729    16.5008    17.0680    27.9300     8.9928    85.5013     0.0419     2.4071     0.1488
  378.5000   -38.6744    16.3874    17.1847    27.9339     8.9924    86.2510     0.0395     2.4048     0.1491
  379.0000   -38.6759    16.3880    17.3023    27.9378     8.9918    87.0040     0.0328     2.4008     0.1539
  379.5000   -38.6773    16.3884    17.5413    27.3525     8.9914    87.1487     0.0283     2.3920     0.1602
  380.0000   -38.5283    16.2757    18.1573    26.6213     8.9910    86.8467     0.0222     2.3853     0.1629
  380.5000   -38.5301    16.1638    17.7821    26.2582     8.9906    83.0915     0.0222     2.3807     0.1663
  381.0000   -38.5316    16.0527    18.0281    25.9001     9.0051    83.5706     0.0312     2.3883     0.1647
  381.5000   -38.5330    15.9423    17.6556    26.2665     9.0196    87.4427     0.0371     2.3995     0.1584
  382.0000   -38.5345    15.9429    16.9523    26.6371     9.0342    87.8921     0.0416     2.4070     0.1509
  382.5000   -38.5360    15.8333    17.8980    26.8262     9.0488    85.6381     0.0431     2.4100     0.1479
  383.0000   -38.5378    15.8337    17.5232    26.8299     9.0483    86.8620     0.0416     2.4048     0.1503
  383.5000   -38.3891    15.7090    16.9125    26.2811     9.0479    88.4877     0.0400     2.3950     0.1557
  384.0000   -38.3906    15.5090    16.5794    25.2134     9.0474    89.3872     0.0370     2.3897     0.1599
  384.5000   -38.3921    15.4024    17.0437    24.6977     9.0470    89.6865     0.0355     2.3828     0.1642
  385.0000   -38.3935    15.1910    16.1230    24.7012     9.0616    89.6747     0.0339     2.3777     0.1666
  385.5000   -38.3950    15.0866    16.5741    24.8774     9.0611    88.6319     0.0309     2.3762     0.1684
  386.0000   -38.3964    15.0871    16.9206    24.7089     9.0607    87.4293     0.0309     2.3777     0.1678
  386.5000   -38.5481    15.0875    16.1182    23.8701     9.0752    87.2781     0.0323     2.3736     0.1690
  387.0000   -38.5495    15.2983    16.5687    23.3810     9.0747    89.4024     0.0353     2.3671     0.1729
  387.5000   -38.5511    15.4051    17.0323    24.5484     9.0743    90.5778     0.0398     2.3754     0.1699
  388.0000   -38.5528    15.5126    17.1488    25.7732     9.0739    91.3272     0.0428     2.3889     0.1627
  388.5000   -38.5543    15.5131    16.4491    25.9562     9.0884    91.0255     0.0472     2.3994     0.1537
  389.0000   -38.5558    15.6213    17.0268    25.7803     9.0880    90.4235     0.0502     2.4077     0.1497
  389.5000   -38.7074    15.5138    17.0245    24.9051     9.0725    90.1214     0.0532     2.4129     0.1470
  390.0000   -39.0091    15.4072    17.0227    24.3845     9.0721    90.2705     0.0532     2.4129     0.1452
  390.5000   -39.3109    15.1958    17.0208    24.0360     9.0716    90.5690     0.0531     2.4107     0.1458
  391.0000   -39.6127    14.9871    16.9016    23.9000     9.0862    90.8838     0.0531     2.4114     0.1474
  391.5000   -39.7643    14.7814    15.9890    23.4120     9.0857    91.4667     0.0531     2.4137     0.1486
  392.0000   -39.7658    14.5785    16.4363    22.6172     9.0853    92.0659     0.0530     2.4205     0.1442
  392.5000   -39.7673    14.4717    16.6637    21.8493     9.0848    92.5150     0.0500     2.4249     0.1395
  393.0000   -39.9192    14.2796    15.8356    21.4017     9.0844    92.6637     0.0455     2.4302     0.1350
  393.5000   -39.9207    14.1814    15.0160    20.8197     9.0840    92.5118     0.0439     2.4407     0.1323
  394.0000   -39.9221    13.9868    14.2052    20.2528     9.0835    92.5104     0.0439     2.4332     0.1314
  394.5000   -39.9236    13.8906    15.4344    21.2634     9.0830    92.5090     0.0409     2.4249     0.1362
  395.0000   -40.0752    13.7000    15.2205    22.3295     9.0826    92.3573     0.0393     2.4226     0.1386
  395.5000   -40.2268    13.5119    14.9060    22.6392     9.0821    92.3556     0.0363     2.4219     0.1402
  396.0000   -40.3784    13.4190    14.4972    22.3305     9.0817    92.2041     0.0348     2.4234     0.1408
  396.5000   -40.5300    13.3268    14.0023    21.7233     9.0812    92.2027     0.0347     2.4279     0.1390
