~VERSION INFORMATION
 VERS.                2.0:   CWLS LOG ASCII STANDARD - VERSION 2.0
 WRAP.                 NO:   ONE LINE PER DEPTH STEP
~WELL INFORMATION
#MNEM.UNIT      DATA TYPE    INFORMATION
#----------   ------------   ------------------------------
 STRT.F            0.0000:   START DEPTH
 STOP.F         1110.0000:   STOP DEPTH
 STEP.F            0.5000:   STEP LENGTH
 NULL.          -999.2500:   NO VALUE
 COMP. FENIX & SCISSON INC:   COMPANY
 WELL. NAVAL PETROLEUM RESERVE 3 SX-1 #63-14:   WELL
 FLD .       TEA POT DOME:   FIELD
 LOC .      S14 T38N R78W:   LOCATION
 CNTY.            NATRONA:   COUNTY
 STAT.            WYOMING:   STATE
 CTRY. UNITED STATES OF AMERICA:   COUNTRY
 SRVC.            Unknown:   SERVICE COMPANY
 DATE.        15-APR-1978:   LOGDATE
 API .       490251061500:   API NUMBER
~CURVE INFORMATION
#MNEM.UNIT       API CODE    CURVE DESCRIPTION
#----------   ------------   ------------------------------
 DEPT.F                  :   
 NPHI.DEC    42 890 03 00:   NEUTRON POROSITY SANDSTONE
 GRD .GAPI   45 310 01 00:   GAMMA RAY FROM DENSITY LOG
 CALD.IN     45 280 60 00:   CALIPER FROM DENSITY LOG
 RHOB.G/C3   45 350 01 00:   BULK DENSITY
 DPHI.DEC    45 890 12 00:   DENSITY POROSITY SANDSTONE
 CORR.G/C3   45 356 01 00:   DENSITY CORRECTION
 SPR .MV     05 010 01 00:   SPONTANEOUS POTENTIAL FROM RES.
 SN  .OHMM   05 040 16 00:   SHORT NORMAL 16"
 ILD .OHMM   05 120 46 00:   INDUCTION LOG DEEP
~PARAMETER INFORMATION
#MNEM.UNIT          VALUE    DESCRIPTION
#----------   ------------   ------------------------------
 PD  .                 GL:   PERMANENT DATUM
 EPD .F              5253:   ELEVATION PERMANENT DATUM
 LMF .                 KB:   LOG MEASURED FROM
 DAPD.F                 4:   FEET ABOVE PERMANENT DATUM
 DMF .                 KB:   DRILLING MEASURED FROM
 EKB .F              5257:   KELLING BUSHING
 EGL .F              5253:   GROUND LEVEL
 DATE.          4-15-1978:   RUN DATE
 RUN .                  1:   RUN NUMBER
 DD  .F              1095:   DEPTH DRILLER
 DL  .F              1102:   DEPTH LOGGER
 BLI .F              1100:   BOTTOM LOG INTERVAL
 TLI .F               850:   TOP LOG INTERVAL
 CS  .IN            9.625:   CASING SIZE
 CBD .F                40:   CASING BOTTOM DRILLER
 CBL .F                40:   CASING BOTTOM LOGGER
 BS  .IN            7.875:   BIT SIZE
 BSD .F              1095:   BIT SIZE AT DEPTH
 DFT .                KCL:   DRILLING FLUID TYPE
 DFD .                8.6:   DRILLING FLUID DENSITY
 DFV .                 30:   DRILLING FLUID VISCOSITY
 DFPH.                 10:   DRILLING FLUID PH
 DFL .                  8:   DRILLING FLUID LOSS
 MSS .           FLOWLINE:   MUD SAMPLE SOURCE
 RMS .OHMM            .46:   RESISTIVITY MUD SAMPLE
 MST .F                58:   MUD SAMPLE TEMPERATURE
 RMF .OHMM             .5:   RESISTIVITY MUD FILTRATE SAMPLE
 MFST.F                60:   MUD FILTRATE SAMPLE TEMPERATURE
 RMC .OHMM             .5:   RESISTIVITY MUD CAKE
 MCST.F                60:   MUD CAKE SAMPLE TEMPERATURE
 MFSS.           MEASURED:   MUD FILTRATE SAMPLE SOURCE
 RMB .OHMM            .33:   RESISTIVITY MUD AT BHT
 BHT .F                80:   BOTTOM HOLE TEMPERATURE
 TCS .HRS               6:   TIME CURCULATED STOPPED
 MRT .F                80:   MAXIMUM RECORDED TEMPERATURE
 LUN .               2958:   LOGGING UNIT NUMBER
 LUL .               CASP:   LOGGING UNIT LOCATION
 ENGI.             MILLER:   RECORDING ENGINEER
 WITN.           MCGINLEY:   WITNESSED BY
 CLNT.            A2DTECH:   CLIENT CODE
 ORIG.      2" & 5" PRINT:   ORIGIN OF DATA
 UWI .       490251061500:   UNIQUE WELL ID
 DICO. A2D Technologies, Inc.:   DIGITIZING COMPANY
~OTHER INFORMATION
~A    DEPT    NPHI         GRD      CALD       RHOB       DPHI       CORR        SPR         SN        ILD   
# ...
  292.0000  -999.2500    85.7274     7.9235     2.3962     0.1456     0.0786   -50.6656     6.0171     5.7947
  292.5000  -999.2500    84.8324     7.7592     2.3989     0.1425     0.0792   -50.6555     6.0030     5.7947
  293.0000  -999.2500    82.6118     7.6274     2.4015     0.1405     0.0772   -50.6455     5.9892     5.7947
  293.5000  -999.2500    78.3921     7.5585     2.4041     0.1407     0.0752   -50.6354     5.9748     5.7943
  294.0000  -999.2500    77.7532     7.4898     2.4094     0.1389     0.0732   -50.6254     5.9567     5.7934
  294.5000  -999.2500    77.1359     7.4211     2.4157     0.1323     0.0712   -50.6152     6.1220     5.9249
  295.0000  -999.2500    76.5101     7.3516     2.4221     0.1228     0.0640   -50.6057     6.3621     6.1127
  295.5000  -999.2500    75.0451     7.2849     2.4251     0.1302     0.0549   -50.6242     6.6116     6.3063
  296.0000  -999.2500    71.8989     7.3446     2.4034     0.1436     0.0459   -50.7002     6.8707     6.5071
  296.5000  -999.2500    68.7927     7.4016     2.3761     0.1524     0.0384   -50.7753     7.1399     6.7164
  297.0000  -999.2500    67.6302     7.4004     2.3634     0.1580     0.0393   -50.8506     7.3799     6.7053
  297.5000  -999.2500    73.5020     7.4004     2.3651     0.1645     0.0412   -50.9264     7.4307     6.6915
  298.0000  -999.2500    81.6350     7.4153     2.3694     0.1619     0.0431   -50.9995     7.2690     6.6784
  298.5000  -999.2500    84.7107     7.4904     2.3712     0.1593     0.0450   -50.8926     7.1569     6.6658
  299.0000  -999.2500    85.1305     7.5635     2.3718     0.1584     0.0469   -50.7658     7.0462     6.6532
  299.5000  -999.2500    87.3838     7.6383     2.3735     0.1581     0.0488   -50.6388     6.9374     6.5612
  300.0000  -999.2500    90.4725     7.6181     2.3849     0.1540     0.0507   -50.5121     6.8302     6.4760
  300.5000  -999.2500    91.4931     7.5603     2.3955     0.1459     0.0532   -50.3859     6.7245     6.3920
  301.0000  -999.2500    91.4411     7.5005     2.3975     0.1416     0.0556   -50.2589     6.6213     6.3091
  301.5000  -999.2500    91.2140     7.4447     2.3976     0.1431     0.0582   -50.2006     6.5318     6.2378
  302.0000  -999.2500    88.8640     7.5568     2.3972     0.1446     0.0524   -50.1995     6.6098     6.3243
  302.5000  -999.2500    92.6905     7.6809     2.3976     0.1434     0.0448   -50.1995     6.6797     6.4019
  303.0000  -999.2500    95.8168     7.8002     2.3996     0.1402     0.0449   -50.1996     6.7503     6.4805
  303.5000  -999.2500    94.6789     7.8844     2.4015     0.1400     0.0454   -50.1996     6.8217     6.5600
  304.0000  -999.2500    93.9486     7.8832     2.4028     0.1413     0.0458   -50.1996     6.8939     6.6406
  304.5000  -999.2500    97.4882     7.8058     2.4023     0.1415     0.0462   -50.1997     6.9668     6.7221
  305.0000  -999.2500   101.5381     7.8901     2.4024     0.1404     0.0466   -50.1991     7.0405     6.8046
  305.5000  -999.2500   101.9104     7.9964     2.4075     0.1368     0.0480   -50.2351     7.1149     6.8881
  306.0000  -999.2500    99.9212     8.1032     2.4175     0.1305     0.0560   -50.2907     7.1902     6.9726
  306.5000  -999.2500   100.1887     8.2138     2.4265     0.1259     0.0662   -50.3468     7.2662     7.0582
  307.0000  -999.2500   101.5263     8.2033     2.4154     0.1301     0.0749   -50.4030     7.3431     7.1450
  307.5000  -999.2500   101.5743     8.1584     2.4079     0.1342     0.0755   -50.4591     7.4207     7.2283
  308.0000  -999.2500   100.6497     8.1971     2.4028     0.1384     0.0763   -50.5151     7.4992     7.2591
  308.5000  -999.2500    98.5107     8.2041     2.3981     0.1426     0.0766   -50.5713     7.5786     7.2884
  309.0000  -999.2500    96.3615     8.0744     2.3998     0.1436     0.0765   -50.6068     7.6587     7.3180
  309.5000  -999.2500    96.4200     7.9415     2.4018     0.1408     0.0782   -50.6238     7.7397     7.3475
  310.0000  -999.2500    96.8835     7.8727     2.4041     0.1380     0.0805   -50.6404     7.7809     7.3626
  310.5000  -999.2500    97.1781     7.8038     2.4021     0.1370     0.0825   -50.6569     7.6769     7.2951
  311.0000  -999.2500    96.9065     7.7349     2.3981     0.1401     0.0806   -50.6735     7.5837     7.2039
  311.5000  -999.2500    96.6489     7.6660     2.3973     0.1415     0.0742   -50.6900     7.4913     7.0779
  312.0000  -999.2500    96.5245     7.5970     2.3969     0.1425     0.0673   -50.7066     7.4001     6.9542
  312.5000  -999.2500    97.4545     7.5281     2.3979     0.1424     0.0648   -50.7231     7.3101     6.8325
  313.0000  -999.2500   100.7459     7.4591     2.4004     0.1411     0.0650   -50.7397     7.2212     6.7130
  313.5000  -999.2500   103.5358     7.3901     2.4030     0.1398     0.0653   -50.7556     7.1333     6.5922
  314.0000  -999.2500   104.2823     7.3214     2.4078     0.1375     0.0656   -50.7723     7.0805     6.6295
  314.5000  -999.2500   102.9568     7.2727     2.4210     0.1323     0.0659   -50.7957     7.0531     6.6680
  315.0000  -999.2500    99.3784     7.2549     2.4260     0.1271     0.0662   -51.1255     7.0258     6.7144
  315.5000  -999.2500    92.5561     7.2571     2.4257     0.1256     0.0664   -51.8010     6.9986     6.6277
  316.0000  -999.2500    83.5878     7.3343     2.4205     0.1269     0.0647   -52.0597     6.9716     6.5215
  316.5000  -999.2500    73.7194     7.3961     2.3944     0.1375     0.0587   -52.3040     6.8388     6.4164
  317.0000  -999.2500    63.6216     7.3213     2.3811     0.1452     0.0471   -52.5484     6.6863     6.3130
  317.5000  -999.2500    60.6544     7.3190     2.3719     0.1507     0.0465   -52.7935     6.5372     6.2115
  318.0000  -999.2500    68.4291     7.2053     2.3682     0.1555     0.0528   -53.0376     6.3914     6.1115
  318.5000  -999.2500    82.7127     7.1142     2.3717     0.1587     0.0563   -53.2843     6.2489     6.0133
  319.0000  -999.2500    97.3108     7.2186     2.3751     0.1561     0.0556   -53.3034     6.1096     5.9154
  319.5000  -999.2500   106.3110     7.3208     2.3819     0.1515     0.0549   -53.1463     6.0095     5.7997
  320.0000  -999.2500   107.0331     7.4389     2.3926     0.1458     0.0546   -52.9859     6.0000     5.5851
  320.5000  -999.2500   107.3078     7.6323     2.4028     0.1407     0.0546   -52.8178     5.9908     5.6080
  321.0000  -999.2500   106.5132     7.7646     2.4077     0.1393     0.0545   -53.0237     5.9816     5.6407
  321.5000  -999.2500   104.9881     7.8661     2.4075     0.1389     0.0524   -53.3130     5.9724     5.6736
  322.0000  -999.2500   104.2172     7.9672     2.4068     0.1402     0.0507   -53.5853     5.9631     5.7066
  322.5000  -999.2500   104.2860     8.0688     2.4144     0.1370     0.0527   -53.5629     5.9572     5.7399
  323.0000  -999.2500   104.3524     8.1167     2.4241     0.1311     0.0593   -53.5302     5.9900     5.7734
  323.5000  -999.2500   104.4563     8.1179     2.4336     0.1251     0.0662   -53.4987     6.0189     5.7947
  324.0000  -999.2500   102.0482     8.1169     2.4385     0.1185     0.0729   -53.4677     6.0480     5.6697
  324.5000  -999.2500    98.8957     8.0779     2.4207     0.1261     0.0767   -53.4366     6.0772     5.5966
  325.0000  -999.2500    97.7156     8.0242     2.4057     0.1351     0.0718   -53.4055     6.1070     5.5244
  325.5000  -999.2500    99.5078     7.9695     2.4029     0.1378     0.0648   -53.3744     6.1237     5.4532
  326.0000  -999.2500   103.7083     7.9148     2.4010     0.1382     0.0569   -53.3433     6.0275     5.3828
  326.5000  -999.2500   107.9030     7.8601     2.4031     0.1379     0.0562   -53.3123     5.9595     5.3134
  327.0000  -999.2500   110.0550     7.8056     2.4056     0.1365     0.0559   -53.2812     5.8924     5.2449
  327.5000  -999.2500   104.0242     7.7986     2.4078     0.1351     0.0556   -53.2498     5.8261     5.1773
  328.0000  -999.2500    99.8998     7.7932     2.4056     0.1347     0.0553   -53.2188     5.7606     5.1408
