~VERSION INFORMATION
 VERS.                2.0:   CWLS LOG ASCII STANDARD - VERSION 2.0
 WRAP.                 NO:   ONE LINE PER DEPTH STEP
~WELL INFORMATION
#MNEM.UNIT      DATA TYPE    INFORMATION
#----------   ------------   ------------------------------
 STRT.F           20.5000:   START DEPTH
 STOP.F          725.0000:   STOP DEPTH
 STEP.F            0.5000:   STEP LENGTH
 NULL.          -999.2500:   NO VALUE
 COMP. FENIX & SCISSON INC:   COMPANY
 WELL.       NPR 3 #67-27:   WELL
 FLD .             TEAPOT:   FIELD
 LOC .      S27 T39N R78W:   LOCATION
 CNTY.            NATRONA:   COUNTY
 STAT.            WYOMING:   STATE
 CTRY. UNITED STATES OF AMERICA:   COUNTRY
 SRVC.           BIRDWELL:   SERVICE COMPANY
 DATE.        15-SEP-1978:   LOGDATE
 API .       490251069400:   API NUMBER
~CURVE INFORMATION
#MNEM.UNIT       API CODE    CURVE DESCRIPTION
#----------   ------------   ------------------------------
 DEPT.F                  :   
 CALD.IN     45 280 60 00:   CALIPER
 GRD .GAPI   45 310 01 00:   GAMMA RAY FROM DENSITY LOG
 RHOB.G/C3   45 350 01 00:   BULK DENSITY
 DPHI.DEC    45 890 12 00:   DENSITY POROSITY SANDSTONE
 CORR.G/C3   45 356 01 00:   DENSITY CORRECTION
 SPR .MV     05 010 01 00:   SPONTANEOUS POTENTIAL FROM RES.
 ILD .OHMM   05 120 46 00:   INDUCTION LOG DEEP
 SN  .OHMM   05 040 16 00:   SHORT NORMAL 16"
~PARAMETER INFORMATION
#MNEM.UNIT          VALUE    DESCRIPTION
#----------   ------------   ------------------------------
 PD  .                 GL:   PERMANENT DATUM
 EPD .F              5027:   ELEVATION PERMANENT DATUM
 LMF .                 KB:   LOG MEASURED FROM
 DAPD.F                 4:   FEET ABOVE PERMANENT DATUM
 DMF .                 KB:   DRILLING MEASURED FROM
 EKB .F              5031:   KELLING BUSHING
 EGL .F              5027:   GROUND LEVEL
 DATE.            9-15-78:   RUN DATE
 RUN .                  1:   RUN NUMBER
 DD  .F               728:   DEPTH DRILLER
 DL  .F               719:   DEPTH LOGGER
 BLI .F               713:   BOTTOM LOG INTERVAL
 TLI .F                30:   TOP LOG INTERVAL
 CS  .IN            8.625:   CASING SIZE
 CBD .F                34:   CASING BOTTOM DRILLER
 CBL .F                34:   CASING BOTTOM LOGGER
 BS  .IN            7.875:   BIT SIZE
 BSD .F               728:   BIT SIZE AT DEPTH
 DFT .            KCL MUD:   DRILLING FLUID TYPE
 DFD .                  9:   DRILLING FLUID DENSITY
 DFV .                 46:   DRILLING FLUID VISCOSITY
 DFPH.                  9:   DRILLING FLUID PH
 DFL .                7.6:   DRILLING FLUID LOSS
 MSS .          FLOW LINE:   MUD SAMPLE SOURCE
 RMS .OHMM            .34:   RESISTIVITY MUD SAMPLE
 MST .F                68:   MUD SAMPLE TEMPERATURE
 RMF .OHMM             .3:   RESISTIVITY MUD FILTRATE SAMPLE
 MFST.F                68:   MUD FILTRATE SAMPLE TEMPERATURE
 RMC .OHMM            .38:   RESISTIVITY MUD CAKE
 MCST.F                70:   MUD CAKE SAMPLE TEMPERATURE
 MFSS.               MEAS:   MUD FILTRATE SAMPLE SOURCE
 MCSS.               MEAS:   MUD CAKE SAMPLE SOURCE
 RMB .OHMM            .32:   RESISTIVITY MUD AT BHT
 BHT .F                72:   BOTTOM HOLE TEMPERATURE
 TCS .HRS               2:   TIME CURCULATED STOPPED
 MRT .F                72:   MAXIMUM RECORDED TEMPERATURE
 LUN .               2958:   LOGGING UNIT NUMBER
 LUL .               CASP:   LOGGING UNIT LOCATION
 ENGI.           REYNOLDS:   RECORDING ENGINEER
 WITN.           DINSMORE:   WITNESSED BY
 CLNT.            A2DTECH:   CLIENT CODE
 ORIG.           5" PRINT:   ORIGIN OF DATA
 UWI .       490251069400:   UNIQUE WELL ID
 DICO. A2D Technologies, Inc.:   DIGITIZING COMPANY
~OTHER INFORMATION
~A   DEPT     CALD        GRD       RHOB       DPHI       CORR        SPR        ILD         SN   
# ...
  466.0000     7.9965   123.6870     2.5011     0.1158     0.0304   -43.0374     5.7808     6.2139
  466.5000     8.0006   124.0089     2.5015     0.1153     0.0311   -43.0611     5.9773     6.5565
  467.0000     8.0047   124.0989     2.5001     0.1143     0.0300   -43.0850     5.9247     6.6719
  467.5000     8.0091   124.0979     2.4993     0.1112     0.0273   -43.1222     5.8869     6.7405
  468.0000     8.0031   124.2274     2.5065     0.1082     0.0223   -43.1849     5.8497     6.8098
  468.5000     7.9936   124.4046     2.5139     0.1051     0.0172   -43.2471     5.8144     6.8638
  469.0000     7.9840   124.5771     2.5165     0.1020     0.0121   -43.3015     5.8352     6.8341
  469.5000     7.9744   124.5125     2.5185     0.1003     0.0124   -43.3002     5.8560     6.8099
  470.0000     7.9649   123.9108     2.5162     0.1028     0.0109   -43.3000     5.8770     6.7712
  470.5000     7.9552   123.3140     2.5117     0.1081     0.0096   -43.3000     5.8978     6.7232
  471.0000     7.9456   122.7232     2.5014     0.1172     0.0119   -43.3000     5.9212     6.6759
  471.5000     7.9364   122.7987     2.4913     0.1172     0.0142   -43.3001     5.7609     6.6287
  472.0000     7.9433   125.3349     2.4807     0.1238     0.0165   -43.3011     5.3925     6.5820
  472.5000     7.9829   126.9624     2.4602     0.1506     0.0188   -43.2487     5.0522     6.4827
  473.0000     7.9688   127.4833     2.4313     0.1751     0.0200   -43.1793     4.8642     6.3111
  473.5000     7.9415   127.4985     2.4050     0.1747     0.0208   -43.0995     4.7657     6.1449
  474.0000     7.9384   127.0313     2.4025     0.1647     0.0216   -42.6423     4.6597     5.8489
  474.5000     7.9598   125.7754     2.4164     0.1539     0.0224   -42.1280     4.5634     5.5689
  475.0000     7.9816   124.5264     2.4397     0.1463     0.0232   -42.1654     4.5065     5.3021
  475.5000     7.9880   123.3239     2.4446     0.1454     0.0240   -42.2444     4.4502     5.2054
  476.0000     7.9851   123.5217     2.4515     0.1359     0.0248   -42.2845     4.4502     5.3000
  476.5000     7.9821   124.6024     2.4662     0.1264     0.0256   -42.2143     4.6385     5.4665
  477.0000     7.9790   125.7096     2.4809     0.1175     0.0264   -42.1477     4.8357     5.6368
  477.5000     7.9760   126.1527     2.4897     0.1174     0.0271   -42.0813     5.0412     5.8123
  478.0000     7.9729   126.2369     2.4934     0.1176     0.0279   -42.0146     5.2555     6.0139
  478.5000     7.9702   125.6035     2.4983     0.1104     0.0287   -41.9488     5.4757     6.2558
  479.0000     7.9747   124.5418     2.5089     0.1051     0.0295   -41.9163     5.7043     6.5075
  479.5000     7.9793   124.2176     2.5183     0.1022     0.0303   -41.9946     5.9424     6.7692
  480.0000     7.9839   123.8263     2.5203     0.1009     0.0311   -42.0695     6.1904     7.0415
  480.5000     7.9885   123.8288     2.5203     0.1008     0.0315   -42.1442     6.4488     7.3892
  481.0000     7.9931   124.0135     2.5152     0.1036     0.0315   -42.2189     6.6481     7.3785
  481.5000     7.9976   124.2010     2.5103     0.1052     0.0315   -42.2937     6.7384     7.3664
  482.0000     8.0022   124.2425     2.5072     0.1058     0.0315   -42.3687     6.6862     7.3531
  482.5000     8.0068   123.9929     2.5080     0.1071     0.0312   -42.4426     6.6192     7.3400
  483.0000     8.0101   123.7517     2.5087     0.1073     0.0290   -42.4783     6.5529     7.3270
  483.5000     8.0100   123.5116     2.5097     0.1053     0.0268   -42.3647     6.4873     7.2791
  484.0000     8.0100   123.3458     2.5110     0.1040     0.0246   -42.3420     6.4224     7.2050
  484.5000     8.0100   123.8207     2.5122     0.1082     0.0225   -42.4434     6.3580     7.1094
  485.0000     8.0100   124.2964     2.5104     0.1125     0.0203   -42.4941     6.2856     7.0077
  485.5000     8.0100   124.7712     2.4945     0.1150     0.0181   -42.3161     6.1970     6.9077
  486.0000     8.0100   125.7432     2.4872     0.1212     0.0158   -42.1304     6.1112     6.7764
  486.5000     8.0098   126.8983     2.4857     0.1249     0.0192   -42.1724     5.7652     6.6223
  487.0000     8.0197   128.0609     2.4807     0.1312     0.0237   -42.2891     5.3629     6.4717
  487.5000     8.0328   129.2383     2.4688     0.1477     0.0267   -42.4058     4.9708     6.3173
  488.0000     8.0459   129.5812     2.4342     0.1642     0.0218   -42.4582     4.6601     6.1136
  488.5000     8.0585   128.6711     2.4068     0.1699     0.0170   -42.2021     4.6954     5.9062
  489.0000     8.0498   127.7748     2.4138     0.1521     0.0123   -41.9448     4.7607     5.7059
  489.5000     8.7232   126.8742     2.4381     0.1363     0.0100   -41.9982     4.8269     5.5013
  490.0000     9.2521   126.4643     2.4878     0.1225     0.0113   -42.1213     4.8939     5.4746
  490.5000     7.9709   126.3863     2.5086     0.1052     0.0125   -42.2480     4.9619     5.4509
  491.0000     7.9304   126.3141     2.5031     0.1142     0.0138   -42.2509     5.0309     5.8904
  491.5000     7.9448   126.2378     2.4913     0.1208     0.0150   -42.1694     5.3178     6.2417
  492.0000     7.9634   126.1613     2.4892     0.1173     0.0163   -42.0979     5.8299     6.6140
  492.5000     7.9800   126.1478     2.5023     0.1120     0.0174   -42.0824     6.4005     7.0085
  493.0000     7.9843   126.4196     2.5048     0.1122     0.0153   -42.0644     6.9274     7.4576
  493.5000     7.9696   126.6850     2.5040     0.1124     0.0132   -42.0463     6.9915     7.5430
  494.0000     7.9553   126.9462     2.5068     0.1104     0.0111   -42.0282     6.9645     7.6361
  494.5000     7.9410   126.9682     2.5100     0.1080     0.0097   -42.0101     6.9355     7.7378
  495.0000     7.9309   126.6524     2.5132     0.1055     0.0106   -41.9920     6.9065     7.7751
  495.5000     7.9371   126.3412     2.5152     0.1036     0.0115   -41.9739     6.8638     7.8263
  496.0000     7.9429   126.0286     2.5157     0.1011     0.0123   -41.9558     6.8839     7.8815
  496.5000     7.9486   125.7164     2.5164     0.1016     0.0132   -41.9376     6.9239     7.8530
  497.0000     7.9544   125.4007     2.5183     0.1016     0.0122   -41.9193     6.9639     7.8216
  497.5000     7.9601   125.3012     2.5201     0.0990     0.0103   -41.9010     7.0040     7.7904
  498.0000     7.9659   125.2995     2.5220     0.0972     0.0084   -41.9104     7.0563     7.7590
  498.5000     7.9737   125.2998     2.5238     0.0977     0.0065   -41.9221     7.0379     7.7350
  499.0000     7.9895   125.3009     2.5229     0.0982     0.0060   -41.9336     7.0120     7.7242
  499.5000     8.0047   125.3518     2.5206     0.0987     0.0070   -41.9451     6.9862     7.7136
  500.0000     8.0199   125.4570     2.5198     0.0992     0.0080   -41.9566     6.9605     7.7031
  500.5000     8.0352   125.5595     2.5194     0.0987     0.0090   -41.9682     6.9349     7.6927
  501.0000     8.0504   125.6327     2.5191     0.0981     0.0089   -41.9797     6.9176     7.6823
  501.5000     8.0663   127.9588     2.5187     0.0974     0.0077   -41.9912     6.9037     7.6719
  502.0000     8.0681   129.4096     2.5184     0.0973     0.0065   -42.0027     6.8898     7.6248
  502.5000     8.0655   130.3372     2.5181     0.0985     0.0066   -42.0142     6.8759     7.5438
  503.0000     8.0627   130.0240     2.5149     0.1014     0.0167   -42.0257     6.8187     7.4576
  503.5000     8.0601   129.6347     2.5081     0.1096     0.0214   -42.0373     6.4641     7.4576
  504.0000     8.0574   129.3208     2.4961     0.1198     0.0215   -42.0488     6.1301     7.4576
  504.5000     8.0547   129.5653     2.4873     0.1224     0.0215   -42.0603     5.9770     7.4285
  505.0000     8.0520   129.8070     2.4899     0.1201     0.0215   -42.0719     5.9567     7.2167
  505.5000     8.0493   130.0496     2.5018     0.1123     0.0220   -42.0831     5.9415     7.0109
  506.0000     8.0467   129.8792     2.5137     0.1046     0.0254   -42.0960     5.9263     6.8008
