~VERSION INFORMATION
 VERS.                2.0:   CWLS LOG ASCII STANDARD - VERSION 2.0
 WRAP.                 NO:   ONE LINE PER DEPTH STEP
~WELL INFORMATION
#MNEM.UNIT      DATA TYPE    INFORMATION
#----------   ------------   ------------------------------
 STRT.F           94.0000:   START DEPTH
 STOP.F          939.0000:   STOP DEPTH
 STEP.F            0.5000:   STEP LENGTH
 NULL.          -999.2500:   NO VALUE
 COMP. U S NAVY/INTEX OIL CO:   COMPANY
 WELL.    NPR #3 #88-S-27:   WELL
 FLD .             TEAPOT:   FIELD
 LOC .      S27 T39N R78W:   LOCATION
 CNTY.            NATRONA:   COUNTY
 STAT.            WYOMING:   STATE
 CTRY. UNITED STATES OF AMERICA:   COUNTRY
 SRVC.       Schlumberger:   SERVICE COMPANY
 DATE.        30-JUL-1963:   LOGDATE
 API .       490250658100:   API NUMBER
~CURVE INFORMATION
#MNEM.UNIT       API CODE    CURVE DESCRIPTION
#----------   ------------   ------------------------------
 DEPT.F                  :   
 SPR .MV     05 010 01 00:   SPONTANEOUS POTENTIAL FROM RES.
 CILD.MMHO   05 110 46 00:   CONDUCTIVITY INDUCTION LOG DEEP
 ASN .OHMM   05 041 16 00:   AMPLIFIED SHORT NORMAL 16"
 ILD .OHMM   05 120 46 00:   INDUCTION LOG DEEP
 GR  .GAPI   30 310 01 00:   GAMMA RAY
~PARAMETER INFORMATION
#MNEM.UNIT          VALUE    DESCRIPTION
#----------   ------------   ------------------------------
 PD  .                 GL:   PERMANENT DATUM
 EPD .F              5069:   ELEVATION PERMANENT DATUM
 LMF .                 KB:   LOG MEASURED FROM
 DAPD.F                 5:   FEET ABOVE PERMANENT DATUM
 DMF .                 KB:   DRILLING MEASURED FROM
 EKB .F              5074:   KELLING BUSHING
 EGL .F              5069:   GROUND LEVEL
 DATE.          7-30-1969:   RUN DATE
 RUN .                  1:   RUN NUMBER
 DD  .F               940:   DEPTH DRILLER
 DL  .F               940:   DEPTH LOGGER
 BLI .F               939:   BOTTOM LOG INTERVAL
 TLI .F                94:   TOP LOG INTERVAL
 CS  .IN            8.625:   CASING SIZE
 CBD .F                10:   CASING BOTTOM DRILLER
 BS  .IN             6.75:   BIT SIZE
 BSD .F               940:   BIT SIZE AT DEPTH
 DFT .            GEL/OIL:   DRILLING FLUID TYPE
 DFD .                9.6:   DRILLING FLUID DENSITY
 DFV .                 40:   DRILLING FLUID VISCOSITY
 DFPH.                  9:   DRILLING FLUID PH
 DFL .                  6:   DRILLING FLUID LOSS
 MSS .          FLOW LINE:   MUD SAMPLE SOURCE
 RMS .OHMM           2.94:   RESISTIVITY MUD SAMPLE
 MST .F                89:   MUD SAMPLE TEMPERATURE
 RMF .OHMM           2.19:   RESISTIVITY MUD FILTRATE SAMPLE
 MFST.F                87:   MUD FILTRATE SAMPLE TEMPERATURE
 MFSS.           MEASURED:   MUD FILTRATE SAMPLE SOURCE
 TCS .HRS               1:   TIME CURCULATED STOPPED
 LUN .               4507:   LOGGING UNIT NUMBER
 LUL .               CSPR:   LOGGING UNIT LOCATION
 ENGI.            WINKLER:   RECORDING ENGINEER
 WITN.          JORGENSEN:   WITNESSED BY
 CLNT.            A2DTECH:   CLIENT CODE
 ORIG.           5" PRINT:   ORIGIN OF DATA
 UWI .       490250658100:   UNIQUE WELL ID
 DICO. A2D Technologies, Inc.:   DIGITIZING COMPANY
~OTHER INFORMATION
~A   DEPT      SPR        CILD         ASN        ILD       GR   
# ...
  338.0000   -41.5566   241.5437     4.3955     4.1773  -999.2500
  338.5000   -41.6670   237.6884     4.4089     4.1387  -999.2500
  339.0000   -41.6665   245.4957     4.3258     3.9842  -999.2500
  339.5000   -41.6684   254.7161     4.2423     3.8346  -999.2500
  340.0000   -41.7587   266.6092     4.1595     3.6854  -999.2500
  340.5000   -41.9607   280.2068     4.0767     3.5360  -999.2500
  341.0000   -42.1597   293.7660     3.9932     3.3879  -999.2500
  341.5000   -42.1970   307.0209     3.8932     3.3573  -999.2500
  342.0000   -42.0383   331.4359     3.7709     3.1535  -999.2500
  342.5000   -41.8818   357.2831     3.6491     2.9509  -999.2500
  343.0000   -41.7244   383.1303     3.5266     2.7489  -999.2500
  343.5000   -41.5668   399.2832     3.4455     2.5474  -999.2500
  344.0000   -41.4086   413.9437     3.3838     2.3621  -999.2500
  344.5000   -41.2673   414.5283     3.3217     2.4647  -999.2500
  345.0000   -41.3332   388.8418     3.3033     2.6146  -999.2500
  345.5000   -41.6324   371.4426     3.4305     2.7667  -999.2500
  346.0000   -41.9202   355.0501     3.5716     2.9149  -999.2500
  346.5000   -42.0687   323.7688     3.5809     3.1940  -999.2500
  347.0000   -42.0682   294.4201     3.9479     3.5203  -999.2500
  347.5000   -42.0684   267.8392     4.4272     3.8503  -999.2500
  348.0000   -42.0667   239.1826     4.8194     4.1806  -999.2500
  348.5000   -42.0588   218.3869     4.9693     4.5117  -999.2500
  349.0000   -42.3888   210.8342     5.1200     4.8389  -999.2500
  349.5000   -42.7476   205.6455     5.2627     4.8752  -999.2500
  350.0000   -43.0791   201.4851     5.4017     4.8740  -999.2500
  350.5000   -43.2429   197.3044     5.5352     4.8759  -999.2500
  351.0000   -43.3989   192.4241     5.6682     5.0767  -999.2500
  351.5000   -43.4726   185.7327     5.8549     5.3005  -999.2500
  352.0000   -43.4740   179.1163     6.1604     5.5244  -999.2500
  352.5000   -43.4749   172.5269     6.4506     5.7479  -999.2500
  353.0000   -43.4327   166.7739     6.6030     5.9721  -999.2500
  353.5000   -43.3767   163.9020     6.7615     6.1957  -999.2500
  354.0000   -43.3206   162.3116     6.9199     6.3841  -999.2500
  354.5000   -43.2722   162.3116     6.9842     6.3067  -999.2500
  355.0000   -43.2771   162.8228     7.0420     6.2587  -999.2500
  355.5000   -43.0954   163.4835     7.0590     6.2384  -999.2500
  356.0000   -42.8630   164.1440     7.0229     6.2173  -999.2500
  356.5000   -42.6294   164.8049     6.9871     6.1958  -999.2500
  357.0000   -42.3963   165.4656     6.9508     6.1742  -999.2500
  357.5000   -42.1603   166.1263     6.9444     6.1527  -999.2500
  358.0000   -42.0766   166.7874     6.9661     6.1311  -999.2500
  358.5000   -42.3062   167.4489     6.9999     6.1096  -999.2500
  359.0000   -42.5479   168.1084     7.0052     6.0878  -999.2500
  359.5000   -42.7895   168.3417     6.9980     6.0805  -999.2500
  360.0000   -43.0329   168.3417     6.9895     6.0803  -999.2500
  360.5000   -43.0725   168.3417     6.9876     6.0806  -999.2500
  361.0000   -43.0728   167.1678     6.9934     6.0792  -999.2500
  361.5000   -43.0725   165.8171     6.9989     6.1503  -999.2500
  362.0000   -43.0729   164.4663     7.0099     6.2503  -999.2500
  362.5000   -43.0683   160.9297     7.1245     6.3516  -999.2500
  363.0000   -42.9767   157.0533     7.3586     6.4528  -999.2500
  363.5000   -42.8820   153.0010     7.5923     6.5535  -999.2500
  364.0000   -42.9850   148.0126     7.7129     6.8260  -999.2500
  364.5000   -43.0719   141.0477     7.8021     7.1633  -999.2500
  365.0000   -43.0319   134.0829     7.8896     7.5121  -999.2500
  365.5000   -42.8573   127.6095     7.9948     7.5837  -999.2500
  366.0000   -42.6889   123.9914     8.1159     7.7523  -999.2500
  366.5000   -42.5164   121.1960     8.2366     7.9690  -999.2500
  367.0000   -42.4634   118.6633     8.3564     8.1839  -999.2500
  367.5000   -42.2548   118.0904     8.4359     8.0908  -999.2500
  368.0000   -42.3049   118.0904     8.3331     7.9151  -999.2500
  368.5000   -42.6398   121.0854     8.1884     7.7403  -999.2500
  369.0000   -42.8753   126.1307     7.9532     7.5647  -999.2500
  369.5000   -42.8713   140.5025     7.6902     7.3811  -999.2500
  370.0000   -42.8734   165.5640     7.2957     6.7568  -999.2500
  370.5000   -42.8661   204.8061     6.8031     5.4612  -999.2500
  371.0000   -42.5545   261.6511     6.1843     4.1808  -999.2500
  371.5000   -42.2167   318.8470     5.5759     3.3863  -999.2500
  372.0000   -41.8796   375.9470     4.4648     2.7782  -999.2500
  372.5000   -41.5424   429.6483     3.8660     2.4407  -999.2500
  373.0000   -41.2039   481.4774     3.6285     2.1900  -999.2500
  373.5000   -40.8744   534.1467     3.4003     2.0385  -999.2500
  374.0000   -40.9154   551.7588     3.1746     1.9594  -999.2500
  374.5000   -41.0079   534.6733     3.1236     1.9625  -999.2500
  375.0000   -41.0645   489.2678     3.1659     2.1027  -999.2500
  375.5000   -41.0638   423.5176     3.5222     2.3927  -999.2500
  376.0000   -41.0676   346.8601     3.8340     2.6789  -999.2500
  376.5000   -41.2715   287.2887     4.0313     3.4374  -999.2500
  377.0000   -41.7823   232.5480     4.8734     4.6079  -999.2500
  377.5000   -42.2608   179.2470     6.2740     6.2748  -999.2500
  378.0000   -42.4616   137.1859     8.0056     7.9391  -999.2500
  378.5000   -42.9047   105.0754     8.9784     9.6280  -999.2500
  379.0000   -43.3435    92.4121     9.5913    10.9783  -999.2500
  379.5000   -43.6824    82.9146     9.9366    11.8233  -999.2500
  380.0000   -43.6770    83.9322    10.2888    11.6648  -999.2500
  380.5000   -43.6207    89.6307    10.5065    10.7841  -999.2500
  381.0000   -43.5569    97.9498    10.4126     9.9085  -999.2500
  381.5000   -43.4965   108.0804    10.2564     9.0371  -999.2500
  382.0000   -43.2939   125.8618     9.9546     8.0733  -999.2500
  382.5000   -43.0363   143.3381     9.4605     7.0538  -999.2500
  383.0000   -42.7755   153.1070     8.7565     6.5955  -999.2500
  383.5000   -42.5145   162.8758     7.9376     6.1448  -999.2500
  384.0000   -42.2547   170.5729     7.2053     5.8750  -999.2500
  384.5000   -41.9928   175.3769     6.5269     5.8794  -999.2500
  385.0000   -41.8688   175.3769     6.1597     5.8800  -999.2500
  385.5000   -41.8567   172.1289     7.2972     5.8780  -999.2500
  386.0000   -42.3790   159.9125     8.0826     6.2817  -999.2500
  386.5000   -43.0752   147.6961     8.6953     6.9052  -999.2500
  387.0000   -43.7234   135.5109     9.2860     7.5325  -999.2500
  387.5000   -43.9449   123.1419     9.5348     8.1592  -999.2500
  388.0000   -44.1781   118.5062     9.7321     8.7895  -999.2500
  388.5000   -44.4130   113.4874     9.9294     9.1662  -999.2500
  389.0000   -44.6479   109.6348    10.1281     9.3209  -999.2500
  389.5000   -44.8828   106.0302    10.3147     9.4702  -999.2500
  390.0000   -45.1178   106.0302    10.4849     9.6205  -999.2500
  390.5000   -45.3523   104.6533    10.6049     9.7583  -999.2500
  391.0000   -45.5890   102.1206    10.6038     9.8987  -999.2500
  391.5000   -45.6812    99.5814    10.5695    10.0403  -999.2500
  392.0000   -45.6826    97.0641    10.7439    10.0995  -999.2500
  392.5000   -45.6829    95.9566    10.9082    10.1006  -999.2500
  393.0000   -45.7054    96.6780    10.9039    10.1006  -999.2500
  393.5000   -45.8268    97.5721    10.8684    10.1005  -999.2500
  394.0000   -45.9459    98.4726    10.8327    10.1004  -999.2500
  394.5000   -46.0647    99.0073    10.8439    10.1009  -999.2500
  395.0000   -46.1836    98.1018    11.0661    10.0980  -999.2500
  395.5000   -46.3024    95.9794    11.2851    10.2830  -999.2500
  396.0000   -46.4209    93.8420    11.5405    10.5702  -999.2500
  396.5000   -46.4864    91.7080    11.8510    10.8596  -999.2500
  397.0000   -46.4859    90.1357    12.1610    11.1480  -999.2500
  397.5000   -46.4859    88.8693    12.4707    11.3045  -999.2500
  398.0000   -46.4859    87.6024    12.5135    11.4152  -999.2500
  398.5000   -46.4871    86.3343    12.5531    11.5421  -999.2500
