~VERSION INFORMATION
 VERS.                2.0:   CWLS LOG ASCII STANDARD - VERSION 2.0
 WRAP.                 NO:   ONE LINE PER DEPTH STEP
~WELL INFORMATION
#MNEM.UNIT      DATA TYPE    INFORMATION
#----------   ------------   ------------------------------
 STRT.F          834.5000:   START DEPTH
 STOP.F         1644.0000:   STOP DEPTH
 STEP.F            0.5000:   STEP LENGTH
 NULL.          -999.2500:   NO VALUE
 COMP. LAWRENCE/ALLISON INC:   COMPANY
 WELL.      85 STX #15-15:   WELL
 FLD .            WILDCAT:   FIELD
 LOC .      S15 T38N R78W:   LOCATION
 CNTY.            NATRONA:   COUNTY
 STAT.            WYOMING:   STATE
 CTRY. UNITED STATES OF AMERICA:   COUNTRY
 SRVC.            Unknown:   SERVICE COMPANY
 DATE.        06-SEP-1987:   LOGDATE
 API .       490251116000:   API NUMBER
~CURVE INFORMATION
#MNEM.UNIT       API CODE    CURVE DESCRIPTION
#----------   ------------   ------------------------------
 DEPT.F                  :   
 TGAS.UNITS  91 830 01 00:   TOTAL GAS FROM HOTWIRE
 ROP .MIN/FT 91 810 01 00:   RAT OF DRILLING PENETRATION
~PARAMETER INFORMATION
#MNEM.UNIT          VALUE    DESCRIPTION
#----------   ------------   ------------------------------
 DATE.             9-6-87:   RUN DATE
 BLI .F              1644:   BOTTOM LOG INTERVAL
 TLI .F               834:   TOP LOG INTERVAL
 LUN .              T-146:   LOGGING UNIT NUMBER
 ENGI.               HUSK:   RECORDING ENGINEER
 WITN.              TOWER:   WITNESSED BY
 CLNT.            A2DTECH:   CLIENT CODE
 ORIG.           5" PRINT:   ORIGIN OF DATA
 UWI .       490251116000:   UNIQUE WELL ID
 DICO. A2D Technologies, Inc.:   DIGITIZING COMPANY
~OTHER INFORMATION
~A   DEPT       TGAS        ROP 
# ...
 1563.5000   201.6615     0.3109
 1564.0000   201.6358     0.3127
 1564.5000   201.6102     0.3146
 1565.0000   201.5845     0.3165
 1565.5000   201.5588     0.3183
 1566.0000   201.5331     0.3202
 1566.5000   201.5074     0.3216
 1567.0000   201.4817     0.3219
 1567.5000   201.4560     0.3016
 1568.0000   201.4303     0.2608
 1568.5000   201.4046     0.2611
 1569.0000   201.3789     0.2716
 1569.5000   201.3532     0.2821
 1570.0000   201.3275     0.2923
 1570.5000   201.3018     0.2910
 1571.0000   201.2761     0.2897
 1571.5000   201.2504     0.2885
 1572.0000   201.2247     0.2872
 1572.5000   201.1990     0.2859
 1573.0000   201.1733     0.2847
 1573.5000   201.1476     0.2834
 1574.0000   201.1219     0.2821
 1574.5000   201.0962     0.2808
 1575.0000   201.0705     0.2796
 1575.5000   201.0448     0.2783
 1576.0000   201.0191     0.2770
 1576.5000   200.9934     0.2757
 1577.0000   200.9677     0.2745
 1577.5000   200.9420     0.2732
 1578.0000   200.9163     0.2719
 1578.5000   200.8906     0.2706
 1579.0000   200.8649     0.2694
 1579.5000   200.8392     0.2681
 1580.0000   200.8156     0.2669
 1580.5000   200.9859     0.2683
 1581.0000   201.1434     0.2695
 1581.5000   201.3009     0.2708
 1582.0000   201.4583     0.2720
 1582.5000   201.6158     0.2733
 1583.0000   201.7733     0.2745
 1583.5000   201.9308     0.2757
 1584.0000   202.0883     0.2770
 1584.5000   202.2458     0.2782
 1585.0000   202.4034     0.2795
 1585.5000   202.5608     0.2807
 1586.0000   202.7183     0.2820
 1586.5000   202.8758     0.2832
 1587.0000   203.0333     0.2845
 1587.5000   203.1908     0.2857
 1588.0000   203.3483     0.2870
 1588.5000   203.5058     0.2882
 1589.0000   203.6633     0.2895
 1589.5000   203.8208     0.2907
 1590.0000   203.9783     0.2920
 1590.5000   204.1358     0.2932
 1591.0000   204.2933     0.2944
 1591.5000   204.4508     0.2957
 1592.0000   204.6083     0.2969
 1592.5000   204.7658     0.2982
 1593.0000   204.9233     0.2994
 1593.5000   205.0808     0.3007
 1594.0000   205.2383     0.3019
 1594.5000   205.3958     0.3032
 1595.0000   205.5533     0.3044
 1595.5000   205.7108     0.3057
 1596.0000   205.8683     0.3069
 1596.5000   206.0258     0.3080
 1597.0000   206.1833     0.3080
 1597.5000   206.3408     0.2669
 1598.0000   206.4983     0.2259
 1598.5000   206.6558     0.2259
 1599.0000   206.8133     0.2669
 1599.5000   206.9708     0.3080
 1600.0000   207.1176     0.3074
 1600.5000   207.1441     0.3058
 1601.0000   207.1707     0.3043
 1601.5000   207.1973     0.3027
 1602.0000   207.2238     0.3011
 1602.5000   207.2504     0.2996
 1603.0000   207.2770     0.2980
 1603.5000   207.3035     0.2965
 1604.0000   207.3301     0.2949
 1604.5000   207.3567     0.2934
 1605.0000   207.3832     0.2918
 1605.5000   207.4098     0.2902
 1606.0000   207.4363     0.2887
 1606.5000   207.4629     0.2871
 1607.0000   207.4895     0.2856
 1607.5000   207.5160     0.2840
 1608.0000   207.5426     0.2825
 1608.5000   207.5692     0.2809
 1609.0000   207.5957     0.2794
 1609.5000   207.6223     0.2778
 1610.0000   207.6489     0.2762
 1610.5000   207.6754     0.2747
 1611.0000   207.7020     0.2731
 1611.5000   207.7286     0.2716
 1612.0000   207.7551     0.2700
 1612.5000   207.7817     0.2685
 1613.0000   207.8083     0.2669
 1613.5000   207.8348     0.2653
 1614.0000   207.8614     0.2638
 1614.5000   207.8880     0.2622
 1615.0000   207.9145     0.2607
 1615.5000   207.7764     0.2591
 1616.0000   207.1263     0.2576
 1616.5000   308.9294     0.2567
 1617.0000  -999.2500     0.2567
 1617.5000  -999.2500     0.2669
 1618.0000  -999.2500     0.2977
 1618.5000  -999.2500     0.3388
 1619.0000  -999.2500     0.3388
 1619.5000  -999.2500     0.3388
 1620.0000  -999.2500     0.3388
 1620.5000  -999.2500     0.3799
 1621.0000  -999.2500     0.4209
 1621.5000  -999.2500     0.4727
 1622.0000  -999.2500     0.5048
 1622.5000  -999.2500     0.5441
 1623.0000  -999.2500     0.5031
 1623.5000  -999.2500     0.4620
 1624.0000  -999.2500     0.4312
 1624.5000  -999.2500     0.4004
 1625.0000  -999.2500     0.4004
 1625.5000  -999.2500     0.4107
 1626.0000  -999.2500     0.5441
 1626.5000  -999.2500     0.5031
 1627.0000  -999.2500     0.4723
 1627.5000  -999.2500     0.4312
 1628.0000  -999.2500     0.4107
 1628.5000  -999.2500     0.4004
 1629.0000  -999.2500     0.4004
 1629.5000  -999.2500     0.4004
 1630.0000  -999.2500     0.3799
 1630.5000  -999.2500     0.3799
 1631.0000  -999.2500     0.3799
 1631.5000  -999.2500     0.3799
 1632.0000  -999.2500     0.3799
 1632.5000  -999.2500     0.3799
 1633.0000  -999.2500     0.3799
 1633.5000  -999.2500     0.3799
 1634.0000  -999.2500     0.3799
 1634.5000  -999.2500     0.3799
 1635.0000  -999.2500     0.3799
 1635.5000  -999.2500     0.3799
 1636.0000  -999.2500     0.3799
 1636.5000  -999.2500     0.3799
 1637.0000  -999.2500     0.3799
 1637.5000  -999.2500     0.3799
 1638.0000  -999.2500     0.3799
 1638.5000  -999.2500     0.3799
 1639.0000  -999.2500     0.3799
 1639.5000  -999.2500     0.3799
 1640.0000  -999.2500     0.3799
 1640.5000  -999.2500     0.3775
 1641.0000  -999.2500     0.3749
 1641.5000  -999.2500     0.3724
 1642.0000  -999.2500     0.3698
 1642.5000  -999.2500     0.3672
 1643.0000  -999.2500     0.3647
 1643.5000  -999.2500     0.3621
 1644.0000  -999.2500     0.3593
