~VERSION INFORMATION
 VERS.                2.0:   CWLS LOG ASCII STANDARD - VERSION 2.0
 WRAP.                 NO:   ONE LINE PER DEPTH STEP
~WELL INFORMATION
#MNEM.UNIT      DATA TYPE    INFORMATION
#----------   ------------   ------------------------------
 STRT.F           24.0000:   START DEPTH
 STOP.F          487.5000:   STOP DEPTH
 STEP.F            0.5000:   STEP LENGTH
 NULL.          -999.2500:   NO VALUE
 COMP. FENIX & SCISSON INC:   COMPANY
 WELL.       NPR #35-SX-3:   WELL
 FLD .        TEAPOT DOME:   FIELD
 LOC .       S3 T38N R78W:   LOCATION
 CNTY.            NATRONA:   COUNTY
 STAT.            WYOMING:   STATE
 CTRY. UNITED STATES OF AMERICA:   COUNTRY
 SRVC.       Schlumberger:   SERVICE COMPANY
 DATE.        26-MAR-1977:   LOGDATE
 API .       490251030700:   API NUMBER
~CURVE INFORMATION
#MNEM.UNIT       API CODE    CURVE DESCRIPTION
#----------   ------------   ------------------------------
 DEPT.F                  :   
 SPR .MV     07 010 01 00:   SPONTANEOUS POTENTIAL
 LL8 .OHMM   07 220 08 00:   LATEROLOG-8 RES.
 ILD .OHMM   07 120 46 00:   INDUCTION LOG DEEP
 ILM .OHMM   07 120 44 00:   INDUCTION LOG MEDIUM
 CALD.IN     45 280 60 00:   CALIPER FROM DENSITY LOG
 RHOB.G/C3   45 350 01 00:   BULK DENSITY
 DPOR.DEC    45 890 12 00:   DENSITY POROSITY SANDSTONE
 CORR.G/C3   45 356 01 00:   DENSITY CORRECTION
 GRD .GAPI   45 310 01 00:   GAMMA RAY FROM DENSITY LOG
~PARAMETER INFORMATION
#MNEM.UNIT          VALUE    DESCRIPTION
#----------   ------------   ------------------------------
 PD  .                 GL:   PERMANENT DATUM
 EPD .F          EST 5200:   ELEVATION PERMANENT DATUM
 LMF .                 GL:   LOG MEASURED FROM
 DMF .                 KB:   DRILLING MEASURED FROM
 EKB .F              5205:   KELLING BUSHING
 EGL .F          EST 5200:   GROUND LEVEL
 DATE.            3-26-77:   RUN DATE
 RUN .                  1:   RUN NUMBER
 DD  .F               524:   DEPTH DRILLER
 DL  .F               489:   DEPTH LOGGER
 BLI .F               483:   BOTTOM LOG INTERVAL
 TLI .F                39:   TOP LOG INTERVAL
 CS  .IN            8.625:   CASING SIZE
 CBD .F                40:   CASING BOTTOM DRILLER
 CBL .F                39:   CASING BOTTOM LOGGER
 BS  .IN            7.875:   BIT SIZE
 BSD .F               524:   BIT SIZE AT DEPTH
 DFT .                KCL:   DRILLING FLUID TYPE
 DFD .                8.8:   DRILLING FLUID DENSITY
 DFV .                 31:   DRILLING FLUID VISCOSITY
 DFPH.                  8:   DRILLING FLUID PH
 DFL .                9.1:   DRILLING FLUID LOSS
 MSS .          FLOW LINE:   MUD SAMPLE SOURCE
 RMS .OHMM            .18:   RESISTIVITY MUD SAMPLE
 MST .F                76:   MUD SAMPLE TEMPERATURE
 RMF .OHMM            .15:   RESISTIVITY MUD FILTRATE SAMPLE
 MFST.F                76:   MUD FILTRATE SAMPLE TEMPERATURE
 RMC .OHMM             .1:   RESISTIVITY MUD CAKE
 MCST.F                76:   MUD CAKE SAMPLE TEMPERATURE
 MFSS.                  M:   MUD FILTRATE SAMPLE SOURCE
 MCSS.                  C:   MUD CAKE SAMPLE SOURCE
 RMB .OHMM            .25:   RESISTIVITY MUD AT BHT
 BHT .F                55:   BOTTOM HOLE TEMPERATURE
 TCS .HRS               6:   TIME CURCULATED STOPPED
 MRT .F            EST 55:   MAXIMUM RECORDED TEMPERATURE
 LUN .               5642:   LOGGING UNIT NUMBER
 LUL .               CSPR:   LOGGING UNIT LOCATION
 ENGI.     LOHBECK/MARTIN:   RECORDING ENGINEER
 WITN.         STUEBINGER:   WITNESSED BY
 CLNT.            A2DTECH:   CLIENT CODE
 ORIG.       2", 5" PRINT:   ORIGIN OF DATA
 UWI .       490251030700:   UNIQUE WELL ID
 DICO. A2D Technologies, Inc.:   DIGITIZING COMPANY
~OTHER INFORMATION
~A   DEPT      SPR        LL8        ILD        ILM       CALD       RHOB       DPOR       CORR        GRD   
# ...
  170.0000   -59.1450    10.3611     8.4079     8.9826     8.6488     2.4262     0.1398     0.0104   111.8798
  170.5000   -59.2354    10.7168     8.3958     8.9689     8.6488     2.4337     0.1414     0.0169   111.8140
  171.0000   -59.3993    10.6763     8.3837     8.9551     8.6488     2.4508     0.1247     0.0233   109.6061
  171.5000   -59.5517    10.6010     8.3717     8.9414     8.6488     2.4627     0.1179     0.0290   107.7615
  172.0000   -59.6233    10.5204     8.3596     8.9276     8.6488     2.4605     0.1191     0.0196   106.5385
  172.5000   -59.6925    10.5907     8.3506     8.9074     8.6488     2.4581     0.1186     0.0133   106.3272
  173.0000   -59.7147    10.6887     8.4939     8.9827     8.6488     2.4512     0.1223     0.0079   108.1181
  173.5000   -59.6110    10.7168     8.6253     9.1299     8.6504     2.4445     0.1310     0.0023   110.0314
  174.0000   -59.5120    10.7660     8.7348     9.2795     8.6546     2.4512     0.1256     0.0095   110.7588
  174.5000   -59.4131    11.2302     8.8360     9.4315     8.6587     2.4546     0.1202     0.0191   110.8233
  175.0000   -59.3139    11.7144     8.9383     9.5861     8.6629     2.4495     0.1223     0.0175   109.8734
  175.5000   -59.2154    11.8643     9.0418     9.7431     8.6671     2.4445     0.1258     0.0154   108.2988
  176.0000   -59.1434    11.5361     9.1384     9.9527     8.6613     2.4395     0.1275     0.0142   108.4521
  176.5000   -59.1451    11.3282     9.2324     9.8511     8.6494     2.4346     0.1314     0.0162   109.4447
  177.0000   -59.1451    11.6468     9.1357     9.7058     8.6373     2.4394     0.1306     0.0179   109.6506
  177.5000   -59.1448    11.2150     9.0163     9.5627     8.6252     2.4492     0.1238     0.0263   108.4954
  178.0000   -59.1439    11.1206     8.8984     9.4217     8.6134     2.4590     0.1171     0.0514   107.0870
  178.5000   -59.1502    11.1206     8.7821     9.2828     8.6022     2.4680     0.1078     0.0765   106.9838
  179.0000   -59.2855    11.0178     8.6673     9.1459     8.5833     2.4600     0.1270     0.0361   107.7171
  179.5000   -59.4186    10.6437     8.5839     9.0736     8.4020     2.4625     0.1202     0.0433   107.2328
  180.0000   -59.5407    10.2824     8.6275     9.3597     8.2872     2.4657     0.1166     0.0510   105.7180
  180.5000   -59.6852    10.2326     8.6621     9.6727     8.2794     2.4553     0.1201     0.0392   104.7578
  181.0000   -59.8498    11.4334     8.6969    10.0123     8.2704     2.4452     0.1262     0.0483   106.4156
  181.5000   -60.0140    11.6468     8.7318     9.7732     8.2617     2.4359     0.1322     0.0205   108.1916
  182.0000   -60.1429    11.4035     8.7668     9.4632     8.2529     2.4394     0.1278     0.0274   108.3882
  182.5000   -60.1393    11.1760     8.8020     9.4151     8.2442     2.4425     0.1301     0.0371   108.8435
  183.0000   -60.1391    10.9169     8.8372     9.4152     8.2352     2.4424     0.1322     0.0138   109.3511
  183.5000   -60.1392    11.0130     8.8723     9.4157     8.2364     2.4479     0.1207     0.0234   107.8153
  184.0000   -60.1392    11.2130     8.9067     9.4155     8.2430     2.4546     0.1130     0.0362   106.2069
  184.5000   -60.1394    11.1701     8.7674     9.3777     8.2496     2.4483     0.1196     0.0200   105.8901
  185.0000   -60.1382    11.0847     8.6342     9.2112     8.2562     2.4435     0.1262     0.0159   106.7379
  185.5000   -60.1068    10.9385     8.5025     9.0477     8.2628     2.4418     0.1297     0.0193   107.1291
  186.0000   -60.0747    10.5783     8.3726     8.8872     8.2694     2.4402     0.1258     0.0068   107.2763
  186.5000   -60.0427    10.2326     8.2663     8.7900     8.2641     2.4471     0.1330     0.0178   107.4198
  187.0000   -60.0108    10.3630     8.2382     8.7324     8.2464     2.4643     0.1121     0.0364   108.3001
  187.5000   -59.9787    10.5204     8.2101     8.6751     8.2288     2.4801     0.0950     0.0573   109.5868
  188.0000   -59.9433    10.4458     8.1822     8.6182     8.2123     2.4784     0.1035     0.0535   110.2056
  188.5000   -60.0331    10.3531     8.1543     8.5617     8.2210     2.4658     0.1165     0.0476   110.5534
  189.0000   -60.1487    10.2612     8.1265     8.5049     8.2313     2.4482     0.1314     0.0136   110.0996
  189.5000   -60.2668    10.1701     7.9567     8.2914     8.2416     2.4131     0.1275     0.0231   108.4344
  190.0000   -60.4867    10.0782     7.7533     8.0808     8.2520     2.4176     0.1250     0.0313   106.3457
  190.5000   -60.8853     9.9866     7.5550     7.8755     8.2624     2.4138     0.1326     0.0180   105.4385
  191.0000   -61.2816     9.5489     7.3618     7.6754     8.2709     2.4218     0.1255     0.0181   105.0837
  191.5000   -61.6776     8.8948     7.1736     7.4804     8.2534     2.4388     0.1209     0.0400   105.6496
  192.0000   -62.0713     8.2821     6.9902     7.2904     8.2357     2.4383     0.1221     0.0433   106.3400
  192.5000   -62.2725     7.4722     6.8673     7.1346     8.2178     2.4554     0.1139     0.0346   107.0894
  193.0000   -62.1024     7.8152     6.8448     7.1346     8.2156     2.4377     0.1098     0.0466   108.0997
  193.5000   -61.9266     8.8610     6.8122     7.2050     8.2202     2.4502     0.1186     0.0236   109.6043
  194.0000   -61.4587     9.8610     6.8879     7.3331     8.2249     2.4597     0.1110     0.0402   111.3043
  194.5000   -61.0545     9.6291     7.0261     7.4633     8.2297     2.4381     0.1318     0.0129   111.9404
  195.0000   -60.8101     9.3276     7.1671     7.5961     8.2344     2.4383     0.1276     0.0112   110.5807
  195.5000   -60.5699     9.3547     7.3112     7.7312     8.2392     2.4563     0.1214     0.0217   111.1370
  196.0000   -60.3301     9.5561     7.4583     7.8688     8.2439     2.4537     0.1183     0.0336   112.2118
  196.5000   -60.0904     9.7619     7.6083     8.0088     8.2486     2.4483     0.1262     0.0196   111.9040
  197.0000   -59.8503     9.9162     7.7613     8.1513     8.2523     2.4478     0.1236     0.0116   110.1995
  197.5000   -59.6022    10.0223     7.8985     8.2963     8.2579     2.4530     0.1109     0.0388   112.0360
  198.0000   -59.5950    10.1384     7.8696     8.4223     8.2635     2.4552     0.1006     0.0501   113.8306
  198.5000   -59.6636    10.1081     7.8381     8.3855     8.2690     2.4398     0.1218     0.0185   114.4468
  199.0000   -59.7351    10.0659     7.8070     8.3488     8.2712     2.4539     0.1141     0.0248   113.5121
  199.5000   -59.8064    10.0238     7.7760     8.3122     8.2684     2.4643     0.1086     0.0231   113.0023
  200.0000   -59.8772     9.9819     7.7254     8.2722     8.2658     2.4500     0.1191     0.0185   112.2950
  200.5000   -59.9481     9.8334     7.6322     8.1090     8.2632     2.4416     0.1262     0.0138   111.3101
  201.0000   -60.0190     9.2430     7.5401     7.9314     8.2605     2.4245     0.1332     0.0117   110.9045
  201.5000   -60.0899     9.2853     7.4491     7.7578     8.2579     2.4269     0.1374     0.0169   113.3265
  202.0000   -60.1607     9.3288     7.2572     7.5879     8.2553     2.4308     0.1346     0.0273   114.6226
  202.5000   -60.2316     8.9024     6.9710     7.4218     8.2528     2.4281     0.1293     0.0331   114.1776
  203.0000   -60.3024     8.5265     6.6964     7.0478     8.2432     2.4111     0.1461     0.0171   112.1815
  203.5000   -60.3993     8.2774     6.3792     6.6679     8.2315     2.3944     0.1586     0.0180   110.2228
  204.0000   -60.5358     8.5551     5.9607     6.1755     8.2199     2.3802     0.1690     0.0227   108.9007
  204.5000   -61.0572     6.9712     5.5696     5.7038     8.2179     2.3849     0.1599     0.0148   107.4899
  205.0000   -61.6353     5.5212     5.1852     5.2680     8.2339     2.4138     0.1473     0.0070   107.6322
  205.5000   -61.9337     4.6627     5.3208     4.9745     8.2497     2.4429     0.1190     0.0149   108.8487
  206.0000   -61.5981     6.7087     5.5080     6.0406     8.2657     2.4402     0.1218     0.0221   109.6643
