~VERSION INFORMATION
 VERS.                2.0:   CWLS LOG ASCII STANDARD - VERSION 2.0
 WRAP.                 NO:   ONE LINE PER DEPTH STEP
~WELL INFORMATION
#MNEM.UNIT      DATA TYPE    INFORMATION
#----------   ------------   ------------------------------
 STRT.F           65.0000:   START DEPTH
 STOP.F          860.0000:   STOP DEPTH
 STEP.F            0.5000:   STEP LENGTH
 NULL.          -999.2500:   NO VALUE
 COMP.          U.S. NAVY:   COMPANY
 WELL. NPR 3 TEAPOT DOM #71-S-34:   WELL
 FLD .             TEAPOT:   FIELD
 LOC .      S34 T39N R78W:   LOCATION
 CNTY.            NATRONA:   COUNTY
 STAT.            WYOMING:   STATE
 CTRY. UNITED STATES OF AMERICA:   COUNTRY
 SRVC. Schlumberger Well Surveying Corp:   SERVICE COMPANY
 DATE.        22-FEB-1961:   LOGDATE
 API .       490250657300:   API NUMBER
~CURVE INFORMATION
#MNEM.UNIT       API CODE    CURVE DESCRIPTION
#----------   ------------   ------------------------------
 DEPT.F                  :   
 GR  .GAPI   30 310 01 00:   GAMMA RAY
 ASN .OHMM   05 041 16 00:   AMPLIFIED SHORT NORMAL 16"
 CILD.MMHO   05 110 46 00:   CONDUCTIVITY INDUCTION LOG DEEP
 ILD .OHMM   05 120 46 00:   INDUCTION LOG DEEP
 SPR .MV     05 010 01 00:   SPONTANEOUS POTENTIAL FROM RES.
~PARAMETER INFORMATION
#MNEM.UNIT          VALUE    DESCRIPTION
#----------   ------------   ------------------------------
 LMF .                 KB:   LOG MEASURED FROM
 DMF .                 KB:   DRILLING MEASURED FROM
 EKB .F              5067:   KELLING BUSHING
 EGL .F              5063:   GROUND LEVEL
 DATE.        22-FEB-1961:   RUN DATE
 RUN .                  1:   RUN NUMBER
 DD  .F               861:   DEPTH DRILLER
 DL  .F               861:   DEPTH LOGGER
 BLI .F               860:   BOTTOM LOG INTERVAL
 TLI .F                80:   TOP LOG INTERVAL
 CBD .F                12:   CASING BOTTOM DRILLER
 BS  .IN            7.875:   BIT SIZE
 BSD .F               861:   BIT SIZE AT DEPTH
 DFT .       GEL-OIL EMUL:   DRILLING FLUID TYPE
 DFD .                9.6:   DRILLING FLUID DENSITY
 DFV .                 38:   DRILLING FLUID VISCOSITY
 DFPH.                  9:   DRILLING FLUID PH
 DFL .               15.4:   DRILLING FLUID LOSS
 MSS .           FLOWLINE:   MUD SAMPLE SOURCE
 RMS .OHMM           0.86:   RESISTIVITY MUD SAMPLE
 MST .F                68:   MUD SAMPLE TEMPERATURE
 RMF .OHMM           0.52:   RESISTIVITY MUD FILTRATE SAMPLE
 MFST.F                68:   MUD FILTRATE SAMPLE TEMPERATURE
 RMC .OHMM           1.98:   RESISTIVITY MUD CAKE
 MCST.F                68:   MUD CAKE SAMPLE TEMPERATURE
 MFSS.               MEAS:   MUD FILTRATE SAMPLE SOURCE
 MCSS.               MEAS:   MUD CAKE SAMPLE SOURCE
 RMB .OHMM           0.77:   RESISTIVITY MUD AT BHT
 BHT .F                78:   BOTTOM HOLE TEMPERATURE
 TCS .HRS               1:   TIME CURCULATED STOPPED
 MRT .F                78:   MAXIMUM RECORDED TEMPERATURE
 LUN .               2523:   LOGGING UNIT NUMBER
 LUL .               CSPR:   LOGGING UNIT LOCATION
 ENGI.             KNOBEL:   RECORDING ENGINEER
 WITN.          JORGENSEN:   WITNESSED BY
 CLNT.            A2DTECH:   CLIENT CODE
 ORIG.      2" , 5" PRINT:   ORIGIN OF DATA
 UWI .       490250657300:   UNIQUE WELL ID
 DICO. A2D Technologies, Inc.:   DIGITIZING COMPANY
~OTHER INFORMATION
~A   DEPT       GR          ASN       CILD        ILD      SPR   
# ...
  370.0000  -999.2500     8.3146   144.6447     6.8195   -22.4138
  370.5000  -999.2500     8.3919   142.0468     6.8966   -22.4138
  371.0000  -999.2500     8.4820   138.9412     7.0018   -22.4138
  371.5000  -999.2500     8.5467   136.8509     7.0533   -22.4138
  372.0000  -999.2500     8.6241   135.0156     7.0533   -22.4138
  372.5000  -999.2500     8.7011   135.5147     7.1317   -22.3465
  373.0000  -999.2500     8.7632   135.7922     7.1317   -22.2571
  373.5000  -999.2500     8.8576   136.5712     6.9265   -22.2571
  374.0000  -999.2500     8.9239   137.8265     6.7398   -22.2571
  374.5000  -999.2500     8.9515   139.1196     6.6614   -22.2227
  375.0000  -999.2500     8.9202   140.4779     6.5831   -22.1003
  375.5000  -999.2500     8.8134   141.7059     6.5047   -22.1003
  376.0000  -999.2500     8.7034   143.1766     6.4263   -22.1003
  376.5000  -999.2500     8.6072   145.1682     6.4263   -22.1003
  377.0000  -999.2500     8.5363   148.3569     6.4263   -22.1003
  377.5000  -999.2500     8.4589   150.7967     6.4263   -22.1003
  378.0000  -999.2500     8.3568   151.4263     6.4666   -22.1003
  378.5000  -999.2500     8.3027   151.4224     6.5831   -22.1003
  379.0000  -999.2500     8.2629   149.7283     6.7398   -22.1003
  379.5000  -999.2500     8.2629   148.2793     6.8557   -22.1003
  380.0000  -999.2500     8.2880   145.9770     6.9854   -22.1003
  380.5000  -999.2500     8.3747   144.1628     7.1317   -22.1003
  381.0000  -999.2500     8.4820   141.2142     7.2795   -22.1003
  381.5000  -999.2500     8.5980   139.3051     7.4528   -22.1003
  382.0000  -999.2500     8.7480   136.3009     7.5235   -22.1003
  382.5000  -999.2500     8.8352   131.7980     7.6339   -22.1003
  383.0000  -999.2500     9.0236   129.6055     7.6852   -22.1003
  383.5000  -999.2500     9.2488   127.8723     7.7586   -22.1003
  384.0000  -999.2500     9.3730   127.8676     7.7294   -22.1003
  384.5000  -999.2500     9.4872   129.2150     7.5191   -22.1003
  385.0000  -999.2500     9.4523   131.8051     7.2884   -22.1003
  385.5000  -999.2500     9.3564   134.9091     7.1051   -22.1003
  386.0000  -999.2500     9.2319   136.9854     6.8966   -22.1003
  386.5000  -999.2500     9.0141   139.6042     6.7674   -22.1003
  387.0000  -999.2500     8.8292   142.9493     6.5593   -22.1003
  387.5000  -999.2500     8.6757   146.5517     6.4263   -22.1003
  388.0000  -999.2500     8.5290   148.9967     6.3783   -22.1003
  388.5000  -999.2500     8.4177   149.3051     6.3480   -22.1003
  389.0000  -999.2500     8.3233   148.0042     6.4263   -22.1003
  389.5000  -999.2500     8.2629   146.6338     6.4263   -22.1003
  390.0000  -999.2500     8.2259   145.4023     6.4446   -22.1003
  390.5000  -999.2500     8.2482   144.1014     6.5831   -22.1003
  391.0000  -999.2500     8.3410   142.7035     6.6257   -22.1003
  391.5000  -999.2500     8.4438   141.3953     6.7398   -22.1003
  392.0000  -999.2500     8.5603   139.7701     6.8182   -22.1003
  392.5000  -999.2500     8.6766   137.9894     6.9364   -22.1003
  393.0000  -999.2500     8.7601   136.8130     7.0533   -22.1003
  393.5000  -999.2500     8.8106   135.0607     7.1317   -22.1003
  394.0000  -999.2500     8.8436   133.4273     7.2471   -22.1003
  394.5000  -999.2500     8.8952   132.1264     7.3668   -22.1003
  395.0000  -999.2500     8.9515   130.7341     7.4451   -22.2571
  395.5000  -999.2500     9.0296   128.5614     7.5235   -22.3399
  396.0000  -999.2500     9.1172   126.6562     7.5381   -22.4138
  396.5000  -999.2500     9.2332   126.2030     7.6803   -22.4138
  397.0000  -999.2500     9.3200   126.1984     7.7586   -22.4138
  397.5000  -999.2500     9.4709   126.1951     7.7586   -22.5705
  398.0000  -999.2500     9.8279   126.1912     7.6803   -22.5705
  398.5000  -999.2500     9.8496   126.1866     7.6514   -22.7273
  399.0000  -999.2500    10.0300   126.9671     7.6001   -22.7273
  399.5000  -999.2500    10.4851   127.7560     7.5235   -22.7273
  400.0000  -999.2500    10.2243   129.5716     7.4190   -22.7273
  400.5000  -999.2500     9.2233   132.9455     7.2884   -22.7273
  401.0000  -999.2500     9.0144   136.3557     7.1637   -22.7273
  401.5000  -999.2500     8.9361   139.1367     7.0447   -22.7273
  402.0000  -999.2500     8.8839   140.2692     6.9256   -22.7273
  402.5000  -999.2500     8.8115   141.4017     6.8066   -22.6939
  403.0000  -999.2500     8.7749   142.5342     6.6875   -22.6587
  403.5000  -999.2500     8.7648   143.6667     6.5884   -22.6235
  404.0000  -999.2500     8.7649   144.1693     6.5894   -22.5882
  404.5000  -999.2500     8.7651   143.3817     6.5901   -22.5635
  405.0000  -999.2500     8.7653   142.5940     6.6693   -22.5627
  405.5000  -999.2500     8.7811   142.5895     6.7486   -22.5618
  406.0000  -999.2500     8.7969   142.5862     6.7618   -22.7180
  406.5000  -999.2500     8.8070   142.5822     6.8256   -22.7171
  407.0000  -999.2500     8.8324   142.5784     6.8895   -22.6358
  407.5000  -999.2500     8.8600   142.5744     6.9984   -22.5588
  408.0000  -999.2500     8.8676   142.5700     7.0659   -22.5579
  408.5000  -999.2500     8.8916   142.2544     7.1203   -22.5572
  409.0000  -999.2500     8.8917   141.7711     7.1842   -22.5564
  409.5000  -999.2500     8.9075   140.5042     7.2249   -22.5556
  410.0000  -999.2500     8.9233   140.0209     7.2414   -22.5549
  410.5000  -999.2500     8.9320   139.4158     7.3260   -22.6176
  411.0000  -999.2500     8.9599   138.6285     7.3689   -22.7100
  411.5000  -999.2500     9.0021   137.7873     7.3871   -22.7092
  412.0000  -999.2500     9.0395   137.0525     7.4639   -22.7085
  412.5000  -999.2500     9.0806   136.8208     7.5431   -22.7077
  413.0000  -999.2500     9.1312   135.4778     7.5439   -22.7068
  413.5000  -999.2500     9.1819   135.4741     7.5631   -22.7061
  414.0000  -999.2500     9.2689   134.5873     7.6270   -22.7053
  414.5000  -999.2500     9.3742   133.1146     7.7031   -22.7044
  415.0000  -999.2500     9.5070   132.0533     7.7038   -22.7038
  415.5000  -999.2500     9.5980   130.7562     7.7046   -22.7030
  416.0000  -999.2500     9.6993   129.5193     7.7649   -22.7022
  416.5000  -999.2500     9.8017   128.2523     7.7845   -22.7013
  417.0000  -999.2500     9.8138   126.8255     7.8638   -22.7006
  417.5000  -999.2500     9.8266   126.0384     7.8644   -22.6998
  418.0000  -999.2500     9.8393   126.0188     7.8652   -22.6991
  418.5000  -999.2500     9.8521   125.2469     7.9890   -22.6983
  419.0000  -999.2500     9.8651   124.4592     8.1089   -22.6975
  419.5000  -999.2500     9.9894   123.6713     8.1811   -22.6966
  420.0000  -999.2500    10.1941   122.5183     8.2915   -22.6959
  420.5000  -999.2500    10.3351   120.4676     8.3401   -22.6951
  421.0000  -999.2500    10.4468   118.9569     8.4185   -22.6944
  421.5000  -999.2500    10.5732   117.4236     8.4976   -22.6936
  422.0000  -999.2500    10.7508   115.8830     8.5769   -22.6928
  422.5000  -999.2500    10.9043   114.6160     8.6912   -22.6920
  423.0000  -999.2500    11.1183   113.2420     8.8135   -22.6912
  423.5000  -999.2500    11.2353   111.1005     8.8668   -22.6904
  424.0000  -999.2500    11.4400   108.9655     9.0721   -22.6896
  424.5000  -999.2500    11.5883   107.1747     9.2077   -22.6889
  425.0000  -999.2500    11.6406   104.6891     9.3652   -22.6881
  425.5000  -999.2500    11.7451   101.3753     9.4616   -22.6873
  426.0000  -999.2500    11.9017    98.5418     9.8371   -22.6865
  426.5000  -999.2500    11.9019    96.3154    10.0204   -22.6857
  427.0000  -999.2500    11.9021    95.3998    10.1521   -22.6849
  427.5000  -999.2500    11.8709    96.6823    10.2312   -22.6842
  428.0000  -999.2500    11.8231    97.9415    10.3103   -22.6834
  428.5000  -999.2500    11.7460    99.3061    10.2328   -22.6825
  429.0000  -999.2500    11.6679    99.3025    10.1254   -22.6818
  429.5000  -999.2500    11.5898    99.3678    10.0776   -22.6810
  430.0000  -999.2500    11.5900   100.0784    10.0000   -22.6803
  430.5000  -999.2500    11.5901   100.8589     9.9223   -22.6795
