~VERSION INFORMATION
 VERS.                2.0:   CWLS LOG ASCII STANDARD - VERSION 2.0
 WRAP.                 NO:   ONE LINE PER DEPTH STEP
~WELL INFORMATION
#MNEM.UNIT      DATA TYPE    INFORMATION
#----------   ------------   ------------------------------
 STRT.F          600.0000:   START DEPTH
 STOP.F         2218.0000:   STOP DEPTH
 STEP.F            0.5000:   STEP LENGTH
 NULL.          -999.2500:   NO VALUE
 COMP. US DEPTMNT OF ENRGY:   COMPANY
 WELL.   37 STX 10 #37-10:   WELL
 FLD .             TEAPOT:   FIELD
 LOC .      S10 T38N R78W:   LOCATION
 CNTY.            NATRONA:   COUNTY
 STAT.            WYOMING:   STATE
 CTRY. UNITED STATES OF AMERICA:   COUNTRY
 SRVC.            Unknown:   SERVICE COMPANY
 DATE.        15-MAY-1991:   LOGDATE
 API .       490251094200:   API NUMBER
~CURVE INFORMATION
#MNEM.UNIT       API CODE    CURVE DESCRIPTION
#----------   ------------   ------------------------------
 DEPT.F                  :   
 TGAS.UNITS  91 830 01 00:   TOTAL GAS FROM HOTWIRE
 ROP .MIN/FT 91 810 01 00:   RATE OF DRILLING PENETRATION
~PARAMETER INFORMATION
#MNEM.UNIT          VALUE    DESCRIPTION
#----------   ------------   ------------------------------
 EKB .F              5231:   KELLING BUSHING
 EGL .F              5221:   GROUND LEVEL
 DATE.            5-15-91:   RUN DATE
 DD  .F              2218:   DEPTH DRILLER
 BLI .F              2218:   BOTTOM LOG INTERVAL
 TLI .F               960:   TOP LOG INTERVAL
 ENGI.              TOWER:   RECORDING ENGINEER
 WITN.               HUSK:   WITNESSED BY
 CLNT.            A2DTECH:   CLIENT CODE
 ORIG.           5" PRINT:   ORIGIN OF DATA
 UWI .       490251094200:   UNIQUE WELL ID
 DICO. A2D Technologies, Inc.:   DIGITIZING COMPANY
~OTHER INFORMATION
~A   DEPT     TGAS          ROP 
# ...
 1815.0000    39.8877     0.6321
 1815.5000    39.9701     0.6339
 1816.0000    40.0524     0.6357
 1816.5000    40.1348     0.6374
 1817.0000    40.2171     0.6392
 1817.5000    40.2995     0.6566
 1818.0000    40.3818     0.6967
 1818.5000    40.4642     0.7206
 1819.0000    40.5465     0.7264
 1819.5000    40.6289     0.7310
 1820.0000    40.7046     0.7363
 1820.5000    40.6751     0.7357
 1821.0000    40.6477     0.7412
 1821.5000    40.6204     0.7393
 1822.0000    40.5931     0.7257
 1822.5000    40.5657     0.7081
 1823.0000    40.5384     0.6762
 1823.5000    40.5110     0.6555
 1824.0000    40.4837     0.6441
 1824.5000    40.4564     0.6349
 1825.0000    40.4290     0.6346
 1825.5000    40.4017     0.6343
 1826.0000    40.3743     0.6341
 1826.5000    40.3470     0.6365
 1827.0000    40.3197     0.6445
 1827.5000    40.2923     0.6502
 1828.0000    40.2650     0.6690
 1828.5000    40.2376     0.6636
 1829.0000    40.2103     0.6155
 1829.5000    40.1829     0.5631
 1830.0000    40.1556     0.5256
 1830.5000    40.1283     0.5107
 1831.0000    40.1009     0.5104
 1831.5000    40.0736     0.5102
 1832.0000    40.0462     0.5099
 1832.5000    40.0189     0.5096
 1833.0000    39.9916     0.5093
 1833.5000    39.9642     0.4998
 1834.0000    39.9369     0.4868
 1834.5000    39.9095     0.4816
 1835.0000    39.8822     0.4753
 1835.5000    39.8549     0.4698
 1836.0000    39.8275     0.4584
 1836.5000    39.8002     0.4525
 1837.0000    39.7728     0.4466
 1837.5000    39.7455     0.4467
 1838.0000    39.7182     0.4516
 1838.5000    39.6908     0.4514
 1839.0000    39.6635     0.4511
 1839.5000    39.6361     0.4508
 1840.0000    39.6088     0.4441
 1840.5000    39.6640     0.4393
 1841.0000    39.7192     0.4333
 1841.5000    39.7743     0.4236
 1842.0000    39.8295     0.4138
 1842.5000    39.8847     0.4041
 1843.0000    39.9399     0.4039
 1843.5000    39.9951     0.4388
 1844.0000    40.0503     0.4886
 1844.5000    40.1054     0.5115
 1845.0000    40.1606     0.5137
 1845.5000    40.2158     0.5037
 1846.0000    40.2710     0.4778
 1846.5000    40.3262     0.4655
 1847.0000    40.3813     0.4642
 1847.5000    40.4365     0.4629
 1848.0000    40.4917     0.4615
 1848.5000    40.5469     0.4602
 1849.0000    40.6021     0.4549
 1849.5000    40.6572     0.4303
 1850.0000    40.7124     0.4057
 1850.5000    40.7676     0.3849
 1851.0000    40.8228     0.3808
 1851.5000    40.8780     0.3860
 1852.0000    40.9331     0.3903
 1852.5000    40.9883     0.4005
 1853.0000    41.0435     0.4315
 1853.5000    41.0987     0.4766
 1854.0000    41.1539     0.4890
 1854.5000    41.2090     0.4874
 1855.0000    41.2642     0.4861
 1855.5000    41.3194     0.4958
 1856.0000    41.3746     0.5055
 1856.5000    41.4298     0.5154
 1857.0000    41.4850     0.5248
 1857.5000    41.5401     0.5234
 1858.0000    41.5953     0.5220
 1858.5000    41.6505     0.5206
 1859.0000    41.7057     0.5125
 1859.5000    41.7609     0.4840
 1860.0000    41.8226     0.4546
 1860.5000    41.9048     0.4356
 1861.0000    41.9870     0.4167
 1861.5000    42.0692     0.3977
 1862.0000    42.1513     0.4092
 1862.5000    42.2335     0.4222
 1863.0000    42.3157     0.4345
 1863.5000    41.8756     0.4337
 1864.0000    40.6541     0.4548
 1864.5000    39.9664     0.4540
 1865.0000    39.8475     0.4642
 1865.5000    39.6926     0.4634
 1866.0000    39.5378     0.4626
 1866.5000    39.3829     0.4728
 1867.0000    39.2281     0.4720
 1867.5000    39.0732     0.4707
 1868.0000    38.9184     0.4586
 1868.5000    38.7635     0.4465
 1869.0000    38.6087     0.4357
 1869.5000    38.4538     0.4349
 1870.0000    38.2990     0.4322
 1870.5000    38.1441     0.4201
 1871.0000    37.9893     0.4081
 1871.5000    37.8344     0.3933
 1872.0000    37.6796     0.3729
 1872.5000    37.5247     0.3640
 1873.0000    37.3699     0.3632
 1873.5000    37.2150     0.3586
 1874.0000    37.0602     0.3505
 1874.5000    36.9053     0.3497
 1875.0000    36.7505     0.3443
 1875.5000    36.5956     0.3371
 1876.0000    36.4408     0.3311
 1876.5000    36.2859     0.3245
 1877.0000    36.1311     0.3236
 1877.5000    35.9762     0.3168
 1878.0000    35.8214     0.3110
 1878.5000    35.6665     0.3102
 1879.0000    35.5117     0.3093
 1879.5000    35.3568     0.3085
 1880.0000    35.2145     0.3275
 1880.5000    35.3038     0.3571
 1881.0000    35.3865     0.3868
 1881.5000    35.4692     0.4132
 1882.0000    35.5519     0.4301
 1882.5000    35.6346     0.4354
 1883.0000    35.7173     0.4346
 1883.5000    35.8000     0.4280
 1884.0000    35.8827     0.4220
 1884.5000    35.9654     0.4212
 1885.0000    36.0481     0.4203
 1885.5000    36.1308     0.4195
 1886.0000    36.2135     0.4187
 1886.5000    36.2962     0.4179
 1887.0000    36.3789     0.4170
 1887.5000    36.4616     0.4162
 1888.0000    36.5443     0.4154
 1888.5000    36.6270     0.4233
 1889.0000    36.7097     0.4247
 1889.5000    36.7924     0.4348
 1890.0000    36.8751     0.4450
 1890.5000    36.9578     0.4551
 1891.0000    37.0405     0.4543
 1891.5000    37.1232     0.4645
 1892.0000    37.2059     0.4637
 1892.5000    37.2886     0.4629
 1893.0000    37.3713     0.4621
 1893.5000    37.4540     0.4613
 1894.0000    37.5367     0.4584
 1894.5000    37.6194     0.4363
 1895.0000    37.7021     0.4210
 1895.5000    37.7848     0.3901
 1896.0000    37.8675     0.3802
 1896.5000    37.9502     0.3794
 1897.0000    38.0329     0.3786
 1897.5000    38.1156     0.3777
 1898.0000    38.1983     0.3769
 1898.5000    38.2810     0.3761
 1899.0000    38.3637     0.3753
 1899.5000    38.4464     0.3745
 1900.0000    39.0584     0.3741
 1900.5000    41.2773     0.3745
 1901.0000    43.4962     0.3749
 1901.5000    45.7151     0.3753
 1902.0000    47.9339     0.3756
 1902.5000    50.1528     0.3760
 1903.0000    52.3717     0.3764
 1903.5000    54.5906     0.3768
 1904.0000    56.9904     0.3771
 1904.5000    56.9018     0.3775
 1905.0000    56.8054     0.3779
 1905.5000    56.7089     0.3783
 1906.0000    56.6125     0.3787
 1906.5000    56.5161     0.3790
 1907.0000    56.4196     0.3794
 1907.5000    56.3232     0.3798
 1908.0000    56.2267     0.3802
 1908.5000    56.1303     0.4129
 1909.0000    56.0338     0.4349
 1909.5000    55.9374     0.4688
 1910.0000    55.8409     0.5018
 1910.5000    55.7445     0.5244
 1911.0000    55.6480     0.5486
 1911.5000    55.5516     0.5804
 1912.0000    55.4551     0.6055
 1912.5000    55.3587     0.6335
 1913.0000    55.2622     0.6446
 1913.5000    55.1658     0.6557
 1914.0000    55.0693     0.6584
 1914.5000    54.9729     0.6421
 1915.0000    54.8765     0.6241
 1915.5000    54.7800     0.6124
 1916.0000    54.6836     0.6007
 1916.5000    54.5871     0.5891
 1917.0000    54.4907     0.5841
 1917.5000    54.3942     0.5838
 1918.0000    54.2978     0.5835
 1918.5000    54.2013     0.5832
 1919.0000    54.1049     0.5913
 1919.5000    54.0084     0.6156
 1920.0000    53.9120     0.6373
 1920.5000    53.8296     0.6350
 1921.0000    53.7472     0.6323
 1921.5000    53.6648     0.6295
 1922.0000    53.5823     0.6264
 1922.5000    53.4999     0.6264
 1923.0000    53.4175     0.6264
 1923.5000    53.3351     0.6264
 1924.0000    53.2527     0.6264
 1924.5000    53.1703     0.6374
 1925.0000    53.0879     0.6374
 1925.5000    53.0055     0.6374
 1926.0000    52.9231     0.6365
 1926.5000    52.8407     0.6264
 1927.0000    52.7583     0.6250
 1927.5000    52.6759     0.6137
 1928.0000    52.5934     0.6004
 1928.5000    52.5110     0.5801
 1929.0000    52.4286     0.5636
 1929.5000    52.3462     0.5356
 1930.0000    52.2638     0.5275
 1930.5000    52.1814     0.5240
 1931.0000    52.0990     0.5127
 1931.5000    52.0166     0.5055
 1932.0000    51.9342     0.4967
 1932.5000    51.8518     0.4788
 1933.0000    51.7694     0.4675
 1933.5000    51.6870     0.4615
 1934.0000    51.6045     0.4615
 1934.5000    51.5221     0.4615
 1935.0000    51.4397     0.4615
 1935.5000    51.3573     0.4615
 1936.0000    51.2749     0.4548
