~VERSION INFORMATION
 VERS.                2.0:   CWLS LOG ASCII STANDARD - VERSION 2.0
 WRAP.                 NO:   ONE LINE PER DEPTH STEP
~WELL INFORMATION
#MNEM.UNIT      DATA TYPE    INFORMATION
#----------   ------------   ------------------------------
 STRT.F           29.0000:   START DEPTH
 STOP.F          882.0000:   STOP DEPTH
 STEP.F            0.5000:   STEP LENGTH
 NULL.          -999.2500:   NO VALUE
 COMP. FENIX & SCISSON INC:   COMPANY
 WELL. NAVAL PETROLEUM RESERVE 3 S-14 #42-14:   WELL
 FLD .             TEAPOT:   FIELD
 LOC .      S14 T38N R78W:   LOCATION
 CNTY.            NATRONA:   COUNTY
 STAT.            WYOMING:   STATE
 CTRY. UNITED STATES OF AMERICA:   COUNTRY
 SRVC.              Welex:   SERVICE COMPANY
 DATE.        03-MAY-1977:   LOGDATE
 API .       490251035400:   API NUMBER
~CURVE INFORMATION
#MNEM.UNIT       API CODE    CURVE DESCRIPTION
#----------   ------------   ------------------------------
 DEPT.F                  :   
 CALD.IN     45 280 60 00:   CALIPER FROM DENSITY LOG
 GRD .GAPI   45 310 01 00:   GAMMA RAY FROM DENSITY LOG
 CORR.G/C3   45 356 01 00:   DENSITY CORRECTION
 DPHI.DEC    45 890 12 00:   DENSITY POROSITY SANDSTONE
 RHOB.G/C3   45 350 01 00:   BULK DENSITY
 SPR .MV     07 010 01 00:   SPONTANEOUS POTENTIAL
 ILD .OHMM   07 120 46 00:   INDUCTION LOG DEEP
 ILM .OHMM   07 120 44 00:   INDUCTION LOG MEDIUM
 SGRD.OHMM   07 221 05 00:   SHALLOW SHORT GUARD RESISTIVITY
~PARAMETER INFORMATION
#MNEM.UNIT          VALUE    DESCRIPTION
#----------   ------------   ------------------------------
 PD  .                 GL:   PERMANENT DATUM
 EPD .F              5206:   ELEVATION PERMANENT DATUM
 LMF .                 GL:   LOG MEASURED FROM
 DMF .                 GL:   DRILLING MEASURED FROM
 EGL .F              5206:   GROUND LEVEL
 DATE.        03-MAY-1977:   RUN DATE
 RUN .                  1:   RUN NUMBER
 DD  .F               855:   DEPTH DRILLER
 DL  .F               884:   DEPTH LOGGER
 BLI .F               882:   BOTTOM LOG INTERVAL
 TLI .F                28:   TOP LOG INTERVAL
 CS  .IN            8.625:   CASING SIZE
 BS  .IN               12:   BIT SIZE
 BSD .F               855:   BIT SIZE AT DEPTH
 DFT .            KCL MUD:   DRILLING FLUID TYPE
 DFD .                8.7:   DRILLING FLUID DENSITY
 BHT .F                75:   BOTTOM HOLE TEMPERATURE
 TCS .HRS            0130:   TIME CURCULATED STOPPED
 MRT .F                75:   MAXIMUM RECORDED TEMPERATURE
 ENGI.            C. DOAK:   RECORDING ENGINEER
 WITN.            R. LYON:   WITNESSED BY
 CLNT.            A2DTECH:   CLIENT CODE
 ORIG.           5" PRINT:   ORIGIN OF DATA
 UWI .       490251035400:   UNIQUE WELL ID
 DICO. A2D Technologies, Inc.:   DIGITIZING COMPANY
~OTHER INFORMATION
~A   DEPT       CALD      GRD       CORR       DPHI         RHOB      SPR        ILD        ILM       SGRD   
# ...
  248.0000     7.9880   115.4540     0.0585     0.1824     2.3685   -40.3696     6.0483     6.0863     7.6005
  248.5000     7.9880   119.0383     0.0510     0.1971     2.3476   -40.3749     6.0478     5.9659     7.8668
  249.0000     7.9880   125.0178     0.0495     0.2120     2.3094   -40.6772     6.0057     5.8023     8.0306
  249.5000     7.9880   130.0276     0.0494     0.2309     2.2875   -41.1287     5.8415     5.6825     8.0853
  250.0000     7.9890   133.2668     0.0434     0.2605     2.2354   -41.5045     5.6552     5.5545     7.5964
  250.5000     7.9956   131.9822     0.0342     0.2805     2.1991   -41.9662     5.2453     5.2483     6.7936
  251.0000     8.0021   131.1220     0.0298     0.2782     2.1995   -42.4280     4.8355     4.9425     6.7999
  251.5000     8.0087   129.0194     0.0298     0.2695     2.2174   -42.8897     4.4566     4.3973     6.8466
  252.0000     8.0152   115.6876     0.0297     0.2417     2.2645   -43.5294     4.0724     3.9635     6.6134
  252.5000     8.0218   107.5970     0.0296     0.2148     2.2929   -44.2774     3.6449     3.5725     5.6406
  253.0000     8.0283   100.2533     0.0311     0.1789     2.3445   -44.5783     3.1080     3.1979     4.7778
  253.5000     8.0348    96.5040     0.0415     0.1622     2.4244   -44.5812     2.7817     2.8379     4.1318
  254.0000     8.0414    97.0944     0.0506     0.1427     2.4401   -44.2867     2.4726     2.4051     3.7244
  254.5000     8.0452    98.1372     0.0578     0.1374     2.4461   -43.6934     2.2438     2.1669     2.4937
  255.0000     8.0298    97.0758     0.0653     0.1329     2.4528   -42.8020     2.0646     1.9835     2.0547
  255.5000     8.0146    96.6250     0.0607     0.1311     2.4468   -41.9107     1.8865     1.9026     1.9306
  256.0000     8.0144    99.7603     0.0577     0.1362     2.4475   -40.7015     1.9524     1.9692     2.2167
  256.5000     8.0140   100.2027     0.0546     0.1383     2.4437   -39.3835     2.1953     2.1709     2.3963
  257.0000     8.0137   101.0924     0.0516     0.1419     2.4348   -38.4922     2.5354     2.5281     2.5985
  257.5000     8.0134   104.2277     0.0455     0.1500     2.4220   -38.0472     2.9601     2.8853     3.8468
  258.0000     7.9982   109.6102     0.0424     0.1566     2.4078   -37.4546     3.5347     3.2425     7.3810
  258.5000     7.9978   113.0733     0.0394     0.1667     2.3936   -37.0005     4.1731     3.6414     8.1871
  259.0000     7.9976   114.6848     0.0378     0.1755     2.3824   -36.4178     4.8892     4.1809     8.8948
  259.5000     7.9973   116.9236     0.0348     0.1818     2.3673   -35.9736     5.4221     4.8121     9.5971
  260.0000     7.9970   117.3659     0.0332     0.1886     2.3532   -35.6776     6.1391     5.6659    10.2316
  260.5000     7.9967   113.7647     0.0302     0.1931     2.3494   -35.2341     6.8555     6.3719    10.9429
  261.0000     7.9964   108.3670     0.0316     0.1857     2.3666   -35.0879     7.6027     7.0673    11.2493
  261.5000     8.0111   101.1747     0.0375     0.1755     2.3838   -35.3895     7.8139     7.6248    11.4052
  262.0000     8.0108    96.5255     0.0405     0.1660     2.3935   -35.6904     7.4422     7.6767    11.1701
  262.5000     8.0254    98.3152     0.0404     0.1675     2.3935   -35.9913     6.8478     6.9192    10.7031
  263.0000     8.0251    97.3980     0.0448     0.1645     2.3977   -36.2922     6.2144     6.0666     9.9298
  263.5000     8.0248    96.0545     0.0463     0.1600     2.4069   -36.6030     5.6395     5.5443     9.3948
  264.0000     8.0395    98.8920     0.0432     0.1585     2.4062   -37.0437     5.1530     5.0670     9.0124
  264.5000     8.0391   100.3823     0.0417     0.1621     2.4002   -36.7485     4.7743     4.7571     5.2551
  265.0000     8.0388    98.5775     0.0416     0.1663     2.3904   -35.4101     4.6108     4.5037     3.5916
  265.5000     8.0386    95.2756     0.0401     0.1714     2.3852   -33.9226     4.6096     4.6294     4.2700
  266.0000     8.0233    94.0729     0.0385     0.1726     2.3844   -32.5546     4.9316     4.8921     5.3271
  266.5000     8.0081    96.3100     0.0400     0.1726     2.3829   -31.2323     5.3433     5.2416     5.8682
  267.0000     7.9928    95.5531     0.0429     0.1685     2.3904   -30.0680     5.7549     5.6575     6.0325
  267.5000     7.9925    96.1451     0.0443     0.1688     2.3911   -28.7188     6.1665     6.1434     6.2875
  268.0000     7.9772    99.7295     0.0458     0.1685     2.3896   -28.1255     6.6869     6.7203     7.0712
  268.5000     7.9769    98.3755     0.0442     0.1637     2.3956   -27.2342     7.2635     7.2005     9.7186
  269.0000     7.9617    96.1215     0.0426     0.1604     2.4053   -26.4919     7.6971     7.5566    10.4861
  269.5000     7.9464    98.5100     0.0411     0.1545     2.4135   -25.4317     8.2784     8.0967    10.6314
  270.0000     7.9462    97.6033     0.0395     0.1539     2.4179   -24.5608     8.6268     8.5556    10.9287
  270.5000     7.9458    98.0457     0.0380     0.1569     2.4157   -23.9675     8.9899     8.9787    11.8734
  271.0000     7.9456    99.5380     0.0379     0.1533     2.4119   -23.5233     9.2396     9.2293    11.9548
  271.5000     7.9602   100.7251     0.0378     0.1605     2.4089   -23.2281     9.3658     9.3566    12.1207
  272.0000     7.9749   101.9176     0.0378     0.1569     2.4089   -22.9130     9.3627     9.4203    12.3737
  272.5000     7.9746   102.2069     0.0393     0.1578     2.4149   -22.3403     9.3602     9.4187    12.4587
  273.0000     7.9893   103.9966     0.0481     0.1563     2.4156   -22.0450     9.3578     9.3526    12.1960
  273.5000     7.9920   103.5390     0.0511     0.1525     2.4178   -21.7491     9.3553     9.3513    11.9508
  274.0000     7.9995   102.3347     0.0465     0.1609     2.4029   -21.4546     9.3597     9.3501    12.8056
  274.5000     8.0069   101.2610     0.0465     0.1657     2.3976   -21.1396     9.4799     9.3488    11.4635
  275.0000     8.0143   100.2237     0.0479     0.1645     2.3961   -20.5668     9.4774     9.3473    12.0312
  275.5000     8.0218    99.6182     0.0478     0.1669     2.3968   -20.1225     9.4747     9.4110    12.6311
  276.0000     8.0292    99.4600     0.0493     0.1636     2.3968   -19.6783     9.6044     9.4097    13.0701
  276.5000     8.0367    99.6047     0.0507     0.1645     2.3968   -19.2340     9.6744     9.4741    13.4358
  277.0000     8.0441    99.7459     0.0508     0.1663     2.3968   -18.6209     9.7999     9.5382    14.0040
  277.5000     8.0515    99.7375     0.0506     0.1669     2.3968   -18.1965     9.8659     9.6131    14.3960
  278.0000     8.0590    98.9806     0.0505     0.1628     2.4035   -17.7529    10.0000     9.7356    14.3975
  278.5000     8.0457    96.8780     0.0490     0.1601     2.3983   -17.6060     9.9974     9.8019    13.8087
  279.0000     8.0454    95.8233     0.0354     0.1732     2.3810   -17.3115    10.1339     9.8686    14.0972
  279.5000     8.0451    99.7071     0.0354     0.1801     2.3706   -17.0163    10.2716     9.9354    14.2928
  280.0000     8.0299   100.8997     0.0353     0.1751     2.3737   -17.0198    10.2689    10.0724    13.3368
  280.5000     8.0296    98.4943     0.0457     0.1697     2.3862   -16.8729    10.4099    10.2110    13.9009
  281.0000     8.0293    95.7930     0.0532     0.1631     2.3952   -16.7268    10.5514    10.3518    14.1913
  281.5000     8.0290    96.5330     0.0486     0.1649     2.3967   -16.4322    10.6955    10.4223    13.5196
  282.0000     8.0287    98.6221     0.0411     0.1634     2.3967   -16.2860    10.8415    10.5660    14.1892
  282.5000     8.0284    99.9627     0.0380     0.1667     2.3929   -15.9915    10.9896    10.6379    15.4157
  283.0000     8.0281    95.0141     0.0381     0.1662     2.3921   -15.8446    11.0630    10.7843    15.6294
  283.5000     8.0278    97.7020     0.0469     0.1599     2.4071   -15.8482    11.0714    10.8581    15.4613
  284.0000     8.0275    97.0947     0.0513     0.1560     2.4145   -15.7020    10.9772    11.0074    12.5253
