~VERSION INFORMATION
 VERS.                2.0:   CWLS LOG ASCII STANDARD - VERSION 2.0
 WRAP.                 NO:   ONE LINE PER DEPTH STEP
~WELL INFORMATION
#MNEM.UNIT      DATA TYPE    INFORMATION
#----------   ------------   ------------------------------
 STRT.F            1.0000:   START DEPTH
 STOP.F          478.0000:   STOP DEPTH
 STEP.F            0.1000:   STEP LENGTH
 NULL.          -999.2500:   NO VALUE
 COMP. LAWRENCE/ALLISON INC:   COMPANY
 WELL.     58-61 SX #58-3:   WELL
 FLD .             TEAPOT:   FIELD
 LOC .       S3 T38N R78W:   LOCATION
 CNTY.            NATRONA:   COUNTY
 STAT.            WYOMING:   STATE
 CTRY. UNITED STATES OF AMERICA:   COUNTRY
 SRVC.           Gearhart:   SERVICE COMPANY
 DATE.        08-JUL-1988:   LOGDATE
 API .       490251123400:   API NUMBER
~CURVE INFORMATION
#MNEM.UNIT       API CODE    CURVE DESCRIPTION
#----------   ------------   ------------------------------
 DEPT.F                  :   
 GRR .GAPI   07 310 01 00:   GAMMA RAY
 RILD.OHMM   07 120 46 00:   INDUCTION LOG DEEP RESISTIVITY
 RILM.OHMM   07 120 44 00:   INDUCTION LOG MEDIUM RESISTIVITY
~PARAMETER INFORMATION
#MNEM.UNIT          VALUE    DESCRIPTION
#----------   ------------   ------------------------------
 PD  .                 GL:   PERMANENT DATUM
 EPD .F              5184:   ELEVATION PERMANENT DATUM
 LMF .                 KB:   LOG MEASURED FROM
 DAPD.F                 5:   FEET ABOVE PERMANENT DATUM
 DMF .                 KB:   DRILLING MEASURED FROM
 EKB .F              5189:   KELLING BUSHING
 EGL .F              5184:   GROUND LEVEL
 DATE.        08-JUL-1988:   RUN DATE
 RUN .                  1:   RUN NUMBER
 DD  .F               485:   DEPTH DRILLER
 DL  .F               486:   DEPTH LOGGER
 BLI .F               478:   BOTTOM LOG INTERVAL
 CS  .IN            9.625:   CASING SIZE
 CBD .F                45:   CASING BOTTOM DRILLER
 CBL .F                44:   CASING BOTTOM LOGGER
 BS  .IN             8.75:   BIT SIZE
 BSD .F               485:   BIT SIZE AT DEPTH
 DFT .                AIR:   DRILLING FLUID TYPE
 TCS .HRS            2200:   TIME CURCULATED STOPPED
 TLAB.HRS            2315:   TIME LOGGER AT BOTTOM
 LUN .               7597:   LOGGING UNIT NUMBER
 LUL .           GILLETTE:   LOGGING UNIT LOCATION
 ENGI.           JOHNSTON:   RECORDING ENGINEER
 WITN.              FIVAS:   WITNESSED BY
 CLNT.            A2DTECH:   CLIENT CODE
 ORIG.           5" PRINT:   ORIGIN OF DATA
 UWI .       490251123400:   UNIQUE WELL ID
 DICO. A2D Technologies, Inc.:   DIGITIZING COMPANY
~OTHER INFORMATION
~A    DEPT     GRR       RILD       RILM   
# ...
  146.6000   134.9148     7.4382     7.3875
  146.7000   135.6685     7.4812     7.4032
  146.8000   136.2242     7.5075     7.4032
  146.9000   136.7282     7.5151     7.4117
  147.0000   137.1411     7.5603     7.4552
  147.1000   137.3578     7.6022     7.5402
  147.2000   137.3623     7.6462     7.5603
  147.3000   137.3663     7.6904     7.5844
  147.4000   137.3706     7.7207     7.6282
  147.5000   137.2483     7.7298     7.6722
  147.6000   136.9299     7.8295     7.7207
  147.7000   136.4344     7.8697     7.7611
  147.8000   135.8707     7.8845     7.8059
  147.9000   135.6589     7.9054     7.8295
  148.0000   135.2514     7.9399     7.8413
  148.1000   134.8641     7.9412     7.8865
  148.2000   134.5639     7.9956     7.9399
  148.3000   134.0684     8.0333     7.9779
  148.4000   133.5729     8.0797     7.9956
  148.5000   133.2747     8.1264     8.0140
  148.6000   132.8854     8.1653     8.0518
  148.7000   132.4799     8.1653     8.0518
  148.8000   132.1979     8.2104     8.0967
  148.9000   131.6683     8.2226     8.1435
  149.0000   131.4396     8.2477     8.1905
  149.1000   131.3730     8.2804     8.2226
  149.2000   131.2518     8.2804     8.2276
  149.3000   131.0780     8.2804     8.2804
  149.4000   131.1005     8.2804     8.2804
  149.5000   131.3906     8.2804     8.3126
  149.6000   131.6087     8.2804     8.3386
  149.7000   132.0237     8.2804     8.3502
  149.8000   132.4204     8.2804     8.3971
  149.9000   132.7817     8.2804     8.3971
  150.0000   133.5357     8.2804     8.2804
  150.1000   133.5399     8.2803     8.2801
  150.2000   133.5444     8.2802     8.2797
  150.3000   133.7813     8.2801     8.2794
  150.4000   134.5587     8.2465     8.2790
  150.5000   135.1927     8.2221     8.2787
  150.6000   135.3210     8.2220     8.2783
  150.7000   135.0790     8.2218     8.2780
  150.8000   134.8370     8.2217     8.2776
  150.9000   134.5950     8.1852     8.2598
  151.0000   134.2175     8.1642     8.2192
  151.1000   133.8076     8.1640     8.2188
  151.2000   133.5863     8.1639     8.2185
  151.3000   133.5915     8.1638     8.2182
  151.4000   133.5951     8.1243     8.2178
  151.5000   133.7522     8.1067     8.2077
  151.6000   134.1936     8.1065     8.1598
  151.7000   134.8601     8.0993     8.1595
  151.8000   135.1299     8.0498     8.1248
  151.9000   135.5882     8.0497     8.0784
  152.0000   136.0850     8.0181     8.0450
  152.1000   136.4690     7.9933     8.0447
  152.2000   136.7195     7.9830     8.0443
  152.3000   136.9718     7.9373     8.0440
  152.4000   137.2204     7.9372     8.0172
  152.5000   137.4709     7.9371     7.9873
  152.6000   137.7214     7.9370     7.9869
  152.7000   138.0445     7.9369     7.9865
  152.8000   138.5105     7.9340     7.9463
  152.9000   138.5154     7.8813     7.9010
  153.0000   138.1103     7.8812     7.8559
  153.1000   137.6221     7.8811     7.8193
  153.2000   137.0440     7.8647     7.8190
  153.3000   136.2445     7.8259     7.8187
  153.4000   134.8945     7.8258     7.7864
  153.5000   133.3475     7.7858     7.7635
  153.6000   131.6281     7.7417     7.7519
  153.7000   130.4439     7.7167     7.7077
  153.8000   130.0055     7.7166     7.6637
  153.9000   129.7561     7.7165     7.6200
  154.0000   129.7602     7.6740     7.6006
  154.1000   129.9460     7.6624     7.6003
  154.2000   130.1965     7.6405     7.5959
  154.3000   130.4469     7.5971     7.5466
  154.4000   130.7071     7.5539     7.5096
  154.5000   131.2998     7.5028     7.4403
  154.6000   131.7005     7.4685     7.3889
  154.7000   132.3386     7.4503     7.3818
  154.8000   133.0816     7.4502     7.3367
  154.9000   133.7977     7.4455     7.2594
  155.0000   134.3556     7.3980     7.2056
  155.1000   135.2228     7.3979     7.1457
  155.2000   136.0534     7.3441     7.0646
  155.3000   136.6950     7.2610     6.9843
  155.4000   137.1917     7.1716     6.7892
  155.5000   137.7150     7.0438     6.6277
  155.6000   138.1851     6.9313     6.4981
  155.7000   138.5060     6.8142     6.3988
  155.8000   138.7565     6.6990     6.3262
  155.9000   139.0070     6.5675     6.2430
  156.0000   139.2574     6.3836     6.1838
  156.1000   139.5079     6.2405     6.0929
  156.2000   139.9515     6.1546     5.9897
  156.3000   140.5839     6.0662     5.8881
  156.4000   141.1698     5.9742     5.7792
  156.5000   141.4415     5.9037     5.7198
  156.6000   142.0109     5.7894     5.6335
  156.7000   142.2248     5.7060     5.5658
  156.8000   142.1693     5.6096     5.5210
  156.9000   141.9274     5.5147     5.4253
  157.0000   141.6854     5.4214     5.3652
  157.1000   141.4249     5.3227     5.3045
  157.2000   141.2014     5.2397     5.2443
  157.3000   140.9594     5.1713     5.1849
  157.4000   140.6045     5.1261     5.1288
  157.5000   140.0607     5.1035     5.1285
  157.6000   139.3214     5.1034     5.1284
  157.7000   138.8364     5.1034     5.1281
  157.8000   138.1608     5.1254     5.1485
  157.9000   137.2964     5.1545     5.2035
  158.0000   136.3885     5.1838     5.2363
  158.1000   135.6696     5.2151     5.2891
  158.2000   135.0987     5.2847     5.3493
  158.3000   134.4886     5.3097     5.4101
  158.4000   133.6069     5.3399     5.4716
  158.5000   132.7163     5.3814     5.5367
  158.6000   132.0146     5.4427     5.5969
  158.7000   131.4778     5.5110     5.6841
  158.8000   131.0382     5.5964     5.7815
  158.9000   130.7144     5.6708     5.8717
  159.0000   130.4724     5.7354     5.9393
  159.1000   130.2804     5.8076     6.0413
  159.2000   130.2848     5.9101     6.1172
  159.3000   130.5278     6.0088     6.1868
  159.4000   130.7784     6.1120     6.2690
  159.5000   131.2777     6.2169     6.3727
  159.6000   132.0207     6.3038     6.4553
  159.7000   132.7635     6.3425     6.5508
  159.8000   133.6494     6.4725     6.6632
  159.9000   134.0506     6.5322     6.7465
  160.0000   134.6889     6.6286     6.7975
  160.1000   135.3475     6.7290     6.9218
  160.2000   135.8171     6.8057     6.9953
  160.3000   136.0983     6.8928     7.0749
  160.4000   136.3181     6.9619     7.1554
  160.5000   136.4097     7.0414     7.2466
  160.6000   136.4140     7.1217     7.3704
  160.7000   136.4182     7.2028     7.4121
  160.8000   136.4227     7.2893     7.4867
  160.9000   135.7269     7.3681     7.5488
  161.0000   135.3445     7.4522     7.5914
  161.1000   134.8650     7.5372     7.6374
  161.2000   134.2535     7.6123     7.7384
  161.3000   134.0031     7.6555     7.7751
  161.4000   133.2686     7.6990     7.7921
  161.5000   132.7274     7.7083     7.8084
  161.6000   132.2391     7.7568     7.8525
  161.7000   131.7509     7.8309     7.9009
  161.8000   131.2842     7.8715     7.9415
  161.9000   131.0070     7.8714     7.9864
  162.0000   131.0106     7.9096     8.0113
  162.1000   131.1680     7.9545     8.0206
  162.2000   131.4185     7.9997     8.0669
  162.3000   131.6690     8.0380     8.1116
  162.4000   131.9384     8.0378     8.1574
  162.5000   132.3975     8.0801     8.1796
  162.6000   132.8943     8.1260     8.1924
  162.7000   133.6172     8.1508     8.2364
  162.8000   134.5506     8.1612     8.2359
  162.9000   135.2977     8.2078     8.2740
  163.0000   136.2812     8.2542     8.3207
  163.1000   137.0829     8.2652     8.3511
  163.2000   137.9562     8.2900     8.3563
  163.3000   138.7992     8.3371     8.4090
  163.4000   139.3116     8.3814     8.4511
  163.5000   140.1798     8.3812     8.4673
  163.6000   140.3881     8.4209     8.4670
  163.7000   140.6385     8.4687     8.4757
  163.8000   140.8890     8.4991     8.5257
  163.9000   141.1395     8.5054     8.5254
  164.0000   141.4147     8.5585     8.5601
  164.1000   141.6405     8.5584     8.5845
  164.2000   141.7262     8.5909     8.5842
  164.3000   141.7305     8.6182     8.5851
  164.4000   141.6846     8.6181     8.6336
  164.5000   141.4356     8.6180     8.6434
  164.6000   140.9615     8.6179     8.6430
  164.7000   140.4733     8.6540     8.6427
