~VERSION INFORMATION
 VERS.                2.0:   CWLS LOG ASCII STANDARD - VERSION 2.0
 WRAP.                 NO:   ONE LINE PER DEPTH STEP
~WELL INFORMATION
#MNEM.UNIT      DATA TYPE    INFORMATION
#----------   ------------   ------------------------------
 STRT.F           82.0000:   START DEPTH
 STOP.F          750.0000:   STOP DEPTH
 STEP.F            0.5000:   STEP LENGTH
 NULL.          -999.2500:   NO VALUE
 COMP. U S NAVY/INTEX OIL CO:   COMPANY
 WELL.      GOVT #18-S-35:   WELL
 FLD .             TEAPOT:   FIELD
 LOC .      S35 T39N R78W:   LOCATION
 CNTY.            NATRONA:   COUNTY
 STAT.            WYOMING:   STATE
 CTRY. UNITED STATES OF AMERICA:   COUNTRY
 SRVC. Schlumberger Well Surveying Corp:   SERVICE COMPANY
 DATE.        19-JUL-1962:   LOGDATE
 API .       490250649300:   API NUMBER
~CURVE INFORMATION
#MNEM.UNIT       API CODE    CURVE DESCRIPTION
#----------   ------------   ------------------------------
 DEPT.F                  :   
 SPR .MV     05 010 01 00:   SPONTANEOUS POTENTIAL
 ILD .OHMM   05 120 46 00:   INDUCTION LOG DEEP
 CILD.MMHO   05 110 46 00:   CONDUCTIVITY INDUCTION LOG DEEP
 ASN .OHMM   05 041 16 00:   AMPLIFIED SHORT NORMAL 16"
 NEUT.NAPI   35 330 01 00:   NEUTRON GAMMA RAY
~PARAMETER INFORMATION
#MNEM.UNIT          VALUE    DESCRIPTION
#----------   ------------   ------------------------------
 PD  .                 GL:   PERMANENT DATUM
 EPD .F              5107:   ELEVATION PERMANENT DATUM
 LMF .                 KB:   LOG MEASURED FROM
 DAPD.F                 5:   FEET ABOVE PERMANENT DATUM
 DMF .                 KB:   DRILLING MEASURED FROM
 EKB .F              5112:   KELLING BUSHING
 EGL .F              5107:   GROUND LEVEL
 DATE.            7-19-62:   RUN DATE
 RUN .                  1:   RUN NUMBER
 DD  .F               745:   DEPTH DRILLER
 DL  .F               745:   DEPTH LOGGER
 BLI .F               744:   BOTTOM LOG INTERVAL
 TLI .F                80:   TOP LOG INTERVAL
 BS  .IN             6.75:   BIT SIZE
 BSD .F               745:   BIT SIZE AT DEPTH
 DFT .       OIL EMULSION:   DRILLING FLUID TYPE
 DFD .                 10:   DRILLING FLUID DENSITY
 DFV .                 46:   DRILLING FLUID VISCOSITY
 DFL .                2.9:   DRILLING FLUID LOSS
 RMS .OHMM           3.75:   RESISTIVITY MUD SAMPLE
 MST .F                87:   MUD SAMPLE TEMPERATURE
 RMF .OHMM           2.65:   RESISTIVITY MUD FILTRATE SAMPLE
 MFST.F                87:   MUD FILTRATE SAMPLE TEMPERATURE
 RMC .OHMM           3.54:   RESISTIVITY MUD CAKE
 MCST.F                87:   MUD CAKE SAMPLE TEMPERATURE
 TCS .HRS              .5:   TIME CURCULATED STOPPED
 LUN .               2503:   LOGGING UNIT NUMBER
 LUL .             CASPER:   LOGGING UNIT LOCATION
 ENGI.             DANNER:   RECORDING ENGINEER
 WITN.          JORGENSEN:   WITNESSED BY
 CLNT.            A2DTECH:   CLIENT CODE
 ORIG.       2", 5" PRINT:   ORIGIN OF DATA
 UWI .       490250649300:   UNIQUE WELL ID
 DICO. A2D Technologies, Inc.:   DIGITIZING COMPANY
~OTHER INFORMATION
~A   DEPT      SPR          ILD      CILD         ASN     NEUT   
# ...
  265.0000   -60.2614     8.0399   117.3479     8.5188  -999.2500
  265.5000   -60.2605     7.9602   118.3101     8.4732  -999.2500
  266.0000   -60.2627     7.8808   120.5413     8.3501  -999.2500
  266.5000   -60.4994     7.7852   122.9839     8.1573  -999.2500
  267.0000   -60.7646     7.5994   125.4265     7.9708  -999.2500
  267.5000   -61.0299     7.4107   127.8691     7.7846  -999.2500
  268.0000   -61.2668     7.2175   130.5444     7.6225  -999.2500
  268.5000   -61.2740     7.1774   132.3400     7.5153  -999.2500
  269.0000   -61.0442     7.1391   133.8787     7.4257  -999.2500
  269.5000   -60.7505     7.0993   134.6929     7.3759  -999.2500
  270.0000   -60.4600     7.0593   135.5071     7.3845  -999.2500
  270.5000   -60.2588     7.0194   136.3213     7.4030  -999.2500
  271.0000   -60.2620     6.9794   137.1298     7.4216  -999.2500
  271.5000   -60.2613     6.9395   138.2017     7.4395  -999.2500
  272.0000   -60.2615     6.8994   139.5897     7.4264  -999.2500
  272.5000   -60.2603     6.8597   140.9835     7.3774  -999.2500
  273.0000   -60.2613     6.8189   142.3759     7.3286  -999.2500
  273.5000   -60.3507     6.8519   141.9271     7.2797  -999.2500
  274.0000   -60.7805     6.9267   140.3263     7.2311  -999.2500
  274.5000   -61.0704     7.0045   138.3662     7.2250  -999.2500
  275.0000   -61.0662     7.0930   136.4061     7.2784  -999.2500
  275.5000   -61.0668     7.1842   134.4459     7.3302  -999.2500
  276.0000   -61.0341     7.2754   132.5000     7.4520  -999.2500
  276.5000   -60.8966     7.3665   130.8549     7.6033  -999.2500
  277.0000   -60.7646     7.4589   129.5326     7.7565  -999.2500
  277.5000   -60.6326     7.5948   126.1341     7.9088  -999.2500
  278.0000   -60.4950     7.7938   122.7318     8.0627  -999.2500
  278.5000   -60.4627     7.9921   119.3296     8.1848  -999.2500
  279.0000   -60.4623     8.1910   115.9274     8.3448  -999.2500
  279.5000   -60.4627     8.3911   112.5252     8.5114  -999.2500
  280.0000   -60.4628     8.3669   112.2465     8.9208  -999.2500
  280.5000   -60.4628     8.2920   113.5265     9.3401  -999.2500
  281.0000   -60.4628     8.2157   114.8111     9.4182  -999.2500
  281.5000   -60.4628     8.1399   116.0941     9.1291  -999.2500
  282.0000   -60.4628     8.0713   117.3753     9.2280  -999.2500
  282.5000   -60.4628     8.0090   118.6423     9.2184  -999.2500
  283.0000   -60.4628     7.8028   121.4760     8.5926  -999.2500
  283.5000   -60.4628     7.5789   126.7641     8.0543  -999.2500
  284.0000   -60.4628     7.3609   132.0565     7.8109  -999.2500
  284.5000   -60.4628     7.1807   135.5847     7.7322  -999.2500
  285.0000   -60.4626     7.1963   134.0726     7.7132  -999.2500
  285.5000   -60.4626     7.3434   132.5605     7.6937  -999.2500
  286.0000   -60.4587     7.5078   128.9963     7.7311  -999.2500
  286.5000   -60.6645     7.6690   125.5953     7.7726  -999.2500
  287.0000   -60.9462     7.8300   122.1916     7.9059  -999.2500
  287.5000   -61.2328     7.9911   118.7896     8.0596  -999.2500
  288.0000   -61.1482     8.1522   115.3871     8.2705  -999.2500
  288.5000   -61.0050     8.3134   111.9852     8.4777  -999.2500
  289.0000   -60.8736     8.4745   108.5829     8.6852  -999.2500
  289.5000   -61.0322     8.6352   105.3427     8.8914  -999.2500
  290.0000   -61.2031     8.7202   104.8072     8.9879  -999.2500
  290.5000   -61.3735     8.7202   106.4611     9.0674  -999.2500
  291.0000   -61.5418     8.7183   108.1149     9.0780  -999.2500
  291.5000   -61.6099     8.6189   110.1626     9.0369  -999.2500
  292.0000   -61.2971     8.3806   113.4703     8.7624  -999.2500
  292.5000   -60.9933     8.1438   116.7955     8.5151  -999.2500
  293.0000   -60.9141     7.9064   120.1277     8.3322  -999.2500
  293.5000   -60.9922     7.6671   123.4599     8.1605  -999.2500
  294.0000   -61.0676     7.4212   126.7921     7.9889  -999.2500
  294.5000   -61.1077     7.3897   130.1243     7.8176  -999.2500
  295.0000   -61.1455     7.3584   131.5524     7.6737  -999.2500
  295.5000   -61.1832     7.3269   131.5524     7.6795  -999.2500
  296.0000   -61.2209     7.3644   130.8324     7.6884  -999.2500
  296.5000   -61.2598     7.4823   129.2280     7.7196  -999.2500
  297.0000   -61.2677     7.5995   127.0697     7.7805  -999.2500
  297.5000   -61.2677     7.7173   124.9121     7.9435  -999.2500
  298.0000   -61.2676     7.8349   122.7533     8.1048  -999.2500
  298.5000   -61.2676     7.9525   120.5951     8.2662  -999.2500
  299.0000   -61.2677     8.0701   118.4369     8.4295  -999.2500
  299.5000   -61.2680     8.1886   116.2786     8.4780  -999.2500
  300.0000   -61.2656     8.3108   114.1204     8.4851  -999.2500
  300.5000   -61.2241     8.3435   111.9622     8.4911  -999.2500
  301.0000   -61.1838     8.3714   111.5917     8.4983  -999.2500
  301.5000   -61.1436     8.4001   111.8644     8.5302  -999.2500
  302.0000   -61.1029     8.4289   112.1371     8.5996  -999.2500
  302.5000   -61.0702     8.4577   112.3992     8.6773  -999.2500
  303.0000   -61.1455     8.4865   111.2659     8.7554  -999.2500
  303.5000   -61.2187     8.5153   110.1751     8.8334  -999.2500
  304.0000   -61.2069     8.5441   109.0843     8.9031  -999.2500
  304.5000   -61.0291     8.5731   108.7844     8.8855  -999.2500
  305.0000   -60.8764     8.6008   110.0036     8.8678  -999.2500
  305.5000   -61.0902     8.5761   111.2227     8.8750  -999.2500
  306.0000   -61.3118     8.4653   112.3992     8.8977  -999.2500
  306.5000   -61.5293     8.3556   113.7743     8.9004  -999.2500
  307.0000   -61.6935     8.2456   115.1029     8.7872  -999.2500
  307.5000   -61.7535     8.1356   116.4314     8.5594  -999.2500
  308.0000   -61.8168     8.0250   117.7600     8.3355  -999.2500
  308.5000   -61.8617     7.9170   119.0886     8.2225  -999.2500
  309.0000   -61.6600     7.8979   120.4172     8.2621  -999.2500
  309.5000   -61.4599     7.8740   121.7458     8.3028  -999.2500
  310.0000   -61.2606     7.8495   122.3181     8.2837  -999.2500
  310.5000   -61.0711     7.8248   121.9566     8.2347  -999.2500
  311.0000   -61.0652     7.8206   121.5951     8.1861  -999.2500
  311.5000   -61.0662     7.8368   121.2336     8.1325  -999.2500
  312.0000   -61.0664     7.8530   120.8721     8.1394  -999.2500
  312.5000   -61.0664     7.8692   120.5106     8.2088  -999.2500
  313.0000   -61.0664     7.8854   120.1491     8.2782  -999.2500
  313.5000   -61.0664     7.9016   119.7876     8.3477  -999.2500
  314.0000   -61.0664     7.9178   119.4557     8.3572  -999.2500
  314.5000   -61.0663     7.9340   119.0353     8.3539  -999.2500
  315.0000   -61.0664     7.9502   118.6467     8.3254  -999.2500
  315.5000   -61.0660     7.9664   118.2581     8.2975  -999.2500
  316.0000   -61.1259     7.9825   117.8695     8.3045  -999.2500
  316.5000   -61.2296     7.9984   117.4810     8.3130  -999.2500
  317.0000   -61.3337     8.0160   117.0929     8.3527  -999.2500
  317.5000   -61.4412     8.0701   116.7051     8.4094  -999.2500
  318.0000   -61.3466     8.1240   116.1226     8.4711  -999.2500
  318.5000   -61.1758     8.1776   115.0854     8.5389  -999.2500
  319.0000   -61.0653     8.2311   114.0491     8.6064  -999.2500
  319.5000   -61.0666     8.2852   113.0121     8.6742  -999.2500
  320.0000   -61.0663     8.3625   111.9758     8.7425  -999.2500
  320.5000   -61.0672     8.4762   110.4879     8.8289  -999.2500
  321.0000   -61.0676     8.5895   108.4153     8.9409  -999.2500
  321.5000   -61.0107     8.7029   106.3427     9.0525  -999.2500
  322.0000   -60.6273     8.8165   104.8958     9.1644  -999.2500
  322.5000   -60.2688     8.9298   104.0323     9.2762  -999.2500
  323.0000   -60.2623     9.0269   103.1687     9.3882  -999.2500
  323.5000   -60.4225     9.0385   102.3051     9.5004  -999.2500
  324.0000   -60.7575     9.0520   101.4415     9.6047  -999.2500
  324.5000   -61.0910     9.0656   100.5780     9.6272  -999.2500
  325.0000   -61.4266     9.0792   100.8905     9.5559  -999.2500
  325.5000   -61.7650     9.0928   101.7540     9.4740  -999.2500
