~VERSION INFORMATION
 VERS.                2.0:   CWLS LOG ASCII STANDARD - VERSION 2.0
 WRAP.                 NO:   ONE LINE PER DEPTH STEP
~WELL INFORMATION
#MNEM.UNIT      DATA TYPE    INFORMATION
#----------   ------------   ------------------------------
 STRT.F            0.0000:   START DEPTH
 STOP.F          743.0000:   STOP DEPTH
 STEP.F            0.5000:   STEP LENGTH
 NULL.          -999.2500:   NO VALUE
 COMP. LAWRENCE/ALLISON INC:   COMPANY
 WELL.   NPR 3 #33-16SX11:   WELL
 FLD .                NPR:   FIELD
 LOC .      S11 T38N R78W:   LOCATION
 CNTY.            NATRONA:   COUNTY
 STAT.            WYOMING:   STATE
 CTRY. UNITED STATES OF AMERICA:   COUNTRY
 SRVC.           Gearhart:   SERVICE COMPANY
 DATE.        05-JUN-1986:   LOGDATE
 API .       490251107500:   API NUMBER
~CURVE INFORMATION
#MNEM.UNIT       API CODE    CURVE DESCRIPTION
#----------   ------------   ------------------------------
 DEPT.F                  :   
 GRR .GAPI   07 310 01 00:   GAMMA RAY
 RILD.OHMM   07 120 46 00:   INDUCTION LOG DEEP RESISTIVITY
 RILM.OHMM   07 120 44 00:   INDUCTION LOG MEDIUM RESISTIVITY
 RLL .OHMM   07 220 00 00:   LATEROLOG RESISTIVITY
 SPR .MV     07 010 01 00:   SPONTANEOUS POTENTIAL
~PARAMETER INFORMATION
#MNEM.UNIT          VALUE    DESCRIPTION
#----------   ------------   ------------------------------
 PD  .                 GL:   PERMANENT DATUM
 EPD .F              5175:   ELEVATION PERMANENT DATUM
 LMF .                 KB:   LOG MEASURED FROM
 DMF .                 KB:   DRILLING MEASURED FROM
 EKB .F              5175:   KELLING BUSHING
 EGL .F              5175:   GROUND LEVEL
 DATE.        05-JUN-1986:   RUN DATE
 RUN .                  1:   RUN NUMBER
 DD  .F               736:   DEPTH DRILLER
 DL  .F               744:   DEPTH LOGGER
 BLI .F               743:   BOTTOM LOG INTERVAL
 TLI .F                42:   TOP LOG INTERVAL
 CS  .IN            8.625:   CASING SIZE
 CBD .F                42:   CASING BOTTOM DRILLER
 CBL .F                42:   CASING BOTTOM LOGGER
 BS  .IN            7.875:   BIT SIZE
 BSD .F               736:   BIT SIZE AT DEPTH
 DFT .           KCL- GEL:   DRILLING FLUID TYPE
 DFD .                9.2:   DRILLING FLUID DENSITY
 DFV .                 42:   DRILLING FLUID VISCOSITY
 DFPH.                 11:   DRILLING FLUID PH
 MSS .           FLOWLINE:   MUD SAMPLE SOURCE
 RMS .OHMM            .51:   RESISTIVITY MUD SAMPLE
 MST .F                81:   MUD SAMPLE TEMPERATURE
 RMF .OHMM            .48:   RESISTIVITY MUD FILTRATE SAMPLE
 MFST.F                65:   MUD FILTRATE SAMPLE TEMPERATURE
 RMC .OHMM            .81:   RESISTIVITY MUD CAKE
 MCST.F                66:   MUD CAKE SAMPLE TEMPERATURE
 MFSS.               MEAS:   MUD FILTRATE SAMPLE SOURCE
 MCSS.               MEAS:   MUD CAKE SAMPLE SOURCE
 RMB .OHMM            .47:   RESISTIVITY MUD AT BHT
 BHT .F                90:   BOTTOM HOLE TEMPERATURE
 TCS .HRS            1930:   TIME CURCULATED STOPPED
 TLAB.HRS            2114:   TIME LOGGER AT BOTTOM
 LUN .               7609:   LOGGING UNIT NUMBER
 LUL .           GILLETTE:   LOGGING UNIT LOCATION
 ENGI. WEATHERMON/ JOHNSTON:   RECORDING ENGINEER
 WITN.           LENNINGS:   WITNESSED BY
 CLNT.            A2DTECH:   CLIENT CODE
 ORIG.           5" PRINT:   ORIGIN OF DATA
 UWI .       490251107500:   UNIQUE WELL ID
 DICO. A2D Technologies, Inc.:   DIGITIZING COMPANY
~OTHER INFORMATION
~A    DEPT     GRR       RILD       RILM        RLL        SPR   
# ...
  305.0000    96.4484     7.8407     8.0068    10.0873   -47.1927
  305.5000    94.3181     7.8433     7.9533     9.6738   -45.0592
  306.0000    93.4018     7.7903     7.9000     9.4080   -44.0061
  306.5000    92.7889     7.7929     7.9027     9.3436   -47.0410
  307.0000    91.5690     7.7403     7.8493     9.4105   -48.2549
  307.5000    90.3478     7.7429     7.8519     9.6194   -46.8892
  308.0000    90.9490     7.6911     7.8541     9.7486   -44.6131
  308.5000    94.2815     7.6937     7.8562     9.8184   -43.0956
  309.0000    97.9175     7.7496     7.9134     9.8197   -43.2755
  309.5000   100.0361     7.8061     7.9160     9.8211   -43.8543
  310.0000    96.6919     7.8629     7.9736     9.8914   -43.5508
  310.5000    92.9710     7.9756     8.0317    10.4767   -43.7026
  311.0000    89.6984     8.0336     8.1468    11.0667   -45.2200
  311.5000    90.3010     8.1489     8.2061    11.3825   -46.4340
  312.0000    92.4181     8.2087     8.2658    11.5445   -46.1305
  312.5000    94.2332     8.2684     8.2681    11.3061   -46.1305
  313.0000    95.4413     8.2707     8.3288    11.3076   -46.1305
  313.5000    96.3460     8.2729     8.3310    11.0683   -45.5235
  314.0000    95.7005     8.2751     8.3333    11.1538   -44.6131
  314.5000    93.6013     8.3354     8.3355    11.3920   -44.0061
  315.0000    91.7745     8.2796     8.3378    11.2352   -45.2200
  315.5000    90.8582     8.2824     8.2820    11.0801   -46.7506
  316.0000    92.9768     8.1697     8.2266    10.9279   -45.9788
  316.5000    97.8268     8.1145     8.1147    11.0062   -45.3718
  317.0000    98.1285     8.0602     8.0048    10.7793   -45.2200
  317.5000    96.2974     7.9511     7.8959    10.6309   -45.9788
  318.0000    95.0763     7.8942     7.7880    10.3388   -45.3718
  318.5000    95.3740     7.7904     7.6291    10.0544   -44.7648
  319.0000    96.5821     7.6845     7.5253     9.8472   -46.0274
  319.5000    97.7902     7.5804     7.4230     9.4411   -46.8892
  320.0000    97.7843     7.4773     7.3225     9.2485   -45.5235
  320.5000    98.0859     7.4268     7.2730     9.2501   -45.2200
  321.0000    98.7314     7.3776     7.2243     9.1865   -46.1305
  321.5000    99.8897     7.3282     7.2268     9.1880   -46.5857
  322.0000   100.4923     7.2792     7.2287     9.3188   -46.9013
  322.5000    97.7536     7.2816     7.2307     9.5189   -47.4962
  323.0000    94.4093     7.3346     7.2838     9.7214   -47.6479
  323.5000    91.9756     7.3366     7.3368     9.8598   -47.1927
  324.0000    90.1366     7.4418     7.4420    10.0703   -47.1927
  324.5000    89.5345     7.5494     7.4961    10.2854   -47.1927
  325.0000    92.2600     7.6657     7.6036    10.2868   -46.2822
  325.5000    95.8960     7.7670     7.7126    10.2881   -44.7182
  326.0000    97.4091     7.8784     7.8306    10.3735   -43.5508
  326.5000    95.2774     7.9357     7.9359    10.5093   -46.2822
  327.0000    93.4506     7.9935     7.9936    10.3646   -47.3445
  327.5000    92.5341     8.0516     8.0518    10.5863   -47.1927
  328.0000    94.0444     8.1103     8.1104    10.8124   -46.1305
  328.5000    95.5560     8.1698     8.1126    10.8898   -45.3718
  329.0000    95.2466     8.1720     8.1717    10.9678   -45.3718
  329.5000    95.2408     8.1742     8.1744    11.2810   -45.3718
  330.0000    97.3593     8.1764     8.1766    10.8945   -45.2200
  330.5000    98.8710     8.1786     8.1788    10.4479   -45.8270
  331.0000    97.5943     8.1239     8.1235    10.3037   -46.5857
  331.5000    95.2159     8.1196     7.9578    10.1622   -46.8892
  332.0000    94.6031     8.0156     7.8496    10.1636   -47.0410
  332.5000    94.2937     7.9619     7.7383    10.1653   -47.0410
  333.0000    93.9844     7.9086     7.5848    10.2381   -47.0410
  333.5000    94.2835     7.8557     7.4816    10.3113   -46.7375
  334.0000    95.4901     7.8036     7.4316    10.3127   -46.2822
  334.5000    97.0379     7.8058     7.4336    10.3141   -45.5235
  335.0000    98.2098     7.8627     7.4356    10.1651   -44.7648
  335.5000    94.8641     7.9204     7.4897     9.9624   -44.6131
  336.0000    92.7338     7.9780     7.4918    10.0338   -45.3718
  336.5000    91.8175     8.0361     7.5996    10.1766   -45.5235
  337.0000    91.8116     8.1513     7.7086    10.3214   -45.8270
  337.5000    91.5023     8.2682     7.8191    10.4683   -46.5857
  338.0000    88.0689     8.4455     7.9312    10.6233   -46.2822
  338.5000    86.9368     8.6271     8.0449    10.8440   -46.2822
  339.0000    88.1449     8.8739     8.2175    10.3998   -46.5857
  339.5000    90.2634     9.0011     8.3942    10.4743   -47.1927
  340.0000    93.2925     9.1302     8.5146    10.7731   -47.6479
  340.5000    95.7145     9.2611     8.5765    11.2366   -46.8892
  341.0000    96.6192     9.3938     8.6995    11.3966   -46.7375
  341.5000    95.7014     9.5954     8.7628    11.5591   -46.8892
  342.0000    94.1781     9.7335     8.8884    11.6419   -46.1305
  342.5000    92.9583     9.8730     9.0159    11.7252   -45.8270
  343.0000    92.0419    10.0146     9.1457    11.6446   -47.0410
  343.5000    91.7340    10.2293     9.2769    11.5653   -47.1927
  344.0000    91.4232    10.3760     9.4758    11.7300   -46.5857
  344.5000    90.4906    10.5260     9.6790    12.1498   -45.9788
  345.0000    88.6786    10.6882     9.8866    12.4964   -45.5235
  345.5000    87.7623    10.8294    10.0283    12.5858   -46.2822
  346.0000    87.4530    10.9847    10.0311    12.7650   -46.4340
  346.5000    86.8401    11.0646    10.0344    12.7667   -46.2822
  347.0000    85.6203    11.1452    10.0371    12.5014   -46.2822
  347.5000    84.0970    11.1482    10.0398    12.4176   -46.5857
  348.0000    82.8528    11.0736    10.0425    12.5947   -45.9627
  348.5000    83.7804    11.0002    10.0452    12.7740   -44.9165
  349.0000    84.3829    10.9266    10.0479    13.0468   -46.2822
  349.5000    84.3756    10.8528    10.0513    13.3254   -47.1927
  350.0000    84.0677    10.6596    10.0533    12.9593   -47.6479
  350.5000    85.6288    10.3415    10.0026    12.5895   -46.7375
  351.0000    86.4881    10.2717     9.9862    12.3430   -46.5857
  351.5000    86.7894    10.1319     9.9878    12.2590   -47.3445
  352.0000    86.7858     9.9948     9.9196    12.1751   -47.7997
  352.5000    86.7828     9.9279     9.8520    12.0071   -47.3445
  353.0000    86.1730     9.8615     9.8536    12.0935   -47.4962
  353.5000    85.2595     9.8648     9.8550    11.9270   -47.6479
  354.0000    84.3454     9.7981     9.8563    11.7628   -47.4962
  354.5000    83.7355     9.8014     9.8576    11.6823   -47.1927
  355.0000    84.3396     9.8040     9.8589    11.7663   -46.8892
  355.5000    86.1576     9.8067     9.7916    11.8506   -46.5857
  356.0000    87.9756     9.8100     9.7930    11.9354   -46.1305
  356.5000    89.8048     9.8126     9.7946    11.7711   -46.2822
  357.0000    90.7012     9.8152     9.7959    11.6090   -47.1927
  357.5000    90.0906     9.8179     9.7973    11.6110   -47.1927
  358.0000    89.4807     9.8205     9.7986    11.6126   -46.8892
  358.5000    88.5673     9.8231     9.7999    11.8606   -46.5857
  359.0000    87.3504     9.8259     9.8012    11.9455   -47.0410
  359.5000    84.9196     9.8291     9.8029    11.9471   -47.6479
  360.0000    83.0146     9.7627     9.7356    11.9487   -47.9514
  360.5000    81.8781     9.7659     9.6019    11.4592   -47.1927
  361.0000    83.0891     9.6331     9.4700    10.9128   -45.9788
  361.5000    83.9967     9.5686     9.2753    10.5390   -45.3718
  362.0000    83.9938     9.4924     9.1479    10.5404   -45.5235
  362.5000    83.9908     9.2459     9.0170    10.9173   -46.4340
  363.0000    84.2914     9.1834     8.8366    11.0727   -47.1927
  363.5000    84.8947     9.0585     8.7153    11.1523   -47.1927
  364.0000    85.4988     8.9979     8.5956    11.0756   -46.5857
  364.5000    86.1036     8.8761     8.5366    11.0002   -46.2822
  365.0000    85.4930     8.8167     8.4786    10.6234   -46.2822
  365.5000    83.6691     8.7577     8.3622    10.1879   -46.4340
