~VERSION INFORMATION
 VERS.                2.0:   CWLS LOG ASCII STANDARD - VERSION 2.0
 WRAP.                 NO:   ONE LINE PER DEPTH STEP
~WELL INFORMATION
#MNEM.UNIT      DATA TYPE    INFORMATION
#----------   ------------   ------------------------------
 STRT.F           36.0000:   START DEPTH
 STOP.F          686.0000:   STOP DEPTH
 STEP.F            0.5000:   STEP LENGTH
 NULL.          -999.2500:   NO VALUE
 COMP.    FENIX & SCISSON:   COMPANY
 WELL.        NPR #15-S-2:   WELL
 FLD .             TEAPOT:   FIELD
 LOC .       S2 T38N R78W:   LOCATION
 CNTY.            NATRONA:   COUNTY
 STAT.            WYOMING:   STATE
 CTRY. UNITED STATES OF AMERICA:   COUNTRY
 SRVC.       Schlumberger:   SERVICE COMPANY
 DATE.        16-MAR-1977:   LOGDATE
 API .       490251029900:   API NUMBER
~CURVE INFORMATION
#MNEM.UNIT       API CODE    CURVE DESCRIPTION
#----------   ------------   ------------------------------
 DEPT.F                  :   
 SPR .MV     07 010 01 00:   SPONTANEOUS POTENTIAL FROM RES.
 ILD .OHMM   07 120 46 00:   INDUCTION LOG DEEP
 ILM .OHMM   07 120 44 00:   INDUCTION LOG MEDIUM
 LL8 .OHMM   07 220 08 00:   LATEROLOG-8 RES.
 GRD .GAPI   45 310 01 00:   GAMMA RAY FROM DENSITY LOG
 CALD.IN     45 280 60 00:   CALIPER FROM DENSITY LOG
 CORR.G/C3   45 356 01 00:   DENSITY CORRECTION
 RHOB.G/C3   45 350 01 00:   BULK DENSITY
 DPHI.DEC    45 890 12 00:   DENSITY POROSITY SANDSTONE
~PARAMETER INFORMATION
#MNEM.UNIT          VALUE    DESCRIPTION
#----------   ------------   ------------------------------
 PD  .                 GL:   PERMANENT DATUM
 EPD .F              5129:   ELEVATION PERMANENT DATUM
 LMF .                 KB:   LOG MEASURED FROM
 DAPD.F                 4:   FEET ABOVE PERMANENT DATUM
 DMF .                 KB:   DRILLING MEASURED FROM
 EKB .F              5133:   KELLING BUSHING
 EGL .F              5129:   GROUND LEVEL
 DATE.        15-MAR-1977:   RUN DATE
 RUN .                  1:   RUN NUMBER
 DD  .F               680:   DEPTH DRILLER
 DL  .F               680:   DEPTH LOGGER
 BLI .F               683:   BOTTOM LOG INTERVAL
 TLI .F                48:   TOP LOG INTERVAL
 CS  .IN            8.625:   CASING SIZE
 CBD .F                40:   CASING BOTTOM DRILLER
 CBL .F                49:   CASING BOTTOM LOGGER
 BS  .IN            7.875:   BIT SIZE
 BSD .F               680:   BIT SIZE AT DEPTH
 DFT .            KCL MUD:   DRILLING FLUID TYPE
 DFD .                8.8:   DRILLING FLUID DENSITY
 DFV .                 33:   DRILLING FLUID VISCOSITY
 DFPH.                9.6:   DRILLING FLUID PH
 DFL .                9.0:   DRILLING FLUID LOSS
 MSS .                PIT:   MUD SAMPLE SOURCE
 RMS .OHMM           0.22:   RESISTIVITY MUD SAMPLE
 MST .F                50:   MUD SAMPLE TEMPERATURE
 RMF .OHMM           0.21:   RESISTIVITY MUD FILTRATE SAMPLE
 MFST.F                50:   MUD FILTRATE SAMPLE TEMPERATURE
 MFSS.               MEAS:   MUD FILTRATE SAMPLE SOURCE
 TCS .HRS            1800:   TIME CURCULATED STOPPED
 TLAB.HRS            2130:   TIME LOGGER AT BOTTOM
 LUN .               7711:   LOGGING UNIT NUMBER
 LUL .               CSPR:   LOGGING UNIT LOCATION
 ENGI.             TAYLER:   RECORDING ENGINEER
 CLNT.            A2DTECH:   CLIENT CODE
 ORIG.           5" PRINT:   ORIGIN OF DATA
 UWI .       490251029900:   UNIQUE WELL ID
 DICO. A2D Technologies, Inc.:   DIGITIZING COMPANY
~OTHER INFORMATION
~A   DEPT      SPR        ILD        ILM        LL8         GRD      CALD       CORR       RHOB       DPHI   
# ...
  583.5000   -64.5712    11.6236    11.4555    12.2460   105.9769     7.9591     0.0108     2.5081     0.0835
  584.0000   -65.0027    11.4757    11.0028    11.9218   106.2933     8.0495     0.0109     2.5254     0.0751
  584.5000   -65.1358    11.3268    10.7895    11.6866   106.7583     8.0656     0.0102     2.5255     0.0742
  585.0000   -65.1193    11.1084    10.6538    11.4561   106.7776     8.0670     0.0125     2.5233     0.0757
  585.5000   -65.1029    10.9670    10.3752    11.2279   106.3510     8.0683     0.0163     2.5211     0.0793
  586.0000   -65.0866    10.7500    10.1741    10.9328   106.2169     8.0696     0.0156     2.5197     0.0807
  586.5000   -65.3688    10.3978     9.9082    10.6434   106.8353     8.0710     0.0149     2.5168     0.0792
  587.0000   -65.5105     9.9164     9.6491    10.5037   109.2320     8.0723     0.0097     2.5146     0.0831
  587.5000   -65.9453     9.1991     9.1405    10.2986   112.9659     8.0736     0.0015     2.4868     0.0963
  588.0000   -66.5293     8.6526     8.5398    10.2340   116.8485     8.0750     0.0031     2.4764     0.1038
  588.5000   -67.0946     7.9714     7.4972     9.9650   119.3938     8.0763     0.0069     2.4705     0.1077
  589.0000   -67.6974     7.0451     6.6276     9.5020   123.7221     8.0776     0.0100     2.4675     0.1128
  589.5000   -68.4309     6.4456     5.9409     8.8482   128.6447     8.0790     0.0130     2.4631     0.1158
  590.0000   -69.1311     6.2329     5.6668     5.4821   131.6358     8.0803     0.0169     2.4541     0.1197
  590.5000   -69.7118     6.0271     5.4807     4.6664   132.0959     8.0816     0.0184     2.4452     0.1230
  591.0000   -69.8488     5.9079     5.9207     4.5803   124.3934     8.0830     0.0192     2.4603     0.1160
  591.5000   -69.8284     6.1238     6.3083     6.0921   112.8228     8.0843     0.0125     2.4754     0.1088
  592.0000   -69.3643     6.4343     6.7678     9.9359   108.2358     8.0705     0.0081     2.5086     0.0841
  592.5000   -68.7509     6.7607     8.3377    11.5178   105.2785     8.0569     0.0051     2.5192     0.0793
  593.0000   -67.8391     7.7186     9.1959    10.8341   106.4912     8.0586     0.0022     2.5057     0.0877
  593.5000   -67.0765     8.9350     9.3996    10.6919   110.2252     8.0599     0.0000     2.4968     0.0931
  594.0000   -66.7617    10.0609     9.4759    10.7029   110.6902     8.0613    -0.0037     2.4908     0.0948
  594.5000   -66.2976    10.2825     9.4870    10.8609   109.6693     8.0626     0.0137     2.5135     0.0816
  595.0000   -65.9828    10.4366     9.4981    11.0212   109.9858     8.0639     0.0190     2.5188     0.0783
  595.5000   -65.6679    10.5930     9.4409    11.1068   110.5994     8.0501     0.0221     2.5174     0.0809
  596.0000   -65.3531    10.8263     9.6529    11.1159   109.8757     8.0366     0.0259     2.5152     0.0797
  596.5000   -65.0383    10.9886    10.3561    11.1251   108.1119     8.0383     0.0297     2.5206     0.0786
  597.0000   -64.5742    11.3872    10.8824    11.2893   106.4967     8.0244     0.0230     2.5161     0.0806
  597.5000   -64.2594    11.6380    11.3566    11.6961   105.9213     8.0109     0.0178     2.5109     0.0830
  598.0000   -63.4968    12.0602    11.7699    12.2016   106.9809     7.9974     0.0118     2.5050     0.0890
  598.5000   -62.7342    12.2409    11.9477    12.2116   107.7431     7.9991     0.0209     2.5013     0.0907
  599.0000   -61.9716    12.3386    11.9617    12.2217   107.9110     8.0004     0.0247     2.4991     0.0919
  599.5000   -61.3582    12.5235    11.8931    12.6620   108.3760     8.0166     0.0225     2.4977     0.0934
  600.0000   -60.8955    12.7994    11.7435    13.0279   109.8811     8.0326     0.0188     2.5008     0.0856
  600.5000   -60.8791    12.9924    11.1228    13.3173   110.0450     8.0336     0.0197     2.5151     0.0816
  601.0000   -60.8626    13.0989    10.6842    13.2366   108.4226     8.0347     0.0205     2.5175     0.0786
  601.5000   -60.9954    13.3895    10.6999    13.3469   106.0588     8.0358     0.0198     2.5221     0.0755
  602.0000   -61.1282    13.4053    10.7869    13.7365   103.6951     8.0368     0.0221     2.5289     0.0725
  602.5000   -61.2612    13.4212    11.1796    14.0401   102.0742     8.0378     0.0199     2.5305     0.0713
  603.0000   -61.8418    13.3439    12.0774    14.0557   101.1964     8.0537     0.0192     2.5253     0.0740
  603.5000   -62.4221    13.0857    12.4445    13.8564   100.1696     8.0548     0.0102     2.5051     0.0851
  604.0000   -62.5552    13.1012    12.8067    13.6989   101.0751     8.0706     0.0042     2.4932     0.0934
  604.5000   -62.5384    13.2078    13.0748    13.7293   101.9803     8.0717     0.0051     2.4887     0.0958
  605.0000   -62.5220    13.5009    13.1932    13.9340   102.4397     8.0876     0.0081     2.4918     0.0984
  605.5000   -62.3563    13.8004    13.3803    14.1417   103.1963     8.0886     0.0135     2.5009     0.0918
  606.0000   -62.3398    13.9127    13.4890    14.2444   103.3978     8.0600     0.0143     2.5040     0.0894
  606.5000   -62.3233    13.9291    13.5048    14.2598   101.5891     8.0313     0.0128     2.5011     0.0855
  607.0000   -62.1576    13.8454    13.4226    14.0796   101.0080     8.0027     0.0106     2.5170     0.0818
  607.5000   -62.1412    13.5810    13.0736    13.8986   102.0622     7.9741     0.0107     2.5246     0.0752
  608.0000   -62.1247    13.4062    12.7337    13.6302   106.2364     7.8564     0.0153     2.5284     0.0724
  608.5000   -62.2582    13.2376    12.5747    13.4592   109.2218     7.7536     0.0169     2.5187     0.0754
  609.0000   -62.3910    12.9848    12.9427    13.3812   107.4524     7.7466     0.0086     2.5128     0.0823
  609.5000   -62.5239    12.9067    13.7900    13.3962   103.6028     7.9189     0.0049     2.5046     0.0886
  610.0000   -62.6567    12.9258    14.3912    13.4111   101.8334     8.0386     0.0027     2.4986     0.0904
  610.5000   -62.6394    12.8481    14.8122    13.5192   101.2492     8.0842    -0.0018     2.5018     0.0888
  611.0000   -62.6230    12.7746    14.9326    13.7227   102.1578     8.1001     0.0081     2.5116     0.0852
  611.5000   -62.6065    12.6177    14.9503    13.6428   104.5489     8.0860     0.0119     2.5192     0.0789
  612.0000   -62.5901    12.4553    14.8642    13.4709   106.4942     8.0722     0.0157     2.5094     0.0809
  612.5000   -62.7270    12.3023    14.3767    13.3001   108.4395     8.0735     0.0053     2.5104     0.0845
  613.0000   -62.7064    12.2319    13.9045    13.1319   109.1961     8.0745     0.0068     2.5142     0.0818
  613.5000   -62.8433    12.2464    13.3552    12.8773   109.3550     8.0756     0.0114     2.5174     0.0787
  614.0000   -63.1212    12.2609    13.0063    12.6269   107.1432     8.0766     0.0145     2.5181     0.0811
  614.5000   -63.2581    12.2754    12.6664    12.4674   108.1970     8.0777     0.0040     2.5137     0.0790
  615.0000   -63.3868    12.2899    12.1660    12.2250   110.5881     8.0787     0.0131     2.5220     0.0756
  615.5000   -63.3704    12.2196    11.8481    12.0705   112.3848     8.0798     0.0169     2.5236     0.0738
  616.0000   -63.5032    12.1461    11.5351    11.9973   114.1815     8.0808     0.0147     2.5297     0.0696
  616.5000   -63.4867    11.9934    11.0827    12.0140   115.9782     8.0818     0.0065     2.5118     0.0807
  617.0000   -63.4702    11.7609    10.7931    12.0274   114.9518     8.0680     0.0036     2.5103     0.0854
  617.5000   -63.3045    11.5989    10.5840    12.0408   112.8840     8.0691     0.0074     2.5112     0.0830
  618.0000   -62.9896    11.4548    10.4479    11.9678   111.8574     8.0701     0.0112     2.5052     0.0875
  618.5000   -62.9731    11.3227    10.2485    11.7384   112.6142     8.0561     0.0045     2.5046     0.0850
  619.0000   -62.8074    11.2495     9.9807    11.4308   114.1137     8.0574    -0.0015     2.5054     0.0859
  619.5000   -62.6417    11.0397     9.5204    11.2833   113.9788     8.0584    -0.0052     2.5077     0.0877
