~VERSION INFORMATION
 VERS.                2.0:   CWLS LOG ASCII STANDARD - VERSION 2.0
 WRAP.                 NO:   ONE LINE PER DEPTH STEP
~WELL INFORMATION
#MNEM.UNIT      DATA TYPE    INFORMATION
#----------   ------------   ------------------------------
 STRT.F         1099.5000:   START DEPTH
 STOP.F         2700.0000:   STOP DEPTH
 STEP.F            0.5000:   STEP LENGTH
 NULL.          -999.2500:   NO VALUE
 COMP. LAWRENCE/ALLISON INC NPR #3:   COMPANY
 WELL.   47 STX 14 #47-14:   WELL
 FLD .             TEAPOT:   FIELD
 LOC .      S14 T38N R78W:   LOCATION
 CNTY.            NATRONA:   COUNTY
 STAT.            WYOMING:   STATE
 CTRY. UNITED STATES OF AMERICA:   COUNTRY
 SRVC.            Unknown:   SERVICE COMPANY
 DATE.        01-SEP-1988:   LOGDATE
 API .       490251124400:   API NUMBER
~CURVE INFORMATION
#MNEM.UNIT       API CODE    CURVE DESCRIPTION
#----------   ------------   ------------------------------
 DEPT.F                  :   
 ROP .MIN/FT 91 810 01 00:   RATE OF DRILLING PENETRATION
 TGAS.UNITS  91 830 01 00:   TOTAL GAS FROM HOTWIRE
~PARAMETER INFORMATION
#MNEM.UNIT          VALUE    DESCRIPTION
#----------   ------------   ------------------------------
 EKB .F              5286:   KELLING BUSHING
 EGL .F              5276:   GROUND LEVEL
 DATE.             9-1-88:   RUN DATE
 DD  .F              2700:   DEPTH DRILLER
 CBD .F              1088:   CASING BOTTOM DRILLER
 TCS .HRS            1200:   TIME CURCULATED STOPPED
 TLAB.HRS            1223:   TIME LOGGER AT BOTTOM
 ENGI.               HUSK:   RECORDING ENGINEER
 WITN.           PETERSON:   WITNESSED BY
 CLNT.            A2DTECH:   CLIENT CODE
 ORIG.           5" PRINT:   ORIGIN OF DATA
 UWI .       490251124400:   UNIQUE WELL ID
 DICO. A2D Technologies, Inc.:   DIGITIZING COMPANY
~OTHER INFORMATION
~A  DEPT       ROP       TGAS   
# ...
 2557.5000     0.3817   331.3911
 2558.0000     0.3810   321.6055
 2558.5000     0.3803   321.7087
 2559.0000     0.3795   321.8120
 2559.5000     0.3788   321.9152
 2560.0000     0.3840   322.0184
 2560.5000     0.4001   322.1216
 2561.0000     0.4338   322.2248
 2561.5000     0.4757   322.3280
 2562.0000     0.5104   322.4312
 2562.5000     0.5266   322.5344
 2563.0000     0.5366   322.6376
 2563.5000     0.5383   322.7408
 2564.0000     0.5272   322.8440
 2564.5000     0.5058   322.9472
 2565.0000     0.4431   323.0504
 2565.5000     0.3908   323.1537
 2566.0000     0.3509   292.3133
 2566.5000     0.3584   282.0909
 2567.0000     0.3576   282.1896
 2567.5000     0.3569   282.2883
 2568.0000     0.3597   282.3870
 2568.5000     0.3658   282.4886
 2569.0000     0.3651   281.8173
 2569.5000     0.3644   269.8845
 2570.0000     0.3636   251.8184
 2570.5000     0.3749   249.7452
 2571.0000     0.4468   241.7202
 2571.5000     0.5005   241.8234
 2572.0000     0.5103   241.9266
 2572.5000     0.4729   242.0298
 2573.0000     0.4009   242.1330
 2573.5000     0.3511   242.2362
 2574.0000     0.3291   242.3394
 2574.5000     0.3114   248.4203
 2575.0000     0.3000   252.8670
 2575.5000     0.3089   252.9702
 2576.0000     0.3564   260.4690
 2576.5000     0.4082   271.3677
 2577.0000     0.4501   284.2620
 2577.5000     0.4728   284.3607
 2578.0000     0.4760   284.4594
 2578.5000     0.4682   284.5581
 2579.0000     0.4420   284.6568
 2579.5000     0.4248   284.7592
 2580.0000     0.4053   284.8624
 2580.5000     0.4000   284.9657
 2581.0000     0.3993   285.0688
 2581.5000     0.4089   285.1720
 2582.0000     0.4185   285.2752
 2582.5000     0.4488   282.1541
 2583.0000     0.4791   275.1606
 2583.5000     0.4991   271.0911
 2584.0000     0.4975   260.4019
 2584.5000     0.4738   249.7096
 2585.0000     0.4293   244.6101
 2585.5000     0.3767   244.7133
 2586.0000     0.3383   238.2802
 2586.5000     0.3294   234.5986
 2587.0000     0.3329   242.1832
 2587.5000     0.3474   245.1262
 2588.0000     0.3680   234.9264
 2588.5000     0.3990   235.0250
 2589.0000     0.4354   235.1237
 2589.5000     0.4725   214.5802
 2590.0000     0.5310   214.6789
 2590.5000     0.4456   214.7821
 2591.0000     0.4014   214.8853
 2591.5000     0.3485   214.9885
 2592.0000     0.3502   215.0918
 2592.5000     0.4197   215.1949
 2593.0000     0.4877   215.2981
 2593.5000     0.5872   215.4014
 2594.0000     0.7144   223.0702
 2594.5000     0.6824   236.2500
 2595.0000     0.5677   236.3532
 2595.5000     0.4822   236.4565
 2596.0000     0.4500   242.2368
 2596.5000     0.4493   246.9840
 2597.0000     0.4560   247.0871
 2597.5000     0.4582   247.1904
 2598.0000     0.4574   247.2936
 2598.5000     0.4669   247.3968
 2599.0000     0.4662   247.5173
 2599.5000     0.4655   247.6159
 2600.0000     0.4751   237.3936
 2600.5000     0.4744   237.2055
 2601.0000     0.4841   237.0012
 2601.5000     0.5147   236.7969
 2602.0000     0.5353   236.5925
 2602.5000     0.5543   236.3882
 2603.0000     0.5466   236.1839
 2603.5000     0.4819   235.9795
 2604.0000     0.4226   235.7752
 2604.5000     0.4104   235.5709
 2605.0000     0.4101   235.3665
 2605.5000     0.4098   235.1622
 2606.0000     0.4095   234.9579
 2606.5000     0.4092   234.7535
 2607.0000     0.4089   234.5492
 2607.5000     0.4086   234.3449
 2608.0000     0.4213   234.1405
 2608.5000     0.4775   233.9362
 2609.0000     0.5695   233.7319
 2609.5000     0.6548   233.5276
 2610.0000     0.6773   233.3232
 2610.5000     0.6422   233.1189
 2611.0000     0.5793   232.9146
 2611.5000     0.5302   232.7102
 2612.0000     0.5194   232.5059
 2612.5000     0.5191   232.3016
 2613.0000     0.5188   232.0972
 2613.5000     0.5124   231.8929
 2614.0000     0.4951   231.6886
 2614.5000     0.4670   231.4842
 2615.0000     0.4280   231.2799
 2615.5000     0.3782   231.0756
 2616.0000     0.3103   230.8712
 2616.5000     0.3823   230.6669
 2617.0000     0.4853   230.4626
 2617.5000     0.5573   230.2582
 2618.0000     0.5983   230.0539
 2618.5000     0.5770   229.8496
 2619.0000     0.5337   229.6452
 2619.5000     0.4692   229.4409
 2620.0000     0.3962   229.2366
 2620.5000     0.3740   229.0322
 2621.0000     0.4160   228.8279
 2621.5000     0.4581   228.6236
 2622.0000     0.5001   228.4193
 2622.5000     0.5232   228.2149
 2623.0000     0.4830   228.0106
 2623.5000     0.4190   227.8063
 2624.0000     0.3983   227.6019
 2624.5000     0.3980   227.3976
 2625.0000     0.4038   227.1933
 2625.5000     0.4140   226.9889
 2626.0000     0.4243   226.7846
 2626.5000     0.4278   226.5803
 2627.0000     0.4345   226.3759
 2627.5000     0.4375   226.1716
 2628.0000     0.4372   225.9673
 2628.5000     0.4369   225.7629
 2629.0000     0.4042   225.5586
 2629.5000     0.3536   225.3543
 2630.0000     0.3429   225.1499
 2630.5000     0.3633   224.9456
 2631.0000     0.3940   224.7413
 2631.5000     0.4040   224.5369
 2632.0000     0.4140   224.3326
 2632.5000     0.4137   224.1283
 2633.0000     0.4134   223.9239
 2633.5000     0.4131   223.7196
 2634.0000     0.4135   223.5153
 2634.5000     0.4356   223.3109
 2635.0000     0.4768   223.1066
 2635.5000     0.5060   222.9023
 2636.0000     0.5149   222.6980
 2636.5000     0.5080   222.4936
 2637.0000     0.4654   222.2893
 2637.5000     0.4313   222.0849
 2638.0000     0.4286   221.8806
 2638.5000     0.4204   221.6763
 2639.0000     0.4215   221.4720
 2639.5000     0.4225   221.2676
 2640.0000     0.4235   221.0633
 2640.5000     0.4245   220.8590
 2641.0000     0.4254   220.6546
 2641.5000     0.4264   220.4503
 2642.0000     0.4274   220.2460
 2642.5000     0.4282   220.0416
 2643.0000     0.4279   219.8373
 2643.5000     0.4313   219.6330
 2644.0000     0.4342   219.4286
 2644.5000     0.4371   219.2243
 2645.0000     0.4400   219.0200
 2645.5000     0.4429   218.8156
 2646.0000     0.4458   218.6113
 2646.5000     0.4387   218.4070
 2647.0000     0.4278   218.2026
 2647.5000     0.4087   217.9983
 2648.0000     0.3834   217.7940
 2648.5000     0.3728   217.5896
 2649.0000     0.3621   217.3853
 2649.5000     0.3722   217.1810
 2650.0000     0.3719   216.9767
 2650.5000     0.3612   216.9948
 2651.0000     0.3609   217.1196
 2651.5000     0.3606   217.2445
 2652.0000     0.3603   217.3693
 2652.5000     0.3682   217.4942
 2653.0000     0.3897   217.6190
 2653.5000     0.4564   217.7439
 2654.0000     0.5321   217.8688
 2654.5000     0.5101   217.9936
 2655.0000     0.4618   218.1185
 2655.5000     0.4111   218.2433
 2656.0000     0.3681   218.3682
 2656.5000     0.4195   218.4930
 2657.0000     0.4708   218.6179
 2657.5000     0.5325   218.7427
 2658.0000     0.5839   218.8676
 2658.5000     0.5004   218.9924
 2659.0000     0.4369   219.1173
 2659.5000     0.3867   219.2422
 2660.0000     0.3864   219.3670
 2660.5000     0.3861   219.4919
 2661.0000     0.3857   219.6167
 2661.5000     0.3854   219.7416
 2662.0000     0.3851   219.8664
 2662.5000     0.3827   219.9913
 2663.0000     0.3730   220.1161
 2663.5000     0.3678   220.2410
 2664.0000     0.3619   220.3658
 2664.5000     0.3715   220.4907
 2665.0000     0.3708   220.6156
 2665.5000     0.3701   220.7404
 2666.0000     0.3694   220.8653
 2666.5000     0.4016   220.9901
 2667.0000     0.4450   221.1150
 2667.5000     0.5060   221.2398
 2668.0000     0.5436   221.3647
 2668.5000     0.5519   221.4895
 2669.0000     0.5199   221.6144
 2669.5000     0.4707   221.7392
 2670.0000     0.4435   221.8641
 2670.5000     0.4352   221.9890
 2671.0000     0.4345   222.1138
 2671.5000     0.4338   222.2387
 2672.0000     0.4290   222.3635
 2672.5000     0.4220   222.4884
 2673.0000     0.4213   222.6132
 2673.5000     0.4206   222.7381
 2674.0000     0.4252   222.8629
 2674.5000     0.4294   222.9878
 2675.0000     0.4287   223.1126
 2675.5000     0.4216   223.2375
 2676.0000     0.4169   223.3624
 2676.5000     0.4232   223.4872
 2677.0000     0.4258   223.6121
 2677.5000     0.4251   223.7369
 2678.0000     0.4244   223.8618
 2678.5000     0.4235   223.9866
