~VERSION INFORMATION
 VERS.                2.0:   CWLS LOG ASCII STANDARD - VERSION 2.0
 WRAP.                 NO:   ONE LINE PER DEPTH STEP
~WELL INFORMATION
#MNEM.UNIT      DATA TYPE    INFORMATION
#----------   ------------   ------------------------------
 STRT.F           28.0000:   START DEPTH
 STOP.F          463.0000:   STOP DEPTH
 STEP.F            0.5000:   STEP LENGTH
 NULL.          -999.2500:   NO VALUE
 COMP.    FENIX & SCISSON:   COMPANY
 WELL.  NPR-3 #74 S 10-10:   WELL
 FLD .        TEAPOT DOME:   FIELD
 LOC .      S10 T38N R78W:   LOCATION
 CNTY.            NATRONA:   COUNTY
 STAT.            WYOMING:   STATE
 CTRY. UNITED STATES OF AMERICA:   COUNTRY
 SRVC.           BIRDWELL:   SERVICE COMPANY
 DATE.        12-FEB-1978:   LOGDATE
 API .       490251057000:   API NUMBER
~CURVE INFORMATION
#MNEM.UNIT       API CODE    CURVE DESCRIPTION
#----------   ------------   ------------------------------
 DEPT.F                  :   
 ILD .OHMM   05 120 46 00:   INDUCTION LOG DEEP
 SN  .OHMM   05 040 16 00:   SHORT NORMAL 16"
 SPR .MV     05 010 01 00:   SPONTANEOUS POTENTIAL FROM RES.
 CALD.IN     45 280 60 00:   CALIPER FROM DENSITY LOG
 CORR.G/C3   45 356 01 00:   DENSITY CORRECTION
 DPHI.DEC    45 890 12 00:   DENSITY POROSITY SANDSTONE
 GRD .GAPI   45 310 01 00:   GAMMA RAY FROM DENSITY LOG
 RHOB.G/C3   45 350 01 00:   BULK DENSITY
~PARAMETER INFORMATION
#MNEM.UNIT          VALUE    DESCRIPTION
#----------   ------------   ------------------------------
 PD  .                 GL:   PERMANENT DATUM
 EPD .F              5183:   ELEVATION PERMANENT DATUM
 LMF .                 KB:   LOG MEASURED FROM
 DAPD.F                 4:   FEET ABOVE PERMANENT DATUM
 DMF .                 KB:   DRILLING MEASURED FROM
 EKB .F              5187:   KELLING BUSHING
 EGL .F              5183:   GROUND LEVEL
 DATE.        12-FEB-1978:   RUN DATE
 RUN .                  1:   RUN NUMBER
 DD  .F               465:   DEPTH DRILLER
 DL  .F               465:   DEPTH LOGGER
 BLI .F               463:   BOTTOM LOG INTERVAL
 TLI .F                40:   TOP LOG INTERVAL
 CS  .IN            8.625:   CASING SIZE
 CBD .F                39:   CASING BOTTOM DRILLER
 BS  .IN            7.875:   BIT SIZE
 BSD .F               465:   BIT SIZE AT DEPTH
 DFT .         LIGNO-SULF:   DRILLING FLUID TYPE
 DFD .                8.8:   DRILLING FLUID DENSITY
 DFV .                 34:   DRILLING FLUID VISCOSITY
 DFPH.                 10:   DRILLING FLUID PH
 DFL .                4.0:   DRILLING FLUID LOSS
 MSS .                PIT:   MUD SAMPLE SOURCE
 RMS .OHMM            1.3:   RESISTIVITY MUD SAMPLE
 MST .F                62:   MUD SAMPLE TEMPERATURE
 RMF .OHMM            1.4:   RESISTIVITY MUD FILTRATE SAMPLE
 MFST.F                62:   MUD FILTRATE SAMPLE TEMPERATURE
 MCST.F                62:   MUD CAKE SAMPLE TEMPERATURE
 MFSS.               MEAS:   MUD FILTRATE SAMPLE SOURCE
 RMB .OHMM            1.3:   RESISTIVITY MUD AT BHT
 BHT .F                62:   BOTTOM HOLE TEMPERATURE
 TCS .HRS               2:   TIME CURCULATED STOPPED
 MRT .F                70:   MAXIMUM RECORDED TEMPERATURE
 LUN .               2953:   LOGGING UNIT NUMBER
 LUL .             CASPER:   LOGGING UNIT LOCATION
 ENGI.            POINTER:   RECORDING ENGINEER
 WITN.          MC GINLEY:   WITNESSED BY
 CLNT.            A2DTECH:   CLIENT CODE
 ORIG.           5" PRINT:   ORIGIN OF DATA
 UWI .       490251057000:   UNIQUE WELL ID
 DICO. A2D Technologies, Inc.:   DIGITIZING COMPANY
~OTHER INFORMATION
~A   DEPT      ILD         SN        SPR       CALD       CORR       DPHI         GRD      RHOB   
# ...
   68.5000     6.4284     6.5814   -47.3311     9.7881     0.2979     0.2441    79.8871     2.1398
   69.0000     6.4752     6.5825   -47.4665     9.0669     0.2994     0.2426    79.1414     2.1466
   69.5000     6.5223     6.6292   -47.4444     8.9464     0.2994     0.2453    80.5969     2.1368
   70.0000     6.5246     6.6301   -47.2782     8.9459     0.2994     0.2423    82.4714     2.1398
   70.5000     6.2615     6.5850   -46.9634     9.0055     0.2240     0.2401    83.2318     2.1648
   71.0000     6.3509     6.3616   -46.2028     9.4555     0.1893     0.2446    84.7453     2.2706
   71.5000     6.4862     6.5415   -45.8880     8.8395     0.1938     0.1987    87.7648     2.2517
   72.0000     6.5788     6.9156   -45.7217     8.4786     0.1953     0.1522    89.8807     2.3598
   72.5000     6.5811     6.9647   -45.8571     8.4632     0.1863     0.1425    90.0368     2.3711
   73.0000     6.5888     7.0142   -45.8351     8.4779     0.1787     0.1293    88.5401     2.4444
   73.5000     6.6773     7.0151   -45.8174     8.4022     0.1772     0.1146    89.9030     2.4565
   74.0000     6.7731     7.0161   -45.7998     8.3417     0.1697     0.1254    91.4165     2.4966
   74.5000     6.7754     7.0170   -45.7821     8.3413     0.0837     0.1332    91.1227     2.4785
   75.0000     6.7777     6.9695   -45.7645     8.3258     0.0732     0.1201    91.4313     2.4414
   75.5000     6.7328     6.9704   -45.7469     8.2953     0.0686     0.1373    91.5894     2.4437
   76.0000     6.6426     6.9714   -45.7292     8.2949     0.0671     0.1323    92.0486     2.4482
   76.5000     6.5990     6.9724   -45.7116     8.2794     0.0626     0.1328    92.2067     2.4520
   77.0000     6.4658     6.9733   -45.6939     8.2790     0.0566     0.1397    91.7623     2.4505
   77.5000     6.4234     6.9743   -45.6761     8.2785     0.0566     0.1454    87.7035     2.4422
   78.0000     6.4261     7.0238   -45.6582     8.2781     0.0566     0.1398    87.1084     2.4308
   78.5000     6.4283     7.0248   -45.6404     8.2776     0.0611     0.1292    87.4172     2.4286
   79.0000     6.3857     7.0259   -45.4472     8.2772     0.0626     0.1221    89.1054     2.4414
   79.5000     6.3884     7.0269   -45.1556     8.2767     0.0686     0.1169    91.5507     2.4573
   80.0000     6.4349     7.0279   -44.9893     8.3063     0.0807     0.1297    94.5783     2.4762
   80.5000     6.4818     7.0288   -44.9717     8.5236     0.0686     0.1471    94.3208     2.4936
   81.0000     6.5743     7.0787   -44.9541     8.8309     0.0551     0.1347    92.8779     2.4399
   81.5000     6.6234     7.1290   -44.7878     8.3200     0.0551     0.1302    93.7890     2.4255
   82.0000     6.7671     7.1795   -44.7702     8.3946     0.0566     0.1281    95.0013     2.4444
   82.5000     6.9139     7.1805   -44.7526     8.3166     0.0596     0.1245    95.7617     2.4543
   83.0000     7.0151     7.1815   -44.7761     8.3336     0.0611     0.1215    96.3716     2.4603
   83.5000     7.0083     7.1825   -44.8703     8.3147     0.0581     0.1262    95.4754     2.4649
   84.0000     6.9624     7.1338   -45.0012     8.2106     0.0626     0.1292    94.5792     2.4633
   84.5000     6.9168     7.0363   -45.1322     8.1821     0.0686     0.1274    93.8337     2.4573
   85.0000     6.9198     7.0375   -45.1101     8.1967     0.0822     0.1262    94.7447     2.4550
   85.5000     6.8738     7.1368   -45.0925     8.1907     0.0943     0.1256    96.7100     2.4573
   86.0000     6.9245     7.1874   -45.0748     8.0756     0.0973     0.1229    98.2235     2.4611
   86.5000     7.0233     7.2384   -45.0572     8.0451     0.0852     0.1141    97.7791     2.4672
   87.0000     7.0745     7.2915   -44.8910     8.0447     0.0747     0.1129    95.8287     2.4756
   87.5000     7.1754     7.4013   -44.5762     8.0442     0.0686     0.1144    94.3301     2.4816
   88.0000     7.2277     7.9947   -44.4099     8.0438     0.0626     0.1168    93.5846     2.4806
   88.5000     7.3817     8.0924   -44.2437     8.0283     0.0566     0.1186    92.9896     2.4776
   89.0000     7.4354     8.0938   -44.2259     8.0430     0.0551     0.1143    91.9428     2.4754
   89.5000     7.5939     8.0386   -44.2080     8.0575     0.0566     0.1086    89.6641     2.4756
   90.0000     7.6492     8.0400   -44.1902     8.0721     0.0566     0.0975    85.4618     2.4928
   90.5000     7.7583     8.0411   -44.1724     8.0715     0.0566     0.0942    86.5778     2.5110
   91.0000     7.6523     8.0422   -44.1511     8.0711     0.0566     0.1092    89.7079     2.4943
   91.5000     7.4998     8.0433   -44.1335     8.1007     0.0611     0.1201    93.3373     2.4807
   92.0000     7.5025     7.9888   -44.1158     8.1453     0.0641     0.1420    95.9050     2.4573
   92.5000     7.5056     7.9899   -44.0982     8.1600     0.0701     0.1439    96.0630     2.4399
   93.0000     7.5081     7.9910   -44.0805     8.2046     0.0837     0.1349    96.2211     2.4301
   93.5000     7.5107     7.9921   -43.9143     8.2340     0.1109     0.1277    96.2285     2.4520
   94.0000     7.5133     7.8831   -43.7481     8.2636     0.1275     0.1298    96.2360     2.4535
   94.5000     7.5680     7.7756   -43.5818     8.2632     0.1652     0.1295    96.0910     2.4512
   95.0000     7.6231     7.7766   -43.4156     8.2778     0.1833     0.1288    95.9497     2.4520
   95.5000     7.6257     7.8863   -43.2494     8.2773     0.1953     0.1285    92.9451     2.4543
   96.0000     7.4717     7.9423   -43.3848     8.2618     0.2059     0.1294    90.8555     2.4543
   96.5000     7.3709     7.9987   -43.3627     8.2765     0.2270     0.1321    88.1506     2.4535
   97.0000     7.2722     7.9998   -43.6422     8.3061     0.2466     0.1405    87.7048     2.4512
   97.5000     7.1259     7.8361   -43.9218     8.3055     0.2632     0.1636    90.6476     2.4467
   98.0000     7.0786     7.7292   -44.3485     8.2150     0.2979     0.1587    93.1787     2.3976
   98.5000     6.9363     7.7303   -44.7810     8.0644     0.3220     0.1455    93.0893     2.3946
   99.0000     6.9386     7.7316   -44.7589     7.9588     0.3221     0.1323    91.7948     2.4293
   99.5000     6.9410     7.7327   -44.8943     7.9584     0.3130     0.1239    92.7059     2.4520
  100.0000     6.8956     7.6272   -45.0252     7.9429     0.2979     0.1206    97.2299     2.4618
  100.5000     6.8971     7.6293   -45.1562     7.8981     0.2843     0.1184    98.1380     2.4739
  101.0000     6.8985     7.8461   -44.9855     7.8685     0.2739     0.1211    94.3804     2.4815
  101.5000     6.9960     7.9028   -44.6707     7.8387     0.2393     0.1196    88.9646     2.4784
  102.0000     7.0460     7.8503   -44.6530     7.8390     0.2137     0.1124    88.2161     2.4686
  102.5000     7.1456     7.8525   -44.4868     7.8544     0.1897     0.1163    92.2898     2.4799
  103.0000     7.2968     7.9644   -44.0234     7.8697     0.1852     0.1364    95.7596     2.4693
  103.5000     7.3490     7.9688   -43.7085     7.8850     0.1823     0.1274    96.6691     2.4663
  104.0000     7.4529     8.0294   -43.6909     7.9003     0.1748     0.1088    96.6751     2.4527
  104.5000     7.5061     8.0906   -43.5245     7.9156     0.1357     0.1004    94.7232     2.4973
  105.0000     7.5077     8.2550   -43.5067     7.9459     0.1041     0.1016    94.2771     2.4958
  105.5000     7.5613     8.3147   -43.4889     7.9613     0.0876     0.0971    94.2833     2.5101
  106.0000     7.6682     8.4919   -43.4601     8.0067     0.0695     0.1005    92.3324     2.5033
  106.5000     7.7230     8.5533   -43.4532     8.0370     0.0515     0.1044    90.0778     2.4935
  107.0000     7.7854     8.5556   -43.7291     8.0673     0.0410     0.1123    89.7826     2.4889
  107.5000     7.8338     8.4988   -43.7115     8.0826     0.0290     0.1223    89.4888     2.4829
  108.0000     7.8901     8.3841   -43.8468     8.1280     0.0276     0.1244    87.8381     2.4692
  108.5000     7.8374     8.3278   -43.5276     8.1433     0.0292     0.1238    80.4646     2.4653
