~VERSION INFORMATION
 VERS.                2.0:   CWLS LOG ASCII STANDARD - VERSION 2.0
 WRAP.                 NO:   ONE LINE PER DEPTH STEP
~WELL INFORMATION
#MNEM.UNIT      DATA TYPE    INFORMATION
#----------   ------------   ------------------------------
 STRT.F            8.5000:   START DEPTH
 STOP.F         2140.0000:   STOP DEPTH
 STEP.F            0.5000:   STEP LENGTH
 NULL.          -999.2500:   NO VALUE
 COMP. LAWRENCE/ALLISON INC:   COMPANY
 WELL.   11-61 SHX #61-11:   WELL
 FLD .             TEAPOT:   FIELD
 LOC .      S11 T38N R78W:   LOCATION
 CNTY.            NATRONA:   COUNTY
 STAT.            WYOMING:   STATE
 CTRY. UNITED STATES OF AMERICA:   COUNTRY
 SRVC.      NL McCullough:   SERVICE COMPANY
 DATE.        04-MAY-1988:   LOGDATE
 API .       490251115600:   API NUMBER
~CURVE INFORMATION
#MNEM.UNIT       API CODE    CURVE DESCRIPTION
#----------   ------------   ------------------------------
 DEPT.F                  :   
 GRR .GAPI   81 310 01 00:   GAMMY RAY
 ROP .FT/HR  91 810 01 00:   RAT OF DRILLING PENETRATION
 TGAS.TC/CC  91 830 01 00:   TOTAL GAS UNIT
~PARAMETER INFORMATION
#MNEM.UNIT          VALUE    DESCRIPTION
#----------   ------------   ------------------------------
 PD  .                 GL:   PERMANENT DATUM
 EPD .F              5135:   ELEVATION PERMANENT DATUM
 LMF .                 KB:   LOG MEASURED FROM
 DAPD.F                 8:   FEET ABOVE PERMANENT DATUM
 DMF .                 KB:   DRILLING MEASURED FROM
 EKB .F              5143:   KELLING BUSHING
 EGL .F              5135:   GROUND LEVEL
 DATE.        04-MAY-1988:   RUN DATE
 RUN .                  1:   RUN NUMBER
 DD  .F              2140:   DEPTH DRILLER
 DL  .F               572:   DEPTH LOGGER
 BLI .F               568:   BOTTOM LOG INTERVAL
 CS  .IN              5.5:   CASING SIZE
 CBD .F               622:   CASING BOTTOM DRILLER
 BSD .F              2140:   BIT SIZE AT DEPTH
 DFT .         KCL/ WATER:   DRILLING FLUID TYPE
 TCS .HRS               1:   TIME CURCULATED STOPPED
 ENGI.               DALY:   RECORDING ENGINEER
 WITN.           MR. LOWL:   WITNESSED BY
 CLNT.            A2DTECH:   CLIENT CODE
 ORIG.           5" PRINT:   ORIGIN OF DATA
 UWI .       490251115600:   UNIQUE WELL ID
 DICO. A2D Technologies, Inc.:   DIGITIZING COMPANY
~OTHER INFORMATION
~A    DEPT      GRR       ROP       TGAS   
# ...
 1009.5000  -999.2500     0.1945     1.3371
 1010.0000  -999.2500     0.1942     1.2594
 1010.5000  -999.2500     0.1939     1.1817
 1011.0000  -999.2500     0.1936     1.1040
 1011.5000  -999.2500     0.1934     1.0263
 1012.0000  -999.2500     0.1931     0.9486
 1012.5000  -999.2500     0.1928     0.8709
 1013.0000  -999.2500     0.1925     0.7932
 1013.5000  -999.2500     0.1923     0.7155
 1014.0000  -999.2500     0.1920     0.6378
 1014.5000  -999.2500     0.1917     0.5601
 1015.0000  -999.2500     0.1914     0.4824
 1015.5000  -999.2500     0.1911     0.4047
 1016.0000  -999.2500     0.1909     0.3270
 1016.5000  -999.2500     0.1906     0.2530
 1017.0000  -999.2500     0.1903     0.2725
 1017.5000  -999.2500     0.1900     0.2912
 1018.0000  -999.2500     0.1898     0.3098
 1018.5000  -999.2500     0.1895     0.3285
 1019.0000  -999.2500     0.1892     0.3471
 1019.5000  -999.2500     0.1889     0.3658
 1020.0000  -999.2500     0.1981     0.3844
 1020.5000  -999.2500     0.2453     0.4031
 1021.0000  -999.2500     0.2547     0.4217
 1021.5000  -999.2500     0.2642     0.4404
 1022.0000  -999.2500     0.2736     0.4590
 1022.5000  -999.2500     0.2830     0.4777
 1023.0000  -999.2500     0.2830     0.4963
 1023.5000  -999.2500     0.2830     0.5150
 1024.0000  -999.2500     0.2830     0.5336
 1024.5000  -999.2500     0.2830     0.5523
 1025.0000  -999.2500     0.2830     0.5709
 1025.5000  -999.2500     0.2830     0.5896
 1026.0000  -999.2500     0.2736     0.6082
 1026.5000  -999.2500     0.2736     0.6269
 1027.0000  -999.2500     0.2736     0.6455
 1027.5000  -999.2500     0.2736     0.6642
 1028.0000  -999.2500     0.2736     0.6828
 1028.5000  -999.2500     0.2736     0.7015
 1029.0000  -999.2500     0.2736     0.7201
 1029.5000  -999.2500     0.2736     0.7387
 1030.0000  -999.2500     0.2736     0.7574
 1030.5000  -999.2500     0.2736     0.7760
 1031.0000  -999.2500     0.2736     0.7947
 1031.5000  -999.2500     0.2736     0.8133
 1032.0000  -999.2500     0.2736     0.8320
 1032.5000  -999.2500     0.2736     0.8506
 1033.0000  -999.2500     0.2736     0.8693
 1033.5000  -999.2500     0.2736     0.8879
 1034.0000  -999.2500     0.2736     0.9066
 1034.5000  -999.2500     0.2736     0.9252
 1035.0000  -999.2500     0.2736     0.9439
 1035.5000  -999.2500     0.2736     0.9625
 1036.0000  -999.2500     0.2736     0.9812
 1036.5000  -999.2500     0.2736     0.9998
 1037.0000  -999.2500     0.2736     1.0185
 1037.5000  -999.2500     0.2736     1.0371
 1038.0000  -999.2500     0.2736     1.0558
 1038.5000  -999.2500     0.2736     1.0744
 1039.0000  -999.2500     0.2736     1.0931
 1039.5000  -999.2500     0.2736     1.1117
 1040.0000  -999.2500     0.2736     1.1304
 1040.5000  -999.2500     0.2736     1.1490
 1041.0000  -999.2500     0.2736     1.1677
 1041.5000  -999.2500     0.2736     1.1863
 1042.0000  -999.2500     0.2736    -0.3170
 1042.5000  -999.2500     0.2736    -0.3130
 1043.0000  -999.2500     0.2736    -0.3064
 1043.5000  -999.2500     0.2736    -0.2998
 1044.0000  -999.2500     0.2736    -0.2932
 1044.5000  -999.2500     0.2736    -0.2865
 1045.0000  -999.2500     0.2736    -0.2799
 1045.5000  -999.2500     0.2736    -0.2733
 1046.0000  -999.2500     0.2736    -0.2667
 1046.5000  -999.2500     0.2736    -0.2601
 1047.0000  -999.2500     0.2736    -0.2534
 1047.5000  -999.2500     0.2736    -0.2468
 1048.0000  -999.2500     0.2736    -0.2402
 1048.5000  -999.2500     0.2736    -0.2336
 1049.0000  -999.2500     0.2736    -0.2269
 1049.5000  -999.2500     0.2736    -0.2203
 1050.0000  -999.2500     0.2736    -0.2137
 1050.5000  -999.2500     0.2736    -0.2071
 1051.0000  -999.2500     0.2736    -0.2004
 1051.5000  -999.2500     0.2736    -0.1938
 1052.0000  -999.2500     0.2736    -0.1872
 1052.5000  -999.2500     0.2736    -0.1806
 1053.0000  -999.2500     0.2736    -0.1740
 1053.5000  -999.2500     0.2736    -0.1673
 1054.0000  -999.2500     0.2736    -0.1607
 1054.5000  -999.2500     0.2830    -0.1541
 1055.0000  -999.2500     0.2830    -0.1475
 1055.5000  -999.2500     0.2830    -0.1408
 1056.0000  -999.2500     0.2830    -0.1342
 1056.5000  -999.2500     0.2830    -0.1276
 1057.0000  -999.2500     0.2830    -0.1210
 1057.5000  -999.2500     0.2830    -0.1144
 1058.0000  -999.2500     0.2830    -0.1077
 1058.5000  -999.2500     0.2830    -0.1011
 1059.0000  -999.2500     0.2814    -0.0945
 1059.5000  -999.2500     0.2790    -0.0879
 1060.0000  -999.2500     0.2765    -0.0812
 1060.5000  -999.2500     0.2756    -0.0740
 1061.0000  -999.2500     0.2757    -0.0660
 1061.5000  -999.2500     0.2758    -0.0581
 1062.0000  -999.2500     0.2758    -0.0501
 1062.5000  -999.2500     0.2760    -0.0421
 1063.0000  -999.2500     0.2760    -0.0341
 1063.5000  -999.2500     0.2761    -0.0262
 1064.0000  -999.2500     0.2762    -0.0182
 1064.5000  -999.2500     0.2763    -0.0102
 1065.0000  -999.2500     0.2764    -0.0022
 1065.5000  -999.2500     0.2671     0.0057
 1066.0000  -999.2500     0.2672     0.0143
 1066.5000  -999.2500     0.2578     1.1380
 1067.0000  -999.2500     0.2579     1.8787
 1067.5000  -999.2500     0.2580     1.8676
 1068.0000  -999.2500     0.2581     1.8564
 1068.5000  -999.2500     0.2582     1.8452
 1069.0000  -999.2500     0.2583     1.4566
 1069.5000  -999.2500     0.2584     1.0679
 1070.0000  -999.2500     0.2585    -0.4528
 1070.5000  -999.2500     0.2680    -0.4642
 1071.0000  -999.2500     0.2681    -0.4776
 1071.5000  -999.2500     0.2682    -0.4888
 1072.0000  -999.2500     0.2683    -0.4841
 1072.5000  -999.2500     0.2684    -0.4766
 1073.0000  -999.2500     0.2685    -0.4690
 1073.5000  -999.2500     0.2686    -0.4615
 1074.0000  -999.2500     0.2687    -0.4539
 1074.5000  -999.2500     0.2688    -0.4464
 1075.0000  -999.2500     0.2689    -0.4389
 1075.5000  -999.2500     0.2690    -0.4313
 1076.0000  -999.2500     0.2691    -0.4238
 1076.5000  -999.2500     0.2692    -0.4163
 1077.0000  -999.2500     0.2787    -0.4087
 1077.5000  -999.2500     0.2788    -0.4012
 1078.0000  -999.2500     0.2789    -0.3936
 1078.5000  -999.2500     0.2790    -0.3861
 1079.0000  -999.2500     0.2791    -0.3786
 1079.5000  -999.2500     0.2792    -0.3710
 1080.0000  -999.2500     0.2792    -0.3635
 1080.5000  -999.2500     0.2793    -0.3560
 1081.0000  -999.2500     0.2794    -0.3484
 1081.5000  -999.2500     0.2795    -0.3409
 1082.0000  -999.2500     0.2796    -0.3334
 1082.5000  -999.2500     0.2797    -0.3258
 1083.0000  -999.2500     0.2798    -0.3183
 1083.5000  -999.2500     0.2799    -0.3107
 1084.0000  -999.2500     0.2800    -0.3032
 1084.5000  -999.2500     0.2801    -0.2957
 1085.0000  -999.2500     0.2802    -0.2881
 1085.5000  -999.2500     0.2803    -0.2806
 1086.0000  -999.2500     0.2804    -0.2731
 1086.5000  -999.2500     0.2805    -0.2655
 1087.0000  -999.2500     0.2806    -0.2580
 1087.5000  -999.2500     0.2807    -0.2505
 1088.0000  -999.2500     0.2808    -0.2429
 1088.5000  -999.2500     0.2809    -0.2354
 1089.0000  -999.2500     0.2809    -0.2278
 1089.5000  -999.2500     0.2716    -0.2203
 1090.0000  -999.2500     0.2717    -0.2128
 1090.5000  -999.2500     0.2718    -0.2052
 1091.0000  -999.2500     0.2719    -0.1977
 1091.5000  -999.2500     0.2720    -0.1902
 1092.0000  -999.2500     0.2721    -0.1826
 1092.5000  -999.2500     0.2722    -0.1751
 1093.0000  -999.2500     0.2723    -0.1675
 1093.5000  -999.2500     0.2724    -0.1600
 1094.0000  -999.2500     0.2725    -0.1525
 1094.5000  -999.2500     0.2747    -0.1449
 1095.0000  -999.2500     0.2821    -0.1374
 1095.5000  -999.2500     0.2822    -0.1299
 1096.0000  -999.2500     0.2823    -0.1223
 1096.5000  -999.2500     0.2824    -0.1148
 1097.0000  -999.2500     0.2825    -0.1073
 1097.5000  -999.2500     0.2825    -0.0997
 1098.0000  -999.2500     0.2826    -0.0922
 1098.5000  -999.2500     0.2828    -0.0846
 1099.0000  -999.2500     0.2828    -0.0771
 1099.5000  -999.2500     0.2829    -0.0696
 1100.0000  -999.2500     0.2830    -0.0620
