~VERSION INFORMATION
 VERS.                2.0:   CWLS LOG ASCII STANDARD - VERSION 2.0
 WRAP.                 NO:   ONE LINE PER DEPTH STEP
~WELL INFORMATION
#MNEM.UNIT      DATA TYPE    INFORMATION
#----------   ------------   ------------------------------
 STRT.F           70.0000:   START DEPTH
 STOP.F          990.0000:   STOP DEPTH
 STEP.F            0.5000:   STEP LENGTH
 NULL.          -999.2500:   NO VALUE
 COMP. U S NAVY/INTEX OIL CO:   COMPANY
 WELL.      NPR 3 #55 S-2:   WELL
 FLD .            WILDCAT:   FIELD
 LOC .       S2 T38N R78W:   LOCATION
 CNTY.            NATRONA:   COUNTY
 STAT.            WYOMING:   STATE
 CTRY. UNITED STATES OF AMERICA:   COUNTRY
 SRVC.         Lane Wells:   SERVICE COMPANY
 DATE.        23-MAR-1960:   LOGDATE
 API .       490250968000:   API NUMBER
~CURVE INFORMATION
#MNEM.UNIT       API CODE    CURVE DESCRIPTION
#----------   ------------   ------------------------------
 DEPT.F                  :   
 SPR .MV     05 010 01 00:   SPONTANEOUS POTENTIAL FROM RES.
 ASN .OHMM   05 041 16 00:   AMPLIFIED SHORT NORMAL 16"
 ILD .OHMM   05 120 46 00:   INDUCTION LOG DEEP
 CILD.MMHO   05 110 46 00:   CONDUCTIVITY INDUCTION LOG DEEP
~PARAMETER INFORMATION
#MNEM.UNIT          VALUE    DESCRIPTION
#----------   ------------   ------------------------------
 PD  .                 GL:   PERMANENT DATUM
 EPD .F              5163:   ELEVATION PERMANENT DATUM
 LMF .                 KB:   LOG MEASURED FROM
 DAPD.F                 5:   FEET ABOVE PERMANENT DATUM
 DMF .                 KB:   DRILLING MEASURED FROM
 EKB .F              5168:   KELLING BUSHING
 EGL .F              5163:   GROUND LEVEL
 DATE.        23-MAR-1960:   RUN DATE
 RUN .                  1:   RUN NUMBER
 DD  .F              1010:   DEPTH DRILLER
 DL  .F               992:   DEPTH LOGGER
 BLI .F               990:   BOTTOM LOG INTERVAL
 TLI .F                70:   TOP LOG INTERVAL
 CS  .IN            8.625:   CASING SIZE
 CBD .F                12:   CASING BOTTOM DRILLER
 BS  .IN            7.875:   BIT SIZE
 BSD .F              1010:   BIT SIZE AT DEPTH
 DFT .   GEL-OIL EMULSION:   DRILLING FLUID TYPE
 DFD .                9.5:   DRILLING FLUID DENSITY
 DFV .                 40:   DRILLING FLUID VISCOSITY
 MSS .           FLOWLINE:   MUD SAMPLE SOURCE
 RMS .OHMM            2.8:   RESISTIVITY MUD SAMPLE
 MST .F                74:   MUD SAMPLE TEMPERATURE
 RMF .OHMM            2.0:   RESISTIVITY MUD FILTRATE SAMPLE
 MFST.F                74:   MUD FILTRATE SAMPLE TEMPERATURE
 RMC .OHMM            3.9:   RESISTIVITY MUD CAKE
 MCST.F                74:   MUD CAKE SAMPLE TEMPERATURE
 MFSS.          MUD PRESS:   MUD FILTRATE SAMPLE SOURCE
 MCSS.          MUD PRESS:   MUD CAKE SAMPLE SOURCE
 RMB .OHMM            2.8:   RESISTIVITY MUD AT BHT
 BHT .F                74:   BOTTOM HOLE TEMPERATURE
 MRT .F                74:   MAXIMUM RECORDED TEMPERATURE
 LUN .             L-4474:   LOGGING UNIT NUMBER
 LUL .             CASPER:   LOGGING UNIT LOCATION
 ENGI.             NELSON:   RECORDING ENGINEER
 WITN.          JORGENSEN:   WITNESSED BY
 CLNT.            A2DTECH:   CLIENT CODE
 ORIG.       2", 5" PRINT:   ORIGIN OF DATA
 UWI .       490250968000:   UNIQUE WELL ID
 DICO. A2D Technologies, Inc.:   DIGITIZING COMPANY
~OTHER INFORMATION
~A   DEPT      SPR          ASN        ILD      CILD  
# ...
  727.0000   -43.2863     7.8411     6.3289   179.9754
  727.5000   -43.0226     7.7735     6.3248   179.9886
  728.0000   -42.8921     7.7193     6.3215   181.3498
  728.5000   -42.6285     7.6921     6.3182   181.3632
  729.0000   -42.6312     7.6782     6.3149   181.3764
  729.5000   -42.5006     7.6644     6.2444   182.7376
  730.0000   -42.5033     7.6371     6.2411   184.0986
  730.5000   -42.5060     7.5690     6.1707   185.4596
  731.0000   -42.5087     7.5010     6.1674   186.8208
  731.5000   -42.5113     7.4477     6.1640   188.1818
  732.0000   -42.6476     7.4321     6.0936   189.5428
  732.5000   -42.7834     7.4066     6.0903   190.9040
  733.0000   -42.7861     7.3389     6.0198   192.2650
  733.5000   -42.7887     7.2847     6.0165   193.6260
  734.0000   -42.5250     7.2306     5.9461   196.3348
  734.5000   -42.3939     7.1764     5.8756   197.6958
  735.0000   -41.9977     7.1088     5.7381   200.4046
  735.5000   -42.0003     6.9874     5.6677   203.1134
  736.0000   -42.0030     6.8661     5.5972   205.8222
  736.5000   -42.0056     6.7178     5.5268   209.8919
  737.0000   -41.8751     6.5427     5.4563   213.9984
  737.5000   -41.7446     6.3138     5.3859   220.7995
  738.0000   -41.7472     6.0446     5.2484   226.2536
  738.5000   -41.6160     5.8560     5.1778   230.3596
  739.0000   -41.4855     5.7884     5.1745   231.5122
  739.5000   -41.4888     5.7747     5.1042   230.1744
  740.0000   -41.6246     5.9489     5.1680   227.4958
  740.5000   -42.0267     6.2307     5.1638   224.8136
  741.0000   -42.5620     6.4723     5.2284   222.1316
  741.5000   -42.9641     6.5929     5.2914   218.1018
  742.0000   -43.0998     6.6865     5.3552   214.0720
  742.5000   -43.1025     6.7399     5.3519   212.7344
  743.0000   -43.1052     6.8336     5.4165   211.4000
  743.5000   -43.1079     6.9273     5.4123   210.0656
  744.0000   -42.9772     6.9806     5.4769   210.0824
  744.5000   -42.7142     6.9399     5.4728   210.0956
  745.0000   -42.5830     6.8992     5.5366   210.1090
  745.5000   -42.4532     6.8714     5.4661   210.1224
  746.0000   -42.3220     6.8312     5.4628   210.1358
  746.5000   -42.1921     6.8026     5.3924   211.4968
  747.0000   -42.1948     6.7883     5.3891   212.8578
  747.5000   -42.0636     6.7470     5.3186   214.2190
  748.0000   -42.0669     6.5607     5.2482   216.9278
  748.5000   -42.0695     6.3990     5.1106   220.9842
  749.0000   -42.3385     6.2642     5.0402   223.6930
  749.5000   -42.6074     6.1831     4.8355   227.7494
  750.0000   -42.5301     6.1208     4.6980   234.5014
  750.5000   -42.0784     5.9058     4.6262   242.6859
  751.0000   -41.9469     5.6102     4.4209   250.8716
  751.5000   -41.6816     5.2475     4.2826   263.0994
  752.0000   -41.5498     5.0593     4.0773   271.0872
  752.5000   -41.1520     4.9382     4.0733   273.8320
  753.0000   -41.0198     4.8440     4.1374   273.5848
  753.5000   -41.0215     4.8414     4.3337   270.8894
  754.0000   -41.1560     5.0851     4.5311   264.1510
  754.5000   -41.4236     5.4204     4.6613   256.0646
  755.0000   -41.6912     5.8094     4.7925   242.5876
  755.5000   -42.0920     6.0910     4.8557   231.8060
  756.0000   -42.0934     6.2921     5.0520   226.4152
  756.5000   -42.2278     6.4395     5.1822   222.3720
  757.0000   -42.4955     6.5466     5.2463   218.3288
  757.5000   -42.6300     6.6539     5.3756   214.2858
  758.0000   -42.6313     6.7350     5.5058   208.8948
  758.5000   -42.6326     6.8159     5.6360   204.8518
  759.0000   -42.3676     6.9091     5.6993   202.1564
  759.5000   -42.1023     7.0045     5.8296   199.4610
  760.0000   -41.9705     7.1123     5.8926   198.1132
  760.5000   -41.8387     7.2200     6.0227   196.7656
  761.0000   -41.8403     7.3143     6.0859   195.4178
  761.5000   -42.1079     7.4166     6.0818   194.0700
  762.0000   -42.1093     7.4969     6.2121   192.7224
  762.5000   -42.1106     7.5771     6.2752   190.0270
  763.0000   -41.9784     7.6574     6.3383   187.3316
  763.5000   -41.7135     7.7242     6.3342   187.3316
  764.0000   -41.5816     7.7911     6.3302   185.9838
  764.5000   -41.7164     7.8579     6.3262   185.9838
  765.0000   -41.9841     7.9114     6.3222   185.9838
  765.5000   -42.1186     7.9648     6.3181   186.1679
  766.0000   -42.6525     8.0049     6.3141   187.3316
  766.5000   -42.9201     8.0314     6.3093   187.3316
  767.0000   -43.0546     7.9908     6.3053   187.3316
  767.5000   -43.0560     7.8563     6.2342   188.6792
  768.0000   -42.9241     7.7218     6.0959   190.0270
  768.5000   -42.7923     7.6142     6.0248   192.7224
  769.0000   -42.5273     7.5065     5.8195   198.1132
  769.5000   -42.1292     7.3855     5.7484   202.1564
  770.0000   -41.7310     7.2376     5.5430   204.8518
  770.5000   -41.4660     7.0762     5.4048   210.2426
  771.0000   -41.3342     6.8880     5.2666   215.6334
  771.5000   -41.3355     6.6730     5.0612   225.0674
  772.0000   -41.3369     6.4043     4.7888   234.5014
  772.5000   -41.2050     6.0953     4.5163   245.2830
  773.0000   -41.1931     5.7863     4.2439   261.4556
  773.5000   -41.0745     5.4907     3.9714   276.2804
  774.0000   -40.9427     5.1012     3.6989   304.5822
  774.5000   -40.8109     4.5103     3.4265   330.1886
  775.0000   -40.5459     4.0671     3.1540   359.8382
  775.5000   -40.4141     3.7313     2.8816   392.1832
  776.0000   -40.2822     3.3686     2.6762   429.9192
  776.5000   -40.1504     3.0193     2.4709   478.4366
  777.0000   -40.0186     2.8043     2.3327   505.3908
  777.5000   -39.8867     2.6295     2.3968   525.6741
  778.0000   -39.4886     2.5219     2.4591   537.7358
  778.5000   -39.3568     2.5216     2.5220   532.1006
  779.0000   -39.0921     2.6024     2.5852   511.4469
  779.5000   -39.0934     2.7528     2.7154   482.2877
  780.0000   -39.3611     3.0909     2.9127   432.6146
  780.5000   -39.6287     3.4833     3.0429   397.5742
  781.0000   -40.0295     3.9464     3.2403   371.9676
  781.5000   -40.2971     4.4524     3.3713   340.9704
  782.0000   -40.5648     4.9240     3.5033   311.3208
  782.5000   -40.5661     5.2432     3.7652   292.4528
  783.0000   -40.5674     5.4856     3.9016   281.6712
  783.5000   -40.5688     5.5659     4.0256   274.9326
  784.0000   -40.4369     5.5791     4.1559   269.5418
  784.5000   -40.3051     5.6056     4.2190   266.8464
  785.0000   -40.1729     5.6457     4.2821   265.4986
  785.5000   -40.0411     5.6990     4.2771   264.1510
  786.0000   -40.1759     5.7525     4.2731   264.1510
  786.5000   -40.3104     5.7925     4.2691   265.4986
  787.0000   -40.4449     5.6043     4.1309   270.8894
  787.5000   -40.5794     5.2953     3.9926   278.9758
  788.0000   -40.5807     5.0400     3.7873   296.4960
  788.5000   -40.5820     4.7041     3.7162   307.2776
  789.0000   -40.5833     4.4220     3.5779   311.3208
  789.5000   -40.4512     4.3278     3.5739   315.3638
  790.0000   -40.3197     4.2335     3.6371   320.7548
  790.5000   -40.3210     4.1930     3.7012   323.4502
  791.0000   -40.4555     4.3806     3.7643   316.6917
  791.5000   -40.7231     4.6220     3.8274   307.1607
  792.0000   -41.3902     4.8096     3.9576   296.2809
  792.5000   -41.9242     4.9839     4.0868   285.3982
  793.0000   -42.4581     5.1849     4.2181   272.9654
  793.5000   -42.7258     5.4666     4.4144   258.2463
  794.0000   -42.7271     5.7884     4.6118   242.5876
  794.5000   -42.7284     6.2043     4.7430   233.1536
  795.0000   -42.4634     6.4993     4.8732   225.0674
  795.5000   -42.0653     6.6870     5.0034   221.0242
  796.0000   -41.6671     6.8612     5.0666   218.3288
  796.5000   -41.2690     6.9817     5.1960   214.2858
  797.0000   -41.2703     7.0486     5.2591   212.9380
  797.5000   -41.5380     7.0886     5.3221   211.5904
  798.0000   -41.6725     7.0883     5.3180   211.5904
  798.5000   -41.6738     7.0209     5.2469   214.2858
  799.0000   -41.5420     6.9401     5.1758   215.6334
  799.5000   -41.1438     6.8325     5.1047   218.3288
