~VERSION INFORMATION
 VERS.                2.0:   CWLS LOG ASCII STANDARD - VERSION 2.0
 WRAP.                 NO:   ONE LINE PER DEPTH STEP
~WELL INFORMATION
#MNEM.UNIT      DATA TYPE    INFORMATION
#----------   ------------   ------------------------------
 STRT.F           30.0000:   START DEPTH
 STOP.F          715.0000:   STOP DEPTH
 STEP.F            0.5000:   STEP LENGTH
 NULL.          -999.2500:   NO VALUE
 COMP. FENIX & SCISSON INC:   COMPANY
 WELL.   NPR-3 #84SX15-15:   WELL
 FLD .             TEAPOT:   FIELD
 LOC .      S15 T38N R78W:   LOCATION
 CNTY.            NATRONA:   COUNTY
 STAT.            WYOMING:   STATE
 CTRY. UNITED STATES OF AMERICA:   COUNTRY
 SRVC.            Unknown:   SERVICE COMPANY
 DATE.        15-MAY-1978:   LOGDATE
 API .       490251064000:   API NUMBER
~CURVE INFORMATION
#MNEM.UNIT       API CODE    CURVE DESCRIPTION
#----------   ------------   ------------------------------
 DEPT.F                  :   
 SPR .MV     05 010 01 00:   SPONTANEOUS POTENTIAL FROM RES.
 SN  .OHMM   05 040 16 00:   SHORT NORMAL 16"
 ILD .OHMM   05 120 46 00:   INDUCTION LOG DEEP
 CALD.IN     45 280 60 00:   CALIPER FROM DENSITY LOG
 GRD .GAPI   45 310 01 00:   GAMMA RAY FROM DENSITY LOG
 CORR.G/C3   45 356 01 00:   DENSITY CORRECTION
 DPHI.DEC    45 890 12 00:   DENSITY POROSITY SANDSTONE
 DEN .G/C3   45 350 01 00:   COMPENSATED BULK DENSITY
~PARAMETER INFORMATION
#MNEM.UNIT          VALUE    DESCRIPTION
#----------   ------------   ------------------------------
 PD  .                 GL:   PERMANENT DATUM
 EPD .F              5247:   ELEVATION PERMANENT DATUM
 LMF .                 KB:   LOG MEASURED FROM
 DMF .                 KB:   DRILLING MEASURED FROM
 EKB .F              5251:   KELLING BUSHING
 EGL .F              5247:   GROUND LEVEL
 DATE.        15-MAY-1978:   RUN DATE
 RUN .                  1:   RUN NUMBER
 DD  .F               725:   DEPTH DRILLER
 DL  .F               720:   DEPTH LOGGER
 BLI .F               713:   BOTTOM LOG INTERVAL
 TLI .F                40:   TOP LOG INTERVAL
 CS  .IN            8.625:   CASING SIZE
 CBD .F                40:   CASING BOTTOM DRILLER
 CBL .F                40:   CASING BOTTOM LOGGER
 BS  .IN            7.875:   BIT SIZE
 BSD .F               725:   BIT SIZE AT DEPTH
 DFT .                KCL:   DRILLING FLUID TYPE
 DFD .                8.6:   DRILLING FLUID DENSITY
 DFV .                 33:   DRILLING FLUID VISCOSITY
 DFPH.                9.5:   DRILLING FLUID PH
 DFL .                 12:   DRILLING FLUID LOSS
 MSS .           FLOWLINE:   MUD SAMPLE SOURCE
 RMS .OHMM             .2:   RESISTIVITY MUD SAMPLE
 MST .F                80:   MUD SAMPLE TEMPERATURE
 RMF .OHMM            .18:   RESISTIVITY MUD FILTRATE SAMPLE
 MFST.F                83:   MUD FILTRATE SAMPLE TEMPERATURE
 RMC .OHMM            .26:   RESISTIVITY MUD CAKE
 MCST.F                83:   MUD CAKE SAMPLE TEMPERATURE
 MFSS.               MEAS:   MUD FILTRATE SAMPLE SOURCE
 RMB .OHMM             .2:   RESISTIVITY MUD AT BHT
 BHT .F                80:   BOTTOM HOLE TEMPERATURE
 TCS .HRS            0200:   TIME CURCULATED STOPPED
 MRT .F                80:   MAXIMUM RECORDED TEMPERATURE
 LUN .               3006:   LOGGING UNIT NUMBER
 LUL .               CASP:   LOGGING UNIT LOCATION
 ENGI.             MILLER:   RECORDING ENGINEER
 WITN.           MCGINLEY:   WITNESSED BY
 CLNT.            A2DTECH:   CLIENT CODE
 ORIG.           5" PRINT:   ORIGIN OF DATA
 UWI .       490251064000:   UNIQUE WELL ID
 DICO. A2D Technologies, Inc.:   DIGITIZING COMPANY
~OTHER INFORMATION
~A   DEPT      SPR         SN        ILD       CALD         GRD      CORR       DPHI        DEN   
# ...
   70.5000   -45.1746     2.1342     2.1103     7.9715    81.6769     0.0483     0.1728     2.3794
   71.0000   -45.1761     2.2121     2.1992     7.9552    81.2104     0.0482     0.1734     2.3876
   71.5000   -45.1776     2.3540     2.3400     7.8936    78.0359     0.0497     0.1779     2.3838
   72.0000   -45.1791     2.4877     2.6132     7.7716    72.4518     0.0452     0.1785     2.3725
   72.5000   -45.1806     2.6657     2.8387     7.5740    73.7073     0.0377     0.1782     2.3762
   73.0000   -45.1821     2.9568     2.9788     7.4061    76.6451     0.0271     0.1884     2.3694
   73.5000   -45.1836     3.1464     3.0830     7.2200    71.8110     0.0181     0.1979     2.3393
   74.0000   -45.1851     3.2344     3.1690     7.0969    69.9920     0.0151     0.2041     2.3333
   74.5000   -45.1866     3.2566     3.2123     7.0859    73.1429     0.0166     0.2035     2.3332
   75.0000   -45.1881     3.2340     3.1895     7.1149    73.5858     0.0180     0.2141     2.3302
   75.5000   -45.1896     3.2115     3.1668     7.0530    72.2156     0.0195     0.2174     2.3181
   76.0000   -45.0404     3.1453     3.0586     6.9914    71.9056     0.0195     0.2162     2.3091
   76.5000   -45.0422     3.0593     2.9540     6.9298    73.0956     0.0195     0.2276     2.2970
   77.0000   -45.0437     2.9756     2.7945     6.9437    74.7405     0.0195     0.2502     2.2728
   77.5000   -45.0452     2.8349     2.5893     7.0936    76.5359     0.0195     0.2535     2.2558
   78.0000   -44.7460     2.6453     2.3662     7.2737    78.4819     0.0240     0.2660     2.2391
   78.5000   -44.4464     2.4514     2.2076     7.4689    82.1220     0.0300     0.2718     2.2300
   79.0000   -44.1475     2.3354     2.1470     7.6489    82.7500     0.0390     0.2724     2.2262
   79.5000   -44.1490     2.3191     2.1765     7.8465    87.9315     0.0540     0.2625     2.2397
   80.0000   -43.9997     2.3351     2.2216     8.0171    91.5371     0.0856     0.2034     2.2697
   80.5000   -44.0016     2.3838     2.2678     8.2191    86.4019     0.0810     0.1577     2.3846
   81.0000   -44.0031     2.4505     2.3470     8.2934    82.2312     0.0921     0.1436     2.4169
   81.5000   -44.0046     2.6077     2.4290     8.2923    75.3843     0.0960     0.1625     2.4311
   82.0000   -44.0061     2.8136     2.6205     7.8832    72.3605     0.0675     0.1685     2.4041
   82.5000   -44.0076     3.0148     2.9877     7.8669    68.4330     0.0629     0.1649     2.3988
   83.0000   -44.0091     3.2528     3.4540     7.8960    68.0954     0.0629     0.1647     2.3987
   83.5000   -44.0107     3.5832     3.7520     7.9404    69.7648     0.0614     0.1686     2.3957
   84.0000   -44.0122     4.0021     4.1040     7.7576    70.9578     0.0599     0.1713     2.3949
   84.5000   -44.0137     4.2588     4.3970     7.5148    71.0966     0.0538     0.1665     2.3941
   85.0000   -44.0196     4.4697     4.5823     7.2719    70.4819     0.0418     0.1722     2.3933
   85.5000   -44.0485     4.6266     4.6774     7.0894    72.1243     0.0283     0.1722     2.3955
   86.0000   -44.0773     4.7233     4.7415     7.0566    71.8113     0.0192     0.1683     2.4022
   86.5000   -44.1061     4.8219     4.8068     6.9557    71.9530     0.0132     0.1614     2.4067
   87.0000   -44.1350     4.8551     4.9065     6.6626    71.7877     0.0117     0.1654     2.4044
   87.5000   -44.1638     4.9223     5.0428     6.6161    72.3783     0.0132     0.1618     2.4051
   88.0000   -44.1927     5.0252     5.2191     6.6454    75.2279     0.0252     0.1434     2.4314
   88.5000   -44.2215     5.2377     5.4768     6.7195    79.4330     0.0297     0.1416     2.4374
   89.0000   -44.2504     5.5736     5.7473     6.8845    79.8735     0.0266     0.1423     2.4366
   89.5000   -44.2792     5.9310     5.8668     7.1854    77.7528     0.0296     0.1450     2.4343
   90.0000   -44.3081     6.1819     5.7848     7.5770    73.9759     0.0356     0.1507     2.4335
   90.5000   -44.3325     6.2675     5.7437     7.9383    72.7214     0.0388     0.1438     2.4327
   91.0000   -44.3340     6.3106     5.6246     7.9824    71.4167     0.0434     0.1480     2.4334
   91.5000   -44.3355     6.3101     5.4324     8.4797    72.5821     0.0688     0.1423     2.4436
   92.0000   -44.3371     6.2662     5.3566     8.3974    76.9407     0.1017     0.1258     2.4651
   92.5000   -44.3381     6.2658     5.3189     8.2357    76.4742     0.0987     0.1216     2.4694
   93.0000   -44.3270     6.2222     5.3545     8.2798    71.4925     0.0838     0.1257     2.4633
   93.5000   -44.3175     6.1789     5.3533     8.1575    71.6313     0.0671     0.1380     2.4520
   94.0000   -44.3080     5.7657     5.3522     8.0959    72.0713     0.0596     0.1484     2.4377
   94.5000   -44.2985     5.5310     5.3511     7.9285    73.8667     0.0490     0.1526     2.4249
   95.0000   -44.2890     5.4925     5.3131     7.7914    80.4814     0.0400     0.1580     2.4189
   95.5000   -44.2795     5.4543     5.3120     7.6089    84.0841     0.0249     0.1638     2.4128
   96.0000   -44.2700     5.4539     5.3109     7.5023    85.7289     0.0189     0.1641     2.4075
   96.5000   -44.2605     5.4535     5.2733     7.4404    82.0020     0.0204     0.1617     2.4052
   97.0000   -44.2510     5.4531     5.2722     7.1824    76.8188     0.0219     0.1578     2.4067
   97.5000   -44.2415     5.4527     5.2711     7.1208    77.3236     0.0234     0.1605     2.4097
   98.0000   -44.2320     5.4524     5.2337     7.0890    79.5435     0.0249     0.1641     2.4111
   98.5000   -44.2225     5.4898     5.2326     6.9259    81.0128     0.0249     0.1605     2.4118
   99.0000   -44.2131     5.5275     5.2315     6.6713    81.3684     0.0248     0.1557     2.4125
   99.5000   -44.2090     5.5655     5.2304     6.5267    81.5113     0.0248     0.1560     2.4185
  100.0000   -44.2105     5.7609     5.2293     6.7357    81.9670     0.0263     0.1566     2.4227
  100.5000   -44.2292     5.8615     5.3021     6.9684    81.9972     0.0268     0.1516     2.4219
  101.0000   -44.2478     5.9610     5.3749     7.2085    79.2372     0.0274     0.1489     2.4229
  101.5000   -44.2665     6.0850     5.4475     7.4330    76.8026     0.0292     0.1440     2.4299
  102.0000   -44.2851     6.2109     5.4841     7.6344    76.6702     0.0592     0.1355     2.4452
  102.5000   -44.3038     6.2530     5.5216     7.8086    76.6254     0.0847     0.1291     2.4584
  103.0000   -44.3224     6.2951     5.6755     7.9439    76.5556     0.1042     0.1238     2.4687
  103.5000   -44.3411     6.3375     5.8326     8.0774    76.1166     0.1207     0.1234     2.4803
  104.0000   -44.3609     6.3358     5.8719     8.0761    75.4775     0.1252     0.1383     2.4844
  104.5000   -44.3609     6.3345     5.8707     7.9552    74.7105     0.1026     0.1484     2.4640
  105.0000   -44.3609     6.2462     5.8681     7.7890    75.8987     0.0484     0.1556     2.4398
  105.5000   -44.3609     6.0327     5.8278     7.6773    77.6876     0.0484     0.1588     2.4173
  106.0000   -44.3609     5.8265     5.8250     7.6154    75.5725     0.0483     0.1637     2.4083
  106.5000   -44.2105     5.7854     5.7454     7.5536    73.4574     0.0423     0.1761     2.4011
  107.0000   -44.8120     5.8243     5.5857     7.4466    72.9940     0.0362     0.1849     2.3808
  107.5000   -45.4135     5.7033     5.4716     7.3095    72.5613     0.0301     0.1881     2.3617
  108.0000   -45.5639     5.4704     5.4705     7.1851    69.7638     0.0241     0.1940     2.3539
  108.5000   -45.5639     5.5075     5.4694     7.0485    69.2013     0.0286     0.2074     2.3427
  109.0000   -45.5639     5.5060     5.5062     7.0184    69.9620     0.0014     0.2249     2.3171
  109.5000   -45.7143     5.5431     5.4647     7.0323    71.1997    -0.0242     0.2465     2.2822
  110.0000   -45.7143     5.5038     5.3144     7.1832    72.2372    -0.0239     0.2822     2.2318
  110.5000   -45.7143     5.2065     4.9558     7.5000    70.6597    -0.0134     0.3157     2.1806
