~VERSION INFORMATION
 VERS.                2.0:   CWLS LOG ASCII STANDARD - VERSION 2.0
 WRAP.                 NO:   ONE LINE PER DEPTH STEP
~WELL INFORMATION
#MNEM.UNIT      DATA TYPE    INFORMATION
#----------   ------------   ------------------------------
 STRT.F           32.0000:   START DEPTH
 STOP.F          501.0000:   STOP DEPTH
 STEP.F            0.5000:   STEP LENGTH
 NULL.          -999.2500:   NO VALUE
 COMP. FENIX & SCISSON, INC., U.S. NAVY:   COMPANY
 WELL.     NPR-3 #82-S-10:   WELL
 FLD .             TEAPOT:   FIELD
 LOC .      S10 T38N R78W:   LOCATION
 CNTY.            NATRONA:   COUNTY
 STAT.            WYOMING:   STATE
 CTRY. UNITED STATES OF AMERICA:   COUNTRY
 SRVC.              Welex:   SERVICE COMPANY
 DATE.        10-MAY-1977:   LOGDATE
 API .       490251035300:   API NUMBER
~CURVE INFORMATION
#MNEM.UNIT       API CODE    CURVE DESCRIPTION
#----------   ------------   ------------------------------
 DEPT.F                  :   
 GURD.OHMM   07 220 05 00:   SHALLOW SHORT GUARD RESISTIVITY
 ILD .OHMM   07 120 46 00:   INDUCTION LOG DEEP
 ILM .OHMM   07 120 44 00:   INDUCTION LOG MEDIUM
 SPR .MV     07 010 01 00:   SPONTANEOUS POTENTIAL
 CALD.IN     45 280 60 00:   CALIPER FROM DENSITY LOG
 CORR.G/C3   45 356 01 00:   DENSITY CORRECTION
 DPHI.DEC    45 890 12 00:   DENSITY POROSITY SANDSTONE
 GRD .GAPI   45 310 01 00:   GAMMA RAY FROM DENSITY LOG
 RHOB.G/C3   45 350 01 00:   BULK DENSITY
~PARAMETER INFORMATION
#MNEM.UNIT          VALUE    DESCRIPTION
#----------   ------------   ------------------------------
 PD  .                 GL:   PERMANENT DATUM
 EPD .F              5134:   ELEVATION PERMANENT DATUM
 LMF .                 GL:   LOG MEASURED FROM
 DMF .                 GL:   DRILLING MEASURED FROM
 EGL .F              5134:   GROUND LEVEL
 DATE.        10-MAY-1977:   RUN DATE
 RUN .                  1:   RUN NUMBER
 DD  .F               505:   DEPTH DRILLER
 DL  .F               504:   DEPTH LOGGER
 BLI .F               502:   BOTTOM LOG INTERVAL
 TLI .F                30:   TOP LOG INTERVAL
 CS  .IN            8.625:   CASING SIZE
 CBD .F                40:   CASING BOTTOM DRILLER
 CBL .F                41:   CASING BOTTOM LOGGER
 BS  .IN            7.875:   BIT SIZE
 BSD .F               505:   BIT SIZE AT DEPTH
 DFT .            KCL MUD:   DRILLING FLUID TYPE
 DFD .                8.7:   DRILLING FLUID DENSITY
 DFV .                 29:   DRILLING FLUID VISCOSITY
 DFPH.                7.5:   DRILLING FLUID PH
 DFL .                6.6:   DRILLING FLUID LOSS
 MSS .           FLOWLINE:   MUD SAMPLE SOURCE
 RMS .OHMM           0.26:   RESISTIVITY MUD SAMPLE
 MST .F                72:   MUD SAMPLE TEMPERATURE
 RMF .OHMM           0.22:   RESISTIVITY MUD FILTRATE SAMPLE
 MFST.F                72:   MUD FILTRATE SAMPLE TEMPERATURE
 RMC .OHMM           0.42:   RESISTIVITY MUD CAKE
 MCST.F                72:   MUD CAKE SAMPLE TEMPERATURE
 MFSS.           FANN KIT:   MUD FILTRATE SAMPLE SOURCE
 MCSS.           FANN KIT:   MUD CAKE SAMPLE SOURCE
 RMB .OHMM           0.24:   RESISTIVITY MUD AT BHT
 BHT .F                78:   BOTTOM HOLE TEMPERATURE
 TCS .HRS               1:   TIME CURCULATED STOPPED
 MRT .F                78:   MAXIMUM RECORDED TEMPERATURE
 LUN .               8611:   LOGGING UNIT NUMBER
 LUL .             CASPER:   LOGGING UNIT LOCATION
 ENGI.            C. DOAK:   RECORDING ENGINEER
 WITN.         D. RHOADES:   WITNESSED BY
 CLNT.            A2DTECH:   CLIENT CODE
 ORIG.           5" PRINT:   ORIGIN OF DATA
 UWI .       490251035300:   UNIQUE WELL ID
 DICO. A2D Technologies, Inc.:   DIGITIZING COMPANY
~OTHER INFORMATION
~A   DEPT     GURD        ILD        ILM         SPR      CALD       CORR       DPHI        GRD       RHOB   
# ...
  141.5000    11.6929     9.0920    10.1838   -35.4449     7.6217     0.0082     0.1463   106.3268     2.4349
  142.0000    11.6165     9.0321     9.9784   -35.5833     7.6227     0.0091     0.1469   107.6738     2.4334
  142.5000    11.5420     9.0508     9.9844   -35.8720     7.6236     0.0107     0.1501   109.0208     2.4267
  143.0000    11.3901     9.1031     9.9191   -36.0089     7.6244     0.0131     0.1531   109.1810     2.4208
  143.5000    11.5543     9.1068     9.8565   -36.1491     7.6253     0.0169     0.1468   108.8764     2.4298
  144.0000    11.5598     9.1105     9.6590   -36.1774     7.6262     0.0185     0.1435   107.5750     2.4396
  144.5000    11.2246     9.0505     9.1381   -36.4237     7.6271     0.0230     0.1402   105.9547     2.4464
  145.0000    11.2686     9.0551     8.5811   -36.5623     7.6280     0.0261     0.1372   104.7794     2.4509
  145.5000    11.6579     9.0182     8.0832   -36.7758     7.6289     0.0262     0.1365   103.6041     2.4502
  146.0000    11.0362     8.9380     7.5994   -36.9941     7.6299     0.0263     0.1429   102.2776     2.4457
  146.5000    11.5886     8.8768     7.3440   -37.1265     7.6307     0.0249     0.1392   104.0726     2.4510
  147.0000    11.5129     8.7625     7.2466   -37.2649     7.6317     0.0235     0.1359   107.2000     2.4556
  147.5000    11.3616     8.6457     7.2001   -37.5967     7.6324     0.0236     0.1341   109.7339     2.4556
  148.0000    11.2097     8.5787     7.1055   -38.1925     7.6333     0.0207     0.1398   111.6744     2.4501
  148.5000    11.1378     8.4167     7.0591   -38.7203     7.6342     0.0147     0.1431   114.2083     2.4427
  149.0000    11.0676     8.3044     7.0631   -39.1565     7.6352     0.0088     0.1502   114.9618     2.4341
  149.5000    10.4053     8.2497     7.1156   -39.7415     7.6361     0.0044     0.1564   115.2702     2.4266
  150.0000     9.8504     8.1406     7.1683   -40.4753     7.6369     0.0000     0.1603   114.0950     2.4184
  150.5000     9.5204     8.0878     7.1717   -41.2117     7.6379     0.0002     0.1597   112.2869     2.4140
  151.0000    10.1597     8.0351     7.1753   -39.8596     7.6387     0.0018     0.1552   110.6469     2.4155
  151.5000    10.5713     7.9282     7.1291   -39.5518     7.6396     0.0035     0.1509   110.2724     2.4245
  152.0000    10.5763     7.9314     7.1616   -39.5416     7.6405     0.0094     0.1473   112.5125     2.4313
  152.5000    10.3643     7.9346     7.1887   -39.3824     7.6414     0.0155     0.1434   113.1148     2.4381
  153.0000    10.0171     7.8831     7.4454   -39.5211     7.6423     0.0186     0.1401   109.5685     2.4441
  153.5000     9.9516     7.8871     7.8186   -39.5104     7.6432     0.0172     0.1389   111.5090     2.4479
  154.0000    10.5234     7.8898     8.1540   -39.4981     7.6440     0.0097     0.1407   113.7462     2.4502
  154.5000    10.8985     7.8936     8.3870   -39.6228     7.6449     0.0038     0.1424   115.8350     2.4450
  155.0000    11.0554     7.8968     8.6865   -39.7755     7.6460     0.0024     0.1403   117.9238     2.4451
  155.5000    10.9088     7.9246     8.8122   -39.8679     7.6467     0.0040     0.1370   118.9712     2.4496
  156.0000    10.2560     8.0133     9.0042   -39.8497     7.6476     0.0086     0.1340   115.5733     2.4579
  156.5000     9.7091     8.0721     9.3397   -39.8363     7.6486     0.0132     0.1307   113.5078     2.4632
  157.0000    10.7356     8.1535     9.7917   -39.8205     7.6494     0.0178     0.1273   115.8934     2.4670
  157.5000    11.0931     8.3053    10.0716   -39.6571     7.6653     0.0194     0.1252   115.3116     2.4700
  158.0000    11.0226     8.4244    10.2881   -39.4924     7.6662     0.0210     0.1225   109.6754     2.4746
  158.5000    12.2346     8.4879    10.4533   -39.3304     7.6519     0.0241     0.1189   102.6449     2.4792
  159.0000    15.4829     8.6080    10.5878   -39.2393     7.6530     0.0256     0.1129    99.6225     2.4831
  159.5000    13.8699     8.5521    10.5936   -39.1518     7.6539     0.0257     0.1072    99.2706     2.4945
  160.0000    11.0480     8.4975    10.3818   -38.9881     7.6548     0.0258     0.1048   101.8131     2.5020
  160.5000    11.3638     8.3833    10.3157   -38.9732     7.6557     0.0259     0.1153   104.0548     2.4790
  161.0000    11.6081     8.3290    10.4651   -38.9583     7.6417     0.0242     0.1311   105.8514     2.4630
  161.5000    11.6949     8.2179    10.5439   -38.9414     7.6510     0.0219     0.1331   107.0545     2.4563
  162.0000    11.2261     8.1646    10.4708   -38.9286     7.6605     0.0311     0.1259   109.1479     2.4676
  162.5000    11.3101     8.0557    10.2671   -38.9137     7.6700     0.0327     0.1241   111.9831     2.4721
  163.0000    10.9196     8.0410    10.2019   -38.8976     7.6791     0.0328     0.1247   113.9281     2.4722
  163.5000    10.7134     8.0241    10.1372   -38.9701     7.6801     0.0329     0.1255   116.0214     2.4700
  164.0000    10.8698     8.0071    10.0742   -39.0784     7.6811     0.0330     0.1270   117.0762     2.4685
  164.5000    10.3608     7.9907    10.0790   -39.2842     7.6820     0.0331     0.1294   117.3851     2.4641
  165.0000    10.9571     8.0516    10.0851   -39.7320     7.6832     0.0332     0.1356   114.5863     2.4589
  165.5000    11.3484     8.1119     9.9507   -40.3189     7.6842     0.0333     0.1413   114.0090     2.4522
  166.0000    11.5923     8.1726     9.8875   -40.2976     7.6851     0.0334     0.1410   114.0252     2.4485
  166.5000    11.5187     8.1196     9.8942   -39.6846     7.6862     0.0320     0.1394   114.6349     2.4493
  167.0000    11.3668     8.1815     9.7636   -39.3723     7.6873     0.0304     0.1394   115.5413     2.4494
  167.5000    10.9868     8.1859     9.6673   -39.0601     7.6883     0.0277     0.1406   117.0412     2.4472
  168.0000    11.0689     8.1328     9.6363   -39.3468     7.6893     0.0248     0.1454   117.3541     2.4413
  168.5000    11.2292     8.1384     9.5065   -39.6298     7.6904     0.0234     0.1477   116.6285     2.4361
  169.0000    11.2354     8.1428     9.3888   -40.2105     7.6914     0.0220     0.1483   115.4578     2.4324
  169.5000    11.1638     8.2037     9.3292   -41.2339     7.6774     0.0191     0.1384   114.4354     2.4392
  170.0000    11.0166     8.2082     9.2049   -40.9216     7.6637     0.0192     0.1321   114.3027     2.4467
  170.5000    11.0240     8.2127     9.0847   -40.0142     7.6545     0.0253     0.1276   114.1706     2.4640
  171.0000    10.8786     8.1605     9.0067   -39.5532     7.6360     0.0285     0.1282   114.0386     2.4663
  171.5000    10.5878     8.1649     8.9068   -39.5386     7.6372     0.0286     0.1308   113.3132     2.4640
  172.0000    10.4467     8.1131     8.7893   -39.5238     7.6381     0.0271     0.1338   111.8457     2.4588
  172.5000    10.6728     8.0615     8.6744   -39.5089     7.6243     0.0273     0.1365   109.7750     2.4535
  173.0000    10.6785     7.9902     8.5012   -39.4911     7.6253     0.0274     0.1389   108.0000     2.4499
  173.5000    10.6107     7.8501     8.4430   -39.4765     7.6264     0.0259     0.1397   106.5420     2.4486
  174.0000     9.7045     7.6942     8.2694   -39.4643     7.6274     0.0245     0.1434   109.4996     2.4449
  174.5000    10.1208     7.5926     8.1140   -39.5998     7.6135     0.0211     0.1485   113.6811     2.4375
  175.0000    10.2673     7.4914     7.9519   -39.8828     7.6146     0.0173     0.1514   117.0871     2.4263
  175.5000    10.2019     7.3426     7.7919   -40.0170     7.6305     0.0144     0.1549   119.6783     2.4196
  176.0000     9.9305     7.1958     7.5846   -40.2460     7.6466     0.0130     0.1578   121.4749     2.4167
  176.5000     9.6651     7.0033     7.4330   -40.7282     7.6477     0.0131     0.1590   121.1944     2.4145
  177.0000     9.0247     6.7690     7.1350   -41.1600     7.6485     0.0132     0.1593   119.1335     2.4153
  177.5000     8.0835     6.5395     6.9915   -41.5923     7.6496     0.0117     0.1548   116.9241     2.4176
