~VERSION INFORMATION
 VERS.                2.0:   CWLS LOG ASCII STANDARD - VERSION 2.0
 WRAP.                 NO:   ONE LINE PER DEPTH STEP
~WELL INFORMATION
#MNEM.UNIT      DATA TYPE    INFORMATION
#----------   ------------   ------------------------------
 STRT.F           35.0000:   START DEPTH
 STOP.F          601.0000:   STOP DEPTH
 STEP.F            0.5000:   STEP LENGTH
 NULL.          -999.2500:   NO VALUE
 COMP. FENIX & SCISSON INC:   COMPANY
 WELL. NPR #3 71SX #71-15:   WELL
 FLD .             TEAPOT:   FIELD
 LOC .      S15 T38N R78W:   LOCATION
 CNTY.            NATRONA:   COUNTY
 STAT.            WYOMING:   STATE
 CTRY. UNITED STATES OF AMERICA:   COUNTRY
 SRVC.              Welex:   SERVICE COMPANY
 DATE.        10-MAR-1977:   LOGDATE
 API .       490251031200:   API NUMBER
~CURVE INFORMATION
#MNEM.UNIT       API CODE    CURVE DESCRIPTION
#----------   ------------   ------------------------------
 DEPT.F                  :   
 SPR .MV     07 010 01 00:   SPONTANEOUS POTENTIAL
 SGRD.OHMM   07 220 05 00:   SHALLOW RESISTIVITY
 DRES.OHMM   07 120 46 00:   INDUCTION LOG DEEP
 MRES.OHMM   07 120 44 00:   INDUCTION LOG MEDIUM
 GRD .GAPI   45 310 01 00:   GAMMA RAY FROM DENSITY LOG
 CALD.IN     45 280 60 00:   CALIPER
 RHOB.G/C3   45 350 01 00:   BULK DENSITY
 DPHI.DEC    45 890 12 00:   DENSITY POROSITY
 CORR.G/C3   45 356 01 00:   DENSITY CORRECTION
~PARAMETER INFORMATION
#MNEM.UNIT          VALUE    DESCRIPTION
#----------   ------------   ------------------------------
 PD  .                 GL:   PERMANENT DATUM
 EPD .F              5241:   ELEVATION PERMANENT DATUM
 LMF .                 GL:   LOG MEASURED FROM
 DMF .                 GL:   DRILLING MEASURED FROM
 EGL .F              5241:   GROUND LEVEL
 DATE.            3-10-77:   RUN DATE
 RUN .                  1:   RUN NUMBER
 DD  .F               600:   DEPTH DRILLER
 DL  .F               603:   DEPTH LOGGER
 BLI .F               601:   BOTTOM LOG INTERVAL
 TLI .F                35:   TOP LOG INTERVAL
 CS  .IN            8.625:   CASING SIZE
 CBD .F                40:   CASING BOTTOM DRILLER
 CBL .F                40:   CASING BOTTOM LOGGER
 BS  .IN            7.875:   BIT SIZE
 BSD .F               600:   BIT SIZE AT DEPTH
 DFT .            KCL MUD:   DRILLING FLUID TYPE
 DFD .                8.6:   DRILLING FLUID DENSITY
 DFV .                 10:   DRILLING FLUID VISCOSITY
 DFPH.                7.2:   DRILLING FLUID PH
 DFL .                  8:   DRILLING FLUID LOSS
 MSS .            MUD PIT:   MUD SAMPLE SOURCE
 RMS .OHMM            .36:   RESISTIVITY MUD SAMPLE
 MST .F                47:   MUD SAMPLE TEMPERATURE
 RMF .OHMM            .35:   RESISTIVITY MUD FILTRATE SAMPLE
 MFST.F                47:   MUD FILTRATE SAMPLE TEMPERATURE
 RMC .OHMM            .40:   RESISTIVITY MUD CAKE
 MCST.F                47:   MUD CAKE SAMPLE TEMPERATURE
 MFSS.           FANN KIT:   MUD FILTRATE SAMPLE SOURCE
 MCSS.           FANN KIT:   MUD CAKE SAMPLE SOURCE
 RMB .OHMM            .31:   RESISTIVITY MUD AT BHT
 BHT .F                53:   BOTTOM HOLE TEMPERATURE
 TCS .HRS             1.5:   TIME CURCULATED STOPPED
 MRT .F                53:   MAXIMUM RECORDED TEMPERATURE
 LUN .               8611:   LOGGING UNIT NUMBER
 LUL .           GILLETTE:   LOGGING UNIT LOCATION
 ENGI.               DOAK:   RECORDING ENGINEER
 WITN.         STUEBINGER:   WITNESSED BY
 CLNT.            A2DTECH:   CLIENT CODE
 ORIG.       2", 5" PRINT:   ORIGIN OF DATA
 UWI .       490251031200:   UNIQUE WELL ID
 DICO. A2D Technologies, Inc.:   DIGITIZING COMPANY
~OTHER INFORMATION
~A   DEPT      SPR       SGRD       DRES       MRES         GRD      CALD       RHOB       DPHI       CORR   
# ...
  582.5000   -36.5339    14.3020     9.4224    12.0328    50.2613     7.8396     2.5106     0.0788     0.0568
  583.0000   -36.6121    14.2516     9.3378    12.0122    50.3819     7.8389     2.5008     0.0875     0.0546
  583.5000   -36.6904    14.2014     9.2540    11.9573  -999.2500     7.8383     2.4908     0.0965     0.0500
  584.0000   -36.7686    14.1515     9.1710    11.9026  -999.2500     7.8376     2.4810     0.0978     0.0453
  584.5000   -36.8469    14.1017     9.0887    11.8482  -999.2500     7.8370     2.4861     0.0953     0.0453
  585.0000   -36.9252    14.0520     9.0071    11.7940  -999.2500     7.8363     2.4923     0.0922     0.0466
  585.5000   -37.0036    14.0026     8.7917    11.7403  -999.2500     7.8357     2.4926     0.0927     0.0479
  586.0000   -37.0824    13.9496     8.3261    11.6868  -999.2500     7.8350     2.4927     0.0920     0.0492
  586.5000   -37.1597    13.7713     7.8860    11.6330  -999.2500     7.8344     2.4961     0.0888     0.0506
  587.0000   -37.2011    13.5281     7.4676    11.5479  -999.2500     7.8337     2.4985     0.0881     0.0519
  587.5000   -37.0234    13.2892     7.0720    11.1125  -999.2500     7.8331     2.4977     0.0889     0.0533
  588.0000   -36.8502    13.0760     6.6975    10.6936  -999.2500     7.8324     2.5017     0.0896     0.0554
  588.5000   -36.6956    12.3104     6.3429    10.2904  -999.2500     7.8318     2.5082     0.0837     0.0604
  589.0000   -35.7539    11.6490     6.1626     9.9024  -999.2500     7.8311     2.5100     0.0816     0.0653
  589.5000   -34.4520    11.0232     6.0077     9.5291  -999.2500     7.8305     2.5098     0.0808     0.0681
  590.0000   -30.3810    10.4310     5.8567     9.1699  -999.2500     7.8298     2.5141     0.0786     0.0676
  590.5000   -25.9116     9.8706     5.7465     8.6270  -999.2500     7.8292     2.4991     0.0879     0.0671
  591.0000   -19.8325     9.3403     6.2638     7.9272  -999.2500     7.8285     2.4794     0.1065     0.0666
  591.5000   -12.1332     8.8385     6.7094     7.3067  -999.2500     7.8278     2.4482     0.1259     0.0652
  592.0000  -999.2500     8.0883     7.1729     6.4449  -999.2500     7.8273     2.4075     0.1453     0.0613
  592.5000  -999.2500     6.6161    10.0478     5.7099  -999.2500     7.8255     2.3702     0.1646     0.0576
  593.0000  -999.2500     5.4119    13.9454     5.0906  -999.2500     7.8014     2.3358     0.1912     0.0540
  593.5000  -999.2500     4.4269    39.9587     4.6448  -999.2500     7.8014     2.3036     0.2098     0.0485
  594.0000  -999.2500     3.6212   213.0295     4.2381  -999.2500     7.8014     2.2826     0.2188     0.0432
  594.5000  -999.2500     2.9549    71.4574     3.7225  -999.2500     7.8014     2.2862     0.1996     0.0428
  595.0000  -999.2500     3.5148    27.0369     3.8493  -999.2500     7.8014     2.3478     0.1640     0.0483
  595.5000  -999.2500     3.8064   424.5994     4.0828  -999.2500     7.8014     2.4060     0.1304     0.0537
  596.0000  -999.2500     5.1927  -999.2500     6.9614  -999.2500     7.8014     2.4724     0.0966     0.0592
  596.5000  -999.2500     9.8198  -999.2500    10.0029  -999.2500     7.8014     2.5385     0.0569     0.0648
  597.0000  -999.2500     9.8198  -999.2500    10.0029  -999.2500     7.8014     2.5489     0.0585     0.0700
  597.5000  -999.2500     9.7618  -999.2500    10.0029  -999.2500     7.8014     2.5459     0.0615     0.0739
  598.0000  -999.2500     9.7319  -999.2500    10.0049  -999.2500     7.8014     2.5424     0.0634     0.0783
  598.5000  -999.2500    10.1974  -999.2500    10.0029  -999.2500     7.8014     2.5390     0.0652     0.0828
  599.0000  -999.2500    10.7239  -999.2500    10.0029  -999.2500     7.8014     2.5356     0.0670     0.0873
  599.5000  -999.2500    11.2772  -999.2500    10.0029  -999.2500     7.8014     2.5323     0.0688     0.0904
  600.0000  -999.2500    11.8618  -999.2500    10.0029  -999.2500     7.8014     2.5306     0.0693     0.0904
  600.5000  -999.2500  -999.2500  -999.2500  -999.2500  -999.2500     7.8014  -999.2500  -999.2500  -999.2500
  601.0000  -999.2500  -999.2500  -999.2500  -999.2500  -999.2500     7.8014  -999.2500  -999.2500  -999.2500
