~VERSION INFORMATION
 VERS.                2.0:   CWLS LOG ASCII STANDARD - VERSION 2.0
 WRAP.                 NO:   ONE LINE PER DEPTH STEP
~WELL INFORMATION
#MNEM.UNIT      DATA TYPE    INFORMATION
#----------   ------------   ------------------------------
 STRT.F          217.0000:   START DEPTH
 STOP.F         3170.0000:   STOP DEPTH
 STEP.F            0.5000:   STEP LENGTH
 NULL.          -999.2500:   NO VALUE
 COMP. FENIX & SCISSON INC:   COMPANY
 WELL.    51 TX 33 #51-33:   WELL
 FLD .             TEAPOT:   FIELD
 LOC .      S33 T39N R78W:   LOCATION
 CNTY.            NATRONA:   COUNTY
 STAT.            WYOMING:   STATE
 CTRY. UNITED STATES OF AMERICA:   COUNTRY
 SRVC.            Unknown:   SERVICE COMPANY
 DATE.        02-APR-1978:   LOGDATE
 API .       490251068600:   API NUMBER
~CURVE INFORMATION
#MNEM.UNIT       API CODE    CURVE DESCRIPTION
#----------   ------------   ------------------------------
 DEPT.F                  :   
 TGAS.UNITS  91 830 01 00:   TOTAL GAS FROM HOTWIRE
 ROP .MIN/FT 91 810 01 00:   RATE OF DRILLING PENETRATION
~PARAMETER INFORMATION
#MNEM.UNIT          VALUE    DESCRIPTION
#----------   ------------   ------------------------------
 DATE.         2-APR-1978:   RUN DATE
 RUN .                  1:   RUN NUMBER
 BLI .F              3150:   BOTTOM LOG INTERVAL
 TLI .F               250:   TOP LOG INTERVAL
 DFT .       CHEMICAL GEL:   DRILLING FLUID TYPE
 ENGI.            R. CABS:   RECORDING ENGINEER
 CLNT.            A2DTECH:   CLIENT CODE
 ORIG.           5" PRINT:   ORIGIN OF DATA
 UWI .       490251068600:   UNIQUE WELL ID
 DICO. A2D Technologies, Inc.:   DIGITIZING COMPANY
~OTHER INFORMATION
~A   DEPT       TGAS      ROP   
# ...
 2282.5000     4.1649     2.9854
 2283.0000     4.0829     2.9860
 2283.5000     4.0010     2.9867
 2284.0000     4.0072     2.9873
 2284.5000     4.0122     2.9879
 2285.0000     4.0174     2.9886
 2285.5000     4.0235     2.9893
 2286.0000     4.1154     3.5753
 2286.5000     4.2074     3.5760
 2287.0000     4.2993     3.5441
 2287.5000     4.3913     3.5447
 2288.0000     4.5715     3.1876
 2288.5000     4.7504     3.1557
 2289.0000     4.8423     3.1564
 2289.5000     5.1012     3.1571
 2290.0000     5.3498     4.3370
 2290.5000     5.5171     4.3374
 2291.0000     5.6042     4.3377
 2291.5000     5.5275     4.9687
 2292.0000     5.1257     5.1267
 2292.5000     4.9643     5.1271
 2293.0000     4.6226     5.1472
 2293.5000     4.3600     4.6353
 2294.0000     4.1122     4.6554
 2294.5000     4.0303     4.6558
 2295.0000     3.7732     4.6365
 2295.5000     3.7794     4.6565
 2296.0000     3.7844     4.0264
 2296.5000     3.7896     4.0268
 2297.0000     3.6205     4.0272
 2297.5000     3.4516     4.0276
 2298.0000     3.3696     4.0280
 2298.5000     3.3759     4.0284
 2299.0000     3.2939     4.0288
 2299.5000     3.2991     4.0291
 2300.0000     3.3052     4.0295
 2300.5000     3.3102     4.0363
 2301.0000     3.2270     4.0431
 2301.5000     3.1461     4.0499
 2302.0000     3.0620     3.2747
 2302.5000     2.9824     3.2763
 2303.0000     2.9886     3.2779
 2303.5000     2.9936     3.2470
 2304.0000     2.8234     3.8991
 2304.5000     2.8297     3.9007
 2305.0000     2.7477     3.9023
 2305.5000     2.6658     3.9039
 2306.0000     2.4981     4.1201
 2306.5000     2.5035     4.3182
 2307.0000     2.5085     4.3388
 2307.5000     2.5135     4.3398
 2308.0000     2.5185     4.3408
 2308.5000     2.5235     4.3418
 2309.0000     2.5287     4.3428
 2309.5000     2.3596     4.3438
 2310.0000     2.3659     4.3448
 2310.5000     2.3709     4.3457
 2311.0000     2.4628     4.3467
 2311.5000     2.4678     4.3477
 2312.0000     2.4730     3.8275
 2312.5000     2.4791     3.8292
 2313.0000     2.4841     3.8308
 2313.5000     2.4009     3.8324
 2314.0000     2.4071     4.7270
 2314.5000     2.4122     4.7477
 2315.0000     2.4184     4.7487
 2315.5000     2.4234     4.7497
 2316.0000     2.4284     2.6048
 2316.5000     2.4334     1.4032
 2317.0000     2.4384     1.4048
 2317.5000     2.4435     1.3739
 2318.0000     2.4496     1.3755
 2318.5000     2.4546     2.6454
 2319.0000     2.4596     2.6471
 2319.5000     2.3764     2.6487
 2320.0000     2.2957     2.6503
 2320.5000     2.2138     2.6520
 2321.0000     2.1318     2.6536
 2321.5000     1.9642     2.9479
 2322.0000     1.8822     3.0146
 2322.5000     1.7990     3.0487
 2323.0000     1.8922     3.0829
 2323.5000     1.8974     3.0845
 2324.0000     1.9035     3.0861
 2324.5000     1.9085     3.0877
 2325.0000     1.8265     3.0894
 2325.5000     1.8315     3.0910
 2326.0000     1.9235     3.1251
 2326.5000     1.9235     3.1268
 2327.0000     1.9270     3.1284
 2327.5000     1.9304     3.1625
 2328.0000     2.0215     1.9284
 2328.5000     2.0250     1.9300
 2329.0000     2.1153     1.9317
 2329.5000     2.1188     1.9333
 2330.0000     2.1222     1.9349
 2330.5000     2.2126     1.9365
 2331.0000     2.2160     1.9382
 2331.5000     2.3064     2.6878
 2332.0000     2.3968     2.6894
 2332.5000     2.4871     2.6910
 2333.0000     2.4906     2.6926
 2333.5000     2.4940     2.6943
 2334.0000     2.4974     2.6959
 2334.5000     2.5009     2.6975
 2335.0000     2.5043     2.6666
 2335.5000     2.5948     2.8309
 2336.0000     2.5989     3.1902
 2336.5000     2.6893     3.1268
 2337.0000     2.6049     3.1284
 2337.5000     2.6092     3.1300
 2338.0000     2.6996     3.6520
 2338.5000     2.7900     3.6536
 2339.0000     2.8803     3.6227
 2339.5000     3.0577     3.6244
 2340.0000     3.0611     4.1084
 2340.5000     3.1515     4.1093
 2341.0000     3.1549     4.1300
 2341.5000     3.2453     4.1507
 2342.0000     3.2487     4.1517
 2342.5000     3.2522     4.1527
 2343.0000     3.2557     4.1340
 2343.5000     3.2591     3.4748
 2344.0000     3.3502     3.2813
 2344.5000     3.3536     3.2829
 2345.0000     3.4440     3.2845
 2345.5000     3.4474     3.2862
 2346.0000     3.5378     4.6522
 2346.5000     3.6282     4.6532
 2347.0000     3.6316     4.6542
 2347.5000     3.6351     4.6552
 2348.0000     3.6385     4.6562
 2348.5000     3.6419     3.1008
 2349.0000     3.7323     3.1024
 2349.5000     3.8227     3.1041
 2350.0000     3.8261     3.3820
 2350.5000     3.8296     3.6592
 2351.0000     3.9200     3.6598
 2351.5000     4.0111     3.6604
 2352.0000     4.0146     3.6611
 2352.5000     4.0180     3.6618
 2353.0000     4.0214     3.6624
 2353.5000     4.0248     3.6306
 2354.0000     4.2022     3.5662
 2354.5000     4.2056     3.5668
 2355.0000     4.2090     3.5674
 2355.5000     4.2994     3.5681
 2356.0000     4.3898     3.5363
 2356.5000     4.3932     3.5370
 2357.0000     4.3097     3.5376
 2357.5000     4.2261     3.5708
 2358.0000     4.0556     3.5714
 2358.5000     4.0591     4.0954
 2359.0000     4.0783     4.0760
 2359.5000     3.9084     4.0567
 2360.0000     3.9137     4.2936
 2360.5000     3.9179     4.5502
 2361.0000     3.8340     4.5309
 2361.5000     3.8393     4.5312
 2362.0000     3.7565     4.5119
 2362.5000     3.7609     4.5123
 2363.0000     3.8529     4.5127
 2363.5000     3.7691     4.5131
 2364.0000     3.7743     4.6908
 2364.5000     3.7785     4.8686
 2365.0000     3.6088     4.8887
 2365.5000     3.6130     4.8694
 2366.0000     3.4443     4.8698
 2366.5000     3.4485     4.5746
 2367.0000     3.3646     4.5553
 2367.5000     3.2829     4.5359
 2368.0000     3.2871     4.5265
 2368.5000     3.2913     4.5170
 2369.0000     3.1216     4.5175
 2369.5000     3.1268     4.5179
 2370.0000     3.1310     4.8532
 2370.5000     3.0482     4.8536
 2371.0000     2.9655     4.8540
 2371.5000     2.9696     4.8544
 2372.0000     2.9739     4.8548
 2372.5000     2.9791     4.0768
 2373.0000     2.8093     4.0674
 2373.5000     2.8135     4.0678
 2374.0000     2.8177     4.0682
 2374.5000     2.8219     4.5809
 2375.0000     2.8261     4.5616
 2375.5000     2.8304     4.5422
 2376.0000     2.8355     4.5230
 2376.5000     2.8397     4.8485
 2377.0000     2.8439     4.8390
 2377.5000     2.8481     4.8394
 2378.0000     2.7652     4.8398
 2378.5000     2.6825     4.3673
 2379.0000     2.6878     4.3677
 2379.5000     2.6920     4.3681
 2380.0000     2.6961     4.3487
 2380.5000     2.7003     4.7432
 2381.0000     2.7045     4.7437
 2381.5000     2.7087     4.7441
 2382.0000     2.7130     4.7247
 2382.5000     2.6301     4.4296
 2383.0000     2.6354     4.3905
 2383.5000     2.5515     4.3909
 2384.0000     2.5568     4.3913
 2384.5000     2.3870     4.3917
 2385.0000     2.3913     4.4119
 2385.5000     2.2226     4.4516
 2386.0000     2.2267     4.4717
 2386.5000     2.2309     4.5312
 2387.0000     2.2351     4.6104
 2387.5000     2.2393     4.7093
 2388.0000     2.2435     4.8871
 2388.5000     2.2478     4.9072
 2389.0000     2.2529     4.8879
 2389.5000     2.2571     4.8686
 2390.0000     2.2613     4.1202
 2390.5000     2.2655     4.1206
 2391.0000     2.1826     4.1210
 2391.5000     2.1870     4.0819
 2392.0000     2.1921     4.0823
 2392.5000     2.1083     4.6147
 2393.0000     2.1135     4.5758
 2393.5000     2.1177     4.5565
 2394.0000     2.0339     5.9559
 2394.5000     1.9522     5.9760
 2395.0000     1.9565     5.9763
 2395.5000     1.9616     5.9767
 2396.0000     1.9658     4.7948
 2396.5000     1.9700     4.7952
 2397.0000     2.1481     4.7957
 2397.5000     2.2392     4.7961
 2398.0000     2.3304     5.0526
 2398.5000     2.4226     5.0727
 2399.0000     2.5137     5.0731
 2399.5000     2.6049     5.0735
 2400.0000     2.6960     4.6010
 2400.5000     2.7871     4.5618
 2401.0000     2.8783     4.5423
 2401.5000     2.9805     4.5424
 2402.0000     3.0616     4.8481
 2402.5000     3.1528     4.8088
 2403.0000     3.2439     4.7795
 2403.5000     3.3351     4.7797
