~VERSION INFORMATION
 VERS.                2.0:   CWLS LOG ASCII STANDARD - VERSION 2.0
 WRAP.                 NO:   ONE LINE PER DEPTH STEP
~WELL INFORMATION
#MNEM.UNIT      DATA TYPE    INFORMATION
#----------   ------------   ------------------------------
 STRT.F            0.5000:   START DEPTH
 STOP.F          696.0000:   STOP DEPTH
 STEP.F            0.5000:   STEP LENGTH
 NULL.          -999.2500:   NO VALUE
 COMP. LAWRENCE/ALLISON INC:   COMPANY
 WELL. SX 11 WP #26-44-11:   WELL
 FLD .             TEAPOT:   FIELD
 LOC .      S11 T38N R78W:   LOCATION
 CNTY.            NATRONA:   COUNTY
 STAT.            WYOMING:   STATE
 CTRY. UNITED STATES OF AMERICA:   COUNTRY
 SRVC.      Dresser Atlas:   SERVICE COMPANY
 DATE.        08-SEP-1984:   LOGDATE
 API .       490251097600:   API NUMBER
~CURVE INFORMATION
#MNEM.UNIT       API CODE    CURVE DESCRIPTION
#----------   ------------   ------------------------------
 DEPT.F                  :   
 AC  .US/F   60 520 00 00:   ACCOUSTIC
 SPR .MV     07 010 01 00:   SPONTANEOUS POTENTIAL FROM RES.
 RILD.OHMM   07 120 46 00:   RESISTIVITY INDUCTION LOG DEEP
 RILM.OHMM   07 120 44 00:   RESISTIVITY INDUCTION LOG MEDIUM
 RFOC.OHMM   07 220 04 00:   RESISTIVITY FOCUSED LOG
 GRR .GAPI   07 310 01 00:   GAMMA RAY FROM RESISTIVITY
 CALD.IN     45 280 60 00:   CALIPER FROM DENSITY LOG
 DEN .G/C3   45 350 01 00:   COMPENSATED BULK DENSTIY
 CORR.G/C3   45 356 01 00:   DENSITY CORRECTION
 PORD.DEC    45 890 12 00:   POROSITY DENSITY SANDSTONE
 CNC .DEC    42 890 03 00:   NEUTRON POROSITY SANDSTONE
~PARAMETER INFORMATION
#MNEM.UNIT          VALUE    DESCRIPTION
#----------   ------------   ------------------------------
 PD  .                 GL:   PERMANENT DATUM
 EPD .F              5186:   ELEVATION PERMANENT DATUM
 LMF .                 GL:   LOG MEASURED FROM
 DMF .                 GL:   DRILLING MEASURED FROM
 EGL .F              5186:   GROUND LEVEL
 DATE.         8-SEP-1984:   RUN DATE
 RUN .                  1:   RUN NUMBER
 DD  .F               712:   DEPTH DRILLER
 DL  .F               695:   DEPTH LOGGER
 BLI .F               693:   BOTTOM LOG INTERVAL
 CS  .IN            8.625:   CASING SIZE
 CBD .F                40:   CASING BOTTOM DRILLER
 CBL .F                45:   CASING BOTTOM LOGGER
 BS  .IN            7.875:   BIT SIZE
 BSD .F               712:   BIT SIZE AT DEPTH
 DFT .          KCL WATER:   DRILLING FLUID TYPE
 MSS .           FLOWLINE:   MUD SAMPLE SOURCE
 RMS .OHMM            .22:   RESISTIVITY MUD SAMPLE
 MST .F                72:   MUD SAMPLE TEMPERATURE
 RMF .OHMM            .17:   RESISTIVITY MUD FILTRATE SAMPLE
 MFST.F                72:   MUD FILTRATE SAMPLE TEMPERATURE
 RMC .OHMM            .28:   RESISTIVITY MUD CAKE
 MCST.F                72:   MUD CAKE SAMPLE TEMPERATURE
 MFSS.               CALC:   MUD FILTRATE SAMPLE SOURCE
 MCSS.               CALC:   MUD CAKE SAMPLE SOURCE
 RMB .OHMM            .18:   RESISTIVITY MUD AT BHT
 BHT .F                90:   BOTTOM HOLE TEMPERATURE
 TCS .HRS               3:   TIME CURCULATED STOPPED
 MRT .F                90:   MAXIMUM RECORDED TEMPERATURE
 LUN .               6274:   LOGGING UNIT NUMBER
 LUL .               GLTE:   LOGGING UNIT LOCATION
 ENGI.             RAUTIO:   RECORDING ENGINEER
 WITN.           JENNINGS:   WITNESSED BY
 CLNT.            A2DTECH:   CLIENT CODE
 ORIG. 1", 2', 2.5", 5" PRNT:   ORIGIN OF DATA
 UWI .       490251097600:   UNIQUE WELL ID
 DICO. A2D Technologies, Inc.:   DIGITIZING COMPANY
~OTHER INFORMATION
~A    DEPT      AC        SPR       RILD       RILM       RFOC         GRR      CALD        DEN       CORR       PORD        CNC   
# ...
  336.0000    99.9610    -6.3160     8.4680     8.6230     9.0160    91.0432     7.8710     2.4510    -0.0020     0.1360     0.2863
  336.5000    99.9190    -6.2450     8.4370     8.6000     8.9680    91.0658     7.8710     2.4590     0.0180     0.1310     0.2863
  337.0000    99.8770    -6.3790     8.3930     8.5710     8.9210    91.3848     7.8710     2.4640     0.0260     0.1280     0.2865
  337.5000   100.0100    -6.5430     8.3480     8.5410     8.8740    92.5964     7.8710     2.4650     0.0110     0.1280     0.2893
  338.0000   100.2610    -6.7100     8.3030     8.5120     8.8260    92.0226     7.8710     2.4620    -0.0040     0.1300     0.2910
  338.5000   100.5120    -6.8760     8.2580     8.4830     8.7790    91.4527     7.8710     2.4530    -0.0180     0.1360     0.2866
  339.0000   100.6570    -7.0430     8.2130     8.4540     8.7310    92.0679     7.8710     2.4430    -0.0090     0.1410     0.2850
  339.5000   100.4290    -7.2060     8.1680     8.4250     8.6840    90.3166     7.8710     2.4400     0.0010     0.1440     0.2874
  340.0000   100.2060    -7.3110     8.1230     8.3960     8.6360    88.8615     7.8710     2.4460     0.0100     0.1400     0.2883
  340.5000    99.9830    -7.4310     8.0780     8.3670     8.5890    87.9953     7.8710     2.4530     0.0180     0.1360     0.2870
  341.0000    99.9460    -7.5510     8.0330     8.3380     8.5420    87.1328     7.8710     2.4570     0.0180     0.1340     0.2857
  341.5000   100.1340    -7.6710     7.9370     8.2670     8.4940    85.3777     7.8710     2.4600     0.0130     0.1320     0.2881
  342.0000   100.3220    -7.7890     7.7960     7.9790     8.4470    83.3263     7.8710     2.4590     0.0050     0.1310     0.2994
  342.5000   100.4120    -8.0240     7.4950     7.6910     8.3990    82.1599     7.8710     2.4580    -0.0030     0.1320     0.3026
  343.0000   100.2440    -8.2930     7.1850     7.4020     8.3520    86.6346     7.8710     2.4580    -0.0090     0.1330     0.3064
  343.5000   100.0600    -8.5630     6.8760     7.1140     8.2990    89.9165     7.8710     2.4620    -0.0050     0.1310     0.2906
  344.0000   101.4100    -8.8330     6.5670     6.8260     8.1360    88.1614     7.8710     2.4610     0.0050     0.1300     0.2881
  344.5000   102.9160    -9.1030     6.2570     6.5380     7.6320    88.7804     7.8710     2.4540     0.0150     0.1340     0.3032
  345.0000   104.4220    -9.3720     6.1380     6.4270     7.1280    91.4697     7.8740     2.4460     0.0250     0.1390     0.3065
  345.5000   105.9280    -9.6410     6.1610     6.3680     6.6240    93.8589     7.8780     2.4430     0.0350     0.1420     0.2916
  346.0000   106.6330    -9.8020     6.1950     6.5070     6.1380    89.4409     7.8810     2.4520     0.0450     0.1370     0.2854
  346.5000   106.0270    -9.7860     6.3710     6.6730     6.6740    90.3562     7.8850     2.4650     0.0460     0.1290     0.2875
  347.0000   104.8350    -9.4460     6.5420     6.8400     7.3350    91.8603     7.8880     2.4760     0.0460     0.1210     0.2948
  347.5000   103.6430    -9.1000     6.7120     7.0070     7.9960    92.4718     7.8920     2.4740     0.0220     0.1220     0.2911
  348.0000   102.6490    -8.7530     6.8820     7.1730     8.1130    89.2427     7.8950     2.4700     0.0070     0.1250     0.2827
  348.5000   102.3830    -8.4070     7.0530     7.3400     8.1670    90.1543     7.8990     2.4720     0.0120     0.1250     0.2843
  349.0000   102.1550    -8.0660     7.2230     7.5070     8.2210    90.7695     7.9020     2.4750     0.0200     0.1220     0.2873
  349.5000   101.9270    -7.9600     7.3930     7.6730     8.2590    90.7922     7.9060     2.4780     0.0280     0.1200     0.2905
  350.0000   101.6530    -7.8680     7.4550     7.7520     8.2910    88.4444     7.9090     2.4830     0.0360     0.1170     0.2877
  350.5000   101.7100    -7.8750     7.4700     7.7920     8.3140    90.5486     7.9100     2.4900     0.0440     0.1130     0.2873
  351.0000   101.7810    -7.9800     7.4840     7.8320     8.3140    92.6485     7.9080     2.4970     0.0480     0.1070     0.2866
  351.5000   101.8530    -8.0830     7.4980     7.8720     8.3140    93.8551     7.9070     2.4960     0.0460     0.1070     0.2866
  352.0000   101.9240    -8.1850     7.5140     7.9130     8.3140    91.5191     7.9050     2.4850     0.0340     0.1160     0.2856
  352.5000   101.9950    -8.4350     7.4370     7.9400     8.2740    90.3554     7.9030     2.4740     0.0160     0.1220     0.2914
  353.0000   102.0660    -8.7420     7.3530     7.7970     8.1960    89.1961     7.9020     2.4690     0.0120     0.1270     0.2999
  353.5000   102.1370    -9.0510     7.2680     7.6880     8.1180    89.2261     7.9000     2.4640     0.0160     0.1290     0.3047
  354.0000   102.2080    -9.1540     7.1770     7.5790     8.0400    89.2519     7.8980     2.4600     0.0200     0.1310     0.2857
  354.5000   102.2510    -9.0500     7.1070     7.4690     7.9620    90.7635     7.8970     2.4580     0.0240     0.1320     0.2777
  355.0000   102.7990    -8.9490     7.0090     7.3600     7.8870    91.9745     7.8950     2.4570     0.0120     0.1340     0.2800
  355.5000   103.3470    -8.8420     6.9120     7.2510     7.7840    93.1854     7.8930     2.4520    -0.0010     0.1360     0.2990
  356.0000   103.8940    -9.0070     6.8150     7.1410     7.6810    95.5816     7.8910     2.4470    -0.0100     0.1390     0.3193
  356.5000   104.4420    -9.3880     6.7290     6.9980     7.5790   100.0518     7.8920     2.4410    -0.0070     0.1430     0.3343
  357.0000   104.5250    -9.7870     6.3600     6.6220     7.4760    96.2300     7.8940     2.4380    -0.0030     0.1440     0.3454
  357.5000   104.6080   -10.1760     5.9610     6.2450     7.3730    92.9966     7.8950     2.4380     0.0000     0.1450     0.3564
  358.0000   105.1200   -10.5860     5.5620     5.8680     7.2700    90.9483     7.8970     2.4350    -0.0020     0.1480     0.3644
  358.5000   105.9160   -10.9980     5.1630     5.4910     7.1560    92.1592     7.8980     2.4200    -0.0040     0.1570     0.3440
  359.0000   107.6440   -11.4090     4.7640     5.1140     6.6930    94.2591     7.8990     2.4040    -0.0060     0.1670     0.3288
  359.5000   109.9910   -11.7730     4.6590     5.0150     5.8310    93.4003     7.9010     2.3910     0.0140     0.1730     0.3103
  360.0000   112.8090   -11.7050     4.7810     5.0150     4.5740    91.0557     7.9020     2.3920     0.0360     0.1650     0.2907
  360.5000   112.1120   -11.4090     4.9100     5.1670     5.0700    89.8920     7.9040     2.4350     0.0420     0.1510     0.2868
  361.0000   110.1200   -11.1220     5.0400     5.4790     5.9870    89.9221     7.9050     2.4470     0.0190     0.1380     0.2898
  361.5000   107.9610   -10.8360     5.1690     5.7910     6.9030    89.6473     7.9070     2.4520     0.0080     0.1360     0.2892
  362.0000   105.8030   -10.5500     5.5940     6.1030     7.8680    90.8669     7.9080     2.4560     0.0110     0.1340     0.2833
  362.5000   103.6450   -10.2640     6.1180     6.4140     8.0140    93.2630     7.9100     2.4640     0.0140     0.1290     0.2872
  363.0000   103.2900    -9.9780     6.6420     6.7260     7.9910    94.4697     7.9110     2.4720     0.0110     0.1230     0.2986
  363.5000   102.9340    -9.6830     7.0210     7.0380     7.9600    90.0553     7.9090     2.4800     0.0090     0.1170     0.3022
  364.0000   102.6490    -9.6910     7.1340     7.2490     7.9300    85.3404     7.9070     2.4890     0.0100     0.1150     0.3049
  364.5000   102.5000    -9.8530     7.2470     7.3780     7.8990    84.1767     7.9060     2.4850     0.0200     0.1160     0.3021
  365.0000   102.3750    -9.9840     7.3600     7.5080     7.8680    86.5814     7.9040     2.4760     0.0240     0.1210     0.2959
  365.5000   102.2510    -9.7300     7.4720     7.6370     7.9840    90.1628     7.9030     2.4680     0.0200     0.1270     0.2897
  366.0000   102.1260    -9.4800     7.5850     7.7670     8.1060    93.7441     7.9010     2.4700     0.0150     0.1270     0.2831
