~VERSION INFORMATION
 VERS.                2.0:   CWLS LOG ASCII STANDARD - VERSION 2.0
 WRAP.                 NO:   ONE LINE PER DEPTH STEP
~WELL INFORMATION
#MNEM.UNIT      DATA TYPE    INFORMATION
#----------   ------------   ------------------------------
 STRT.F           24.0000:   START DEPTH
 STOP.F          570.0000:   STOP DEPTH
 STEP.F            0.5000:   STEP LENGTH
 NULL.          -999.2500:   NO VALUE
 COMP. FENIX & SCISSON INC:   COMPANY
 WELL.   NPR-3 #32SX10-10:   WELL
 FLD .  TEAPOT COME NPR-3:   FIELD
 LOC .      S10 T38N R78W:   LOCATION
 CNTY.            NATRONA:   COUNTY
 STAT.            WYOMING:   STATE
 CTRY. UNITED STATES OF AMERICA:   COUNTRY
 SRVC.            Unknown:   SERVICE COMPANY
 DATE.        27-JUN-1978:   LOGDATE
 API .       490251065300:   API NUMBER
~CURVE INFORMATION
#MNEM.UNIT       API CODE    CURVE DESCRIPTION
#----------   ------------   ------------------------------
 DEPT.F                  :   
 CALD.IN     45 280 60 00:   CALIPER FROM DENSITY LOG
 GRD .GAPI   45 310 01 00:   GAMMA RAY FROM DENSITY LOG
 CORR.G/C3   45 356 01 00:   DENSITY CORRECTION
 DPHI.DEC    45 890 12 00:   DENSITY POROSITY SANDSTONE
 RHOB.G/C3   45 350 01 00:   BULK DENSITY
 SPR .MV     05 010 01 00:   SPONTANEOUS POTENTIAL FROM RES.
 SN  .OHMM   05 040 16 00:   SHORT NORMAL 16"
 ILD .OHMM   05 120 46 00:   INDUCTION LOG DEEP
~PARAMETER INFORMATION
#MNEM.UNIT          VALUE    DESCRIPTION
#----------   ------------   ------------------------------
 PD  .                 GL:   PERMANENT DATUM
 EPD .F              5239:   ELEVATION PERMANENT DATUM
 LMF .                 GL:   LOG MEASURED FROM
 DAPD.F                 4:   FEET ABOVE PERMANENT DATUM
 DMF .                 GL:   DRILLING MEASURED FROM
 EKB .F              5243:   KELLING BUSHING
 EGL .F              5239:   GROUND LEVEL
 DATE.        27-JUN-1978:   RUN DATE
 RUN .                  1:   RUN NUMBER
 DD  .F               565:   DEPTH DRILLER
 DL  .F               574:   DEPTH LOGGER
 BLI .F               572:   BOTTOM LOG INTERVAL
 TLI .F                30:   TOP LOG INTERVAL
 CS  .IN            8.625:   CASING SIZE
 CBD .F                40:   CASING BOTTOM DRILLER
 CBL .F                40:   CASING BOTTOM LOGGER
 BS  .IN            7.875:   BIT SIZE
 BSD .F               565:   BIT SIZE AT DEPTH
 DFT .                KCL:   DRILLING FLUID TYPE
 DFD .                8.7:   DRILLING FLUID DENSITY
 DFV .                 35:   DRILLING FLUID VISCOSITY
 DFPH.                 10:   DRILLING FLUID PH
 DFL .                 14:   DRILLING FLUID LOSS
 MSS .           FLOWLINE:   MUD SAMPLE SOURCE
 RMS .OHMM            .36:   RESISTIVITY MUD SAMPLE
 MST .F                78:   MUD SAMPLE TEMPERATURE
 RMF .OHMM             .3:   RESISTIVITY MUD FILTRATE SAMPLE
 MFST.F                86:   MUD FILTRATE SAMPLE TEMPERATURE
 RMC .OHMM            .36:   RESISTIVITY MUD CAKE
 MCST.F                87:   MUD CAKE SAMPLE TEMPERATURE
 MFSS.               MEAS:   MUD FILTRATE SAMPLE SOURCE
 MCSS.               MEAS:   MUD CAKE SAMPLE SOURCE
 RMB .OHMM            3.9:   RESISTIVITY MUD AT BHT
 BHT .F                72:   BOTTOM HOLE TEMPERATURE
 TCS .HRS            0300:   TIME CURCULATED STOPPED
 MRT .F                72:   MAXIMUM RECORDED TEMPERATURE
 LUN .               2938:   LOGGING UNIT NUMBER
 LUL .               CASP:   LOGGING UNIT LOCATION
 ENGI.            POINTER:   RECORDING ENGINEER
 WITN.         ZARGARNIAN:   WITNESSED BY
 CLNT.            A2DTECH:   CLIENT CODE
 ORIG.     2.5", 5" PRINT:   ORIGIN OF DATA
 UWI .       490251065300:   UNIQUE WELL ID
 DICO. A2D Technologies, Inc.:   DIGITIZING COMPANY
~OTHER INFORMATION
~A   DEPT     CALD         GRD      CORR       DPHI       RHOB        SPR         SN        ILD   
# ...
  348.0000     7.6137   131.5928     0.0859     0.0922     2.5239   -26.8770     7.8710     7.8281
  348.5000     7.6161   128.6431     0.0738     0.0846     2.5540   -26.8741     7.8721     7.8609
  349.0000     7.6334   123.6131     0.0340     0.0833     2.5548   -26.8711     7.9065     7.9382
  349.5000     7.6357   123.0352     0.0133     0.0862     2.5467   -26.8681     8.0539     8.0842
  350.0000     7.6524   124.1504     0.0104     0.0926     2.5291   -26.8652     8.3574     8.2732
  350.5000     7.6099   124.4725     0.0097     0.0978     2.5065   -26.8622     8.5924     8.3883
  351.0000     7.5529   124.5929     0.0090     0.1060     2.5021   -26.8592     8.6707     8.3484
  351.5000     7.5098   124.4608     0.0083     0.1080     2.4992   -26.5578     8.5104     8.2764
  352.0000     7.4676   124.4885     0.0082     0.1093     2.4926   -26.5548     8.2799     8.1223
  352.5000     7.4245   124.5106     0.0084     0.1189     2.4822   -26.5518     7.9460     7.9026
  353.0000     7.3824   124.6813     0.0086     0.1207     2.4778   -26.5489     7.7308     7.7948
  353.5000     7.3541   126.1153     0.0072     0.1243     2.4742   -26.5459     7.5214     7.5841
  354.0000     7.3413   127.9963     0.0075     0.1374     2.4586   -26.5429     7.4187     7.4806
  354.5000     7.3439   128.3100     0.0061     0.1446     2.4407   -26.2415     7.2726     7.2338
  355.0000     7.3459   125.5145     0.0063     0.1487     2.4318   -25.9400     7.0671     6.9852
  355.5000     7.3326   123.4563     0.0065     0.1598     2.4170   -25.6385     6.9264     6.8900
  356.0000     7.3352   116.9406     0.0127     0.1711     2.3834   -24.7400     6.7843     6.8419
  356.5000     7.3373   109.3847     0.0383     0.1846     2.3730   -24.4386     6.7853     6.8906
  357.0000     7.3989    94.5498     0.0460     0.1875     2.3694   -23.8386     7.1218     7.1870
  357.5000     7.5053    85.2108     0.0371     0.1884     2.3725   -23.5371     7.5813     7.9149
  358.0000     7.5372    80.1809     0.0358     0.1835     2.3741   -23.5341     8.0125     8.5331
  358.5000     7.5393    79.0143     0.0390     0.1841     2.3734   -23.5312     8.4030     9.0177
  359.0000     7.5263    78.8823     0.0512     0.1891     2.3676   -23.5282     8.7585     9.4004
  359.5000     7.5285    78.9099     0.0618     0.1981     2.3505   -23.8238     8.9325     9.7752
  360.0000     7.5306    79.5264     0.0635     0.2005     2.3670   -23.8208     9.1822     9.7768
  360.5000     7.5327    80.4400     0.0637     0.1869     2.3770   -23.8178     9.3102     9.7781
  361.0000     7.5347    80.9079     0.0638     0.1815     2.3912   -23.8149     9.3114     9.7794
  361.5000     7.5216    81.3757     0.0595     0.1667     2.4109   -23.8119     9.4412     9.7807
  362.0000     7.4636    83.7753     0.0358     0.1628     2.4097   -23.5104     9.5728     9.9169
  362.5000     7.2951    86.4719     0.0344     0.1744     2.3847   -22.9104     9.8402    10.1934
  363.0000     7.1390    87.3856     0.0361     0.1795     2.3827   -22.0080     9.9774    10.6221
  363.5000     7.1108    87.4077     0.0363     0.1806     2.3806   -21.1055    10.3976    11.0688
  364.0000     7.0703    83.7151     0.0395     0.1806     2.3799   -20.5016    10.8355    11.6932
  364.5000     7.1772    82.5485     0.0396     0.1797     2.3838   -19.5990    11.4477    12.6956
  365.0000     7.3879    76.6270     0.0323     0.1765     2.3869   -18.6966    11.7674    14.3616
  365.5000     7.4794    72.6409     0.0280     0.1757     2.3870   -18.0925    12.2630    16.4702
  366.0000     7.5112    72.2118     0.0420     0.1933     2.3662   -17.4886    12.9558    18.3783
  366.5000     7.5431    72.5366     0.0540     0.1945     2.3580   -16.5861    13.6878    19.6826
  367.0000     7.5601    73.3016     0.0587     0.1938     2.3724   -16.2806    14.2643    19.9565
  367.5000     7.5771    75.7011     0.0587     0.1797     2.3957   -16.0149    14.8651    19.6880
  368.0000     7.5791    78.9922     0.0559     0.1529     2.4153   -15.9682    15.4911    19.4230
  368.5000     7.5812    82.8776     0.0261     0.1448     2.4394   -15.6627    15.9238    19.1616
  369.0000     7.5679    84.6827     0.0188     0.1535     2.4320   -15.3572    16.1458    18.9037
  369.5000     7.5705    84.8534     0.0190     0.1696     2.3924   -15.0517    16.3708    18.9063
  370.0000     7.5571    85.3213     0.0207     0.1750     2.3910   -14.7463    16.5990    18.6516
  370.5000     7.5443    87.8694     0.0209     0.1746     2.3926   -14.4408    16.6012    18.4007
  371.0000     7.5469    89.8232     0.0195     0.1743     2.3927   -14.1353    16.6035    18.1531
  371.5000     7.5489    93.1142     0.0197     0.1742     2.3914   -13.9015    16.6058    18.9166
  372.0000     7.5510    96.2567     0.0199     0.1772     2.3757   -13.8985    16.6080    19.7121
  372.5000     7.5531    96.3027     0.0201     0.1870     2.3654   -13.5964    16.6103    19.9864
  373.0000     7.5700    90.8031     0.0218     0.1900     2.3662   -13.5935    16.3863    20.2646
  373.5000     7.5721    86.5162     0.0234     0.1836     2.3836   -13.5905    16.1656    20.2673
  374.0000     7.5742    85.3491     0.0236     0.1797     2.3867   -13.5875    16.1678    20.2701
  374.5000     7.4868    87.8977     0.0222     0.1776     2.3883   -13.5846    16.1700    20.2728
  375.0000     7.3846    91.6843     0.0209     0.1760     2.3884   -13.5816    15.9520    20.2756
  375.5000     7.3269    95.6785     0.0212     0.1766     2.3870   -13.5786    15.7342    19.7237
  376.0000     7.3589    95.9881     0.0213     0.1774     2.3856   -13.5757    15.5193    18.9329
  376.5000     7.3908    96.3223     0.0230     0.1783     2.3850   -13.5727    15.3157    18.4111
  377.0000     7.4227    99.0044     0.0232     0.1785     2.3851   -13.5697    15.3179    17.6665
  377.5000     7.4247    98.8533     0.0264     0.1788     2.3852   -13.5668    15.1113    16.9672
  378.0000     7.4268    96.2303     0.0280     0.1766     2.3868   -13.5638    14.8914    16.7358
  378.5000     7.4289    95.8011     0.0297     0.1751     2.3884   -13.5608    14.6881    16.5285
  379.0000     7.4161    95.8287     0.0329     0.1751     2.3893   -13.5579    14.2903    16.5552
  379.5000     7.4182    96.1480     0.0375     0.1753     2.3909   -13.5549    14.0952    16.7609
  380.0000     7.4203    96.7645     0.0407     0.1708     2.4000   -13.5519    13.9278    16.7632
  380.5000     7.3752    99.6097     0.0349     0.1581     2.4159   -13.5490    13.7401    16.7656
  381.0000     7.3172   100.6720     0.0290     0.1554     2.4250   -13.5460    13.7421    16.7679
  381.5000     7.2923   100.8427     0.0247     0.1559     2.4251   -13.5430    13.7440    16.7701
  382.0000     7.2949    95.6642     0.0218     0.1565     2.4229   -13.5401    13.7459    16.7724
  382.5000     7.3118    95.9834     0.0207     0.1606     2.4171   -13.5371    13.7478    16.7747
  383.0000     7.3437    98.3830     0.0224     0.1636     2.4037   -13.5342    13.7497    16.7770
  383.5000     7.3756    99.8910     0.0225     0.1644     2.4045   -13.5312    13.7515    16.7794
  384.0000     7.4075   101.5475     0.0242     0.1653     2.4054   -13.5282    13.7534    16.7816
  384.5000     7.4543   102.3126     0.0274     0.1656     2.4055   -13.5253    13.8034    16.7839
  385.0000     7.5010   102.6319     0.0291     0.1661     2.4056   -13.5223    13.9470    16.7862
  385.5000     7.5329   102.8025     0.0292     0.1670     2.4057   -13.5193    14.1415    16.7885
  386.0000     7.5648   102.9732     0.0294     0.1663     2.4059   -13.5164    14.3386    17.0222
  386.5000     7.5669   101.0637     0.0266     0.1651     2.4075   -13.5134    14.3405    16.7928
  387.0000     7.5838    99.1542     0.0238     0.1644     2.4098   -13.5104    14.3425    16.7223
  387.5000     7.6008    98.2847     0.0180     0.1644     2.4099   -13.5075    14.1489    16.4943
  388.0000     7.6178    97.8604     0.0136     0.1667     2.4040   -13.5045    14.1511    16.1238
