~VERSION INFORMATION
 VERS.                2.0:   CWLS LOG ASCII STANDARD - VERSION 2.0
 WRAP.                 NO:   ONE LINE PER DEPTH STEP
~WELL INFORMATION
#MNEM.UNIT      DATA TYPE    INFORMATION
#----------   ------------   ------------------------------
 STRT.F            0.0000:   START DEPTH
 STOP.F          400.0000:   STOP DEPTH
 STEP.F            0.5000:   STEP LENGTH
 NULL.          -999.2500:   NO VALUE
 COMP. DEPARTMENT OF ENERGY:   COMPANY
 WELL. NPR 3 #55-56 SX 3 C5:   WELL
 FLD .        TEAPOT EAST:   FIELD
 LOC .       S3 T38N R78W:   LOCATION
 CNTY.            NATRONA:   COUNTY
 STAT.            WYOMING:   STATE
 CTRY. UNITED STATES OF AMERICA:   COUNTRY
 SRVC.      Dresser Atlas:   SERVICE COMPANY
 DATE.        03-JUL-1985:   LOGDATE
 API .       490251134300:   API NUMBER
~CURVE INFORMATION
#MNEM.UNIT       API CODE    CURVE DESCRIPTION
#----------   ------------   ------------------------------
 DEPT.F                  :   
 GRR .GAPI   07 310 01 00:   GAMMA RAY
 RILD.OHMM   07 120 46 00:   INDUCTION LOG DEEP RESISTIVITY
 RILM.OHMM   07 120 44 00:   INDUCTION LOG DEEP RESISTIVITY
 CALD.IN     45 280 60 00:   CALIPER FROM DENSITY LOG
 CORR.G/C3   45 356 01 00:   DENSITY CORRECTION
 DEN .G/C3   45 350 01 00:   COMPENSATED BULK DENSTIY
 NPOR.DEC    42 890 03 00:   NEUTRON POROSITY SANDSTONE
 PORD.DEC    45 890 12 00:   POROSITY DENSITY SANDSTONE
~PARAMETER INFORMATION
#MNEM.UNIT          VALUE    DESCRIPTION
#----------   ------------   ------------------------------
 PD  .                 GL:   PERMANENT DATUM
 EPD .F              5168:   ELEVATION PERMANENT DATUM
 LMF .                 GL:   LOG MEASURED FROM
 DMF .                 GL:   DRILLING MEASURED FROM
 EGL .F              5168:   GROUND LEVEL
 DATE.        03-JUL-1985:   RUN DATE
 RUN .                  1:   RUN NUMBER
 DD  .F               402:   DEPTH DRILLER
 DL  .F               402:   DEPTH LOGGER
 BLI .F               394:   BOTTOM LOG INTERVAL
 CS  .IN                7:   CASING SIZE
 CBD .F                80:   CASING BOTTOM DRILLER
 CBL .F                84:   CASING BOTTOM LOGGER
 BS  .IN            4.875:   BIT SIZE
 BSD .F               402:   BIT SIZE AT DEPTH
 DFT .                OIL:   DRILLING FLUID TYPE
 TCS .HRS               3:   TIME CURCULATED STOPPED
 MRT .F               148:   MAXIMUM RECORDED TEMPERATURE
 LUN .               6274:   LOGGING UNIT NUMBER
 LUL .               GLTE:   LOGGING UNIT LOCATION
 ENGI.             RAUTIO:   RECORDING ENGINEER
 WITN.             GROOMS:   WITNESSED BY
 CLNT.            A2DTECH:   CLIENT CODE
 ORIG.           5" PRINT:   ORIGIN OF DATA
 UWI .       490251134300:   UNIQUE WELL ID
 DICO. A2D Technologies, Inc.:   DIGITIZING COMPANY
~OTHER INFORMATION
~A    DEPT      GRR      RILD       RILM       CALD       CORR        DEN       NPOR       PORD   
# ...
  324.0000    87.7939     5.8020     5.8065     6.1411     0.0181     2.3593     0.2310     0.1784
  324.5000    87.7791     5.8409     5.8400     6.1402     0.0225     2.3615     0.2313     0.1759
  325.0000    87.1601     5.8397     5.7976     6.1395     0.0254     2.3592     0.2298     0.1766
  325.5000    86.4843     5.7581     5.7558     6.1389     0.0254     2.3562     0.2310     0.1774
  326.0000    85.3142     5.6773     5.6748     6.1381     0.0086     2.3554     0.2331     0.1774
  326.5000    84.3931     5.5980     5.5948     6.1223    -0.0099     2.3524     0.2353     0.1798
  327.0000    84.0762     5.5198     5.5545     6.1216    -0.0243     2.3486     0.2353     0.1825
  327.5000    87.3847     5.4805     5.5145     6.1209    -0.0094     2.3455     0.2353     0.1840
  328.0000    90.3911     5.4039     5.4748     6.1201     0.0069     2.3440     0.2359     0.1852
  328.5000    92.7933     5.3655     5.4733     6.1194    -0.0156     2.3462     0.2371     0.1855
  329.0000    93.0843     5.3273     5.4718     6.1185    -0.0471     2.3492     0.2380     0.1834
  329.5000    91.8574     5.2894     5.4321     6.1179    -0.0517     2.3499     0.2389     0.1815
  330.0000    91.2384     5.2883     5.3932     6.1021    -0.0563     2.3513     0.2401     0.1801
  330.5000    91.2237     5.2870     5.3915     6.1013    -0.0459     2.3528     0.2410     0.1795
  331.0000    92.7553     5.2860     5.3527     6.0856    -0.0293     2.3565     0.2389     0.1783
  331.5000    94.5137     5.2849     5.3141     6.0848    -0.0189     2.3620     0.2353     0.1758
  332.0000    95.4090     5.2838     5.3127     6.0841    -0.0073     2.3707     0.2326     0.1716
  332.5000    96.5990     5.2828     5.2744     6.0833     0.0001     2.3797     0.2354     0.1659
  333.0000    97.1885     5.2817     5.2730     6.0825     0.0045     2.3917     0.2383     0.1589
  333.5000    97.1737     5.2806     5.2715     6.0818     0.0074     2.3961     0.2389     0.1547
  334.0000    97.1589     5.3178     5.3118     6.0747     0.0014     2.3976     0.2386     0.1529
  334.5000    96.2378     5.3579     5.4170     6.0653    -0.0047     2.3991     0.2371     0.1529
  335.0000    95.0146     5.4259     5.5297     6.0646     0.0012     2.3975     0.2353     0.1541
  335.5000    93.4893     5.5385     5.6060     6.0637     0.0191     2.3959     0.2335     0.1553
  336.0000    92.2337     5.5762     5.6827     6.0479     0.0325     2.3944     0.2323     0.1556
  336.5000    91.3444     5.6920     5.7607     6.0624     0.0204     2.3974     0.2317     0.1537
  337.0000    90.7223     5.7308     5.7591     6.0615     0.0128     2.3989     0.2311     0.1522
  337.5000    90.4054     5.7293     5.7576     6.0608     0.0262     2.3913     0.2305     0.1543
  338.0000    91.5991     5.6886     5.7161     6.0601     0.0381     2.3845     0.2299     0.1610
  338.5000    93.6991     5.5703     5.5952     6.0593     0.0470     2.3807     0.2311     0.1625
  339.0000    93.3823     5.4924     5.4414     6.0584     0.0139     2.3845     0.2329     0.1609
  339.5000    92.1590     5.3409     5.2904     6.0577     0.0079     2.3937     0.2332     0.1566
  340.0000    91.2379     5.2662     5.1438     6.0570     0.0078     2.4054     0.2332     0.1510
  340.5000    92.1295     5.1567     5.0362     6.0562     0.0198     2.4144     0.2329     0.1419
  341.0000    93.9274     5.0495     4.9308     6.0555     0.0320     2.4241     0.2329     0.1332
  341.5000    95.4471     4.9445     4.8614     6.0548     0.0524     2.4331     0.2329     0.1286
  342.0000    96.0645     4.8083     4.7929     6.0541     0.0673     2.4360     0.2268     0.1274
  342.5000    96.3001     4.7083     4.7916     6.0532     0.0447     2.3684     0.2232     0.1543
  343.0000    98.0943     4.6425     4.7571     6.0374     0.0372     2.3001     0.2305     0.1956
  343.5000    99.8922     4.6093     4.7217     6.0067     0.1119     2.2441     0.2492     0.2596
  344.0000   100.7838     4.6083     4.6844     5.9159     0.1538     2.2212     0.3139     0.2524
  344.5000   101.0749     4.6397     4.6876     5.2395     0.1088     2.3705     0.3142     0.1890
  345.0000   101.0564     4.7361     4.7848     5.2237     0.0608     2.4546     0.3111     0.1319
  345.5000   100.7395     4.9363     5.0925     5.2230     0.0304     2.4643     0.3099     0.1123
  346.0000   101.0272     5.1808     5.4960     5.2221     0.0152     2.4658     0.3495     0.1096
  346.5000   101.3142     5.5518     6.0566     5.2214     0.0081     2.4657     0.3918     0.1096
  347.0000   100.9003     6.0324     6.6743     5.2206     0.0185     2.4657     0.5327     0.1098
  347.5000    90.7070     6.8571     7.3550     5.2199     0.0244     2.4631     0.5400     0.1092
  348.0000    78.9098     7.9024     8.0490     5.2492     0.0183     2.4101     0.2453     0.1301
  348.5000    73.7591     8.6463     8.5707     5.2485     0.0302     2.3740     0.2408     0.1643
  349.0000    71.6295     9.1377     9.0000     5.2469     0.0601     2.3469     0.2405     0.1808
  349.5000    73.7295     9.5240     9.4372     5.2168     0.0764     2.3259     0.2511     0.1968
  350.0000    75.2254     9.7900     9.7009     5.1861     0.0554     2.2935     0.2602     0.2149
  350.5000    75.5164     9.9252     9.8348     5.1703    -0.0075     2.2815     0.2677     0.2245
  351.0000    75.1958     9.9918     9.9699     5.1546    -0.0330     2.2927     0.2650     0.2200
  351.5000    75.1811    10.0593    10.0367     5.1539    -0.0106     2.2972     0.2529     0.2155
  352.0000    75.1662    10.0572    10.0333     5.1531     0.0136     2.2939     0.2469     0.2173
  352.5000    75.1511    10.0547     9.9611     5.1524     0.0252     2.2971     0.2451     0.2186
  353.0000    75.1331     9.9142     9.9584     5.1515     0.0252     2.3068     0.2608     0.2106
  353.5000    75.1183     9.7756     9.8158     5.1658     0.0251     2.3128     0.2693     0.2051
  354.0000    75.4057     9.5062     9.5372     5.1651     0.0341     2.3165     0.2704     0.2027
  354.5000    75.3909     9.1169     9.2166     5.1643     0.0400     2.3157     0.2635     0.2030
  355.0000    75.9804     8.8044     8.7762     5.1427     0.0370     2.2992     0.2605     0.2094
  355.5000    77.7783     8.3855     8.3601     5.1278     0.0175     2.2878     0.2644     0.2175
  356.0000    78.9720     8.0965     8.0756     5.1267    -0.0080     2.2818     0.2680     0.2226
  356.5000    79.5619     7.8672     7.9624     5.1255    -0.0262     2.2998     0.2638     0.2208
  357.0000    78.9425     7.7108     7.9056     5.1243     0.0024     2.3208     0.2620     0.2057
  357.5000    78.3031     7.6030     7.8492     5.1231     0.0218     2.3328     0.2693     0.1949
  358.0000    77.3534     7.6015     7.7932     5.1217     0.0367     2.3380     0.2836     0.1894
  358.5000    76.4776     7.5999     7.7377     5.1358     0.0187     2.3282     0.2854     0.1888
  359.0000    75.5565     7.5984     7.7361     5.1344     0.0037     2.3176     0.2797     0.2009
  359.5000    74.9375     7.6501     7.7345     5.1482     0.0141     2.3131     0.2812     0.2027
  360.0000    75.8291     7.7014     7.8413     5.1471     0.0305     2.3024     0.2842     0.2093
  360.5000    76.4222     7.8617     8.0046     5.1459     0.0395     2.2950     0.2860     0.2159
  361.0000    76.4038     8.0343     8.2288     5.1447     0.0363     2.2927     0.2793     0.2178
  361.5000    76.3890     8.3065     8.5184     5.1435     0.0244     2.3084     0.2727     0.2129
  362.0000    77.8848     8.5384     8.7574     5.1423     0.0244     2.3294     0.2654     0.2033
  362.5000    79.9849     8.6843     9.0022     5.1411     0.0228     2.3384     0.2630     0.1891
  363.0000    81.6103     8.8558     9.1265     5.1248     0.0108     2.3408     0.2627     0.1857
  363.5000    82.2073     9.0272     9.2580     5.1236    -0.0057     2.3256     0.2618     0.1898
  364.0000    82.4975     9.1799     9.4452     5.1074    -0.0297     2.3134     0.2570     0.2008
