~VERSION INFORMATION
 VERS.                2.0:   CWLS LOG ASCII STANDARD - VERSION 2.0
 WRAP.                 NO:   ONE LINE PER DEPTH STEP
~WELL INFORMATION
#MNEM.UNIT      DATA TYPE    INFORMATION
#----------   ------------   ------------------------------
 STRT.F           40.0000:   START DEPTH
 STOP.F          462.0000:   STOP DEPTH
 STEP.F            0.5000:   STEP LENGTH
 NULL.          -999.2500:   NO VALUE
 COMP.    FENIX & SCISSON:   COMPANY
 WELL.        NPR #68-S-3:   WELL
 FLD .             TEAPOT:   FIELD
 LOC .       S3 T38N R78W:   LOCATION
 CNTY.            NATRONA:   COUNTY
 STAT.            WYOMING:   STATE
 CTRY. UNITED STATES OF AMERICA:   COUNTRY
 SRVC.      Dresser Atlas:   SERVICE COMPANY
 DATE.        28-MAR-1977:   LOGDATE
 API .       490251031900:   API NUMBER
~CURVE INFORMATION
#MNEM.UNIT       API CODE    CURVE DESCRIPTION
#----------   ------------   ------------------------------
 DEPT.F                  :   
 SPR .MV     07 010 01 00:   SPONTANEOUS POTENTIAL
 ILD .OHMM   07 120 46 00:   INDUCTION LOG DEEP
 ILM .OHMM   07 120 44 00:   INDUCTION LOG MEDIUM
 SFL .OHMM   07 220 01 00:   SHALLOW FOCUSED LOG RESISTIVITY
 CALD.IN     45 280 60 00:   CALIPER FROM DENSITY LOG
 GRD .GAPI   45 310 01 00:   GAMMA RAY FROM DENSITY LOG
 CORR.G/C3   45 356 01 00:   DENSITY CORRECTION
 RHOB.G/C3   45 350 01 00:   BULK DENSITY
 DPHI.DEC    45 890 12 00:   DENSITY POROSITY SANDSTONE
~PARAMETER INFORMATION
#MNEM.UNIT          VALUE    DESCRIPTION
#----------   ------------   ------------------------------
 PD  .                 GL:   PERMANENT DATUM
 EPD .F              5162:   ELEVATION PERMANENT DATUM
 LMF .                 KB:   LOG MEASURED FROM
 DAPD.F                 5:   FEET ABOVE PERMANENT DATUM
 DMF .                 KB:   DRILLING MEASURED FROM
 EKB .F              5167:   KELLING BUSHING
 EGL .F              5162:   GROUND LEVEL
 DATE.        28-MAR-1977:   RUN DATE
 RUN .                  1:   RUN NUMBER
 DD  .F               452:   DEPTH DRILLER
 DL  .F               464:   DEPTH LOGGER
 BLI .F               462:   BOTTOM LOG INTERVAL
 TLI .F                40:   TOP LOG INTERVAL
 CS  .IN               10:   CASING SIZE
 CBD .F                40:   CASING BOTTOM DRILLER
 CBL .F                40:   CASING BOTTOM LOGGER
 BS  .IN            7.875:   BIT SIZE
 BSD .F               452:   BIT SIZE AT DEPTH
 DFT .           CHEM GEL:   DRILLING FLUID TYPE
 DFD .                8.9:   DRILLING FLUID DENSITY
 DFV .                 34:   DRILLING FLUID VISCOSITY
 DFPH.                8.0:   DRILLING FLUID PH
 DFL .                8.2:   DRILLING FLUID LOSS
 MSS .         CIRCULATED:   MUD SAMPLE SOURCE
 RMS .OHMM           .223:   RESISTIVITY MUD SAMPLE
 MST .F                51:   MUD SAMPLE TEMPERATURE
 RMF .OHMM           .161:   RESISTIVITY MUD FILTRATE SAMPLE
 MFST.F                51:   MUD FILTRATE SAMPLE TEMPERATURE
 RMC .OHMM           .285:   RESISTIVITY MUD CAKE
 MCST.F                51:   MUD CAKE SAMPLE TEMPERATURE
 MFSS.               MEAS:   MUD FILTRATE SAMPLE SOURCE
 MCSS.               MEAS:   MUD CAKE SAMPLE SOURCE
 RMB .OHMM           .186:   RESISTIVITY MUD AT BHT
 BHT .F                61:   BOTTOM HOLE TEMPERATURE
 TCS .HRS            0500:   TIME CURCULATED STOPPED
 MRT .F                61:   MAXIMUM RECORDED TEMPERATURE
 LUN .               6145:   LOGGING UNIT NUMBER
 LUL .              GLTTE:   LOGGING UNIT LOCATION
 ENGI.              GOULD:   RECORDING ENGINEER
 WITN.               LYON:   WITNESSED BY
 CLNT.            A2DTECH:   CLIENT CODE
 ORIG.           5" PRINT:   ORIGIN OF DATA
 UWI .       490251031900:   UNIQUE WELL ID
 DICO. A2D Technologies, Inc.:   DIGITIZING COMPANY
~OTHER INFORMATION
~A   DEPT      SPR        ILD        ILM        SFL       CALD        GRD       CORR       RHOB       DPHI   
   40.0000  -999.2500  -999.2500  -999.2500  -999.2500  -999.2500  -999.2500  -999.2500  -999.2500  -999.2500
   40.5000  -999.2500  -999.2500    19.3008    24.8573     8.0530  -999.2500    -0.5311     2.0715  -999.2500
   41.0000  -999.2500  -999.2500    64.5720    10.7718     8.0401  -999.2500    -0.5295     2.0835  -999.2500
   41.5000  -999.2500  -999.2500   109.8432     7.7007     8.0422  -999.2500    -0.5218     2.1325  -999.2500
   42.0000  -999.2500  -999.2500   134.9278     5.0536     8.0293  -999.2500    -0.4420     2.2054  -999.2500
   42.5000   -14.6642     7.0914    82.9015     5.0010     8.0164  -999.2500    -0.2419     2.2660  -999.2500
   43.0000   -16.3279   251.9155    28.2883     5.6310     8.0036  -999.2500    -0.0327     2.3685  -999.2500
   43.5000   -17.5071   644.1040    16.8170     5.8335     7.9907  -999.2500     0.0381     2.4664  -999.2500
   44.0000   -18.7886   481.6214    15.9808     5.8374     7.9779  -999.2500     0.0382     2.4785  -999.2500
   44.5000   -20.5044   294.3233    26.6147     5.9229     8.0099  -999.2500     0.0384     2.4883     0.1036
   45.0000   -22.0896   175.3296    39.5208     6.0514     8.0120  -999.2500     0.0400     2.4944     0.0982
   45.5000   -22.9751    56.3359    51.5438     6.1827     7.9991  -999.2500     0.0402     2.4982     0.0955
   46.0000   -23.2637     6.4206    29.3648     6.2733     7.9862  -999.2500     0.0403     2.5013     0.0939
   46.5000   -23.3884     6.6126    14.1715     6.3661     7.9884  -999.2500     0.0419     2.5021     0.0924
   47.0000   -23.3731     6.9991    11.6061     6.4147     7.9905  -999.2500     0.0436     2.5044     0.0909
   47.5000   -23.2090     6.7708    10.2563     6.4184     7.9925  -999.2500     0.0437     2.5075     0.0887
   48.0000   -22.8926     6.6388     9.5129     6.7895     7.9946  -999.2500     0.0438     2.5099     0.0869
   48.5000   -21.8330     7.4295     9.0708     8.1355     7.9967  -999.2500     0.0455     2.5069     0.0863
   49.0000   -20.1764     8.5445     8.3554     8.2532     7.9988  -999.2500     0.0456     2.5047     0.0904
   49.5000   -18.9676     8.0960     7.6964     7.3422     8.0009  -999.2500     0.0457     2.5078     0.0907
   50.0000   -18.1930     6.6742     7.3969     6.8078     7.9880  -999.2500     0.0459     2.5132     0.0868
   50.5000   -17.9848     5.6521     7.1388     6.5514     7.9901  -999.2500     0.0445     2.5132     0.0843
   51.0000   -17.5642     5.1779     6.8994     6.2748     7.9922  -999.2500     0.0446     2.5125     0.0837
   51.5000   -16.6448     5.4876     6.8065     6.0657     7.9943  -999.2500     0.0432     2.5141     0.0855
   52.0000   -16.0239     5.7606     6.6776     5.9454     7.9964  -999.2500     0.0434     2.5210     0.0803
   52.5000   -15.7322     5.8386     6.6357     5.9499     7.9985  -999.2500     0.0435     2.5158     0.0845
   53.0000   -16.4563     5.8430     6.6868     5.9544     8.0006  -999.2500     0.0422     2.5053     0.0914
   53.5000   -17.1849     5.8474     6.6909     5.9589     8.0027  -999.2500     0.0408     2.4972     0.0956
   54.0000   -17.6193     5.8924     6.6951     5.9634     8.0048  -999.2500     0.0394     2.4912     0.0983
   54.5000   -18.4927     6.0205     6.7457     6.0512     7.9955  -999.2500     0.0381     2.4860     0.1006
   55.0000   -19.2212     6.1090     6.7498     6.1403     7.9936  -999.2500     0.0352     2.4816     0.1036
   55.5000   -20.5468     6.1988     6.7540     6.2307     7.9813  -999.2500     0.0338     2.4757     0.1060
   56.0000   -21.7231     6.2035     6.7105     6.3225     7.9834  -999.2500     0.0325     2.4712     0.1087
   56.5000   -22.4516     6.2513     6.5768     6.4156     7.9855  -999.2500     0.0341     2.4728     0.1092
   57.0000   -23.0309     6.2994     6.4467     6.4651     7.9876  -999.2500     0.0357     2.4827     0.1053
   57.5000   -23.3161     6.3479     6.3611     6.5149     7.9897  -999.2500     0.0419     2.4925     0.0989
   58.0000   -23.7417     6.3527     6.3660     6.5652     7.9917   135.3093     0.0480     2.5008     0.0938
   58.5000   -24.0225     6.3575     6.3699     6.6159     7.9784   137.1199     0.0527     2.5047     0.0902
   59.0000   -24.1584     6.3623     6.3738     6.6669     7.9655   137.2912     0.0573     2.5070     0.0895
   59.5000   -24.2899     6.3671     6.3777     6.7184     7.9382   136.2702     0.0620     2.5086     0.0874
   60.0000   -24.4215     6.4161     6.4259     6.7702     7.9104   131.3744     0.0636     2.5124     0.0841
   60.5000   -24.3993     6.4209     6.5195     6.8225     7.9125   126.0315     0.0683     2.5177     0.0810
   61.0000   -24.5313     6.4716     6.5688     6.8752     7.9146   121.8809     0.0730     2.5178     0.0825
   61.5000   -24.6623     6.5236     6.5729     6.8852     7.9167   117.8793     0.0745     2.5149     0.0837
   62.0000   -24.6446     6.5706     6.6234     6.9335     7.9337   118.0506     0.0747     2.5127     0.0839
   62.5000   -24.7761     6.6212     6.7198     6.9952     7.9358   117.1786     0.0702     2.5143     0.0845
   63.0000   -24.9076     6.5803     6.7706     7.0911     7.9528   115.7106     0.0628     2.5098     0.0869
   63.5000   -25.0392     6.5865     6.8218     7.1458     7.9549   114.0935     0.0554     2.5002     0.0908
   64.0000   -25.0209     6.5915     6.9210     7.2510     7.9720   112.1783     0.0495     2.4972     0.0901
   64.5000   -25.1529     6.5497     6.9733     7.3578     7.9741   111.3008     0.0468     2.5071     0.0874
   65.0000   -25.1308     6.6014     7.0260     7.4145     7.9762   112.9679     0.0454     2.5101     0.0856
   65.5000   -25.1130     6.6064     7.1282     7.5237     7.9782   114.1824     0.0440     2.5095     0.0867
   66.0000   -24.9461     6.6113     7.1821     7.5818     7.9653   115.5460     0.0412     2.5073     0.0885
   66.5000   -24.9283     6.6163     7.2368     7.6934     7.9525   116.1643     0.0383     2.5029     0.0912
   67.0000   -24.7613     6.6673     7.3417     7.8067     7.9396   114.2492     0.0354     2.4984     0.0969
   67.5000   -24.7436     6.6723     7.4485     7.9216     7.9268   113.8243     0.0326     2.4925     0.0996
   68.0000   -24.7259     6.7237     7.5568     8.0383     7.9289   113.6975     0.0312     2.4903     0.0974
   68.5000   -24.5589     6.8225     7.6668     8.1566     7.9310   111.0372     0.0344     2.4972     0.0947
   69.0000   -24.3919     6.8751     7.8323     8.3343     7.9331   111.6556     0.0375     2.5032     0.0901
   69.5000   -24.2249     6.9280     8.0014     8.5158     7.9501   114.5094     0.0391     2.5153     0.0838
   70.0000   -24.0579     6.9814     8.1741     8.6412     7.9522   112.7433     0.0408     2.5237     0.0783
   70.5000   -24.0402     7.0840     8.2931     8.7684     7.9543   110.0830     0.0409     2.5245     0.0783
   71.0000   -24.1761     7.2380     8.3617     8.8975     7.9713   108.3168     0.0395     2.5208     0.0795
   71.5000   -24.1540     7.3958     8.5363     8.9662     7.9734   109.6804     0.0381     2.5231     0.0798
   72.0000   -24.2899     7.5070     8.7217     9.0353     7.9755   109.9045     0.0368     2.5262     0.0782
   72.5000   -24.2678     7.7207     8.9100     9.1051     7.9776   106.2971     0.0354     2.5195     0.0812
   73.0000   -24.1008     7.8967     9.1024     9.1753     7.9647   106.9155     0.0311     2.5098     0.0866
   73.5000   -24.0830     8.0615     9.2989     9.3104     7.9668   107.3848     0.0282     2.5017     0.0902
   74.0000   -23.9161     8.1800     9.5655     9.4475     7.9689   106.6619     0.0253     2.4987     0.0916
   74.5000   -23.8983     8.4159     9.8399     9.5866     7.9710   103.1074     0.0239     2.5026     0.0907
   75.0000   -23.7313     8.5989    10.0523     9.7278     7.9731   103.4277     0.0241     2.5079     0.0889
   75.5000   -23.7134     8.7859    10.3405     9.9420     7.9602   102.8479     0.0242     2.5125     0.0858
   76.0000   -23.5463     8.9150    10.4187    10.1563     7.9623   101.8329     0.0243     2.5163     0.0846
