~VERSION INFORMATION
 VERS.                2.0:   CWLS LOG ASCII STANDARD - VERSION 2.0
 WRAP.                 NO:   ONE LINE PER DEPTH STEP
~WELL INFORMATION
#MNEM.UNIT      DATA TYPE    INFORMATION
#----------   ------------   ------------------------------
 STRT.M         1049.9000:   START DEPTH
 STOP.M         2123.5000:   STOP DEPTH
 STEP.M            0.1000:   STEP LENGTH
 NULL.          -999.2500:   NO VALUE
 COMP. BROWN JOHN E&C INC:   COMPANY
 WELL. NAVAL PETROLEUM RESERVE 3 STX- #34-3:   WELL
 FLD .            WILDCAT:   FIELD
 LOC .       S3 T38N R78W:   LOCATION
 CNTY.            NATRONA:   COUNTY
 STAT.            WYOMING:   STATE
 CTRY. UNITED STATES OF AMERICA:   COUNTRY
 SRVC.            Unknown:   SERVICE COMPANY
 DATE.        04-SEP-1991:   LOGDATE
 API .       490251090400:   API NUMBER
~CURVE INFORMATION
#MNEM.UNIT       API CODE    CURVE DESCRIPTION
#----------   ------------   ------------------------------
 DEPT.M                  :   
 ROP .MIN/FT 91 810 01 00:   RAT OF DRILLING PENETRATION
 TGAS.UNITS  91 830 01 00:   TOTAL GAS FROM HOTWIRE
~PARAMETER INFORMATION
#MNEM.UNIT          VALUE    DESCRIPTION
#----------   ------------   ------------------------------
 EKB .F              5189:   KELLING BUSHING
 EGL .F              5179:   GROUND LEVEL
 DATE.             9-4-91:   RUN DATE
 DD  .F              2123:   DEPTH DRILLER
 CS  .IN            9.625:   CASING SIZE
 BS  .IN             8.75:   BIT SIZE
 BSD .F              2123:   BIT SIZE AT DEPTH
 ENGI.              TOWER:   RECORDING ENGINEER
 WITN.               HUSK:   WITNESSED BY
 CLNT.            A2DTECH:   CLIENT CODE
 ORIG.           5" PRINT:   ORIGIN OF DATA
 UWI .       490251090400:   UNIQUE WELL ID
 DICO. A2D Technologies, Inc.:   DIGITIZING COMPANY
~OTHER INFORMATION
~A  DEPT       ROP         TGAS 
# ...
 1390.1000     0.4459     1.5021
 1390.2000     0.4678     1.5043
 1390.3000     0.4897     1.5067
 1390.4000     0.5078     1.5086
 1390.5000     0.5231     1.5107
 1390.6000     0.5384     1.4361
 1390.7000     0.5537     1.3007
 1390.8000     0.5691     1.3029
 1390.9000     0.5828     1.3050
 1391.0000     0.5959     1.3071
 1391.1000     0.6091     1.3093
 1391.2000     0.6222     1.3114
 1391.3000     0.6373     1.3136
 1391.4000     0.6447     1.3160
 1391.5000     0.6534     1.3179
 1391.6000     0.6622     1.3200
 1391.7000     0.6709     1.3221
 1391.8000     0.6798     1.3243
 1391.9000     0.6855     1.3265
 1392.0000     0.6913     1.3286
 1392.1000     0.6971     1.3307
 1392.2000     0.6988     1.3329
 1392.3000     0.6921     1.3350
 1392.4000     0.6855     1.3371
 1392.5000     0.6788     1.3397
 1392.6000     0.6721     1.3414
 1392.7000     0.6645     1.3436
 1392.8000     0.6556     1.3457
 1392.9000     0.6468     1.3479
 1393.0000     0.6379     1.3502
 1393.1000     0.6290     1.1933
 1393.2000     0.6202     1.1400
 1393.3000     0.6113     1.1421
 1393.4000     0.6025     1.1443
 1393.5000     0.5936     1.1464
 1393.6000     0.5848     1.1486
 1393.7000     0.5753     1.1507
 1393.8000     0.5657     1.0566
 1393.9000     0.5560     0.9407
 1394.0000     0.5464     0.9429
 1394.1000     0.5419     0.9453
 1394.2000     0.5528     0.9471
 1394.3000     0.5638     0.9493
 1394.4000     0.5747     0.9514
 1394.5000     0.5856     0.9536
 1394.6000     0.5957     0.9558
 1394.7000     0.6044     0.9579
 1394.8000     0.6132     0.9600
 1394.9000     0.6219     0.9621
 1395.0000     0.6306     0.9643
 1395.1000     0.6393     0.9664
 1395.2000     0.6481     0.9689
 1395.3000     0.6568     0.9707
 1395.4000     0.6655     0.9729
 1395.5000     0.6743     0.9750
 1395.6000     0.6830     0.9771
 1395.7000     0.6917     0.9794
 1395.8000     0.7005     0.9814
 1395.9000     0.7092     0.9836
 1396.0000     0.7179     0.9857
 1396.1000     0.7249     0.9879
 1396.2000     0.7315     0.9900
 1396.3000     0.7380     0.9921
 1396.4000     0.7445     0.9943
 1396.5000     0.7517     0.9964
 1396.6000     0.7556     0.9986
 1396.7000     0.7600     1.0007
 1396.8000     0.7643     1.0031
 1396.9000     0.7686     1.0050
 1397.0000     0.7728     1.0071
 1397.1000     0.7705     1.0093
 1397.2000     0.7682     1.0114
 1397.3000     0.7659     1.0136
 1397.4000     0.7637     1.0157
 1397.5000     0.7614     1.0179
 1397.6000     0.7592     1.0200
 1397.7000     0.7569     1.0221
 1397.8000     0.7546     1.0243
 1397.9000     0.7524     1.0267
 1398.0000     0.7488     1.0286
 1398.1000     0.7422     1.0307
 1398.2000     0.7355     1.0329
 1398.3000     0.7288     1.0350
 1398.4000     0.7222     1.0373
 1398.5000     0.7155     1.0393
 1398.6000     0.7089     1.0414
 1398.7000     0.7022     1.0436
 1398.8000     0.6955     1.0457
 1398.9000     0.6889     1.0479
 1399.0000     0.6822     1.0504
 1399.1000     0.6756     1.0521
 1399.2000     0.6689     1.0543
 1399.3000     0.6622     1.0564
 1399.4000     0.6556     1.0586
 1399.5000     0.6504     1.0609
 1399.6000     0.6460     1.0629
 1399.7000     0.6415     1.0650
 1399.8000     0.6370     1.1462
 1399.9000     0.6317     1.2836
 1400.0000     0.6299     1.2857
 1400.1000     0.6276     1.3279
 1400.2000     0.6254     1.3701
 1400.3000     0.6231     1.4123
 1400.4000     0.6207     1.4545
 1400.5000     0.6207     1.4967
 1400.6000     0.6206     1.5389
 1400.7000     0.6205     1.5811
 1400.8000     0.6205     1.6233
 1400.9000     0.6204     1.6655
 1401.0000     0.6203     1.7077
 1401.1000     0.6203     1.7284
 1401.2000     0.6202     1.7297
 1401.3000     0.6201     1.7310
 1401.4000     0.6201     1.7324
 1401.5000     0.6200     1.7336
 1401.6000     0.6200     1.7349
 1401.7000     0.6199     1.6509
 1401.8000     0.6198     1.5231
 1401.9000     0.6205     1.5244
 1402.0000     0.6226     1.5259
 1402.1000     0.6248     1.5270
 1402.2000     0.6269     1.5283
 1402.3000     0.6290     1.5296
 1402.4000     0.6312     1.5309
 1402.5000     0.6333     1.5321
 1402.6000     0.6354     1.5337
 1402.7000     0.6376     1.5347
 1402.8000     0.6397     1.5360
 1402.9000     0.6595     1.4674
 1403.0000     0.6614     1.3240
 1403.1000     0.6634     1.3256
 1403.2000     0.6655     1.3269
 1403.3000     0.6675     1.3281
 1403.4000     0.6696     1.3294
 1403.5000     0.6716     1.3307
 1403.6000     0.6737     1.3320
 1403.7000     0.6758     1.3334
 1403.8000     0.6778     1.3346
 1403.9000     0.6794     1.2075
 1404.0000     0.6792     1.1229
 1404.1000     0.6791     1.1241
 1404.2000     0.6789     1.1254
 1404.3000     0.6788     1.1269
 1404.4000     0.6786     1.1280
 1404.5000     0.6785     1.1293
 1404.6000     0.6783     1.0468
 1404.7000     0.6782     0.9176
 1404.8000     0.6780     0.9189
 1404.9000     0.6779     0.9203
 1405.0000     0.6777     0.9214
 1405.1000     0.6776     0.9227
 1405.2000     0.6835     0.9240
 1405.3000     0.7032     0.9253
 1405.4000     0.7229     0.9266
 1405.5000     0.7427     0.9281
 1405.6000     0.7624     0.9291
 1405.7000     0.7811     0.9304
 1405.8000     0.7986     0.9317
 1405.9000     0.8162     0.9330
 1406.0000     0.8337     0.9343
 1406.1000     0.8512     0.9356
 1406.2000     0.8674     0.9369
 1406.3000     0.8827     0.9381
 1406.4000     0.8980     0.9394
 1406.5000     0.9133     0.9407
 1406.6000     0.9287     0.9421
 1406.7000     0.9406     0.9433
 1406.8000     0.9515     0.9446
 1406.9000     0.9624     1.0356
 1407.0000     0.9733     1.1614
 1407.1000     0.9851     1.1627
 1407.2000     0.9910     1.1642
 1407.3000     0.9975     1.3214
 1407.4000     1.0040     1.3809
 1407.5000     1.0104     1.4643
 1407.6000     1.0168     1.5977
 1407.7000     1.0210     1.6071
 1407.8000     1.0253     1.8148
 1407.9000     1.0296     1.8159
 1408.0000     1.0338     1.8171
 1408.1000     1.0361     1.8184
 1408.2000     1.0316     1.8197
 1408.3000     1.0270     1.8210
 1408.4000     1.0224     1.8223
 1408.5000     1.0178     1.8236
 1408.6000     1.0083     1.9286
 1408.7000     0.9904     2.0404
 1408.8000     0.9726     2.0417
 1408.9000     0.9548     2.0431
 1409.0000     0.9370     2.0443
 1409.1000     0.9180     2.0456
 1409.2000     0.8979     2.1428
 1409.3000     0.8779     2.2624
 1409.4000     0.8579     2.2637
 1409.5000     0.8378     2.2651
 1409.6000     0.8224     2.2663
 1409.7000     0.8089     2.2676
 1409.8000     0.7955     2.2689
 1409.9000     0.7821     2.2701
 1410.0000     0.7666     2.2714
 1410.1000     0.7553     2.2729
 1410.2000     0.7419     2.2740
 1410.3000     0.7285     2.3928
 1410.4000     0.7151     2.4909
 1410.5000     0.7016     2.4921
 1410.6000     0.6883     2.4934
 1410.7000     0.6749     2.4949
 1410.8000     0.6615     2.4960
 1410.9000     0.6481     2.4973
 1411.0000     0.6350     2.4986
 1411.1000     0.6238     2.4999
 1411.2000     0.6126     2.5012
 1411.3000     0.6014     2.5024
 1411.4000     0.5902     2.5037
 1411.5000     0.5784     2.5050
 1411.6000     0.5650     2.5063
 1411.7000     0.5516     2.5076
 1411.8000     0.5382     2.5089
 1411.9000     0.5248     2.5101
 1412.0000     0.5114     2.5114
 1412.1000     0.4980     2.5127
 1412.2000     0.4845     2.5140
 1412.3000     0.4711     2.5153
 1412.4000     0.4577     2.5167
 1412.5000     0.4524     2.5179
 1412.6000     0.4522     2.5191
 1412.7000     0.4521     2.5204
 1412.8000     0.4519     2.5217
 1412.9000     0.4518     2.5230
 1413.0000     0.4516     2.5245
 1413.1000     0.4515     2.5256
 1413.2000     0.4513     2.5269
 1413.3000     0.4512     2.5281
 1413.4000     0.4510     2.5294
 1413.5000     0.4509     2.5307
 1413.6000     0.4507     2.5322
 1413.7000     0.4506     2.5333
 1413.8000     0.4504     2.5346
 1413.9000     0.4503     2.5359
 1414.0000     0.4457     2.5371
 1414.1000     0.4389     2.5384
 1414.2000     0.4322     2.5397
 1414.3000     0.4254     2.5410
