~VERSION INFORMATION
 VERS.                2.0:   CWLS LOG ASCII STANDARD - VERSION 2.0
 WRAP.                 NO:   ONE LINE PER DEPTH STEP
~WELL INFORMATION
#MNEM.UNIT      DATA TYPE    INFORMATION
#----------   ------------   ------------------------------
 STRT.F           16.0000:   START DEPTH
 STOP.F         1254.0000:   STOP DEPTH
 STEP.F            0.5000:   STEP LENGTH
 NULL.          -999.2500:   NO VALUE
 COMP. FENIX & SCISSON INC:   COMPANY
 WELL. NAVAL PET RESERVE 3   75-S-14 #75-14:   WELL
 FLD .             TEAPOT:   FIELD
 LOC .      S14 T38N R78W:   LOCATION
 CNTY.            NATRONA:   COUNTY
 STAT.            WYOMING:   STATE
 CTRY. UNITED STATES OF AMERICA:   COUNTRY
 SRVC.              Welex:   SERVICE COMPANY
 DATE.        17-FEB-1977:   LOGDATE
 API .       490251027400:   API NUMBER
~CURVE INFORMATION
#MNEM.UNIT       API CODE    CURVE DESCRIPTION
#----------   ------------   ------------------------------
 DEPT.F                  :   
 SGRD.OHMM   07 220 05 00:   SHALLOW RESISTIVITY
 ILM .OHMM   07 120 44 00:   INDUCTION LOG MEDIUM
 SPR .MV     07 010 01 00:   SPONTANEOUS POTENTIAL
 ILD .OHMM   07 120 46 00:   INDUCTION LOG DEEP
 CALD.IN     45 280 60 00:   CALIPER
 GRD .GAPI   45 310 01 00:   GAMMA RAY FROM DENSITY LOG
 DPHI.DEC    45 890 12 00:   DENSITY POROSITY SANDSTONE
 RHOB.G/C3   45 350 01 00:   BULK DENSITY
 CORR.G/C3   45 356 01 00:   DENSITY CORRECTION
~PARAMETER INFORMATION
#MNEM.UNIT          VALUE    DESCRIPTION
#----------   ------------   ------------------------------
 PD  .                 GL:   PERMANENT DATUM
 EPD .F              5336:   ELEVATION PERMANENT DATUM
 LMF .                 GL:   LOG MEASURED FROM
 DMF .                 GL:   DRILLING MEASURED FROM
 EKB .F              5341:   KELLING BUSHING
 EGL .F              5336:   GROUND LEVEL
 DATE.          2-17-1977:   RUN DATE
 RUN .                  1:   RUN NUMBER
 DD  .F              1260:   DEPTH DRILLER
 DL  .F              1258:   DEPTH LOGGER
 BLI .F              1256:   BOTTOM LOG INTERVAL
 TLI .F                30:   TOP LOG INTERVAL
 CS  .IN            8.625:   CASING SIZE
 CBD .F                42:   CASING BOTTOM DRILLER
 CBL .F                42:   CASING BOTTOM LOGGER
 BS  .IN            7.875:   BIT SIZE
 BSD .F              1260:   BIT SIZE AT DEPTH
 DFT .          KCL WATER:   DRILLING FLUID TYPE
 DFD .                9.5:   DRILLING FLUID DENSITY
 DFV .                 34:   DRILLING FLUID VISCOSITY
 MSS .          FLOW LINE:   MUD SAMPLE SOURCE
 RMS .OHMM            .30:   RESISTIVITY MUD SAMPLE
 MST .F                43:   MUD SAMPLE TEMPERATURE
 RMF .OHMM            .28:   RESISTIVITY MUD FILTRATE SAMPLE
 MFST.F                43:   MUD FILTRATE SAMPLE TEMPERATURE
 RMC .OHMM            .40:   RESISTIVITY MUD CAKE
 MCST.F                43:   MUD CAKE SAMPLE TEMPERATURE
 MFSS.           MEASURED:   MUD FILTRATE SAMPLE SOURCE
 MCSS.           MEASURED:   MUD CAKE SAMPLE SOURCE
 RMB .OHMM            .13:   RESISTIVITY MUD AT BHT
 BHT .F               101:   BOTTOM HOLE TEMPERATURE
 TCS .HRS               5:   TIME CURCULATED STOPPED
 MRT .F               101:   MAXIMUM RECORDED TEMPERATURE
 LUN .               8611:   LOGGING UNIT NUMBER
 LUL .           GILLETTE:   LOGGING UNIT LOCATION
 ENGI.             LAWSON:   RECORDING ENGINEER
 WITN.         STUEBINGER:   WITNESSED BY
 CLNT.            A2DTECH:   CLIENT CODE
 ORIG.       2", 5" PRINT:   ORIGIN OF DATA
 UWI .       490251027400:   UNIQUE WELL ID
 DICO. A2D Technologies, Inc.:   DIGITIZING COMPANY
~OTHER INFORMATION
~A   DEPT     SGRD        ILM        SPR        ILD       CALD         GRD      DPHI       RHOB       CORR   
# ...
  746.0000     8.8383     6.6617   -43.7553     5.2396     8.0841   119.8603     0.1038     2.4788     0.0596
  746.5000     8.6237     6.5686   -43.7276     5.2017     8.0603   121.1907     0.1000     2.4888     0.0631
  747.0000     8.4143     6.5690   -43.6999     5.1640     8.0637   121.7831     0.0958     2.5004     0.0641
  747.5000     8.3419     6.5908   -43.6722     5.1266     8.0672   121.0367     0.0966     2.4931     0.0642
  748.0000     8.5001     6.6161   -43.6445     5.0895     8.0703   120.3295     0.1002     2.4816     0.0622
  748.5000     8.6757     6.6416   -43.6167     5.0527     8.0736   120.8713     0.1041     2.4699     0.0596
  749.0000     8.8560     6.6675   -43.5890     5.0307     8.0768   123.1307     0.1079     2.4581     0.0570
  749.5000     9.0398     6.6908   -43.5613     4.9846     8.0800   125.3912     0.1121     2.4583     0.0570
  750.0000     9.0651     6.6076   -43.5336     4.9846     8.0832   126.9192     0.1061     2.4708     0.0584
  750.5000     8.8546     6.5293   -43.5059     5.0070     8.0864   125.2368     0.1052     2.4796     0.0598
  751.0000     8.6575     6.4520   -43.4782     5.0770     8.0896   123.2160     0.1082     2.4728     0.0589
  751.5000     8.8234     6.3756   -43.4504     5.1479     8.0928   121.2514     0.1112     2.4636     0.0574
  752.0000     8.9724     6.3318   -43.4228     5.2200     8.0961   120.3712     0.1142     2.4545     0.0556
  752.5000     9.1252     6.3318   -43.3827     5.2931     8.0992   119.5456     0.1172     2.4454     0.0527
  753.0000     9.2341     6.4494   -43.3371     5.3164     8.1017   119.9301     0.1201     2.4362     0.0497
  753.5000     9.1544     6.5224   -43.2911     5.2851     8.1016   121.0249     0.1230     2.4286     0.0420
  754.0000     9.0028     6.6039   -43.2452     5.2641     8.1000   122.1260     0.1204     2.4337     0.0432
  754.5000     8.8534     6.6863   -43.1992     5.2433     8.0951   122.0301     0.1146     2.4424     0.0453
  755.0000     8.7079     6.7698   -43.1533     5.2193     8.0902   121.0141     0.1114     2.4511     0.0517
  755.5000     8.6575     6.8544   -43.1072     5.2897     8.0853   119.9488     0.1106     2.4597     0.0536
  756.0000     9.0201     6.9400   -43.0606     5.3743     8.0815   120.9125     0.1098     2.4651     0.0525
  756.5000     9.3175     7.0266   -43.0169     5.4602     8.0809   121.6577     0.1090     2.4666     0.0527
  757.0000     9.6246     7.1144   -43.0769     5.5475     8.1072   121.7983     0.1042     2.4681     0.0554
  757.5000     9.9388     7.2023   -43.1431     5.6361     8.1360   122.7976     0.0984     2.4766     0.0580
  758.0000     9.6138     7.3151   -43.2089     5.7262     8.1648   125.7795     0.0926     2.4918     0.0572
  758.5000     9.3023     7.4556   -43.2745     5.8286     8.1937   124.7644     0.0868     2.5071     0.0562
  759.0000     9.1489     7.5988   -43.3402     5.7209     8.2206   123.1646     0.0811     2.5195     0.0595
  759.5000     9.7033     7.7525   -43.4058     5.6013     8.2213   123.9757     0.0802     2.5102     0.0631
  760.0000    10.2170     7.1528   -43.4715     5.4841     8.2204   126.5058     0.0838     2.4989     0.0634
  760.5000     9.3681     6.5703   -43.5371     5.3693     8.2131   129.0801     0.0912     2.4878     0.0623
  761.0000     8.7924     6.1569   -43.6028     5.2570     8.2058   128.6931     0.0987     2.4767     0.0613
  761.5000     8.2507     6.1581   -43.6684     5.1470     8.1984   127.9980     0.1061     2.4656     0.0600
  762.0000     8.0409     6.2533   -43.7343     5.0394     8.1909   128.6474     0.1134     2.4543     0.0550
  762.5000     8.2573     6.3281   -43.8018     4.9339     8.1849   129.5222     0.1108     2.4524     0.0498
  763.0000     8.4575     6.3908   -43.7800     4.8307     8.1602   128.3362     0.1066     2.4679     0.0511
  763.5000     8.6611     6.3910   -43.7397     4.7297     8.1565   126.2099     0.1023     2.4787     0.0542
  764.0000     8.8183     6.2688   -43.6990     4.6737     8.1383   124.0496     0.0981     2.4896     0.0541
  764.5000     8.7657     6.1702   -43.6586     4.6927     8.1207   121.8321     0.0959     2.4978     0.0541
  765.0000     8.5782     6.0732   -43.6182     4.7335     8.1030   122.1210     0.1002     2.4915     0.0541
  765.5000     8.3947     5.9776   -43.5778     4.7747     8.0853   123.3266     0.0971     2.4809     0.0541
  766.0000     8.2152     5.8836   -43.5375     4.8170     8.0671   124.5287     0.0940     2.4841     0.0543
  766.5000     8.0389     5.7752   -43.4971     4.8510     8.0603   124.8750     0.0966     2.4898     0.0511
  767.0000     7.8674     5.7752   -43.4567     4.8022     8.1042   122.5129     0.0975     2.4954     0.0494
  767.5000     7.6815     5.9040   -43.4163     4.8734     8.1520   120.2609     0.0952     2.5010     0.0477
  768.0000     8.1950     6.0572   -43.3759     4.9220     8.1388   118.5851     0.0945     2.4994     0.0462
  768.5000     8.8712     6.1594   -43.3355     4.9710     8.0826   121.1660     0.0986     2.4880     0.0485
  769.0000     9.3188     6.1092   -43.2951     5.0212     8.0944   123.7896     0.1028     2.4768     0.0510
  769.5000     9.0278     5.9785   -43.2547     5.0615     8.1102   126.4081     0.1050     2.4707     0.0535
  770.0000     8.7895     5.8810   -43.2144     5.1137     8.1219   128.9741     0.0988     2.4821     0.0560
  770.5000     8.5773     5.9808   -43.1740     5.1661     8.1096   130.2907     0.1001     2.4878     0.0585
  771.0000     8.7286     6.1339   -43.1336     5.2190     8.1030   128.5720     0.1021     2.4825     0.0596
  771.5000     8.9008     6.2894   -43.0932     5.2725     8.1155   126.9100     0.1042     2.4771     0.0580
  772.0000     9.0765     6.4494   -43.0528     5.3162     8.1725   125.2383     0.1063     2.4716     0.0564
  772.5000     9.2534     6.4494   -43.0124     5.3162     8.1797   123.5539     0.1083     2.4664     0.0553
  773.0000     9.3225     6.4093   -42.9720     5.2868     8.1368   123.4598     0.1102     2.4674     0.0544
  773.5000     8.9735     6.3474   -42.9316     5.2519     8.0912   125.2993     0.1057     2.4760     0.0556
  774.0000     8.7077     6.2861   -42.8912     5.2171     8.0619   127.0758     0.1006     2.4847     0.0577
  774.5000     8.4515     6.2254   -42.8507     5.1826     8.0759   128.8442     0.0981     2.4873     0.0551
  775.0000     8.3420     6.1652   -42.8145     5.1483     8.0892   130.6111     0.1036     2.4732     0.0511
  775.5000     8.4641     6.1057   -42.8143     5.1143     8.1020   132.3817     0.1082     2.4634     0.0471
  776.0000     8.5656     6.0467   -42.8147     5.0804     8.1148   134.1490     0.1128     2.4535     0.0437
  776.5000     8.6582     5.9882   -42.8129     5.0468     8.1276   135.7952     0.1173     2.4465     0.0424
  777.0000     8.4827     5.9288   -42.7617     4.9846     8.1404   134.9610     0.1169     2.4499     0.0421
  777.5000     8.2937     5.8246   -42.7089     4.9846     8.1533   132.9764     0.1139     2.4569     0.0421
  778.0000     8.1089     5.8318   -42.6562     4.9846     8.1661   131.0240     0.1108     2.4639     0.0428
  778.5000     7.9695     6.0147   -42.6037     5.0715     8.1791   132.2289     0.1078     2.4709     0.0450
  779.0000     8.1886     6.1481   -42.5511     5.1595     8.1813   133.4797     0.1048     2.4779     0.0471
  779.5000     8.4057     6.2852   -42.4985     5.2490     8.1792   130.3925     0.1017     2.4849     0.0493
  780.0000     8.6285     6.4253   -42.4460     5.3401     8.1745   127.2901     0.0990     2.4859     0.0514
  780.5000     8.8572     6.5685   -42.3934     5.4328     8.1698   124.2314     0.1031     2.4752     0.0536
  781.0000     9.0920     6.7152   -42.3407     5.5271     8.1651   121.5128     0.1077     2.4648     0.0515
  781.5000     9.3330     6.8648   -42.2883     5.6230     8.1614   119.5684     0.1123     2.4545     0.0435
  782.0000     9.5804     7.0080   -42.2349     5.7206     8.1665   117.9777     0.1168     2.4442     0.0402
