~VERSION INFORMATION
 VERS.                2.0:   CWLS LOG ASCII STANDARD - VERSION 2.0
 WRAP.                 NO:   ONE LINE PER DEPTH STEP
~WELL INFORMATION
#MNEM.UNIT      DATA TYPE    INFORMATION
#----------   ------------   ------------------------------
 STRT.F           83.0000:   START DEPTH
 STOP.F         3044.0000:   STOP DEPTH
 STEP.F            0.5000:   STEP LENGTH
 NULL.          -999.2500:   NO VALUE
 COMP.   TESORO PETROLEUM:   COMPANY
 WELL.  NPR # 3  AX #81-4:   WELL
 FLD .        TEAPOT DOME:   FIELD
 LOC .       S4 T38N R78W:   LOCATION
 CNTY.            NATRONA:   COUNTY
 STAT.            WYOMING:   STATE
 CTRY. UNITED STATES OF AMERICA:   COUNTRY
 SRVC.       Schlumberger:   SERVICE COMPANY
 DATE.        31-JUL-1969:   LOGDATE
 API .       490251002700:   API NUMBER
~CURVE INFORMATION
#MNEM.UNIT       API CODE    CURVE DESCRIPTION
#----------   ------------   ------------------------------
 DEPT.F                  :   
 CILD.MMHO   05 110 46 00:   CONDUCTIVITY INDUCTION LOG DEEP
 ILD .OHMM   05 120 46 00:   INDUCTION LOG DEEP
 SN  .OHMM   05 040 16 00:   SHORT NORMAL 16"
 SPR .MV     05 010 01 00:   SPONTANEOUS POTENTIAL FROM RES.
 CALD.IN     45 280 60 00:   CALIPER FROM DENSITY
 DPHI.DEC    45 890 12 00:   DENSITY POROSITY SANDSTONE
 GRD .GAPI   45 310 01 00:   GAMMA RAY FROM DENSITY LOG
 RHOB.G/C3   45 350 01 00:   BULK DENSITY
 DRHO.G/C3   45 356 01 00:   DENSITY CORRECTION
~PARAMETER INFORMATION
#MNEM.UNIT          VALUE    DESCRIPTION
#----------   ------------   ------------------------------
 PD  .                 GL:   PERMANENT DATUM
 EPD .F              5170:   ELEVATION PERMANENT DATUM
 LMF .                 KB:   LOG MEASURED FROM
 DAPD.F                13:   FEET ABOVE PERMANENT DATUM
 DMF .                 KB:   DRILLING MEASURED FROM
 EKB .F              5183:   KELLING BUSHING
 EGL .F              5170:   GROUND LEVEL
 DATE.            7-31-69:   RUN DATE
 RUN .                  2:   RUN NUMBER
 DD  .F              3047:   DEPTH DRILLER
 DL  .F              3044:   DEPTH LOGGER
 BLI .F              3043:   BOTTOM LOG INTERVAL
 TLI .F               626:   TOP LOG INTERVAL
 CS  .IN            10.75:   CASING SIZE
 CBD .F               625:   CASING BOTTOM DRILLER
 CBL .F               626:   CASING BOTTOM LOGGER
 BS  .IN             6.25:   BIT SIZE
 BSD .F              3047:   BIT SIZE AT DEPTH
 DFT .      FRESH GEL MUD:   DRILLING FLUID TYPE
 DFD .                9.7:   DRILLING FLUID DENSITY
 DFV .                 50:   DRILLING FLUID VISCOSITY
 DFPH.                9.5:   DRILLING FLUID PH
 DFL .                  8:   DRILLING FLUID LOSS
 MSS .          FLOW LINE:   MUD SAMPLE SOURCE
 RMS .OHMM           1.35:   RESISTIVITY MUD SAMPLE
 MST .F                74:   MUD SAMPLE TEMPERATURE
 RMF .OHMM            .81:   RESISTIVITY MUD FILTRATE SAMPLE
 MFST.F                74:   MUD FILTRATE SAMPLE TEMPERATURE
 MFSS.                  M:   MUD FILTRATE SAMPLE SOURCE
 RMB .OHMM            .83:   RESISTIVITY MUD AT BHT
 BHT .F               121:   BOTTOM HOLE TEMPERATURE
 TCS .HRS               4:   TIME CURCULATED STOPPED
 MRT .F               121:   MAXIMUM RECORDED TEMPERATURE
 LUN .               4507:   LOGGING UNIT NUMBER
 LUL .               CSPR:   LOGGING UNIT LOCATION
 ENGI.               MIXA:   RECORDING ENGINEER
 WITN.                MAY:   WITNESSED BY
 CLNT.            A2DTECH:   CLIENT CODE
 ORIG.     1", 2.5" PRINT:   ORIGIN OF DATA
 UWI .       490251002700:   UNIQUE WELL ID
 DICO. A2D Technologies, Inc.:   DIGITIZING COMPANY
~OTHER INFORMATION
~A   DEPT      CILD       ILD         SN        SPR       CALD       DPHI        GRD       RHOB       DRHO   
# ...
 2346.0000   126.6664     7.4500    10.9569   -15.8829     9.4203     0.0793    87.4032     2.5238     0.0061
 2346.5000   125.4668     7.4969    11.4272   -15.8844     9.4200     0.0745    90.8991     2.5096     0.0100
 2347.0000   128.7005     7.7399    10.9630   -15.8859     9.4001     0.0779    91.4698     2.5007     0.0156
 2347.5000   131.2213     7.8099    10.3429   -15.8873     9.3896     0.0829    90.4745     2.5053     0.0210
 2348.0000   126.7465     7.9662    10.3459   -15.8889     9.3893     0.0870    90.4699     2.5188     0.0248
 2348.5000   120.7890     8.1225    10.6605   -15.8904     9.3889     0.0870    87.1566     2.5128     0.0303
 2349.0000   120.7779     8.1239    10.9836   -15.9228     9.4483     0.0833    87.0117     2.5053     0.0359
 2349.5000   122.3100     8.2802    11.4693   -16.2022     9.4480     0.0792    89.9544     2.5055     0.0403
 2350.0000   122.2989     8.4365    11.9418   -16.2037     9.4477     0.0781    88.8551     2.5127     0.0428
 2350.5000   116.1087     8.7590    12.2302   -16.2052     9.4475     0.0816    88.2280     2.5112     0.0436
 2351.0000   109.7938     9.0588    12.0317   -16.2068     9.4472     0.0825    94.2320     2.5244     0.0429
 2351.5000   106.5637     9.0433    11.6849   -16.2083     9.4501     0.0709    99.0313     2.5256     0.0346
 2352.0000   103.7360     8.8390    11.2388   -16.3024     9.4765     0.0583   104.4329     2.5151     0.0246
 2352.5000   122.5638     8.2741    10.9203   -16.5201     9.4761     0.0536   111.0394     2.5250     0.0212
 2353.0000   131.4892     7.5170    10.6018   -16.5216     9.4758     0.0560   108.2184     2.5451     0.0261
 2353.5000   131.4776     7.5186    10.2832   -16.5231     9.4755     0.0662   102.2102     2.5518     0.0334
 2354.0000   131.4660     7.5201     9.9647   -16.5247     9.4752     0.0752    99.5301     2.5298     0.0346
 2354.5000   132.5184     7.4706     9.7632   -16.5262     9.4749     0.0956    99.5090     2.4947     0.0256
 2355.0000   135.7252     7.3117     9.8935   -16.5278     9.4746     0.1105   100.3160     2.4772     0.0156
 2355.5000   139.5970     7.0279    10.1496   -16.5293     9.4743     0.1055   104.6480     2.4717     0.0095
 2356.0000   147.3374     6.6161    10.3136   -16.5309     9.4908     0.0983   111.3732     2.4803     0.0076
 2356.5000   157.7936     6.2229    10.2412   -16.5324     9.5036     0.0890   118.9951     2.4922     0.0087
 2357.0000   166.5746     5.7430     9.7549   -16.5340     9.5033     0.0809   127.3151     2.5036     0.0129
 2357.5000   172.7530     5.2631     9.1147   -16.5355     9.5030     0.0764   130.0602     2.5111     0.0240
 2358.0000   179.5611     4.8741     8.4746   -16.5370     9.5027     0.0802   125.9281     2.5171     0.0284
 2358.5000   186.9174     4.7477     8.0324   -16.5386     9.5023     0.0969   120.3411     2.4991     0.0299
 2359.0000   182.3957     4.7492     7.9221   -16.5401     9.5021     0.1054   118.5964     2.4565     0.0275
 2359.5000   175.9448     4.9665     8.3618   -16.5420     9.5018     0.1131   120.3766     2.4331     0.0229
 2360.0000   165.2758     5.4025     9.0082   -16.5435     9.5015     0.1163   123.3695     2.4407     0.0193
 2360.5000   156.0054     6.1236     9.8931   -16.5450     9.5012     0.1109   127.5663     2.4545     0.0179
 2361.0000   145.1918     7.5421    11.0505   -16.5464     9.5009     0.1037   131.1608     2.4687     0.0190
 2361.5000   131.2918     8.6272    12.6111   -16.5479     9.5006     0.1044   136.5624     2.4667     0.0210
 2362.0000   115.8486     9.4027    12.9256   -16.5494     9.5053     0.1089   139.5728     2.4703     0.0247
 2362.5000   106.4805     9.7137    12.7729   -16.5509     9.5233     0.1069   141.4159     2.4829     0.0296
 2363.0000   103.4799     9.7152    12.4644   -16.5525     9.4997     0.1039   142.5934     2.4835     0.0343
 2363.5000   103.4684     9.5619    12.0001   -16.5540     9.5089     0.1046   143.7109     2.4720     0.0357
 2364.0000   103.9505     9.0866    11.2243   -16.5556     9.5400     0.1148   147.2290     2.4531     0.0389
 2364.5000   107.7850     8.5873    10.7560   -16.5571     9.5585     0.1202   147.9373     2.4423     0.0310
 2365.0000   116.1032     7.7866    10.5801   -16.5586     9.5582     0.1268   143.2834     2.4435     0.0179
 2365.5000   132.3620     6.9221    10.0865   -16.5602     9.5735     0.1352   138.1888     2.4482     0.0091
 2366.0000   151.7382     5.6668     9.4275   -16.5617     9.5875     0.1306   132.0594     2.4427     0.0110
 2366.5000   176.4987     4.7074     8.5778   -16.5633     9.5872     0.1178   122.9771     2.4210     0.0236
 2367.0000   208.3413     4.3881     7.4846   -16.5648     9.6069     0.1018   115.0786     2.4150     0.0355
 2367.5000   226.9300     4.0686     6.5570   -16.5664     9.6596     0.0809   112.1082     2.4330     0.0442
 2368.0000   240.7405     3.7493     5.8350   -16.5679     9.6989     0.0679   112.7475     2.4930     0.0498
 2368.5000   250.3866     3.4851     5.3556   -16.5694     9.7949     0.0554   113.7936     2.5372     0.0531
 2369.0000   260.0303     3.3261     4.9258   -16.5710     9.8543     0.0495   115.3042     2.5664     0.0514
 2369.5000   270.6491     3.2337     4.6618   -16.5725     9.9436     0.0535   115.7440     2.5621     0.0414
 2370.0000   279.8224     3.2353     4.5639   -16.5741    10.0328     0.0638   115.7199     2.5513     0.0350
 2370.5000   282.3187     3.2368     4.6318   -16.5756    10.0632     0.0691   115.0974     2.5422     0.0300
 2371.0000   275.2636     3.3220     4.7957   -16.5772    10.0965     0.0675   113.2702     2.5360     0.0279
 2371.5000   263.7748     3.4840     4.9596   -16.5787    10.1551     0.0618   111.4381     2.5375     0.0305
 2372.0000   252.9613     3.5511     5.1235   -16.5802    10.1809     0.0549   110.8193     2.5465     0.0403
 2372.5000   240.6045     3.6532     5.2875   -16.5818    10.1806     0.0526   111.0016     2.5562     0.0503
 2373.0000   234.4205     3.8153     5.6315   -16.5833    10.1803     0.0600   112.7831     2.5574     0.0513
 2373.5000   231.3230     3.9773     5.9269   -16.5849    10.1800     0.0532   114.2921     2.5502     0.0461
 2374.0000   231.2834     4.1393     5.9907   -16.8230    10.1797     0.0460   116.4821     2.5469     0.0351
 2374.5000   229.7569     4.3331     5.8885   -16.8969    10.1794     0.0455   116.7578     2.5557     0.0245
 2375.0000   229.7454     4.3346     5.8411   -17.2070    10.1791     0.0508   114.6081     2.5678     0.0233
 2375.5000   229.7338     4.4909     5.8442   -17.2085    10.1788     0.0588   113.0813     2.5674     0.0323
 2376.0000   229.7222     4.4924     5.8474   -17.2100    10.1785     0.0672   113.3494     2.5543     0.0333
 2376.5000   229.3514     4.4939     5.6953   -16.9029    10.1594     0.0700   113.9623     2.5408     0.0281
 2377.0000   227.7300     4.6502     5.6983   -16.9044    10.1481     0.0592   112.4606     2.5348     0.0210
 2377.5000   225.6173     4.8065     5.8571   -16.9059    10.1259     0.0522   109.2689     2.5408     0.0173
 2378.0000   222.3867     4.8080     5.8601   -16.8971    10.1176     0.0515   106.4945     2.5515     0.0175
 2378.5000   219.1558     4.8096     6.0189   -16.6002    10.1173     0.0622   106.1731     2.5603     0.0232
 2379.0000   215.9250     4.8111     6.1777   -16.6019    10.0871     0.0690   106.3072     2.5559     0.0336
 2379.5000   212.6949     4.8127     6.4922   -16.6034    10.0868     0.0725   106.2831     2.5347     0.0397
 2380.0000   210.2880     4.8142     6.4952   -16.6049    10.0866     0.0688   108.6727     2.5248     0.0383
 2380.5000   209.5563     4.8158     6.3324   -16.6065    10.0863     0.0610   111.0623     2.5155     0.0309
 2381.0000   211.4567     4.7750     6.1594   -16.6080    10.0860     0.0548   115.2745     2.5179     0.0200
 2381.5000   219.7718     4.6161     5.8408   -16.5273    10.0857     0.0546   118.3540     2.5334     0.0156
 2382.0000   232.1147     4.4035     5.4969   -16.3950    10.0854     0.0637   120.0383     2.5461     0.0156
