~VERSION INFORMATION
 VERS.                2.0:   CWLS LOG ASCII STANDARD - VERSION 2.0
 WRAP.                 NO:   ONE LINE PER DEPTH STEP
~WELL INFORMATION
#MNEM.UNIT      DATA TYPE    INFORMATION
#----------   ------------   ------------------------------
 STRT.F           60.0000:   START DEPTH
 STOP.F          748.0000:   STOP DEPTH
 STEP.F            0.5000:   STEP LENGTH
 NULL.          -999.2500:   NO VALUE
 COMP.               NAVY:   COMPANY
 WELL.        S-11 #31-11:   WELL
 FLD .             TEAPOT:   FIELD
 LOC .      S11 T38N R78W:   LOCATION
 CNTY.            NATRONA:   COUNTY
 STAT.            WYOMING:   STATE
 CTRY. UNITED STATES OF AMERICA:   COUNTRY
 SRVC.      NL McCullough:   SERVICE COMPANY
 DATE.        10-AUG-1961:   LOGDATE
 API .       490250637600:   API NUMBER
~CURVE INFORMATION
#MNEM.UNIT       API CODE    CURVE DESCRIPTION
#----------   ------------   ------------------------------
 DEPT.F                  :   
 GRN .GAPI   35 310 01 00:   GAMMA RAY
 NEUT.NAPI   35 330 01 00:   NEUTRON
~PARAMETER INFORMATION
#MNEM.UNIT          VALUE    DESCRIPTION
#----------   ------------   ------------------------------
 PD  .                 GL:   PERMANENT DATUM
 EPD .F              5157:   ELEVATION PERMANENT DATUM
 LMF .                 KB:   LOG MEASURED FROM
 DAPD.F                56:   FEET ABOVE PERMANENT DATUM
 DMF .                 KB:   DRILLING MEASURED FROM
 EKB .F              5162:   KELLING BUSHING
 EGL .F              5157:   GROUND LEVEL
 DATE.        10-AUG-1961:   RUN DATE
 RUN .                  1:   RUN NUMBER
 DD  .F               760:   DEPTH DRILLER
 DL  .F               749:   DEPTH LOGGER
 BLI .F               748:   BOTTOM LOG INTERVAL
 TLI .F                60:   TOP LOG INTERVAL
 BS  .IN            7.875:   BIT SIZE
 BSD .F               760:   BIT SIZE AT DEPTH
 DFT .       OIL EMULSION:   DRILLING FLUID TYPE
 DFD .                9.5:   DRILLING FLUID DENSITY
 TCS .HRS            0130:   TIME CURCULATED STOPPED
 ENGI.            JACKSON:   RECORDING ENGINEER
 WITN.          JORGENSEN:   WITNESSED BY
 CLNT.            A2DTECH:   CLIENT CODE
 ORIG.       2", 5" PRINT:   ORIGIN OF DATA
 UWI .       490250637600:   UNIQUE WELL ID
 DICO. A2D Technologies, Inc.:   DIGITIZING COMPANY
~OTHER INFORMATION
~A   DEPT        GRN     NEUT   
# ...
  303.0000     6.9828   416.8435
  303.5000     7.0989   439.1745
  304.0000     7.2700   448.7019
  304.5000     7.4960   457.2187
  305.0000     7.6424   466.3026
  305.5000     7.4962   473.5638
  306.0000     6.9959   508.3925
  306.5000     6.8081   545.3282
  307.0000     6.5179   549.7977
  307.5000     6.2847   503.8015
  308.0000     6.4870   494.2375
  308.5000     6.5634   506.7741
  309.0000     6.7382   513.2831
  309.5000     7.0314   493.1679
  310.0000     6.9667   504.4438
  310.5000     6.7835   518.4911
  311.0000     6.5682   523.2415
  311.5000     6.3198   515.6779
  312.0000     6.1736   505.6109
  312.5000     6.1582   490.7681
  313.0000     6.1256   509.7120
  313.5000     6.0059   534.1484
  314.0000     6.0548   533.6525
  314.5000     6.1274   529.4561
  315.0000     6.1564   534.1741
  315.5000     6.4033   549.4081
  316.0000     6.5648   558.4327
  316.5000     6.5531   559.1948
  317.0000     6.4088   525.8571
  317.5000     6.2456   495.0016
  318.0000     6.0749   483.7354
  318.5000     5.9571   475.5517
  319.0000     6.3506   494.5554
  319.5000     6.6960   497.7383
  320.0000     6.7136   500.9792
  320.5000     6.6357   508.4922
  321.0000     6.4933   499.9922
  321.5000     6.4247   491.9946
  322.0000     6.4282   487.3225
  322.5000     6.7130   492.7338
  323.0000     7.1206   501.0949
  323.5000     7.0862   498.5566
  324.0000     6.7412   494.7704
  324.5000     6.6689   504.5435
  325.0000     6.6250   506.2797
  325.5000     6.5962   491.6909
  326.0000     6.5504   561.7460
  326.5000     6.4602   590.7070
  327.0000     6.2770   556.4925
  327.5000     6.3392   533.7940
  328.0000     6.3748   524.9833
  328.5000     6.3745   520.9414
  329.0000     6.4272   512.0646
  329.5000     6.6844   484.3173
  330.0000     6.7750   471.1356
  330.5000     6.8249   468.5092
  331.0000     7.1379   468.0783
  331.5000     7.2702   468.8053
  332.0000     7.4252   470.0429
  332.5000     7.1237   473.2850
  333.0000     6.7218   483.5621
  333.5000     6.6590   460.3983
  334.0000     6.6889   453.6224
  334.5000     6.9159   449.8648
  335.0000     7.0897   471.4782
  335.5000     6.6964   482.1888
  336.0000     6.7861   484.4311
  336.5000     6.8208   483.6543
  337.0000     6.8327   488.0284
  337.5000     6.9971   499.1833
  338.0000     7.0688   509.9600
  338.5000     7.0874   514.7436
  339.0000     7.0415   515.9469
  339.5000     6.7685   482.7616
  340.0000     6.5030   480.7336
  340.5000     6.8237   486.4877
  341.0000     6.8888   497.9580
  341.5000     6.8656   506.9780
  342.0000     6.6532   509.9071
  342.5000     6.4843   490.8887
  343.0000     6.8721   482.3564
  343.5000     7.3500   475.7985
  344.0000     7.0609   470.7557
  344.5000     7.0454   463.6995
  345.0000     7.0621   450.7408
  345.5000     7.0371   436.9657
  346.0000     6.9497   433.4868
  346.5000     7.1861   426.8731
  347.0000     7.2331   425.1556
  347.5000     7.2981   440.1994
  348.0000     7.5658   451.4839
  348.5000     7.6033   460.5043
  349.0000     7.2848   458.2842
  349.5000     7.0647   449.2504
  350.0000     6.9508   472.4920
  350.5000     6.5157   507.3558
  351.0000     6.4879   501.9036
  351.5000     6.4071   473.1761
  352.0000     6.2752   466.8776
  352.5000     6.4225   470.1200
  353.0000     6.5321   478.3246
  353.5000     6.2741   448.3793
  354.0000     6.1564   437.1463
  354.5000     6.1144   453.1367
  355.0000     6.2352   468.1850
  355.5000     6.2614   494.8490
  356.0000     6.3709   485.0334
  356.5000     6.8393   491.0394
  357.0000     6.9460   525.5568
  357.5000     6.7638   530.9374
  358.0000     6.6840   511.3164
  358.5000     6.5813   510.9508
  359.0000     6.3309   504.3088
  359.5000     6.5049   457.7427
  360.0000     6.9439   469.5306
  360.5000     7.0127   469.8528
  361.0000     6.9471   455.8576
  361.5000     6.8368   450.1206
  362.0000     6.7380   457.6314
  362.5000     6.7150   473.8123
  363.0000     7.0706   485.9115
  363.5000     7.6007   492.9801
  364.0000     7.3882   497.2322
  364.5000     7.1975   502.7349
  365.0000     7.0769   507.4856
  365.5000     6.8265   512.3611
  366.0000     6.7239   525.2727
  366.5000     6.6554   549.7736
  367.0000     6.5982   577.2280
  367.5000     6.5563   551.5785
  368.0000     6.5067   536.7385
  368.5000     6.7184   525.9150
  369.0000     6.6462   546.0519
  369.5000     6.6268   621.5779
  370.0000     6.7667   605.7249
  370.5000     7.0050   599.7390
  371.0000     6.6334   598.9009
  371.5000     6.4057   604.1481
  372.0000     6.0040   611.9174
  372.5000     5.6627   624.2838
  373.0000     5.3921   652.3124
  373.5000     5.1885   683.7512
  374.0000     5.0480   692.2103
  374.5000     4.9372   640.9391
  375.0000     4.8352   619.1914
  375.5000     5.1379   598.0386
  376.0000     5.3446   565.7700
  376.5000     5.7433   540.4995
  377.0000     6.0725   536.0802
  377.5000     6.1821   540.4238
  378.0000     5.8938   553.7459
  378.5000     5.9654   592.5291
  379.0000     6.1317   617.8167
  379.5000     6.3851   638.6743
  380.0000     6.2889   627.6336
  380.5000     5.9906   610.3078
  381.0000     5.6765   611.2573
  381.5000     5.7379   624.8326
  382.0000     6.1865   635.9559
  382.5000     5.9373   637.8798
  383.0000     5.6833   619.8344
  383.5000     5.5869   615.6356
  384.0000     5.4983   613.8862
  384.5000     5.4424   618.0725
  385.0000     5.5822   654.7841
  385.5000     5.6993   661.1366
  386.0000     5.3731   650.3435
  386.5000     5.2346   625.9986
  387.0000     4.8858   593.6514
  387.5000     4.6524   571.9664
  388.0000     4.9047   534.0769
  388.5000     5.2881   511.9182
  389.0000     5.4810   493.3393
  389.5000     5.7007   475.2281
  390.0000     5.9538   481.6141
  390.5000     6.1362   492.3293
  391.0000     6.1804   500.7802
  391.5000     5.9679   513.0072
  392.0000     5.8135   537.6639
  392.5000     5.5203   552.2416
  393.0000     5.2062   562.4903
  393.5000     5.0445   547.3909
  394.0000     4.8753   539.4574
  394.5000     4.7790   541.3197
  395.0000     4.6789   553.3499
  395.5000     4.5257   561.5261
  396.0000     4.3613   563.1047
  396.5000     4.1615   554.5103
  397.0000     4.1226   549.4951
  397.5000     4.2753   551.7315
  398.0000     4.4634   555.8553
  398.5000     4.5743   554.0411
  399.0000     4.6705   526.0402
  399.5000     4.7276   501.7180
  400.0000     4.7656   502.6375
  400.5000     4.8048   500.7801
  401.0000     4.8440   503.9477
  401.5000     4.8859   515.3928
  402.0000     5.0452   520.6306
  402.5000     5.3159   482.4414
  403.0000     5.4157   479.1419
  403.5000     5.4921   501.7215
  404.0000     5.6309   506.9482
  404.5000     5.7412   509.2155
  405.0000     5.7561   509.5203
  405.5000     5.5665   507.9881
  406.0000     5.4306   501.6100
  406.5000     5.5694   481.2434
  407.0000     5.7630   494.9367
  407.5000     5.8886   517.3656
  408.0000     5.9452   528.6419
  408.5000     5.9671   542.9455
  409.0000     6.0079   596.3500
  409.5000     6.2017   611.4795
  410.0000     6.4772   540.6151
  410.5000     6.6273   531.5798
  411.0000     6.4133   524.5714
  411.5000     6.2737   518.4330
  412.0000     6.1473   528.1090
  412.5000     6.0189   535.9822
  413.0000     5.8847   528.8777
  413.5000     5.8065   514.9915
  414.0000     6.0030   509.8116
  414.5000     6.0754   536.9721
  415.0000     6.0939   578.0714
  415.5000     6.1174   563.6279
  416.0000     6.2660   548.3656
  416.5000     6.4268   536.5548
  417.0000     6.4499   526.8932
  417.5000     6.1912   494.2350
  418.0000     5.9718   483.7346
  418.5000     5.9191   487.6019
  419.0000     5.9261   504.2363
  419.5000     6.0978   522.0547
  420.0000     6.2212   541.9237
  420.5000     6.0165   548.4310
  421.0000     5.9621   562.5822
  421.5000     6.0968   579.7993
  422.0000     6.1827   584.5332
  422.5000     6.2132   584.9785
  423.0000     6.2506   580.6446
  423.5000     6.4603   557.2523
  424.0000     6.5761   512.6262
