~VERSION INFORMATION
 VERS.                2.0:   CWLS LOG ASCII STANDARD - VERSION 2.0
 WRAP.                 NO:   ONE LINE PER DEPTH STEP
~WELL INFORMATION
#MNEM.UNIT      DATA TYPE    INFORMATION
#----------   ------------   ------------------------------
 STRT.F           80.0000:   START DEPTH
 STOP.F          679.5000:   STOP DEPTH
 STEP.F            0.5000:   STEP LENGTH
 NULL.          -999.2500:   NO VALUE
 COMP. U S NAVY/INTEX OIL CO:   COMPANY
 WELL.      NPR 3 #23-S-2:   WELL
 FLD .        TEAPOT DOME:   FIELD
 LOC .       S2 T38N R78W:   LOCATION
 CNTY.            NATRONA:   COUNTY
 STAT.            WYOMING:   STATE
 CTRY. UNITED STATES OF AMERICA:   COUNTRY
 SRVC.       Schlumberger:   SERVICE COMPANY
 DATE.        16-JUL-1962:   LOGDATE
 API .       490250645000:   API NUMBER
~CURVE INFORMATION
#MNEM.UNIT       API CODE    CURVE DESCRIPTION
#----------   ------------   ------------------------------
 DEPT.F                  :   
 GR  .GAPI   30 310 01 00:   GAMMA RAY
 SPR .MV     05 010 01 00:   SPONTANEOUS POTENTIAL FROM RES.
 ILD .OHMM   05 120 46 00:   INDUCTION LOG DEEP
 CILD.MMHO   05 110 46 00:   CONDUCTIVITY INDUCTION LOG DEEP
 ASN .OHMM   05 041 16 00:   AMPLIFIED SHORT NORMAL 16"
~PARAMETER INFORMATION
#MNEM.UNIT          VALUE    DESCRIPTION
#----------   ------------   ------------------------------
 PD  .                 GL:   PERMANENT DATUM
 EPD .F              5126:   ELEVATION PERMANENT DATUM
 LMF .                 KB:   LOG MEASURED FROM
 DAPD.F                 5:   FEET ABOVE PERMANENT DATUM
 DMF .                 KB:   DRILLING MEASURED FROM
 EKB .F              5131:   KELLING BUSHING
 EGL .F              5126:   GROUND LEVEL
 DATE.            7-17-62:   RUN DATE
 RUN .                  1:   RUN NUMBER
 DD  .F               680:   DEPTH DRILLER
 DL  .F               680:   DEPTH LOGGER
 BLI .F               679:   BOTTOM LOG INTERVAL
 TLI .F                87:   TOP LOG INTERVAL
 BS  .IN             6.75:   BIT SIZE
 BSD .F               680:   BIT SIZE AT DEPTH
 DFT .       OIL EMULSION:   DRILLING FLUID TYPE
 DFD .                 10:   DRILLING FLUID DENSITY
 DFV .                 41:   DRILLING FLUID VISCOSITY
 DFL .                2.9:   DRILLING FLUID LOSS
 RMS .OHMM           5.86:   RESISTIVITY MUD SAMPLE
 MST .F                73:   MUD SAMPLE TEMPERATURE
 RMF .OHMM           4.19:   RESISTIVITY MUD FILTRATE SAMPLE
 MFST.F                73:   MUD FILTRATE SAMPLE TEMPERATURE
 RMC .OHMM           5.66:   RESISTIVITY MUD CAKE
 MCST.F                73:   MUD CAKE SAMPLE TEMPERATURE
 TCS .HRS               1:   TIME CURCULATED STOPPED
 LUN .               2503:   LOGGING UNIT NUMBER
 LUL .               CSPR:   LOGGING UNIT LOCATION
 ENGI.             DANNER:   RECORDING ENGINEER
 WITN.          JORGENSON:   WITNESSED BY
 CLNT.            A2DTECH:   CLIENT CODE
 ORIG.       2", 5" PRINT:   ORIGIN OF DATA
 UWI .       490250645000:   UNIQUE WELL ID
 DICO. A2D Technologies, Inc.:   DIGITIZING COMPANY
~OTHER INFORMATION
~A   DEPT       GR        SPR          ILD      CILD         ASN 
# ...
  568.0000    50.4852   -41.7421    16.6066    48.9443    18.8511
  568.5000    47.3995   -41.6918    16.6494    48.5886    18.8464
  569.0000    55.1104   -41.6396    16.6975    48.6650    18.6537
  569.5000    58.4856   -41.5901    16.7472    48.8847    18.4453
  570.0000    44.6534   -41.3311    16.7975    49.1044    18.3567
  570.5000    47.9346   -40.9539    16.8488    49.3241    18.3972
  571.0000    50.6010   -40.5755    16.8259    49.5438    18.4393
  571.5000    42.4626   -40.1965    16.7926    49.7635    18.4086
  572.0000    73.1970   -39.8179    16.7593    49.9832    18.3328
  572.5000    80.7961   -39.4387    16.7260    50.2029    18.2563
  573.0000    73.9857   -39.0544    16.6929    50.4226    18.1798
  573.5000    67.7267   -39.1612    16.6616    50.6423    18.1036
  574.0000    57.2079   -39.4911    16.5317    50.8618    18.0289
  574.5000    47.2557   -40.0121    16.3664    51.0831    17.8560
  575.0000    52.3914   -40.5336    16.2003    51.3069    17.6797
  575.5000    58.7890   -41.0512    15.9180    51.5079    17.5026
  576.0000    47.9077   -41.2614    15.5865    52.7600    17.2480
  576.5000    36.0447   -40.9754    15.2446    53.9092    16.9578
  577.0000    41.9525   -40.6928    15.0756    55.0585    16.7022
  577.5000    53.2934   -40.9280    14.9626    56.2077    16.5367
  578.0000    65.0983   -41.4940    14.8538    57.3569    16.3703
  578.5000    68.1837   -42.0031    14.7434    58.1459    16.1986
  579.0000    59.9226   -42.1220    14.5329    58.8837    16.0018
  579.5000    52.6606   -42.2519    14.3281    59.6215    15.8072
  580.0000    51.9970   -42.3338    14.1244    60.3593    15.6126
  580.5000    58.8839   -42.1470    13.9110    61.0970    15.4093
  581.0000    51.7992   -41.9736    13.9171    61.2813    15.3648
  581.5000    59.0205   -42.1215    14.0140    60.7994    15.3829
  582.0000    55.4524   -42.2881    14.1140    60.3177    15.4037
  582.5000    53.1282   -42.0721    14.2140    59.8360    15.4243
  583.0000    76.2303   -41.5819    14.3136    59.3545    15.4446
  583.5000    66.6001   -41.0802    14.4132    58.8734    15.4649
  584.0000    50.8113   -41.0257    14.5132    58.2727    15.4853
  584.5000    56.9269   -41.1119    14.5891    57.2721    15.5054
  585.0000    63.4369   -41.2025    14.6511    56.2698    15.5262
  585.5000    70.0651   -41.2931    14.7121    55.7100    15.5527
  586.0000    73.2547   -41.3835    14.6819    56.7477    15.3685
  586.5000    70.2602   -41.4757    14.5150    57.7729    15.1520
  587.0000    56.4142   -41.5601    14.3495    58.7982    14.9913
  587.5000    42.1703   -41.2818    14.1833    59.8235    14.8338
  588.0000    34.0724   -40.9695    14.0164    60.8488    14.6773
  588.5000    47.0505   -40.5577    13.8534    61.8741    14.5230
  589.0000    48.4386   -39.8381    13.8062    62.5000    14.4016
  589.5000    49.8655   -39.1441    13.7636    62.5000    14.2771
  590.0000    47.4632   -38.4586    13.7205    62.5000    14.1525
  590.5000    57.3176   -38.0875    13.6768    62.5000    14.0282
  591.0000    65.9963   -38.5288    13.6042    62.5000    13.9028
  591.5000    59.0386   -39.3682    13.4790    62.5000    13.8173
  592.0000    55.5348   -39.2516    13.3545    62.5000    13.7237
  592.5000    59.8153   -39.6061    13.2300    63.5047    13.6314
  593.0000    63.8586   -40.3819    13.1055    64.5470    13.5393
  593.5000    55.7933   -41.1832    12.9811    65.5893    13.4471
  594.0000    55.9142   -40.9828    12.8569    66.6316    13.3507
  594.5000    47.8657   -39.5513    12.7313    67.6740    13.1925
  595.0000    56.2210   -38.1007    12.6009    68.7163    13.0266
  595.5000    64.2700   -37.0974    12.4387    69.7592    12.8613
  596.0000    59.4834   -36.9814    12.2818    70.8020    12.7463
  596.5000    73.2450   -37.3176    12.1247    71.5760    12.7369
  597.0000    65.9569   -37.3295    12.0418    71.8023    12.7253
  597.5000    79.6880   -37.2486    12.0248    72.0278    12.7136
  598.0000    76.2459   -37.0304    12.0079    72.2544    12.7021
  598.5000    79.4446   -37.2005    11.9915    72.4810    12.6906
  599.0000    83.4429   -37.1217    11.9748    72.7076    12.6791
  599.5000    73.6513   -37.0084    11.9580    72.9342    12.6672
  600.0000    75.7176   -37.2865    11.9088    73.1608    12.6554
  600.5000    68.8399   -37.4479    11.8274    73.3874    12.5981
  601.0000    67.4764   -37.5901    11.7461    73.9032    12.4956
  601.5000    70.3862   -37.5165    11.6645    74.7048    12.3931
  602.0000    67.2659   -37.4367    11.5829    75.5064    12.2902
  602.5000    62.5580   -37.2962    11.5014    76.3080    12.1874
  603.0000    61.8228   -36.7798    11.4199    77.1096    12.0847
  603.5000    59.8881   -35.9621    11.3378    77.8084    11.9819
  604.0000    63.6168   -35.1454    11.2528    78.4096    11.8767
  604.5000    57.2715   -34.4641    11.2011    79.0108    11.8333
  605.0000    63.6908   -34.7542    11.1488    79.6116    11.8088
  605.5000    67.6121   -35.0115    11.0961    80.2119    11.7851
  606.0000    52.9787   -34.9573    11.0501    80.4986    11.7613
  606.5000    61.2918   -34.8995    11.0498    80.4995    11.7375
  607.0000    72.7643   -34.8426    11.0500    80.5000    11.7135
  607.5000    78.9766   -34.7852    11.0500    80.5000    11.6896
  608.0000    67.7536   -34.7271    11.0500    80.5000    11.6662
  608.5000    87.0193   -34.6711    11.0500    80.5000    11.6594
  609.0000    92.7168   -34.7297    11.0498    80.2320    11.6936
  609.5000    96.5893   -35.5087    11.0505    79.7310    11.7263
  610.0000    98.1474   -36.2866    11.0860    79.2300    11.7589
  610.5000    63.7305   -36.7604    11.1246    78.7290    11.7916
  611.0000    71.7405   -36.5625    11.1632    78.2280    11.8243
  611.5000    81.2328   -36.3847    11.2018    77.7270    11.8570
  612.0000    77.6402   -36.2189    11.2416    77.6890    11.8898
  612.5000    80.4707   -36.0419    11.2364    78.0345    11.9227
  613.0000    69.3048   -36.2809    11.2189    78.3800    11.9496
  613.5000    59.2159   -36.6371    11.2009    78.7255    11.8675
  614.0000    71.9410   -36.9839    11.1832    79.0710    11.7800
  614.5000    84.3521   -36.6145    11.1651    79.4165    11.6928
  615.0000    77.4113   -36.1957    11.1289    80.2876    11.6056
  615.5000    65.9428   -36.2043    10.9966    81.3335    11.5185
  616.0000    61.5524   -36.5362    10.8636    82.3780    11.4314
  616.5000    68.1849   -36.5395    10.7310    83.4208    11.3443
  617.0000    63.6735   -36.1255    10.5982    84.4972    11.2570
  617.5000    78.0043   -35.6955    10.4656    85.3066    11.1684
  618.0000    82.0569   -35.8729    10.3336    86.1432    11.1501
  618.5000    78.7291   -36.1979    10.2488    86.9783    11.1495
  619.0000    70.5078   -36.3847    10.2501    87.5000    11.1499
  619.5000    77.0394   -36.3115    10.2500    87.5000    11.1695
  620.0000    75.2803   -36.2405    10.2499    87.5000    11.2861
  620.5000    83.3431   -36.3176    10.2496    87.3060    11.4027
  621.0000    76.0406   -36.4964    10.2478    86.9720    11.5344
  621.5000    77.2254   -36.7352    10.2565    86.6380    11.7105
  622.0000    72.6742   -37.0710    10.5518    84.5400    12.0309
  622.5000    87.5655   -37.6287    10.8636    81.2000    12.3537
  623.0000    86.3343   -38.3330    11.3556    75.8470    12.8998
  623.5000    94.2898   -39.0401    12.1483    69.9603    13.8018
  624.0000    71.8165   -39.4312    12.9686    64.0735    14.7740
  624.5000    64.9666   -39.7373    14.5679    58.1867    15.8336
  625.0000    65.8545   -40.0047    16.2003    52.3000    17.4633
  625.5000    55.0330   -42.8181    17.7811    46.4132    19.3834
  626.0000    42.0186   -46.6853    20.1910    40.5265    22.3612
  626.5000    35.8838   -49.4610    22.6854    34.6398    26.0353
  627.0000    34.3441   -49.7677    24.4726    31.4800    28.7687
  627.5000    34.3730   -48.9992    26.0905    29.6400    29.4582
  628.0000    37.0201   -48.2236    25.0762    30.3080    29.0473
  628.5000    40.4832   -47.5195    24.9258    30.9760    28.7105
