~VERSION INFORMATION
 VERS.                2.0:   CWLS LOG ASCII STANDARD - VERSION 2.0
 WRAP.                 NO:   ONE LINE PER DEPTH STEP
~WELL INFORMATION
#MNEM.UNIT      DATA TYPE    INFORMATION
#----------   ------------   ------------------------------
 STRT.F           42.0000:   START DEPTH
 STOP.F          533.0000:   STOP DEPTH
 STEP.F            0.5000:   STEP LENGTH
 NULL.          -999.2500:   NO VALUE
 COMP.    FENIX & SCISSON:   COMPANY
 WELL.      NPR-3 #38S3-3:   WELL
 FLD .             TEAPOT:   FIELD
 LOC .       S3 T38N R78W:   LOCATION
 CNTY.            NATRONA:   COUNTY
 STAT.            WYOMING:   STATE
 CTRY. UNITED STATES OF AMERICA:   COUNTRY
 SRVC.           BIRDWELL:   SERVICE COMPANY
 DATE.        29-JUN-1978:   LOGDATE
 API .       490251066300:   API NUMBER
~CURVE INFORMATION
#MNEM.UNIT       API CODE    CURVE DESCRIPTION
#----------   ------------   ------------------------------
 DEPT.F                  :   
 ILD .OHMM   05 120 46 00:   INDUCTION LOG DEEP
 SN  .OHMM   05 040 16 00:   SHORT NORMAL 16"
 SPR .MV     05 010 01 00:   SPONTANEOUS POTENTIAL FROM RES.
 CALD.IN     45 280 60 00:   CALIPER FROM DENSITY LOG
 CORR.G/C3   45 356 01 00:   DENSITY CORRECTION
 DPHI.DEC    45 890 12 00:   DENSITY POROSITY SANDSTONE
 GRD .GAPI   45 310 01 00:   GAMMA RAY FROM DENSITY LOG
 RHOB.G/C3   45 350 01 00:   BULK DENSITY
~PARAMETER INFORMATION
#MNEM.UNIT          VALUE    DESCRIPTION
#----------   ------------   ------------------------------
 PD  .                 GL:   PERMANENT DATUM
 EPD .F              5238:   ELEVATION PERMANENT DATUM
 LMF .                 KB:   LOG MEASURED FROM
 DAPD.F                 4:   FEET ABOVE PERMANENT DATUM
 DMF .                 KB:   DRILLING MEASURED FROM
 EKB .F              5242:   KELLING BUSHING
 EGL .F              5238:   GROUND LEVEL
 DATE.        29-JUN-1978:   RUN DATE
 RUN .                  1:   RUN NUMBER
 DD  .F               530:   DEPTH DRILLER
 DL  .F               540:   DEPTH LOGGER
 BLI .F               533:   BOTTOM LOG INTERVAL
 TLI .F                40:   TOP LOG INTERVAL
 CS  .IN            8.625:   CASING SIZE
 CBD .F                40:   CASING BOTTOM DRILLER
 BS  .IN            7.875:   BIT SIZE
 BSD .F               530:   BIT SIZE AT DEPTH
 DFT .                KCL:   DRILLING FLUID TYPE
 DFD .                8.7:   DRILLING FLUID DENSITY
 DFV .                 34:   DRILLING FLUID VISCOSITY
 DFPH.                9.5:   DRILLING FLUID PH
 MSS .           FLOWLINE:   MUD SAMPLE SOURCE
 RMS .OHMM            0.2:   RESISTIVITY MUD SAMPLE
 MST .F                82:   MUD SAMPLE TEMPERATURE
 RMF .OHMM           0.18:   RESISTIVITY MUD FILTRATE SAMPLE
 MFST.F                82:   MUD FILTRATE SAMPLE TEMPERATURE
 RMC .OHMM           0.14:   RESISTIVITY MUD CAKE
 MCST.F                82:   MUD CAKE SAMPLE TEMPERATURE
 MFSS.               MEAS:   MUD FILTRATE SAMPLE SOURCE
 TCS .HRS               1:   TIME CURCULATED STOPPED
 LUN .               2958:   LOGGING UNIT NUMBER
 LUL .             CASPER:   LOGGING UNIT LOCATION
 ENGI.             MILLER:   RECORDING ENGINEER
 WITN.         ZARGARNIAN:   WITNESSED BY
 CLNT.            A2DTECH:   CLIENT CODE
 ORIG.           5" PRINT:   ORIGIN OF DATA
 UWI .       490251066300:   UNIQUE WELL ID
 DICO. A2D Technologies, Inc.:   DIGITIZING COMPANY
~OTHER INFORMATION
~A   DEPT      ILD         SN        SPR       CALD       CORR       DPHI         GRD      RHOB   
# ...
  204.0000     7.1650     7.9842   -16.6675     7.6216     0.0161     0.1386    71.1915     2.4674
  204.5000     7.0686     7.9842   -16.5143     7.6214     0.0156     0.1422    70.8914     2.4636
  205.0000     7.0709     7.9842   -16.2101     7.6212     0.0145     0.1483    70.2919     2.4576
  205.5000     7.0727     7.9292   -15.9065     7.6211     0.0144     0.1515    70.2942     2.4492
  206.0000     7.0746     7.9292   -15.6029     7.6210     0.0144     0.1551    72.3861     2.4426
  206.5000     7.1255     7.8747   -14.9979     7.6208     0.0143     0.1428    75.0800     2.4516
  207.0000     7.1771     7.9292   -14.8447     7.6206     0.0173     0.1404    76.7260     2.4613
  207.5000     7.2287     7.9842   -14.5412     7.6205     0.0187     0.1446    77.0247     2.4628
  208.0000     7.2807     8.0395   -14.3880     7.6204     0.0157     0.1455    76.7244     2.4591
  208.5000     7.3335     8.0952   -14.3844     7.6052     0.0142     0.1467    76.1249     2.4546
  209.0000     7.3354     8.0952   -14.3816     7.6051     0.0171     0.1507    75.8248     2.4516
  209.5000     7.2863     8.0395   -14.3788     7.6049     0.0216     0.1546    75.6744     2.4507
  210.0000     7.2385     8.0952   -14.3759     7.6048     0.0260     0.1471    77.0208     2.4433
  210.5000     7.1411     8.1205   -14.3729     7.6046     0.0274     0.1351    80.3135     2.4500
  211.0000     7.0938     8.1591   -14.3696     7.5977     0.0274     0.1306    82.4088     2.4732
  211.5000     7.1453     8.1977   -14.3669     7.5894     0.0258     0.1357    79.8630     2.4800
  212.0000     7.3001     8.2352   -14.3633     7.6042     0.0258     0.1366    77.3172     2.4770
  212.5000     7.5554     8.2363   -14.3605     7.6040     0.0257     0.1279    75.8195     2.4755
  213.0000     7.7156     8.2373   -14.6591     7.6189     0.0257     0.1197    77.7649     2.4949
  213.5000     7.8791     8.2955   -14.8060     7.6187     0.0257     0.1226    80.9079     2.4949
  214.0000     7.9982     8.3543   -14.9535     7.6335     0.0256     0.1274    83.9891     2.4904
  214.5000     8.1606     8.4716   -14.7996     7.6334     0.0256     0.1169    86.2957     2.4919
  215.0000     8.1627     8.4727   -14.7968     7.6332     0.0240     0.1096    81.0553     2.5046
  215.5000     8.1648     8.3576   -14.7940     7.6331     0.0180     0.1010    77.4618     2.5237
  216.0000     8.1113     8.2443   -14.7905     7.6479     0.0135     0.0977    73.4610     2.5331
  216.5000     8.0016     8.1323   -14.7877     7.6478     0.0090     0.1244    70.5740     2.5151
  217.0000     7.7861     8.0218   -14.7849     7.6476     0.0074     0.1360    71.6212     2.5031
  217.5000     7.6285     7.9128   -14.7820     7.6474     0.0074     0.1421    76.7103     2.4906
  218.0000     7.4226     7.8056   -14.6281     7.6323     0.0073     0.1403    77.3084     2.4619
  218.5000     7.3735     7.7529   -14.6256     7.6172     0.0088     0.1457    77.7566     2.4559
  219.0000     7.4270     7.7005   -14.4721     7.6171     0.0102     0.1466    79.8517     2.4544
  219.5000     7.4804     7.7015   -14.3182     7.6169     0.0117     0.1463    82.0965     2.4560
  220.0000     7.4828     7.7028   -14.3154     7.6168     0.0131     0.1455    82.5449     2.4604
  220.5000     7.5366     7.7038   -14.1622     7.6166     0.0131     0.1413    79.5500     2.4641
  221.0000     7.5907     7.7047   -14.1594     7.6164     0.0145     0.1395    79.1002     2.4664
  221.5000     7.5928     7.7058   -13.8551     7.6313     0.0145     0.1434    79.3991     2.4632
  222.0000     7.5424     7.7070   -14.0034     7.6311     0.0140     0.1401    79.2365     2.4618
  222.5000     7.4929     7.7080   -14.1502     7.6310     0.0129     0.1359    76.7027     2.4671
  223.0000     7.4433     7.7090   -14.2978     7.6308     0.0129     0.1386    75.8038     2.4693
  223.5000     7.3431     7.7100   -14.7454     7.6307     0.0113     0.1446    75.2043     2.4647
  224.0000     7.2950     7.7113   -14.8937     7.6305     0.0098     0.1437    75.6587     2.4588
  224.5000     7.2969     7.7123   -15.4917     7.6304     0.0068     0.1422    81.0410     2.4603
  225.0000     7.2485     7.7667   -15.7896     7.6302     0.0037     0.1401    85.9805     2.4648
  225.5000     7.2509     7.7678   -16.0868     7.6451     0.0022     0.1387    87.1774     2.4655
  226.0000     7.2528     7.7153   -16.0840     7.6449     0.0006     0.1474    88.0748     2.4513
  226.5000     7.2546     7.7165   -16.0812     7.6298     0.0006     0.1498    82.0859     2.4520
  227.0000     7.2066     7.6117   -16.0777     7.6296     0.0021     0.1516    76.8457     2.4498
  227.5000     7.1589     7.5083   -16.0748     7.6145     0.0035     0.1555    75.4977     2.4399
  228.0000     7.1612     7.4063   -16.0720     7.5844     0.0043     0.1537    75.4970     2.4520
  228.5000     7.0647     7.3059   -16.0692     7.5693     0.0049     0.1513    77.4422     2.4468
  229.0000     7.0180     7.2566   -15.9153     7.5542     0.0049     0.1489    78.4896     2.4453
  229.5000     7.0203     7.2005   -16.0636     7.5214     0.0018     0.1492    76.9917     2.4476
  230.0000     6.9733     7.1097   -16.0601     7.4940     0.0003     0.1543    75.4940     2.4490
  230.5000     6.7856     7.1108   -16.0777     7.4789     0.0017     0.1618    74.1458     2.4430
  231.0000     6.5123     7.0628   -16.3552     7.4638     0.0047     0.1672    73.8457     2.4377
  231.5000     6.3366     7.0151   -16.3519     7.4786     0.0091     0.1681    74.2941     2.4309
  232.0000     6.2509     7.0163   -16.0481     7.4784     0.0136     0.1639    77.5868     2.4212
  232.5000     6.2529     7.0172   -15.7438     7.4844     0.0150     0.1598    80.3031     2.4167
  233.0000     6.2549     7.0181   -15.7410     7.5046     0.0135     0.1562    80.8786     2.4340
  233.5000     6.2999     7.0192   -15.7382     7.5229     0.0134     0.1508    81.1773     2.4340
  234.0000     6.3452     7.0200   -15.4346     7.5377     0.0149     0.1436    81.7754     2.4392
  234.5000     6.4351     7.0210   -15.4311     7.5525     0.0148     0.1400    82.2238     2.4497
  235.0000     6.5267     7.0706   -15.2779     7.5674     0.0148     0.1388    81.6241     2.4616
  235.5000     6.5284     7.1207   -15.2123     7.5672     0.0147     0.1406    80.8749     2.4669
  236.0000     6.6209     7.1217   -15.1218     7.5671     0.0147     0.1427    79.8263     2.4676
  236.5000     6.6226     7.1226   -15.1184     7.5669     0.0146     0.1446    78.1789     2.4631
  237.0000     6.6706     7.1235   -15.2666     7.5668     0.0146     0.1440    78.9265     2.4616
  237.5000     6.6723     7.1247   -15.7142     7.5816     0.0146     0.1413    78.7761     2.4647
  238.0000     6.6741     7.1750   -16.0115     7.5814     0.0145     0.1386    78.6257     2.4698
  238.5000     6.6299     7.1759   -16.0086     7.5813     0.0160     0.1356    79.7149     2.4721
  239.0000     6.5864     7.1768   -16.3068     7.5811     0.0159     0.1401    82.9654     2.4683
  239.5000     6.5427     7.1284   -16.3038     7.5810     0.0159     0.1488    84.0128     2.4532
  240.0000     6.5444     7.1294   -16.4506     7.5658     0.0158     0.1446    80.5688     2.4511
  240.5000     6.5466     7.0621   -16.4478     7.5507     0.0173     0.1380    78.3226     2.4638
  241.0000     6.5028     7.0325   -16.4451     7.5207     0.0187     0.1312    78.3149     2.4728
  241.5000     6.4597     6.9380   -16.4536     7.5041     0.0217     0.1384    82.0635     2.4735
  242.0000     6.3265     6.8438   -16.5897     7.4722     0.0224     0.1432    83.5600     2.4638
  242.5000     6.1165     6.7258   -16.5862     7.4304     0.0235     0.1450    79.3674     2.4585
  243.0000     5.9515     6.6101   -16.8841     7.4003     0.0260     0.1477    76.3727     2.4578
  243.5000     5.7114     6.4344   -16.8812     7.3402     0.0268     0.1492    73.6774     2.4570
  244.0000     5.5141     6.2166   -16.8778     7.2802     0.0274     0.1546    73.0779     2.4495
