~VERSION INFORMATION
 VERS.                2.0:   CWLS LOG ASCII STANDARD - VERSION 2.0
 WRAP.                 NO:   ONE LINE PER DEPTH STEP
~WELL INFORMATION
#MNEM.UNIT      DATA TYPE    INFORMATION
#----------   ------------   ------------------------------
 STRT.F           30.0000:   START DEPTH
 STOP.F         2432.5000:   STOP DEPTH
 STEP.F            0.5000:   STEP LENGTH
 NULL.          -999.2500:   NO VALUE
 COMP. FENIX & SCISSON INC:   COMPANY
 WELL.     72 SHX 4 #72-4:   WELL
 FLD .             TEAPOT:   FIELD
 LOC .       S4 T38N R78W:   LOCATION
 CNTY.            NATRONA:   COUNTY
 STAT.            WYOMING:   STATE
 CTRY. UNITED STATES OF AMERICA:   COUNTRY
 SRVC.           BIRDWELL:   SERVICE COMPANY
 DATE.        05-MAR-1979:   LOGDATE
 API .       490251074300:   API NUMBER
~CURVE INFORMATION
#MNEM.UNIT       API CODE    CURVE DESCRIPTION
#----------   ------------   ------------------------------
 DEPT.F                  :   
 SPR .MV     05 010 01 00:   SPONTANEOUS POTENTIAL FROM RES.
 SN  .OHMM   05 040 16 00:   SHORT NORMAL 16"
 ILD .OHMM   05 120 46 00:   INDUCTION LOG DEEP
 CALD.IN     45 280 60 00:   CALIPER
 GRD .GAPI   45 310 01 00:   GAMMA RAY FROM DENSITY LOG
 RHOB.G/C3   45 350 01 00:   BULK DENSITY
 CORR.G/C3   45 356 01 00:   DENSITY CORRECTION
 DPHI.DEC    45 890 12 00:   DENSITY POROSITY SANDSTONE
~PARAMETER INFORMATION
#MNEM.UNIT          VALUE    DESCRIPTION
#----------   ------------   ------------------------------
 PD  .                 GL:   PERMANENT DATUM
 EPD .F              5194:   ELEVATION PERMANENT DATUM
 LMF .                 KB:   LOG MEASURED FROM
 DAPD.F                10:   FEET ABOVE PERMANENT DATUM
 DMF .                 KB:   DRILLING MEASURED FROM
 EKB .F              5204:   KELLING BUSHING
 EGL .F              5194:   GROUND LEVEL
 DATE.             3-5-79:   RUN DATE
 RUN .                  1:   RUN NUMBER
 DD  .F              2560:   DEPTH DRILLER
 DL  .F              2432:   DEPTH LOGGER
 BLI .F              2432:   BOTTOM LOG INTERVAL
 TLI .F               400:   TOP LOG INTERVAL
 CS  .IN            9.625:   CASING SIZE
 CBD .F               685:   CASING BOTTOM DRILLER
 CBL .F               685:   CASING BOTTOM LOGGER
 BS  .IN             8.75:   BIT SIZE
 BSD .F              2560:   BIT SIZE AT DEPTH
 DFT .                AIR:   DRILLING FLUID TYPE
 TCS .HRS               5:   TIME CURCULATED STOPPED
 LUN .               3006:   LOGGING UNIT NUMBER
 LUL .             CASPER:   LOGGING UNIT LOCATION
 ENGI.         B. ROLLINS:   RECORDING ENGINEER
 WITN.           DINSMORE:   WITNESSED BY
 CLNT.            A2DTECH:   CLIENT CODE
 ORIG.           5" PRINT:   ORIGIN OF DATA
 UWI .       490251074300:   UNIQUE WELL ID
 DICO. A2D Technologies, Inc.:   DIGITIZING COMPANY
~OTHER INFORMATION
~A   DEPT      SPR         SN        ILD        CALD       GRD       RHOB         CORR      DPHI  
# ...
  799.5000  -999.2500  -999.2500  -999.2500     9.2879    81.4204     2.4925     0.0202     0.0345
  800.0000  -999.2500  -999.2500  -999.2500     9.2603    81.0934     2.4919     0.0223     0.0291
  800.5000  -999.2500  -999.2500  -999.2500     9.2835    80.7753     2.4963     0.0249     0.0241
  801.0000  -999.2500  -999.2500  -999.2500     9.3065    80.7871     2.5008     0.0257     0.0216
  801.5000  -999.2500  -999.2500  -999.2500     9.3294    81.4554     2.5035     0.0251     0.0251
  802.0000  -999.2500  -999.2500  -999.2500     9.3522    81.4579     2.5035     0.0245     0.0258
  802.5000  -999.2500  -999.2500  -999.2500     9.3751    81.4292     2.5034     0.0239     0.0232
  803.0000  -999.2500  -999.2500  -999.2500     9.3980    82.8454     2.5062     0.0233     0.0206
  803.5000  -999.2500  -999.2500  -999.2500     9.4208    84.2408     2.5094     0.0227     0.0180
  804.0000  -999.2500  -999.2500  -999.2500     9.4437    85.3986     2.5124     0.0221     0.0182
  804.5000  -999.2500  -999.2500  -999.2500     9.4666    85.3726     2.5123     0.0214     0.0184
  805.0000  -999.2500  -999.2500  -999.2500     9.4895    85.5982     2.5121     0.0209     0.0200
  805.5000  -999.2500  -999.2500  -999.2500     9.5134    86.6672     2.5119     0.0202     0.0213
  806.0000  -999.2500  -999.2500  -999.2500     9.5147    87.7089     2.5117     0.0221     0.0228
  806.5000  -999.2500  -999.2500  -999.2500     9.5087    88.1701     2.5130     0.0251     0.0153
  807.0000  -999.2500  -999.2500  -999.2500     9.5025    88.2874     2.5179     0.0282     0.0116
  807.5000  -999.2500  -999.2500  -999.2500     9.4964    88.5735     2.5224     0.0312     0.0126
  808.0000  -999.2500  -999.2500  -999.2500     9.4900    88.8077     2.5217     0.0338     0.0143
  808.5000  -999.2500  -999.2500  -999.2500     9.4838    87.9322     2.5173     0.0279     0.0215
  809.0000  -999.2500  -999.2500  -999.2500     9.4943    86.9652     2.5126     0.0218     0.0317
  809.5000  -999.2500  -999.2500  -999.2500     9.6090    86.1120     2.4941     0.0158     0.0419
  810.0000  -999.2500  -999.2500  -999.2500     9.7154    85.9037     2.4736     0.0119     0.0522
  810.5000  -999.2500  -999.2500  -999.2500     9.6742    85.9980     2.4553     0.0183     0.0623
  811.0000  -999.2500  -999.2500  -999.2500     9.6280    86.5256     2.4387     0.0678     0.0665
  811.5000  -999.2500  -999.2500  -999.2500     9.5763    87.0618     2.4378     0.1400     0.0265
  812.0000  -999.2500  -999.2500  -999.2500     9.5727    86.7998     2.4715     0.2125    -0.0148
  812.5000  -999.2500  -999.2500  -999.2500     9.5971    84.2369     2.5181     0.2861    -0.0152
  813.0000  -999.2500  -999.2500  -999.2500     9.6222    83.8577     2.5644     0.2881    -0.0027
  813.5000  -999.2500  -999.2500  -999.2500     9.6466    84.2709     2.5663     0.1928     0.0076
  814.0000  -999.2500  -999.2500  -999.2500     9.6321    83.7843     2.5378     0.1218     0.0076
  814.5000  -999.2500  -999.2500  -999.2500     9.5349    83.9846     2.5391     0.0688    -0.0036
  815.0000  -999.2500  -999.2500  -999.2500     9.4365    84.7554     2.5423     0.0666    -0.0044
  815.5000  -999.2500  -999.2500  -999.2500     9.4361    85.2938     2.5455     0.0625     0.0034
  816.0000  -999.2500  -999.2500  -999.2500     9.4583    84.7753     2.5397     0.0515     0.0104
  816.5000  -999.2500  -999.2500  -999.2500     9.4808    84.2763     2.5293     0.0405     0.0139
  817.0000  -999.2500  -999.2500  -999.2500     9.5031    83.7803     2.5206     0.0295     0.0145
  817.5000  -999.2500  -999.2500  -999.2500     9.5252    83.4732     2.5145     0.0280     0.0152
  818.0000  -999.2500  -999.2500  -999.2500     9.5372    84.3063     2.5131     0.0280     0.0210
  818.5000  -999.2500  -999.2500  -999.2500     9.5318    85.1221     2.5081     0.0280     0.0275
  819.0000  -999.2500  -999.2500  -999.2500     9.5265    85.5690     2.5000     0.0280     0.0340
  819.5000  -999.2500  -999.2500  -999.2500     9.5212    85.3179     2.4917     0.0305     0.0355
  820.0000  -999.2500  -999.2500  -999.2500     9.5160    84.7981     2.4904     0.0375     0.0346
  820.5000  -999.2500  -999.2500  -999.2500     9.5107    84.2842     2.4905     0.0497     0.0286
  821.0000  -999.2500  -999.2500  -999.2500     9.5054    84.0176     2.4973     0.0619     0.0169
  821.5000  -999.2500  -999.2500  -999.2500     9.5001    84.1962     2.5048     0.0720     0.0167
  822.0000  -999.2500  -999.2500  -999.2500     9.4948    84.9760     2.5094     0.0596     0.0234
  822.5000  -999.2500  -999.2500  -999.2500     9.4895    85.7555     2.5016     0.0413     0.0318
  823.0000  -999.2500  -999.2500  -999.2500     9.4842    86.5793     2.4936     0.0231     0.0365
  823.5000  -999.2500  -999.2500  -999.2500     9.4791    88.5569     2.4892     0.0100     0.0365
  824.0000  -999.2500  -999.2500  -999.2500     9.4807    90.6381     2.4887     0.0112     0.0365
  824.5000  -999.2500  -999.2500  -999.2500     9.4829    92.7129     2.4891     0.0139     0.0326
  825.0000  -999.2500  -999.2500  -999.2500     9.4851    93.8151     2.4954     0.0264     0.0273
  825.5000  -999.2500  -999.2500  -999.2500     9.4873    92.5380     2.5031     0.0389     0.0221
  826.0000  -999.2500  -999.2500  -999.2500     9.4895    90.7884     2.5107     0.0513     0.0168
  826.5000  -999.2500  -999.2500  -999.2500     9.4916    89.0251     2.5183     0.0596     0.0116
  827.0000  -999.2500  -999.2500  -999.2500     9.4938    87.2654     2.5240     0.0566     0.0086
  827.5000  -999.2500  -999.2500  -999.2500     9.4960    85.4928     2.5253     0.0539     0.0119
  828.0000  -999.2500  -999.2500  -999.2500     9.4982    85.3785     2.5235     0.0511     0.0149
  828.5000  -999.2500  -999.2500  -999.2500     9.5004    86.7737     2.5210     0.0504     0.0133
  829.0000  -999.2500  -999.2500  -999.2500     9.5026    88.1529     2.5200     0.0509     0.0116
  829.5000  -999.2500  -999.2500  -999.2500     9.5047    89.0701     2.5210     0.0515     0.0108
  830.0000  -999.2500  -999.2500  -999.2500     9.5069    89.2699     2.5196     0.0520     0.0177
  830.5000  -999.2500  -999.2500  -999.2500     9.5091    89.4795     2.5161     0.0525     0.0233
  831.0000  -999.2500  -999.2500  -999.2500     9.5113    89.2192     2.5127     0.0531     0.0192
  831.5000  -999.2500  -999.2500  -999.2500     9.5135    88.5306     2.5164     0.0536     0.0091
  832.0000  -999.2500  -999.2500  -999.2500     9.5158    87.9993     2.5258     0.0540     0.0052
  832.5000  -999.2500  -999.2500  -999.2500     9.5179    88.2256     2.5285     0.0504     0.0089
  833.0000  -999.2500  -999.2500  -999.2500     9.5120    88.4298     2.5247     0.0470     0.0130
  833.5000  -999.2500  -999.2500  -999.2500     9.4804    88.2820     2.5204     0.0407     0.0143
  834.0000  -999.2500  -999.2500  -999.2500     9.4498    87.2298     2.5161     0.0336     0.0155
  834.5000  -999.2500  -999.2500  -999.2500     9.4192    85.8964     2.5105     0.0264     0.0200
  835.0000  -999.2500  -999.2500  -999.2500     9.3958    84.3360     2.5040     0.0192     0.0263
  835.5000  -999.2500  -999.2500  -999.2500     9.3725    82.7591     2.4975     0.0121     0.0326
  836.0000  -999.2500  -999.2500  -999.2500     9.3491    83.4505     2.4910     0.0062     0.0393
  836.5000  -999.2500  -999.2500  -999.2500     9.3258    84.7524     2.4846     0.0094     0.0393
  837.0000  -999.2500  -999.2500  -999.2500     9.3024    86.0986     2.4847     0.0123     0.0285
  837.5000  -999.2500  -999.2500  -999.2500     9.2790    86.8758     2.4936     0.0140     0.0192
  838.0000  -999.2500  -999.2500  -999.2500     9.2556    86.6451     2.5029     0.0140     0.0180
  838.5000  -999.2500  -999.2500  -999.2500     9.2388    86.2562     2.5055     0.0140     0.0301
  839.0000  -999.2500  -999.2500  -999.2500     9.2560    85.1649     2.5014     0.0141     0.0288
  839.5000  -999.2500  -999.2500  -999.2500     9.2727    84.0085     2.5019     0.0161     0.0236
