~VERSION INFORMATION
 VERS.                2.0:   CWLS LOG ASCII STANDARD - VERSION 2.0
 WRAP.                 NO:   ONE LINE PER DEPTH STEP
~WELL INFORMATION
#MNEM.UNIT      DATA TYPE    INFORMATION
#----------   ------------   ------------------------------
 STRT.F           14.0000:   START DEPTH
 STOP.F          549.0000:   STOP DEPTH
 STEP.F            0.5000:   STEP LENGTH
 NULL.          -999.2500:   NO VALUE
 COMP.   LAWRENCE-ALLISON:   COMPANY
 WELL.    NPR 3 #58-64SX3:   WELL
 FLD .           NPR NO 3:   FIELD
 LOC .       S3 T38N R78W:   LOCATION
 CNTY.            NATRONA:   COUNTY
 STAT.            WYOMING:   STATE
 CTRY. UNITED STATES OF AMERICA:   COUNTRY
 SRVC.      Dresser Atlas:   SERVICE COMPANY
 DATE.        05-DEC-1984:   LOGDATE
 API .       490251099700:   API NUMBER
~CURVE INFORMATION
#MNEM.UNIT       API CODE    CURVE DESCRIPTION
#----------   ------------   ------------------------------
 DEPT.F                  :   
 RFOC.OHMM   07 220 04 00:   RESISTIVITY FOCUSED LOG
 RILD.OHMM   07 120 46 00:   INDUCTION LOG DEEP RESISTIVITY
 RILM.OHMM   07 120 44 00:   INDUCTION LOG MEDIUM RESISTIVITY
 SPR .MV     07 010 01 00:   SPONTANEOUS POTENTIAL
 DT  .US/F   60 520 00 00:   INTERVAL TRANSIT TIME
 CALD.IN     45 280 60 00:   CALIPER FROM DENSITY LOG
 CORR.G/C3   45 356 01 00:   DENSITY CORRECTION
 CNC .DEC    42 890 03 00:   NEUTRON POROSITY SANDSTONE
 DEN .G/C3   45 350 01 00:   COMPENSATED BULK DENSTIY
 GRD .GAPI   45 310 01 00:   GAMMA RAY FROM DENSITY LOG
 PORD.DEC    45 890 12 00:   POROSITY DENSITY SANDSTONE
~PARAMETER INFORMATION
#MNEM.UNIT          VALUE    DESCRIPTION
#----------   ------------   ------------------------------
 PD  .                 GL:   PERMANENT DATUM
 EPD .F              5188:   ELEVATION PERMANENT DATUM
 LMF .                 KB:   LOG MEASURED FROM
 DMF .                 KB:   DRILLING MEASURED FROM
 EGL .F              5188:   GROUND LEVEL
 DATE.        05-DEC-1984:   RUN DATE
 RUN .                  1:   RUN NUMBER
 DD  .F               556:   DEPTH DRILLER
 DL  .F               551:   DEPTH LOGGER
 BLI .F               548:   BOTTOM LOG INTERVAL
 CS  .IN            8.625:   CASING SIZE
 CBD .F                20:   CASING BOTTOM DRILLER
 CBL .F                20:   CASING BOTTOM LOGGER
 BS  .IN            7.875:   BIT SIZE
 BSD .F               556:   BIT SIZE AT DEPTH
 DFT .          KCL WATER:   DRILLING FLUID TYPE
 MSS .           FLOWLINE:   MUD SAMPLE SOURCE
 RMS .OHMM            .36:   RESISTIVITY MUD SAMPLE
 MST .F                70:   MUD SAMPLE TEMPERATURE
 RMF .OHMM            .26:   RESISTIVITY MUD FILTRATE SAMPLE
 MFST.F                70:   MUD FILTRATE SAMPLE TEMPERATURE
 RMC .OHMM            .46:   RESISTIVITY MUD CAKE
 MCST.F                70:   MUD CAKE SAMPLE TEMPERATURE
 MFSS.               CALC:   MUD FILTRATE SAMPLE SOURCE
 MCSS.               CALC:   MUD CAKE SAMPLE SOURCE
 RMB .OHMM            .29:   RESISTIVITY MUD AT BHT
 BHT .F                85:   BOTTOM HOLE TEMPERATURE
 TCS .HRS               3:   TIME CURCULATED STOPPED
 MRT .F               100:   MAXIMUM RECORDED TEMPERATURE
 LUN .               6274:   LOGGING UNIT NUMBER
 LUL .               GLTE:   LOGGING UNIT LOCATION
 ENGI.             PAUTIO:   RECORDING ENGINEER
 WITN.       GROONS/LUERS:   WITNESSED BY
 CLNT.            A2DTECH:   CLIENT CODE
 ORIG.           5" PRINT:   ORIGIN OF DATA
 UWI .       490251099700:   UNIQUE WELL ID
 DICO. A2D Technologies, Inc.:   DIGITIZING COMPANY
~OTHER INFORMATION
~A   DEPT     RFOC       RILD       RILM        SPR         DT       CALD       CORR          CNC      DEN         GRD      PORD   
# ...
  349.5000    37.2063    37.9667    33.4967   -46.6028    97.2969     8.0416     0.0367     0.2357     2.3633    75.9513     0.1781
  350.0000    38.8549    38.4956    32.7419   -46.1538    90.0000     8.0245     0.0382     0.2161     2.3943    74.6939     0.1644
  350.5000    39.1268    38.4509    31.9956   -46.0151    88.2573     8.0080     0.0349     0.2139     2.4404    74.9794     0.1428
  351.0000    37.9805    38.6920    31.2663   -46.0308    88.0444     8.0069     0.0331     0.2129     2.4546    75.8930     0.1333
  351.5000    35.2920    38.0786    30.1105   -46.0491    89.4540     8.0059     0.0395     0.2149     2.4411    78.6789     0.1403
  352.0000    32.7939    37.4850    28.9974   -46.0643    91.2826     8.0048     0.0440     0.2283     2.3843    79.5312     0.1690
  352.5000    32.5413    36.6317    28.3360   -46.0794    94.0000     8.0037     0.0438     0.2417     2.3623    78.2305     0.1865
  353.0000    32.5272    35.5369    28.0710   -46.2483    94.7116     8.0183     0.0356     0.2519     2.3481    77.0123     0.1952
  353.5000    32.2767    34.4748    27.8615   -46.2635    96.6895     8.0015     0.0275     0.2589     2.3429    77.6626     0.1990
  354.0000    31.5609    33.6900    28.0336   -46.1210    98.5180     8.0162     0.0210     0.2621     2.3404    78.1982     0.2004
  354.5000    30.1859    32.6831    27.9934   -45.9860   100.3465     8.0148     0.0192     0.2698     2.3380    78.4822     0.2020
  355.0000    29.2954    31.9391    27.9614   -46.0011   101.0639     8.0137     0.0223     0.2724     2.3355    79.4239     0.2035
  355.5000    29.3044    30.9846    27.5243   -46.0163   101.6226     8.0127     0.0253     0.2745     2.3331    80.2849     0.2055
  356.0000    29.9401    30.0585    27.2927   -45.7231   102.1019     8.0117     0.0283     0.2743     2.3314    80.2593     0.2065
  356.5000    30.1463    29.3743    27.0630   -45.2773   102.1050     8.0105     0.0329     0.2683     2.3337    79.8725     0.2055
  357.0000    29.6934    28.4964    26.6400   -44.9847   101.9494     8.0096     0.0360     0.2642     2.3360    78.5515     0.2037
  357.5000    28.6999    27.8477    26.2236   -45.1538   101.4763     8.0083     0.0358     0.2595     2.3399    75.8593     0.2011
  358.0000    27.2186    27.2110    25.8136   -45.3231   100.9239     7.9918     0.0293     0.2560     2.3446    78.6124     0.1986
  358.5000    26.4147    26.5789    25.4101   -45.6492   100.0540     7.9907     0.0259     0.2574     2.3517    81.3656     0.1923
  359.0000    25.8222    26.1520    25.0042   -45.8182    99.4979     7.9897     0.0306     0.2587     2.3644    84.4274     0.1871
  359.5000    25.2431    25.5768    24.5990   -45.8333    99.2569     7.9886     0.0336     0.2593     2.3715    85.6374     0.1844
  360.0000    25.0397    25.3630    24.0538   -46.0023    98.5562     7.9875     0.0318     0.2600     2.3658    84.6869     0.1860
  360.5000    25.0200    24.9676    23.8514   -46.3251    97.5275     8.0021     0.0285     0.2614     2.3681    84.0450     0.1851
  361.0000    25.1840    24.9407    23.4786   -46.4940    96.5783     8.0009     0.0267     0.2683     2.3736    82.1685     0.1835
  361.5000    25.5335    24.7321    23.1116   -46.5092    95.1528     8.0154     0.0250     0.2691     2.3807    79.0575     0.1804
  362.0000    25.5133    24.5254    23.0851   -46.5243    94.0441     8.0141     0.0201     0.2627     2.3767    73.4773     0.1785
  362.5000    25.3075    24.4989    22.7264   -46.8471    94.9210     8.0130     0.0151     0.2551     2.3702    75.3045     0.1830
  363.0000    24.9207    24.4724    22.5352   -46.8622    96.4320     8.0119     0.0150     0.2637     2.3670    78.0577     0.1859
  363.5000    24.7159    24.4479    22.3451   -46.8769    98.3399     8.0108     0.0244     0.2685     2.3677    81.1195     0.1849
  364.0000    24.3385    24.4196    22.4836   -46.8925    99.2160     7.9943     0.0338     0.2654     2.3732    84.1875     0.1833
  364.5000    24.3193    24.2155    22.6224   -46.9077    99.5366     7.9778     0.0302     0.2584     2.3771    82.6135     0.1796
  365.0000    24.3002    24.0130    22.5900   -46.9231    99.7778     7.9921     0.0239     0.2539     2.3715    81.9716     0.1796
  365.5000    24.4637    24.1634    22.9027   -46.9385    99.9466     7.9911     0.0187     0.2572     2.3611    82.5704     0.1835
  366.0000    24.7989    24.1369    23.0442   -47.1106   100.2794     8.0057     0.0172     0.2623     2.3577    85.6261     0.1899
  366.5000    24.7793    24.2338    23.1865   -47.1257   100.8990     8.0044     0.0218     0.2592     2.3633    86.2249     0.1877
  367.0000    24.9461    24.2609    23.3230   -47.1408   101.2196     8.0033     0.0312     0.2548     2.3600    84.9596     0.1886
  367.5000    24.9215    24.4070    23.2963   -47.1559   101.5402     8.0022     0.0358     0.2510     2.3536    80.9226     0.1916
  368.0000    24.7208    24.5663    23.1003   -47.0134   101.3846     8.0011     0.0325     0.2491     2.3495    85.2190     0.1958
  368.5000    24.5216    24.7133    22.7392   -47.0323   101.0702     8.0000     0.0227     0.2472     2.3454    87.9722     0.1986
  369.0000    24.3241    24.3281    22.5478   -47.0474   100.5972     7.9990     0.0098     0.2454     2.3439    87.9476     0.1990
  369.5000    23.9414    23.9118    22.1954   -47.0626   100.0447     7.9979     0.0033     0.2477     2.3455    87.3057     0.1955
  370.0000    23.5864    23.4036    22.0082   -47.0777    99.5716     7.9968     0.0095     0.2506     2.3501    86.0465     0.1910
  370.5000    23.2224    22.8709    21.6637   -47.2466    99.4160     7.9957     0.0173     0.2525     2.3532    85.4046     0.1901
  371.0000    23.0353    22.3503    21.4761   -47.2618    99.4985     7.9947     0.0267     0.2531     2.3595    84.4541     0.1889
  371.5000    22.6836    22.1066    21.1404   -47.2769    99.6603     7.9936     0.0377     0.2535     2.3650    82.5776     0.1860
  372.0000    22.3373    21.7664    20.8100   -47.2923    99.9809     7.9926     0.0296     0.2532     2.3689    81.6332     0.1832
  372.5000    22.1574    21.3212    20.6349   -47.3077   100.0728     7.9915     0.0167     0.2526     2.3751    84.0716     0.1799
  373.0000    21.8191    21.0522    20.3123   -47.4799   100.1467     7.9903     0.0070     0.2517     2.3822    86.2075     0.1759
  373.5000    21.3297    20.8134    20.2890   -47.4950   100.0696     7.9892     0.0053     0.2492     2.3909    86.1829     0.1725
  374.0000    21.0041    20.6361    20.1183   -47.5101    99.9148     7.9882     0.0242     0.2516     2.3980    86.4669     0.1696
  374.5000    20.5330    20.3171    19.9490   -47.5252    99.6790     7.9871     0.0400     0.2544     2.4019    87.0658     0.1652
  375.0000    20.0725    20.2085    19.6372   -47.5404    99.3647     8.0017     0.0509     0.2572     2.4010    87.6523     0.1633
  375.5000    19.6223    20.1206    19.3302   -47.8632    99.2099     8.0004     0.0524     0.2560     2.3978    88.5536     0.1653
  376.0000    19.3227    19.9523    18.7521   -47.8783    99.2130     7.9993     0.0474     0.2509     2.3945    86.9858     0.1698
  376.5000    19.0215    19.6413    18.3159   -48.2011    98.9780     8.0139     0.0441     0.2503     2.3953    85.1093     0.1691
  377.0000    18.6005    19.2801    17.7759   -48.2162    98.6636     8.0127     0.0392     0.2529     2.3984    84.1649     0.1669
  377.5000    18.4258    18.7573    17.3665   -48.2313    98.1112     8.0115     0.0358     0.2593     2.4015    84.4490     0.1649
  378.0000    18.1658    18.4649    17.0950   -48.5541    97.4794     8.0104     0.0389     0.2511     2.4030    84.4182     0.1625
  378.5000    17.8884    18.0445    16.7053   -48.7231    96.5185     8.0094     0.0387     0.2397     2.4045    83.7763     0.1613
  379.0000    17.6153    17.6338    16.5647   -48.8923    95.4746     7.9928     0.0318     0.2288     2.4076    82.5171     0.1601
  379.5000    17.4734    17.3589    16.3058   -49.0816    94.7911     8.0072     0.0238     0.2263     2.4155    80.0234     0.1579
