~VERSION INFORMATION
 VERS.                2.0:   CWLS LOG ASCII STANDARD - VERSION 2.0
 WRAP.                 NO:   ONE LINE PER DEPTH STEP
~WELL INFORMATION
#MNEM.UNIT      DATA TYPE    INFORMATION
#----------   ------------   ------------------------------
 STRT.F           20.5000:   START DEPTH
 STOP.F          725.0000:   STOP DEPTH
 STEP.F            0.5000:   STEP LENGTH
 NULL.          -999.2500:   NO VALUE
 COMP. FENIX & SCISSON INC:   COMPANY
 WELL.       NPR 3 #67-27:   WELL
 FLD .             TEAPOT:   FIELD
 LOC .      S27 T39N R78W:   LOCATION
 CNTY.            NATRONA:   COUNTY
 STAT.            WYOMING:   STATE
 CTRY. UNITED STATES OF AMERICA:   COUNTRY
 SRVC.           BIRDWELL:   SERVICE COMPANY
 DATE.        15-SEP-1978:   LOGDATE
 API .       490251069400:   API NUMBER
~CURVE INFORMATION
#MNEM.UNIT       API CODE    CURVE DESCRIPTION
#----------   ------------   ------------------------------
 DEPT.F                  :   
 CALD.IN     45 280 60 00:   CALIPER
 GRD .GAPI   45 310 01 00:   GAMMA RAY FROM DENSITY LOG
 RHOB.G/C3   45 350 01 00:   BULK DENSITY
 DPHI.DEC    45 890 12 00:   DENSITY POROSITY SANDSTONE
 CORR.G/C3   45 356 01 00:   DENSITY CORRECTION
 SPR .MV     05 010 01 00:   SPONTANEOUS POTENTIAL FROM RES.
 ILD .OHMM   05 120 46 00:   INDUCTION LOG DEEP
 SN  .OHMM   05 040 16 00:   SHORT NORMAL 16"
~PARAMETER INFORMATION
#MNEM.UNIT          VALUE    DESCRIPTION
#----------   ------------   ------------------------------
 PD  .                 GL:   PERMANENT DATUM
 EPD .F              5027:   ELEVATION PERMANENT DATUM
 LMF .                 KB:   LOG MEASURED FROM
 DAPD.F                 4:   FEET ABOVE PERMANENT DATUM
 DMF .                 KB:   DRILLING MEASURED FROM
 EKB .F              5031:   KELLING BUSHING
 EGL .F              5027:   GROUND LEVEL
 DATE.            9-15-78:   RUN DATE
 RUN .                  1:   RUN NUMBER
 DD  .F               728:   DEPTH DRILLER
 DL  .F               719:   DEPTH LOGGER
 BLI .F               713:   BOTTOM LOG INTERVAL
 TLI .F                30:   TOP LOG INTERVAL
 CS  .IN            8.625:   CASING SIZE
 CBD .F                34:   CASING BOTTOM DRILLER
 CBL .F                34:   CASING BOTTOM LOGGER
 BS  .IN            7.875:   BIT SIZE
 BSD .F               728:   BIT SIZE AT DEPTH
 DFT .            KCL MUD:   DRILLING FLUID TYPE
 DFD .                  9:   DRILLING FLUID DENSITY
 DFV .                 46:   DRILLING FLUID VISCOSITY
 DFPH.                  9:   DRILLING FLUID PH
 DFL .                7.6:   DRILLING FLUID LOSS
 MSS .          FLOW LINE:   MUD SAMPLE SOURCE
 RMS .OHMM            .34:   RESISTIVITY MUD SAMPLE
 MST .F                68:   MUD SAMPLE TEMPERATURE
 RMF .OHMM             .3:   RESISTIVITY MUD FILTRATE SAMPLE
 MFST.F                68:   MUD FILTRATE SAMPLE TEMPERATURE
 RMC .OHMM            .38:   RESISTIVITY MUD CAKE
 MCST.F                70:   MUD CAKE SAMPLE TEMPERATURE
 MFSS.               MEAS:   MUD FILTRATE SAMPLE SOURCE
 MCSS.               MEAS:   MUD CAKE SAMPLE SOURCE
 RMB .OHMM            .32:   RESISTIVITY MUD AT BHT
 BHT .F                72:   BOTTOM HOLE TEMPERATURE
 TCS .HRS               2:   TIME CURCULATED STOPPED
 MRT .F                72:   MAXIMUM RECORDED TEMPERATURE
 LUN .               2958:   LOGGING UNIT NUMBER
 LUL .               CASP:   LOGGING UNIT LOCATION
 ENGI.           REYNOLDS:   RECORDING ENGINEER
 WITN.           DINSMORE:   WITNESSED BY
 CLNT.            A2DTECH:   CLIENT CODE
 ORIG.           5" PRINT:   ORIGIN OF DATA
 UWI .       490251069400:   UNIQUE WELL ID
 DICO. A2D Technologies, Inc.:   DIGITIZING COMPANY
~OTHER INFORMATION
~A   DEPT     CALD        GRD       RHOB       DPHI       CORR        SPR        ILD         SN   
# ...
  223.0000     7.9445   117.8339     2.3731     0.1933     0.0015   -48.9943     3.3132     3.5017
  223.5000     7.9400   117.3418     2.3830     0.1831     0.0015   -49.0229     3.3132     3.5017
  224.0000     7.9355   117.7697     2.3864     0.1827     0.0015   -49.0514     3.3132     3.5017
  224.5000     7.9308   118.1393     2.3719     0.1915     0.0015   -49.0800     3.3133     3.5017
  225.0000     7.9350   118.5001     2.3540     0.2006     0.0015   -49.1086     3.3132     3.5017
  225.5000     7.9433   118.8652     2.3359     0.2158     0.0015   -49.1371     3.3056     3.5017
  226.0000     7.9535   119.2350     2.3186     0.2251     0.0015   -49.1657     3.2828     3.4187
  226.5000     7.9721   119.3300     2.3143     0.2303     0.0015   -49.1943     3.0411     3.2587
  227.0000     7.9893   119.3678     2.3107     0.2307     0.0023   -49.2229     2.8165     3.1061
  227.5000     7.9842   119.4038     2.3075     0.2339     0.0033   -49.2522     2.6025     2.9607
  228.0000     7.9782   119.4420     2.2810     0.2526     0.0043   -49.2828     2.4497     2.8221
  228.5000     7.9720   119.4837     2.2498     0.2757     0.0053   -49.2785     2.3994     2.7300
  229.0000     7.9581   119.7862     2.2196     0.2881     0.0063   -48.8636     2.3994     2.6801
  229.5000     7.9288   119.0286     2.2136     0.2914     0.0075   -48.4591     2.4472     2.6312
  230.0000     7.8998   117.9694     2.2270     0.2822     0.0047   -48.0593     2.5171     2.6070
  230.5000     7.8706   116.8877     2.2919     0.2297     0.0033   -47.6853     2.5891     2.6964
  231.0000     7.8415   116.5346     2.3552     0.1782     0.0019   -47.6203     2.6555     2.8318
  231.5000     7.8125   117.3269     2.4161     0.1579     0.0006   -47.5500     2.7937     2.9739
  232.0000     7.7908   118.1461     2.4218     0.1619    -0.0001   -47.4784     2.9120     3.2036
  232.5000     7.7981   118.9619     2.4151     0.1657     0.0021   -47.4074     3.1876     3.6618
  233.0000     7.8049   119.7762     2.4084     0.1695     0.0042   -47.3367     3.3737     4.1338
  233.5000     7.8109   120.5902     2.4067     0.1733     0.0063   -47.3562     3.9927     4.0923
  234.0000     7.8149   121.4096     2.4081     0.1752     0.0084   -47.4670     3.9849     4.0338
  234.5000     7.8190   121.8576     2.4095     0.1714     0.0105   -47.5777     3.7697     3.9761
  235.0000     7.8230   122.1106     2.4108     0.1670     0.0126   -47.6889     3.5668     3.9192
  235.5000     7.8270   122.3608     2.4070     0.1659     0.0147   -47.8001     3.5564     3.8631
  236.0000     7.8310   122.6111     2.3973     0.1763     0.0170   -47.9115     3.5415     3.8079
  236.5000     7.8350   122.8620     2.3833     0.1847     0.0193   -48.0206     3.4570     3.7697
  237.0000     7.8390   123.1124     2.3664     0.1930     0.0216   -48.0847     3.3079     3.7697
  237.5000     7.8430   123.3093     2.3574     0.2014     0.0239   -48.0143     3.1652     3.6444
  238.0000     7.8470   123.0862     2.3489     0.2084     0.0262   -47.9462     3.0287     3.5341
  238.5000     7.8536   122.9090     2.3277     0.2143     0.0269   -47.7918     2.8853     3.4271
  239.0000     7.8701   123.1998     2.3047     0.2350     0.0256   -47.3537     2.8842     3.3234
  239.5000     7.8861   123.4887     2.2831     0.2530     0.0243   -46.9324     2.8841     3.2228
  240.0000     7.9018   123.7219     2.2756     0.2550     0.0229   -46.5013     3.0063     3.1932
  240.5000     7.9179   123.2757     2.2961     0.2308     0.0216   -45.8036     3.1024     3.3003
  241.0000     7.9564   121.8640     2.3402     0.1886     0.0234   -44.7883     3.2018     3.4006
  241.5000     8.1078   120.4983     2.3841     0.1675     0.0256   -43.7571     3.3012     3.5041
  242.0000     7.9554   119.3701     2.4282     0.1344     0.0278   -43.6172     3.4684     3.5999
  242.5000     7.9567   118.9037     2.4607     0.1378     0.0291   -43.5401     3.6440     4.0520
  243.0000     7.9641   118.4414     2.4609     0.1418     0.0275   -43.4580     4.0210     4.5121
  243.5000     7.9712   118.2235     2.4564     0.1428     0.0259   -43.3745     4.6601     4.8912
  244.0000     7.9781   118.8075     2.4546     0.1400     0.0243   -43.2992     4.8112     5.1371
  244.5000     7.9850   119.3680     2.4619     0.1369     0.0242   -43.3291     4.9849     5.2609
  245.0000     7.9901   119.9328     2.4659     0.1338     0.0257   -43.3567     5.1102     5.3674
  245.5000     7.9900   120.3261     2.4686     0.1326     0.0272   -43.3838     5.0493     5.4789
  246.0000     7.9900   119.3429     2.4711     0.1324     0.0287   -43.4108     5.0168     5.5923
  246.5000     7.9900   118.1129     2.4725     0.1280     0.0287   -43.4378     5.2813     5.7080
  247.0000     7.9900   118.0948     2.4765     0.1215     0.0270   -43.4648     5.4941     5.8184
  247.5000     7.9900   118.1264     2.4837     0.1151     0.0253   -43.4936     5.7155     6.1739
  248.0000     7.9900   118.2450     2.4909     0.1140     0.0236   -43.4735     5.9454     6.4999
  248.5000     7.9900   118.3709     2.4909     0.1161     0.0220   -43.4372     6.2623     6.6612
  249.0000     7.9900   118.4986     2.4879     0.1184     0.0203   -43.4000     6.2577     6.8008
  249.5000     7.9900   118.5316     2.4849     0.1214     0.0198   -43.3629     6.2589     6.8638
  250.0000     7.9900   118.5657     2.4818     0.1242     0.0204   -43.3263     6.2593     6.9274
  250.5000     7.9900   118.6002     2.4801     0.1270     0.0210   -43.2932     6.2593     6.9915
  251.0000     7.9900   118.6335     2.4787     0.1288     0.0216   -43.2717     6.2593     6.9915
  251.5000     7.9900   118.6677     2.4797     0.1265     0.0222   -43.2499     6.2593     6.9915
  252.0000     7.9900   118.7979     2.4829     0.1220     0.0228   -43.2281     6.2593     6.9915
  252.5000     7.9900   119.5857     2.4863     0.1184     0.0234   -43.2063     6.2592     6.9915
  253.0000     7.9900   120.3705     2.4806     0.1270     0.0195   -43.1845     6.2524     6.9915
  253.5000     7.9900   120.9543     2.4713     0.1329     0.0151   -43.1627     6.2448     6.9915
  254.0000     7.9871   121.0847     2.4706     0.1267     0.0107   -43.1409     6.2372     6.9915
  254.5000     7.9782   121.2250     2.4830     0.1200     0.0062   -43.1192     6.2296     6.9915
  255.0000     7.9695   121.3637     2.4878     0.1205     0.0017   -43.0958     6.2221     6.9915
  255.5000     7.9607   121.5037     2.4851     0.1211     0.0010   -43.0660     6.2147     6.9915
  256.0000     7.9517   121.6424     2.4818     0.1218     0.0005   -43.0356     6.2066     6.9915
  256.5000     7.9535   121.5765     2.4815     0.1225     0.0001   -43.0053     6.2018     6.9915
  257.0000     7.9580   120.8129     2.4821     0.1231    -0.0004   -42.9747     6.3194     6.9915
  257.5000     7.9625   120.0437     2.4827     0.1250    -0.0009   -42.9448     6.4102     6.9915
  258.0000     7.9670   119.7863     2.4805     0.1293    -0.0014   -42.9131     6.4893     6.9916
  258.5000     7.9715   119.6412     2.4726     0.1340    -0.0019   -43.0951     6.5647     7.0024
  259.0000     7.9760   119.4981     2.4695     0.1330    -0.0024   -43.4586     6.6410     7.0347
  259.5000     7.9805   119.3587     2.4703     0.1319    -0.0029   -43.8238     6.7181     7.0673
  260.0000     7.9850   118.9377     2.4711     0.1309    -0.0033   -44.1880     6.7961     7.1003
  260.5000     7.9895   118.3584     2.4719     0.1298    -0.0038   -44.5045     6.8691     7.1220
  261.0000     7.9940   117.7739     2.4727     0.1296    -0.0043   -44.4657     6.9065     7.1003
  261.5000     7.9985   117.2051     2.4734     0.1296    -0.0048   -44.4330     6.9442     7.0816
  262.0000     8.0030   116.8070     2.4742     0.1296    -0.0053   -44.4016     6.9921     7.0628
  262.5000     8.0074   117.3875     2.4749     0.1288    -0.0058   -44.3703     6.9912     7.0442
  263.0000     8.0015   117.4748     2.4757     0.1279    -0.0063   -44.3385     6.9915     7.0257
