~VERSION INFORMATION
 VERS.                2.0:   CWLS LOG ASCII STANDARD - VERSION 2.0
 WRAP.                 NO:   ONE LINE PER DEPTH STEP
~WELL INFORMATION
#MNEM.UNIT      DATA TYPE    INFORMATION
#----------   ------------   ------------------------------
 STRT.F            2.0000:   START DEPTH
 STOP.F          595.0000:   STOP DEPTH
 STEP.F            0.5000:   STEP LENGTH
 NULL.          -999.2500:   NO VALUE
 COMP.       F D SERV INC:   COMPANY
 WELL.    73-5 SX-3 #73-3:   WELL
 FLD .             TEAPOT:   FIELD
 LOC .       S3 T38N R78W:   LOCATION
 CNTY.            NATRONA:   COUNTY
 STAT.            WYOMING:   STATE
 CTRY. UNITED STATES OF AMERICA:   COUNTRY
 SRVC.     Atlas Wireline:   SERVICE COMPANY
 DATE.        01-MAY-1992:   LOGDATE
 API .       490252252200:   API NUMBER
~CURVE INFORMATION
#MNEM.UNIT       API CODE    CURVE DESCRIPTION
#----------   ------------   ------------------------------
 DEPT.F                  :   
 CALD.IN     45 280 60 00:   CALIPER FROM DENSITY
 CORR.G/C3   45 356 01 00:   DENSITY CORRECTION
 DEN .G/C3   45 350 01 00:   COMPENSATED BULK DENSTIY
 GRD .GAPI   45 310 01 00:   GAMMA RAY FROM DENSITY LOG
 RILD.OHMM   07 120 46 00:   INDUCTION LOG DEEP RESISTIVITY
 RILM.OHMM   07 120 44 00:   INDUCTION LOG MEDIUM RESISTIVITY
 PORD.DEC    45 890 12 00:   POROSITY DENSITY SANDSTONE
~PARAMETER INFORMATION
#MNEM.UNIT          VALUE    DESCRIPTION
#----------   ------------   ------------------------------
 PD  .                 GL:   PERMANENT DATUM
 EPD .F              5147:   ELEVATION PERMANENT DATUM
 LMF .                 KB:   LOG MEASURED FROM
 DAPD.F                 5:   FEET ABOVE PERMANENT DATUM
 DMF .                 KB:   DRILLING MEASURED FROM
 EKB .F              5152:   KELLING BUSHING
 EGL .F              5147:   GROUND LEVEL
 DATE.        01-MAY-1992:   RUN DATE
 RUN .                  1:   RUN NUMBER
 DD  .F               600:   DEPTH DRILLER
 DL  .F               603:   DEPTH LOGGER
 BLI .F               601:   BOTTOM LOG INTERVAL
 TLI .F                 2:   TOP LOG INTERVAL
 CS  .IN            8.625:   CASING SIZE
 CBD .F                46:   CASING BOTTOM DRILLER
 CBL .F                53:   CASING BOTTOM LOGGER
 BS  .IN            7.875:   BIT SIZE
 BSD .F               600:   BIT SIZE AT DEPTH
 DFT .                AIR:   DRILLING FLUID TYPE
 TCS .HRS               1:   TIME CURCULATED STOPPED
 LUN .            HL-6274:   LOGGING UNIT NUMBER
 LUL .             CASPER:   LOGGING UNIT LOCATION
 ENGI.             ZIEGER:   RECORDING ENGINEER
 WITN.             STRONG:   WITNESSED BY
 CLNT.            A2DTECH:   CLIENT CODE
 ORIG.           5" PRINT:   ORIGIN OF DATA
 UWI .       490252252200:   UNIQUE WELL ID
 DICO. A2D Technologies, Inc.:   DIGITIZING COMPANY
~OTHER INFORMATION
~A    DEPT    CALD       CORR        DEN         GRD      RILD       RILM       PORD   
# ...
  502.5000     7.9262    -0.0095     2.4829   132.6168    10.5804    10.5804     0.1055
  503.0000     7.9259    -0.0128     2.4767   131.7108    10.5768    10.5041     0.1062
  503.5000     7.9256    -0.0130     2.4705   129.3018    10.5005    10.5741     0.1062
  504.0000     7.9253    -0.0072     2.4735   124.7876    10.6435    10.6435     0.1032
  504.5000     7.9250     0.0016     2.4915   122.6794    10.6399    10.7894     0.0969
  505.0000     7.9096     0.0043     2.5095   121.1727    10.7107    11.0138     0.0860
  505.5000     7.9093     0.0041     2.5275   119.3652    10.7820    11.0100     0.0773
  506.0000     7.8940    -0.0022     2.5380   119.0622    10.7782    11.0834     0.0713
  506.5000     7.8937    -0.0054     2.5349   123.8705    10.6988    11.0016     0.0692
  507.0000     7.8934    -0.0087     2.5242   129.2811    10.6951    10.6951     0.0740
  507.5000     7.8931    -0.0119     2.5119   132.5864    10.6171    10.5433     0.0809
  508.0000     7.8928    -0.0061     2.5042   131.9742    10.4664    10.3936     0.0864
  508.5000     7.8925    -0.0064     2.4997   130.1281    10.3178    10.3178     0.0910
  509.0000     7.8921    -0.0066     2.4996   127.6812    10.2425    10.2425     0.0928
  509.5000     7.9069    -0.0129     2.5055   124.7543    10.1678    10.1678     0.0916
  510.0000     7.9066    -0.0222     2.5100   121.7438    10.0936    10.0936     0.0877
  510.5000     7.9063    -0.0255     2.5068   122.9439     9.9503    10.1617     0.0856
  511.0000     7.9211    -0.0227     2.5037   127.4522    10.0174    10.0867     0.0884
  511.5000     7.9207    -0.0199     2.5036   127.4492     9.9435    10.0928     0.0899
  512.0000     7.9204    -0.0171     2.5095   126.8448     9.9401    10.0798     0.0887
  512.5000     7.9201    -0.0174     2.5125   126.8418     9.8676    10.0763     0.0857
  513.0000     7.9199    -0.0146     2.5139   127.4403     9.8596    10.0682     0.0839
  513.5000     7.9045    -0.0149     2.5153   130.1441     9.7922     9.9900     0.0827
  514.0000     7.9042    -0.0151     2.5167   132.5472     9.7200     9.8566     0.0822
  514.5000     7.9190    -0.0123     2.5211   137.0555     9.7167     9.7167     0.0831
  515.0000     7.9036    -0.0095     2.5225   138.5563     9.6458     9.5787     0.0837
  515.5000     7.9033    -0.0098     2.5206   137.9519     9.5089     9.5089     0.0810
  516.0000     7.9030    -0.0100     2.5162   134.9333     9.3087     9.3087     0.0783
  516.5000     7.9027    -0.0103     2.5146   133.4077     9.1765     9.1765     0.0777
  517.0000     7.8874    -0.0105     2.5145   132.5293     9.0463     9.1096     0.0790
  517.5000     7.9021    -0.0108     2.5144   133.1272     8.9178     8.9178     0.0805
  518.0000     7.9018    -0.0110     2.5143   134.9288     8.7912     8.7301     0.0808
  518.5000     7.9015    -0.0112     2.5142   137.6326     8.6062     8.6062     0.0802
  519.0000     7.9163    -0.0115     2.5156   140.6371     8.4250     8.4250     0.0797
  519.5000     7.9159    -0.0117     2.5155   143.0402     8.1903     8.1903     0.0797
  520.0000     7.9307    -0.0150     2.5139   144.5417     7.8518     7.9068     0.0806
  520.5000     7.9304    -0.0182     2.5123   140.3275     7.3646     7.3545     0.0821
  521.0000     7.9301    -0.0245     2.5092   138.5201     6.8594     6.4752     0.0853
  521.5000     7.9298    -0.0188     2.4938   140.3216     5.6897     5.6897     0.0934
  522.0000     7.9295    -0.0129     2.4690   151.7472     4.9125     5.2676     0.1094
  522.5000     7.9141    -0.0041     2.4102   162.2706     4.4850     5.0498     0.1354
  523.0000     7.9138     0.0048     2.4060   167.9819     4.5152     4.9782     0.1496
  523.5000     7.9135     0.0015     2.4376   168.2869     4.5767     5.1173     0.1309
  524.0000     7.9132    -0.0048     2.4964   162.1662     4.7376     5.4471     0.1010
  524.5000     7.9129    -0.0142     2.5341   149.7417     5.0079     5.8387     0.0826
  525.0000     7.9126    -0.0144     2.5461   142.4061     5.4055     6.7108     0.0678
  525.5000     7.8973    -0.0116     2.5460   143.9069     5.7942     7.4487     0.0651
  526.0000     7.8819    -0.0088     2.5428   142.7002     6.3421     8.0965     0.0661
  526.5000     7.8816    -0.0091     2.5382   139.9905     7.3918     8.5583     0.0676
  527.0000     7.8813    -0.0153     2.5336   139.0853     8.1476     8.7364     0.0706
  527.5000     7.8810    -0.0247     2.5289   138.7816     8.6726     8.8561     0.0734
  528.0000     7.8807    -0.0279     2.5258   140.5831     8.9191     8.8530     0.0743
  528.5000     7.8654    -0.0312     2.5348   142.6862     9.0372     8.9120     0.0726
  529.0000     7.8650    -0.0284     2.5423   142.6825     9.1611     9.0333     0.0686
  529.5000     7.8496    -0.0287     2.5453   142.3788     9.2213     9.0943     0.0656
  530.0000     7.8493    -0.0289     2.5465   142.0750     9.3484     9.2181     0.0644
  530.5000     7.8491    -0.0261     2.5404   142.0721     9.5421     9.3444     0.0662
  531.0000     7.8488    -0.0264     2.5372   142.3699     9.6729     9.5388     0.0687
  531.5000     7.8485    -0.0205     2.5402   145.9759     9.8063     9.6696     0.0702
  532.0000     7.8633    -0.0117     2.5431   149.9302     9.9398     9.8029     0.0657
  532.5000     7.8629    -0.0059     2.5475   152.6216    10.0769     9.9373     0.0627
  533.0000     7.8626    -0.0031     2.5504   153.1851    10.2141    10.1431     0.0615
  533.5000     7.8623    -0.0003     2.5473   150.7754    10.3541    10.3541     0.0627
  534.0000     7.8620    -0.0036     2.5411   147.1634    10.4960    10.4960     0.0658
  534.5000     7.8617    -0.0039     2.5380   142.6492    10.6399    10.6399     0.0679
  535.0000     7.8614    -0.0041     2.5409   139.3379    10.7857    10.7857     0.0682
  535.5000     7.8611    -0.0044     2.5423   139.0342    10.9335    10.9335     0.0671
  536.0000     7.8458    -0.0076     2.5407   141.1373    11.0063    11.0063     0.0680
  536.5000     7.8455    -0.0139     2.5359   140.2313    11.1562    11.1562     0.0710
  537.0000     7.8452    -0.0172     2.5296   139.9276    11.2314    11.2314     0.0747
  537.5000     7.8449    -0.0174     2.5238   140.5261    11.3843    11.3062     0.0765
  538.0000     7.8446    -0.0207     2.5237   141.4254    11.4611    11.3814     0.0777
  538.5000     7.8443    -0.0209     2.5221   139.6180    11.5374    11.4572     0.0787
  539.0000     7.8439    -0.0181     2.5235   138.1112    11.5325    11.4523     0.0793
  539.5000     7.8436    -0.0121     2.5234   137.2060    11.5285    11.3687     0.0790
  540.0000     7.8585    -0.0035     2.5248   137.8046    11.5245    11.3648     0.0769
  540.5000     7.8581    -0.0038     2.5262   136.8602    11.5206    11.3609     0.0763
  541.0000     7.8578    -0.0101     2.5291   135.6926    11.4366    11.3570     0.0758
  541.5000     7.8575    -0.0103     2.5320   135.3889    11.4326    11.3531     0.0745
  542.0000     7.8572    -0.0136     2.5349   138.6942    11.4287    11.3492     0.0727
  542.5000     7.8720    -0.0107     2.5378   144.1048    11.3453    11.3453     0.0704
  543.0000     7.8717    -0.0110     2.5408   147.4101    11.3414    11.3414     0.0677
  543.5000     7.8714    -0.0082     2.5407   146.2041    11.3375    11.3375     0.0683
  544.0000     7.8560    -0.0115     2.5373   143.1937    11.3327    11.3327     0.0710
  544.5000     7.8557    -0.0148     2.5314   139.5817    11.2500    11.3288     0.0735
  545.0000     7.8554    -0.0210     2.5252   132.0599    11.1680    11.3249     0.0750
  545.5000     7.8551    -0.0243     2.5251   128.4479    10.9329    11.2423     0.0762
  546.0000     7.8548    -0.0245     2.5250   133.2570    10.7777    11.0827     0.0766
  546.5000     7.8395    -0.0218     2.5279   137.7653    10.6991    10.9254     0.0745
  547.0000     7.8392    -0.0220     2.5309   140.1684    10.6210    10.6954     0.0730
  547.5000     7.8389    -0.0192     2.5338   139.5639    10.4702    10.5436     0.0721
