~VERSION INFORMATION
 VERS.                2.0:   CWLS LOG ASCII STANDARD - VERSION 2.0
 WRAP.                 NO:   ONE LINE PER DEPTH STEP
~WELL INFORMATION
#MNEM.UNIT      DATA TYPE    INFORMATION
#----------   ------------   ------------------------------
 STRT.F           21.0000:   START DEPTH
 STOP.F          495.0000:   STOP DEPTH
 STEP.F            0.5000:   STEP LENGTH
 NULL.          -999.2500:   NO VALUE
 COMP. FENIX & SCISSON U.S. NAVY:   COMPANY
 WELL.        NPR #42-S-3:   WELL
 FLD .             TEAPOT:   FIELD
 LOC .       S3 T38N R78W:   LOCATION
 CNTY.            NATRONA:   COUNTY
 STAT.            WYOMING:   STATE
 CTRY. UNITED STATES OF AMERICA:   COUNTRY
 SRVC.              Welex:   SERVICE COMPANY
 DATE.        05-MAY-1977:   LOGDATE
 API .       490251034800:   API NUMBER
~CURVE INFORMATION
#MNEM.UNIT       API CODE    CURVE DESCRIPTION
#----------   ------------   ------------------------------
 DEPT.F                  :   
 SPR .MV     07 010 01 00:   SPONTANEOUS POTENTIAL
 SGRD.OHMM   07 221 05 00:   SHALLOW SHORT GUARD RESISTIVITY
 ILD .OHMM   07 120 46 00:   INDUCTION LOG DEEP
 ILM .OHMM   07 120 44 00:   INDUCTION LOG MEDIUM
 GRD .GAPI   45 310 01 00:   GAMMA RAY FROM DENSITY LOG
 CALD.IN     45 280 60 00:   CALIPER FROM DENSITY LOG
 CORR.G/C3   45 356 01 00:   DENSITY CORRECTION
 RHOB.G/C3   45 350 01 00:   BULK DENSITY
 DPHI.DEC    45 890 12 00:   DENSITY POROSITY SANDSTONE
~PARAMETER INFORMATION
#MNEM.UNIT          VALUE    DESCRIPTION
#----------   ------------   ------------------------------
 PD  .                 GL:   PERMANENT DATUM
 EPD .F              5120:   ELEVATION PERMANENT DATUM
 LMF .                 GL:   LOG MEASURED FROM
 DMF .                 GL:   DRILLING MEASURED FROM
 EGL .F              5120:   GROUND LEVEL
 DATE.        05-MAY-1977:   RUN DATE
 RUN .                  1:   RUN NUMBER
 DD  .F               490:   DEPTH DRILLER
 DL  .F               495:   DEPTH LOGGER
 BLI .F               493:   BOTTOM LOG INTERVAL
 TLI .F                20:   TOP LOG INTERVAL
 CS  .IN            8.625:   CASING SIZE
 CBD .F                25:   CASING BOTTOM DRILLER
 CBL .F                25:   CASING BOTTOM LOGGER
 BS  .IN            7.875:   BIT SIZE
 BSD .F               490:   BIT SIZE AT DEPTH
 DFT .            KCL MUD:   DRILLING FLUID TYPE
 DFD .                8.8:   DRILLING FLUID DENSITY
 DFV .                 34:   DRILLING FLUID VISCOSITY
 DFPH.                8.0:   DRILLING FLUID PH
 DFL .                8.4:   DRILLING FLUID LOSS
 MSS .           FLOWLINE:   MUD SAMPLE SOURCE
 RMS .OHMM           0.26:   RESISTIVITY MUD SAMPLE
 MST .F                60:   MUD SAMPLE TEMPERATURE
 RMF .OHMM           0.14:   RESISTIVITY MUD FILTRATE SAMPLE
 MFST.F                60:   MUD FILTRATE SAMPLE TEMPERATURE
 RMC .OHMM           0.41:   RESISTIVITY MUD CAKE
 MCST.F                60:   MUD CAKE SAMPLE TEMPERATURE
 MFSS.           FANN KIT:   MUD FILTRATE SAMPLE SOURCE
 MCSS.            FANNKIT:   MUD CAKE SAMPLE SOURCE
 RMB .OHMM           0.21:   RESISTIVITY MUD AT BHT
 BHT .F                71:   BOTTOM HOLE TEMPERATURE
 TCS .HRS            0130:   TIME CURCULATED STOPPED
 MRT .F                71:   MAXIMUM RECORDED TEMPERATURE
 LUN .               8611:   LOGGING UNIT NUMBER
 LUL .             CASPER:   LOGGING UNIT LOCATION
 ENGI.            C. DOAK:   RECORDING ENGINEER
 WITN.            R. LYON:   WITNESSED BY
 CLNT.            A2DTECH:   CLIENT CODE
 ORIG.           5" PRINT:   ORIGIN OF DATA
 UWI .       490251034800:   UNIQUE WELL ID
 DICO. A2D Technologies, Inc.:   DIGITIZING COMPANY
~OTHER INFORMATION
~A   DEPT      SPR       SGRD        ILD        ILM         GRD        CALD       CORR       RHOB       DPHI 
# ...
  386.0000   -32.7461    37.9298    21.5512    37.0412    82.7400     7.9036     0.0063     2.3499     0.1973
  386.5000   -32.7561    34.9113    20.8179    35.2843    83.6437     7.9040     0.0071     2.3589     0.1898
  387.0000   -32.7660    35.3888    21.5436    33.8432    82.7429     7.9045     0.0078     2.3649     0.1829
  387.5000   -32.9248    37.1310    20.2425    31.7422    82.1429     7.9050     0.0079     2.3645     0.1847
  388.0000   -32.7857    36.8685    19.4184    29.6660    82.6354     7.9055     0.0094     2.3619     0.1858
  388.5000   -32.9449    33.4697    20.2344    29.4523    85.1537     7.9209     0.0101     2.3702     0.1822
  389.0000   -33.1061    31.6674    20.7959    29.8512    84.4033     7.9213     0.0109     2.3777     0.1792
  389.5000   -33.2649    34.1537    20.6479    30.4648    82.2994     7.9217     0.0109     2.3829     0.1750
  390.0000   -33.4237    32.5381    20.0822    30.6678    83.3535     7.9222     0.0109     2.3897     0.1700
  390.5000   -33.4337    30.7860    19.3979    30.2352    85.6106     7.9226     0.0109     2.3983     0.1642
  391.0000   -33.4437    29.9426    19.1284    29.4030    85.9318     7.9081     0.0095     2.4039     0.1606
  391.5000   -33.4539    29.5267    19.1246    27.4257    84.5565     7.9086     0.0087     2.4009     0.1612
  392.0000   -33.4661    29.5208    19.1207    25.5518    81.1219     7.9090     0.0080     2.3972     0.1642
  392.5000   -33.6249    29.9246    18.7256    22.2925    79.3010     7.9095     0.0057     2.3912     0.1675
  393.0000   -33.6349    30.5507    18.0833    20.3764    79.4528     7.9099     0.0043     2.3800     0.1754
  393.5000   -33.6449    31.4238    17.5918    22.5868    79.9054     7.9103     0.0050     2.3771     0.1762
  394.0000   -33.8037    31.6023    18.2044    22.1171    80.5084     7.9108     0.0051     2.3831     0.1726
  394.5000   -33.9628    30.5238    18.9694    19.9376    81.7128     7.9112     0.0066     2.3965     0.1660
  395.0000   -34.1238    29.6877    19.2288    20.7726    83.6692     7.9118     0.0081     2.4130     0.1555
  395.5000   -34.1338    29.6817    19.4929    24.0089    85.7759     7.9122     0.0089     2.4362     0.1390
  396.0000   -34.1438    30.2959    19.6228    23.1795    83.3717     7.9126     0.0111     2.4535     0.1220
  396.5000   -34.1538    36.2360    19.7546    27.5279    80.5160     7.8981     0.0134     2.4734     0.1031
  397.0000   -34.1638    43.9426    20.3028    34.0755    79.7652     7.8985     0.0141     2.5119     0.0944
  397.5000   -34.3229    54.7781    20.5805    29.0693    79.4659     7.8990     0.0156     2.5171     0.0935
  398.0000   -34.3350    29.4467    19.6060    19.6169    80.3700     7.8994     0.0172     2.5097     0.0973
  398.5000   -34.3450    27.4795    19.0689    21.8972    82.7775     7.8999     0.0187     2.4790     0.1099
  399.0000   -34.2037    26.9116    19.0651    22.8162    85.1849     7.9004     0.0179     2.4536     0.1294
  399.5000   -34.2162    26.9062    18.9303    18.8031    85.0360     7.9008     0.0172     2.4483     0.1380
  400.0000   -34.2262    26.7167    18.4324    21.7249    84.1437     7.9022     0.0143     2.4334     0.1431
  400.5000   -34.1390    26.7128    17.7674    22.3282    82.1805     7.9089     0.0102     2.4259     0.1512
  401.0000   -34.0982    27.8370    17.2948    22.0170    81.2782     7.9162     0.0083     2.4170     0.1569
  401.5000   -34.1083    28.0258    17.3156    19.9873    80.6767     7.9162     0.0068     2.4050     0.1599
  402.0000   -33.8232    26.7010    17.6468    20.9713    80.6868     7.9162     0.0068     2.4043     0.1578
  402.5000   -33.9821    25.9713    17.3994    21.5534    82.7820     7.9162     0.0076     2.4148     0.1557
  403.0000   -34.1409    26.5105    17.3947    20.9141    85.4887     7.9311     0.0084     2.4126     0.1569
  403.5000   -34.4486    27.0609    17.3901    18.3856    86.0902     7.9311     0.0084     2.4133     0.1547
  404.0000   -34.7562    26.6868    17.1474    20.8095    83.9850     7.9461     0.0084     2.4126     0.1580
  404.5000   -34.7733    26.6832    16.9081    20.9503    82.3308     7.9461     0.0069     2.4111     0.1583
  405.0000   -35.0764    27.0501    16.2862    19.9583    82.9323     7.9461     0.0062     2.4142     0.1544
  405.5000   -35.3841    27.4219    15.3433    18.2447    83.8346     7.9461     0.0062     2.4157     0.1562
  406.0000   -35.5429    26.1257    15.8772    20.2423    85.3383     7.9461     0.0055     2.4164     0.1520
  406.5000   -35.8506    23.2341    16.0944    19.4038    86.8421     7.9311     0.0048     2.4157     0.1541
  407.0000   -36.0094    25.2346    15.5439    20.3591    88.4962     7.9311     0.0026     2.4135     0.1568
  407.5000   -36.0194    23.7125    15.1171    19.3951    90.0000     7.9162     0.0011     2.4060     0.1592
  408.0000   -36.3274    22.7487    15.0079    16.7776    89.6992     7.9012     0.0011     2.4090     0.1586
  408.5000   -36.6372    22.2800    14.7997    17.2432    88.3459     7.8862     0.0019     2.4143     0.1547
  409.0000   -36.6473    21.8020    14.3925    17.4800    86.2406     7.8713     0.0027     2.4226     0.1502
  409.5000   -36.9549    21.0782    13.9973    17.0003    86.3910     7.8713     0.0042     2.4293     0.1460
  410.0000   -37.2626    20.2214    13.6130    15.4331    89.2481     7.8862     0.0057     2.4348     0.1424
  410.5000   -37.4214    19.9425    13.5158    13.9141    90.9023     7.8862     0.0057     2.4436     0.1385
  411.0000   -37.7292    20.0778    13.4194    15.0359    89.6992     7.9012     0.0050     2.4466     0.1376
  411.5000   -37.8904    19.9366    13.2285    15.9650    86.6917     7.9012     0.0035     2.4376     0.1403
  412.0000   -37.9005    19.9339    12.8680    13.8098    84.8872     7.9012     0.0028     2.4369     0.1421
  412.5000   -38.0593    19.7942    12.9535    15.4172    84.7244     7.9012     0.0020     2.4369     0.1415
  413.0000   -38.5158    19.6550    13.1307    16.6284    86.8123     7.9012     0.0006     2.4317     0.1412
  413.5000   -38.5258    19.6524    12.8577    14.5833    90.0000     7.9162    -0.0001     2.4243     0.1492
  414.0000   -38.6846    19.5148    12.5046    15.0917    88.1955     7.9162    -0.0001     2.4265     0.1483
  414.5000   -38.8438    19.3781    12.3301    15.5114    87.7444     7.9311    -0.0001     2.4318     0.1459
  415.0000   -39.0048    19.3756    12.1524    14.4744    88.6466     7.9311     0.0022     2.4448     0.1408
  415.5000   -39.0148    19.2399    11.9052    13.2310    90.6167     7.9311     0.0052     2.4760     0.1265
  416.0000   -39.1737    19.2373    11.9852    14.1725    95.1128     7.9311     0.0067     2.4925     0.1112
  416.5000   -39.1837    19.1020    11.7360    15.2860    98.8722     7.9162     0.0075     2.4880     0.1118
  417.0000   -39.3426    18.8379    11.7328    13.6466   101.1278     7.9012     0.0090     2.4828     0.1142
  417.5000   -39.3527    18.5774    11.8117    14.7614    98.1203     7.9012     0.0098     2.4836     0.1142
  418.0000   -39.5139    18.4474    12.1379    16.3663    94.9624     7.9012     0.0113     2.4941     0.1112
  418.5000   -39.5240    18.4449    12.0435    15.2729    93.9098     7.9012     0.0121     2.4896     0.1097
  419.0000   -39.6828    18.4424    11.7196    12.0792    94.2105     7.9012     0.0121     2.4889     0.1120
  419.5000   -39.8417    18.3133    11.9613    11.2723    90.3008     7.9012     0.0121     2.4911     0.1064
  420.0000   -39.8517    18.1683    12.1250    12.5843    86.9925     7.9012     0.0121     2.4987     0.1010
  420.5000   -39.8617    18.0571    11.9549    13.9528    86.0677     7.8862     0.0114     2.5009     0.0995
  421.0000   -40.0208    18.0547    12.0344    11.7310    87.6141     7.8862     0.0099     2.4830     0.1057
  421.5000   -40.0331    17.9289    12.1983    13.5669    90.9023     7.8862     0.0070     2.4763     0.1123
  422.0000   -40.1919    18.0505    12.3643    15.7856    93.1579     7.8862     0.0062     2.4823     0.1147
