~VERSION INFORMATION
 VERS.                2.0:   CWLS LOG ASCII STANDARD - VERSION 2.0
 WRAP.                 NO:   ONE LINE PER DEPTH STEP
~WELL INFORMATION
#MNEM.UNIT      DATA TYPE    INFORMATION
#----------   ------------   ------------------------------
 STRT.F           60.0000:   START DEPTH
 STOP.F          482.0000:   STOP DEPTH
 STEP.F            0.5000:   STEP LENGTH
 NULL.          -999.2500:   NO VALUE
 COMP. BROWN JOHN E&C INC:   COMPANY
 WELL. NPR 3 68 SX-3 #68-1-3:   WELL
 FLD .             TEAPOT:   FIELD
 LOC .       S3 T38N R78W:   LOCATION
 CNTY.            NATRONA:   COUNTY
 STAT.            WYOMING:   STATE
 CTRY. UNITED STATES OF AMERICA:   COUNTRY
 SRVC.     Atlas Wireline:   SERVICE COMPANY
 DATE.        29-SEP-1991:   LOGDATE
 API .       490252244800:   API NUMBER
~CURVE INFORMATION
#MNEM.UNIT       API CODE    CURVE DESCRIPTION
#----------   ------------   ------------------------------
 DEPT.F                  :   
 CALD.IN     45 280 60 00:   CALIPER FROM DENSITY LOG
 CNC .DEC    42 890 03 00:   NEUTRON POROSITY SANDSTONE
 CORR.G/C3   45 356 01 00:   DENSITY CORRECTION
 GRD .GAPI   45 310 01 00:   GAMMA RAY FROM DENSITY LOG
 PORD.DEC    45 890 12 00:   POROSITY DENSITY SANDSTONE
 RHOB.G/C3   45 350 01 00:   BULK DENSITY
 RFOC.OHMM   07 220 04 00:   RESISTIVITY FOCUSED LOG
 RILD.OHMM   07 120 46 00:   RESISTIVITY INDUCTION LOG DEEP
 RILM.OHMM   07 120 44 00:   RESISTIVITY INDUCTION LOG MEDIUM
~PARAMETER INFORMATION
#MNEM.UNIT          VALUE    DESCRIPTION
#----------   ------------   ------------------------------
 PD  .                 GL:   PERMANENT DATUM
 EPD .F              5153:   ELEVATION PERMANENT DATUM
 LMF .                 KB:   LOG MEASURED FROM
 DAPD.F                10:   FEET ABOVE PERMANENT DATUM
 DMF .                 KB:   DRILLING MEASURED FROM
 EKB .F              5163:   KELLING BUSHING
 EGL .F              5153:   GROUND LEVEL
 DATE.        29-SEP-1991:   RUN DATE
 RUN .                  1:   RUN NUMBER
 DD  .F               485:   DEPTH DRILLER
 DL  .F               485:   DEPTH LOGGER
 BLI .F               482:   BOTTOM LOG INTERVAL
 CS  .IN            8.625:   CASING SIZE
 CBD .F                98:   CASING BOTTOM DRILLER
 CBL .F               100:   CASING BOTTOM LOGGER
 BS  .IN            7.875:   BIT SIZE
 BSD .F               485:   BIT SIZE AT DEPTH
 DFT .           CHEM GEL:   DRILLING FLUID TYPE
 DFD .               15.4:   DRILLING FLUID DENSITY
 DFV .                 38:   DRILLING FLUID VISCOSITY
 DFPH.                9.0:   DRILLING FLUID PH
 DFL .                8.0:   DRILLING FLUID LOSS
 MSS .           FLOWLINE:   MUD SAMPLE SOURCE
 RMS .OHMM           1.65:   RESISTIVITY MUD SAMPLE
 MST .F                90:   MUD SAMPLE TEMPERATURE
 RMF .OHMM           1.32:   RESISTIVITY MUD FILTRATE SAMPLE
 MFST.F                90:   MUD FILTRATE SAMPLE TEMPERATURE
 RMC .OHMM           2.06:   RESISTIVITY MUD CAKE
 MCST.F                90:   MUD CAKE SAMPLE TEMPERATURE
 MFSS.               CALC:   MUD FILTRATE SAMPLE SOURCE
 MCSS.               CALC:   MUD CAKE SAMPLE SOURCE
 RMB .OHMM           1.65:   RESISTIVITY MUD AT BHT
 BHT .F                90:   BOTTOM HOLE TEMPERATURE
 TCS .HRS               1:   TIME CURCULATED STOPPED
 MRT .F                90:   MAXIMUM RECORDED TEMPERATURE
 LUN .            HL 6272:   LOGGING UNIT NUMBER
 LUL .             CASPER:   LOGGING UNIT LOCATION
 ENGI. WADDELL/ OTTERHOLT:   RECORDING ENGINEER
 WITN.             STRONG:   WITNESSED BY
 CLNT.            A2DTECH:   CLIENT CODE
 ORIG.           5" PRINT:   ORIGIN OF DATA
 UWI .       490252244800:   UNIQUE WELL ID
 DICO. A2D Technologies, Inc.:   DIGITIZING COMPANY
~OTHER INFORMATION
~A   DEPT     CALD        CNC       CORR         GRD      PORD       RHOB       RFOC       RILD       RILM   
# ...
  352.0000     7.5746     0.3090    -0.0395    65.6456     0.1802     2.3496    17.1792    17.1776    16.9970
  352.5000     7.5433     0.3087    -0.0425    64.1297     0.1784     2.3520    17.3102    17.0639    17.0016
  353.0000     7.5274     0.3075    -0.0394    63.8250     0.1756     2.3656    17.4400    17.1906    16.8869
  353.5000     7.5114     0.3029    -0.0272    64.7290     0.1553     2.3846    17.5709    17.1964    16.6585
  354.0000     7.5109     0.2635    -0.0150    66.2389     0.1353     2.4250    17.3349    17.2022    16.5474
  354.5000     7.5104     0.2569    -0.0120    68.0514     0.1207     2.4524    17.1020    17.0884    16.2003
  355.0000     7.5100     0.2529    -0.0165    70.1664     0.1183     2.4494    16.6378    16.2793    15.9891
  355.5000     7.5251     0.2629    -0.0226    70.1634     0.1252     2.4265    16.1862    15.4007    15.9945
  356.0000     7.5709     0.2795    -0.0271    69.2521     0.1507     2.4052    16.0809    15.4072    15.9989
  356.5000     7.6324     0.2913    -0.0332    68.9465     0.1646     2.3869    16.3173    15.7384    16.1152
  357.0000     7.6937     0.2922    -0.0393    70.1539     0.1697     2.3701    16.4397    16.0768    16.2323
  357.5000     7.6932     0.2922    -0.0392    71.3612     0.1737     2.3625    16.6794    16.1948    16.2365
  358.0000     7.6927     0.2928    -0.0346    72.8711     0.1767     2.3594    16.8045    16.2003    16.4692
  358.5000     7.6767     0.2965    -0.0221    74.6836     0.1800     2.3549    16.6932    16.2057    16.3592
  359.0000     7.6739     0.3064    -0.0115    76.1935     0.1843     2.3488    16.5867    16.2113    16.2499
  359.5000     7.6295     0.3091    -0.0072    77.0983     0.1857     2.3427    16.8285    16.2181    16.1414
  360.0000     7.6290     0.3082    -0.0026    76.4902     0.1818     2.3442    17.1940    16.2235    16.2598
  360.5000     7.6595     0.3076    -0.0026    75.2466     0.1775     2.3572    17.2039    16.2290    16.2642
  361.0000     7.6899     0.3085    -0.0041    72.8527     0.1720     2.3701    16.8525    16.3482    16.4971
  361.5000     7.7513     0.3096    -0.0116    71.0343     0.1602     2.3839    17.1002    16.3537    16.5015
  362.0000     7.8127     0.3033    -0.0299    69.8210     0.1508     2.3968    17.7176    16.3592    16.3912
  362.5000     7.8753     0.2890    -0.0451    68.3052     0.1450     2.4097    18.7468    16.3647    16.3958
  363.0000     7.9198     0.2810    -0.0435    67.6971     0.1388     2.4235    19.9751    16.3553    16.2863
  363.5000     7.9349     0.2645    -0.0374    67.3916     0.1098     2.4437    20.5520    15.9251    16.0651
  364.0000     7.9654     0.2623    -0.0328    67.3887     0.1086     2.4623    17.7736    15.3855    15.6285
  364.5000     7.9804     0.2717    -0.0328    67.3857     0.1198     2.4699    15.7695    14.8630    15.0972
  365.0000     7.9953     0.2992    -0.0327    67.3828     0.1373     2.4585    15.4473    14.3583    14.5839
  365.5000     7.9949     0.3010    -0.0262    67.9849     0.1564     2.4250    15.6744    14.0656    14.1866
  366.0000     8.0165     0.3098    -0.0160    69.7967     0.1564     2.4021    15.7920    13.7788    13.8000
  366.5000     8.0249     0.3077    -0.0114    71.3066     0.1554     2.3938    15.6893    13.5863    13.3310
  367.0000     8.0244     0.3058    -0.0084    71.0011     0.1539     2.3960    15.5870    13.2240    13.0514
  367.5000     8.0084     0.3055    -0.0083    69.7878     0.1524     2.3998    15.1642    12.8643    12.8812
  368.0000     8.0235     0.3070    -0.0098    70.0874     0.1493     2.4029    14.4355    12.7781    12.8856
  368.5000     8.0230     0.3112    -0.0159    74.6231     0.1463     2.4067    13.8602    12.7835    12.7986
  369.0000     8.0225     0.3121    -0.0174    75.8304     0.1432     2.4106    13.5770    12.7878    12.7132
  369.5000     8.0066     0.3121    -0.0174    76.1301     0.1420     2.4152    13.3963    12.7032    12.5405
  370.0000     7.9907     0.3115    -0.0158    77.0348     0.1414     2.4174    13.4026    12.6191    12.3702
  370.5000     7.9902     0.3097    -0.0128    78.2421     0.1411     2.4204    13.8866    12.3619    12.2883
  371.0000     7.9898     0.3069    -0.0051    78.8443     0.1435     2.4181    14.4890    12.1109    12.0373
  371.5000     7.9893     0.3033     0.0041    78.5381     0.1462     2.4143    14.4989    12.1150    12.0407
  372.0000     7.9889     0.2924     0.0038    78.2325     0.1468     2.4113    14.2920    12.1191    11.9601
  372.5000     7.9883     0.2884    -0.0020    78.2296     0.1455     2.4097    13.9146    12.1232    12.0479
  373.0000     7.9879     0.2872    -0.0096    78.8325     0.1437     2.4158    13.6320    12.1273    12.1355
  373.5000     7.9874     0.2860    -0.0111    78.8288     0.1401     2.4219    13.5206    12.2164    12.3092
  374.0000     7.9750     0.2841    -0.0065    79.4318     0.1367     2.4273    13.2667    12.3981    12.3987
  374.5000     7.9711     0.2829    -0.0034    79.4281     0.1358     2.4280    12.9988    12.6597    12.5762
  375.0000     7.9706     0.2826     0.0011    79.4251     0.1364     2.4280    13.5627    12.8419    12.6676
  375.5000     7.9702     0.2835     0.0042    78.7565     0.1351     2.4311    14.6550    12.9362    12.8599
  376.0000     7.9697     0.2835     0.0073    71.2490     0.1321     2.4372    15.1843    12.9406    13.1250
  376.5000     7.9692     0.2813     0.0088    67.9178     0.1293     2.4402    15.0872    12.9450    13.1286
  377.0000     7.9687     0.2740     0.0088    68.8225     0.1299     2.4372    14.9891    13.0400    13.1321
  377.5000     7.9682     0.2701     0.0043    70.3325     0.1311     2.4349    14.8917    13.1357    13.1357
  378.0000     7.9678     0.2655     0.0027    72.4475     0.1320     2.4334    14.8987    13.2323    13.0471
  378.5000     7.9829     0.2609     0.0011    72.1420     0.1320     2.4326    14.5961    13.1457    13.0515
  379.0000     7.9824     0.2579    -0.0005    71.2313     0.1314     2.4341    14.4001    13.0576    12.9643
  379.5000     7.9819     0.2573    -0.0017    71.5309     0.1301     2.4372    14.1076    12.7925    12.7883
  380.0000     7.9815     0.2573    -0.0017    73.6460     0.1268     2.4487    14.0158    12.7068    12.7028
  380.5000     7.9968     0.2567     0.0014    76.3963     0.1159     2.4619    13.8292    12.5349    12.4441
  381.0000     8.0115     0.2561     0.0045    78.4805     0.1122     2.4699    13.7377    12.5402    12.2751
  381.5000     8.0109     0.2542     0.0045    78.7809     0.1097     2.4730    13.5532    12.4515    12.1076
  382.0000     8.0104     0.2506     0.0045    79.3823     0.1067     2.4752    13.3727    12.3748    12.1117
  382.5000     8.0100     0.2518     0.0045    79.3794     0.1049     2.4768    13.1915    12.2074    12.1150
  383.0000     8.0095     0.2569     0.0030    79.0738     0.1043     2.4783    13.0159    12.2126    12.0340
  383.5000     8.0091     0.2666     0.0031    78.4657     0.1048     2.4783    12.9313    12.1313    11.9537
  384.0000     8.0087     0.2657     0.0031    77.5551     0.1057     2.4760    12.8472    11.9677    11.8607
  384.5000     8.0236     0.2635     0.0031    75.7367     0.1069     2.4737    12.8548    11.8883    11.7945
  385.0000     8.0232     0.2620     0.0031    74.2209     0.1069     2.4714    12.8609    11.8925    11.7985
  385.5000     8.0316     0.2605     0.0047    73.9154     0.1072     2.4707    12.8671    11.8966    11.7189
  386.0000     8.0442     0.2583     0.0032    76.0297     0.1081     2.4707    12.8725    11.9015    11.7229
  386.5000     8.0682     0.2559     0.0017    76.9352     0.1090     2.4707    12.8793    11.9055    11.7261
  387.0000     8.0676     0.2522     0.0017    78.4443     0.1105     2.4699    12.8854    11.9096    11.7291
  387.5000     8.0826     0.2540     0.0017    79.0473     0.1123     2.4646    12.8915    11.8297    11.7324
  388.0000     8.0822     0.2595     0.0002    79.3469     0.1141     2.4623    12.8977    11.8843    11.7357
