~VERSION INFORMATION
 VERS.                2.0:   CWLS LOG ASCII STANDARD - VERSION 2.0
 WRAP.                 NO:   ONE LINE PER DEPTH STEP
~WELL INFORMATION
#MNEM.UNIT      DATA TYPE    INFORMATION
#----------   ------------   ------------------------------
 STRT.F           28.0000:   START DEPTH
 STOP.F          494.0000:   STOP DEPTH
 STEP.F            0.5000:   STEP LENGTH
 NULL.          -999.2500:   NO VALUE
 COMP.    FENIX & SCISSON:   COMPANY
 WELL.        67-S-3 #3-3:   WELL
 FLD .             TEAPOT:   FIELD
 LOC .       S3 T38N R78W:   LOCATION
 CNTY.            NATRONA:   COUNTY
 STAT.            WYOMING:   STATE
 CTRY. UNITED STATES OF AMERICA:   COUNTRY
 SRVC.           BIRDWELL:   SERVICE COMPANY
 DATE.        15-OCT-1978:   LOGDATE
 API .       490251072100:   API NUMBER
~CURVE INFORMATION
#MNEM.UNIT       API CODE    CURVE DESCRIPTION
#----------   ------------   ------------------------------
 DEPT.F                  :   
 ILD .OHMM   05 120 46 00:   INDUCTION LOG DEEP
 SN  .OHMM   05 040 16 00:   SHORT NORMAL 16"
 SPR .MV     05 010 01 00:   SPONTANEOUS POTENTIAL FROM RES.
 CALD.IN     45 280 60 00:   CALIPER FROM DENSITY LOG
 CORR.G/C3   45 356 01 00:   DENSITY CORRECTION
 DPHI.DEC    45 890 12 00:   DENSITY POROSITY SANDSTONE
 GRD .GAPI   45 310 01 00:   GAMMA RAY FROM DENSITY LOG
 RHOB.G/C3   45 350 01 00:   BULK DENSITY
~PARAMETER INFORMATION
#MNEM.UNIT          VALUE    DESCRIPTION
#----------   ------------   ------------------------------
 PD  .                 GL:   PERMANENT DATUM
 EPD .F              5173:   ELEVATION PERMANENT DATUM
 LMF .                 KB:   LOG MEASURED FROM
 DAPD.F                 4:   FEET ABOVE PERMANENT DATUM
 DMF .                 KB:   DRILLING MEASURED FROM
 EKB .F              5177:   KELLING BUSHING
 EGL .F              5173:   GROUND LEVEL
 DATE.        15-OCT-1978:   RUN DATE
 RUN .                  1:   RUN NUMBER
 DD  .F               492:   DEPTH DRILLER
 DL  .F               494:   DEPTH LOGGER
 BLI .F               488:   BOTTOM LOG INTERVAL
 TLI .F                46:   TOP LOG INTERVAL
 CS  .IN            8.625:   CASING SIZE
 CBD .F                40:   CASING BOTTOM DRILLER
 BS  .IN            7.875:   BIT SIZE
 BSD .F               492:   BIT SIZE AT DEPTH
 DFT .                KCL:   DRILLING FLUID TYPE
 DFD .                8.7:   DRILLING FLUID DENSITY
 DFV .                 35:   DRILLING FLUID VISCOSITY
 DFPH.                  9:   DRILLING FLUID PH
 LUN .               2958:   LOGGING UNIT NUMBER
 LUL .               CASP:   LOGGING UNIT LOCATION
 ENGI.             MILLER:   RECORDING ENGINEER
 WITN.           DINSMORE:   WITNESSED BY
 CLNT.            A2DTECH:   CLIENT CODE
 ORIG.           5" PRINT:   ORIGIN OF DATA
 UWI .       490251072100:   UNIQUE WELL ID
 DICO. A2D Technologies, Inc.:   DIGITIZING COMPANY
~OTHER INFORMATION
~A   DEPT      ILD         SN        SPR       CALD       CORR       DPHI         GRD      RHOB   
# ...
  473.5000     9.1562     8.6034   -18.2854     8.0052     0.0225     0.0934   110.0231     2.5157
  474.0000     9.4804     8.7226   -18.2728     8.0060     0.0240     0.0922   111.0448     2.5195
  474.5000     9.8161     8.8432   -18.2601     8.0069     0.0274     0.0913   105.0746     2.5240
  475.0000    10.0238     8.9036   -18.2474     8.0076     0.0285     0.0898   102.8358     2.5262
  475.5000    10.1653     8.9646   -18.2347     8.0083     0.0285     0.0886   103.2836     2.5285
  476.0000    10.3089     8.9638   -18.3708     7.9939     0.0285     0.0877   104.7761     2.5315
  476.5000    10.3110     8.9629   -18.3575     8.0097     0.0255     0.0871   106.8657     2.5337
  477.0000    10.3127     8.9621   -18.3445     7.9955     0.0240     0.0868   112.3881     2.5367
  477.5000    10.3145     8.9614   -18.3315     7.9813     0.0255     0.0895   126.5746     2.5390
  478.0000    10.1739     8.9606   -18.3185     7.9821     0.0240     0.0922   125.6497     2.5397
  478.5000    10.0360     8.9599   -18.3054  -999.2500     0.0255     0.0952   125.3731     2.5375
  479.0000     9.9680     8.9591   -18.2924  -999.2500     0.0270     0.0955   125.3731     2.5330
  479.5000     9.9013     8.9584   -18.2794  -999.2500     0.0285     0.0946   126.1194     2.5255
  480.0000     9.9030     8.8959   -18.7115  -999.2500     0.0270     0.0937   127.9104     2.5187
  480.5000     9.9735     8.8952   -20.4845  -999.2500     0.0240     0.0928   130.0000     2.5217
  481.0000    10.0449     8.8943   -21.2159  -999.2500     0.0225     0.0910   130.2985     2.5247
  481.5000    10.1164     8.8323   -21.5011  -999.2500     0.0225     0.0907   130.4478     2.5255
  482.0000    10.1181     8.8315   -21.7857  -999.2500     0.0225     0.0958   133.4448     2.5247
  482.5000    10.0496     8.8308   -21.7727  -999.2500     0.0225     0.1019   135.6716     2.5159
  483.0000     9.9823     8.8301   -21.9091  -999.2500     0.0225     0.1081   135.9702     2.5015
  483.5000     9.9147     8.8293   -21.8933  -999.2500     0.0210     0.0991   134.9307     2.5150
  484.0000     9.7803     8.8286   -21.9445  -999.2500     0.0240     0.0955   133.5681     2.5225
  484.5000  -999.2500  -999.2500  -999.2500  -999.2500     0.0285     0.0931  -999.2500     2.5157
  485.0000  -999.2500  -999.2500  -999.2500  -999.2500     0.0330     0.0907  -999.2500     2.5217
  485.5000  -999.2500  -999.2500  -999.2500  -999.2500     0.0345     0.0895  -999.2500     2.5277
  486.0000  -999.2500  -999.2500  -999.2500  -999.2500     0.0345     0.0883  -999.2500     2.5330
  486.5000  -999.2500  -999.2500  -999.2500  -999.2500     0.0330     0.0874  -999.2500     2.5368
  487.0000  -999.2500  -999.2500  -999.2500  -999.2500     0.0315     0.0874  -999.2500     2.5397
  487.5000  -999.2500  -999.2500  -999.2500  -999.2500     0.0285     0.0871  -999.2500     2.5360
  488.0000  -999.2500  -999.2500  -999.2500  -999.2500     0.0255     0.0892  -999.2500     2.5270
  488.5000  -999.2500  -999.2500  -999.2500  -999.2500     0.0255     0.1072  -999.2500     2.5165
  489.0000  -999.2500  -999.2500  -999.2500  -999.2500     0.0255     0.1255  -999.2500     2.5000
  489.5000  -999.2500  -999.2500  -999.2500  -999.2500     0.0225     0.1483  -999.2500     2.4768
  490.0000  -999.2500  -999.2500  -999.2500  -999.2500     0.0150     0.1777  -999.2500     2.4490
  490.5000  -999.2500  -999.2500  -999.2500  -999.2500     0.0075     0.2331  -999.2500     2.3418
  491.0000  -999.2500  -999.2500  -999.2500  -999.2500    -0.0015     0.1158  -999.2500     2.2292
  491.5000  -999.2500  -999.2500  -999.2500  -999.2500    -0.0045     0.1116  -999.2500     2.1233
  492.0000  -999.2500  -999.2500  -999.2500  -999.2500    -0.0046     0.1114  -999.2500     2.0172
  492.5000  -999.2500  -999.2500  -999.2500  -999.2500     0.0118     0.1114  -999.2500     1.9398
  493.0000  -999.2500  -999.2500  -999.2500  -999.2500     0.0435     0.1111  -999.2500     1.9190
  493.5000  -999.2500  -999.2500  -999.2500  -999.2500     0.0450     0.1114  -999.2500     1.9423
  494.0000  -999.2500  -999.2500  -999.2500  -999.2500     0.0427     0.1117  -999.2500     1.9486
