~VERSION INFORMATION
 VERS.                2.0:   CWLS LOG ASCII STANDARD - VERSION 2.0
 WRAP.                 NO:   ONE LINE PER DEPTH STEP
~WELL INFORMATION
#MNEM.UNIT      DATA TYPE    INFORMATION
#----------   ------------   ------------------------------
 STRT.F           22.0000:   START DEPTH
 STOP.F          453.0000:   STOP DEPTH
 STEP.F            0.5000:   STEP LENGTH
 NULL.          -999.2500:   NO VALUE
 COMP. LAWRENCE/ALLISON INC:   COMPANY
 WELL.    53-41 SX #10-10:   WELL
 FLD .             TEAPOT:   FIELD
 LOC .      S10 T38N R78W:   LOCATION
 CNTY.            NATRONA:   COUNTY
 STAT.            WYOMING:   STATE
 CTRY. UNITED STATES OF AMERICA:   COUNTRY
 SRVC.           Gearhart:   SERVICE COMPANY
 DATE.        29-MAY-1988:   LOGDATE
 API .       490251122500:   API NUMBER
~CURVE INFORMATION
#MNEM.UNIT       API CODE    CURVE DESCRIPTION
#----------   ------------   ------------------------------
 DEPT.F                  :   
 GRR .GAPI   07 310 01 00:   GAMMA RAY
 ILD .OHMM   07 120 46 00:   INDUCTION LOG DEEP
 ILM .OHMM   07 120 44 00:   INDUCTION LOG MEDIUM
~PARAMETER INFORMATION
#MNEM.UNIT          VALUE    DESCRIPTION
#----------   ------------   ------------------------------
 PD  .                 GL:   PERMANENT DATUM
 EPD .F              5172:   ELEVATION PERMANENT DATUM
 LMF .                 KB:   LOG MEASURED FROM
 DAPD.F                 5:   FEET ABOVE PERMANENT DATUM
 DMF .                 KB:   DRILLING MEASURED FROM
 EKB .F              5177:   KELLING BUSHING
 EGL .F              5172:   GROUND LEVEL
 DATE.        29-MAY-1988:   RUN DATE
 RUN .                  1:   RUN NUMBER
 DD  .F               470:   DEPTH DRILLER
 DL  .F               461:   DEPTH LOGGER
 BLI .F               453:   BOTTOM LOG INTERVAL
 CS  .IN            8.625:   CASING SIZE
 CBD .F                43:   CASING BOTTOM DRILLER
 CBL .F                43:   CASING BOTTOM LOGGER
 BS  .IN            7.875:   BIT SIZE
 BSD .F               470:   BIT SIZE AT DEPTH
 DFT .                AIR:   DRILLING FLUID TYPE
 TLAB.HRS            0530:   TIME LOGGER AT BOTTOM
 MRT .F                70:   MAXIMUM RECORDED TEMPERATURE
 LUN .               7597:   LOGGING UNIT NUMBER
 LUL .           GILLETTE:   LOGGING UNIT LOCATION
 ENGI.          HUCKFELDT:   RECORDING ENGINEER
 WITN.             STRONG:   WITNESSED BY
 CLNT.            A2DTECH:   CLIENT CODE
 ORIG.       2", 5" PRINT:   ORIGIN OF DATA
 UWI .       490251122500:   UNIQUE WELL ID
 DICO. A2D Technologies, Inc.:   DIGITIZING COMPANY
~OTHER INFORMATION
~A   DEPT       GRR       ILD        ILM   
# ...
  204.0000   128.2928     6.2621     6.2511
  204.5000   126.8012     5.8017     5.9362
  205.0000   126.5242     5.6832     5.6034
  205.5000   126.8603     5.6060     5.2621
  206.0000   127.7969     5.6076     5.1173
  206.5000   128.7270     5.6094     5.4509
  207.0000   126.9387     5.6109     5.8148
  207.5000   125.1340     5.6516     6.1846
  208.0000   124.2596     5.8535     6.4960
  208.5000   121.8644     6.3683     6.8231
  209.0000   122.1875     6.6860     7.1167
  209.5000   121.9101     6.9733     7.2687
  210.0000   121.6388     7.2224     7.4239
  210.5000   120.7549     7.0258     7.2709
  211.0000   126.5539     6.9304     6.9242
  211.5000   126.5801     6.9807     6.5024
  212.0000   125.6957     6.3341     6.1491
  212.5000   124.1979     5.8684     5.9385
  213.0000   128.4876     5.7481     5.4994
  213.5000   130.3330     5.6704     5.2370
  214.0000   131.5731     5.6720     5.3865
  214.5000   130.3853     5.6341     5.5402
  215.0000   128.8940     5.6360     5.7383
  215.5000   126.7957     5.7166     6.0713
  216.0000   123.3424     6.0459     6.4653
  216.5000   121.6887     6.3941     6.7908
  217.0000   122.9353     6.7739     7.1828
  217.5000   122.6579     7.1524     7.5445
  218.0000   121.1601     7.5119     7.8142
  218.5000   121.4962     7.7803     8.0982
  219.0000   121.2189     8.1713     8.2667
  219.5000   120.6381     8.2318     8.4432
  220.0000   120.3607     8.5848     8.5634
  220.5000   121.3038     8.5871     8.6247
  221.0000   121.6335     8.5894     8.7475
  221.5000   121.6601     8.5320     8.8101
  222.0000   121.3823     8.5343     8.8116
  222.5000   115.9521     8.5366     8.8127
  223.0000   114.7578     8.5394     8.7522
  223.5000   115.0939     8.5417     8.7536
  224.0000   117.2445     8.5440     8.7548
  224.5000   119.7461     8.5463     8.7560
  225.0000   120.9452     8.4892     8.7574
  225.5000   121.8818     8.5514     8.6972
  226.0000   124.0324     8.5537     8.6987
  226.5000   124.9690     8.6158     8.7610
  227.0000   124.6916     8.7390     8.8237
  227.5000   123.8138     8.7413     9.0124
  228.0000   121.7155     8.9384     9.2049
  228.5000   119.6172     9.6427     9.4014
  229.0000   117.8224     9.8490     9.5352
  229.5000   116.0276     9.8516     9.6035
  230.0000   114.1932     9.5169     8.8149
  230.5000   115.1760     9.1935     8.1781
  231.0000   115.8091     8.4305     7.7338
  231.5000   116.4422     7.4122     6.9154
  232.0000   122.2346     6.9635     5.9294
  232.5000   127.4609     6.8209     5.6863
  233.0000   132.6121     6.8708     5.8985
  233.5000   134.1557     6.9720     6.4970
  234.0000   123.8632     7.2690     7.0179
  234.5000   115.9986     7.6343     7.6337
  235.0000   111.1689     8.0741     8.7206
  235.5000   108.7335     8.8419     9.6196
  236.0000   108.1862    10.1665    10.2570
  236.5000   108.2189    10.3841    10.3926
  237.0000   109.1555    10.6069    10.3211
  237.5000   109.4852    10.8338    10.3229
  238.0000   109.8189    11.0656    10.3968
  238.5000   111.6684    11.3023    10.4352
  239.0000   112.9085    11.8770    10.6206
  239.5000   114.1486    13.0000    11.2337
  240.0000   112.6573    13.8449    12.6547
  240.5000   108.4346    14.8478    14.4564
  241.0000    99.7652    15.7030    16.1716
  241.5000    87.8560    17.1963    17.6107
  242.0000    70.2797    18.7483    20.0959
  242.5000    65.7535    20.4804    22.3233
  243.0000    62.7448    22.4279    24.2824
  243.5000    60.9500    24.3900    26.2292
  244.0000    59.1552    27.0841    28.3320
  244.5000    60.0983    28.4572    30.2179
  245.0000    61.0349    30.7211    31.9213
  245.5000    60.7576    32.2651    33.2947
  246.0000    59.5697    34.1236    34.4851
  246.5000    58.3819    34.3690    34.2492
  247.0000    60.2355    33.6694    33.7776
  247.5000    62.6896    32.7528    33.5466
  248.0000    66.9646    32.7637    33.5522
  248.5000    72.1501    30.9937    34.0297
  249.0000    73.3902    32.1031    34.5140
  249.5000    72.0172    32.5623    35.2511
  250.0000    61.6133    34.1988    36.0039
  250.5000    60.1173    35.4198    36.2628
  251.0000    61.6706    35.6745    36.2677
  251.5000    63.2271    35.4338    36.2725
  252.0000    63.5561    35.9381    36.5322
  252.5000    63.2813    36.4838    37.0783
  253.0000    63.9169    35.9541    36.8294
  253.5000    65.1596    35.7098    36.3295
  254.0000    67.0164    34.4958    36.0833
  254.5000    67.9555    34.2631    35.8411
  255.0000    68.8946    34.0336    35.6029
  255.5000    69.2268    33.8023    35.6146
  256.0000    68.3055    34.2851    35.3733
  256.5000    66.2564    34.7731    35.3849
  257.0000    65.0712    35.2697    35.6429
  257.5000    64.1894    35.7717    36.1572
  258.0000    66.9904    36.2808    36.6766
  258.5000    70.0202    36.5416    37.2034
  259.0000    71.8698    36.5490    37.4746
  259.5000    72.2020    37.3300    38.0154
  260.0000    71.6237    38.3907    38.5589
  260.5000    69.2244    36.5724    36.7275
  261.0000    69.5638    35.5743    36.2266
  261.5000    69.8959    34.6051    35.7325
  262.0000    70.5316    34.1331    35.2475
  262.5000    71.4779    33.4337    34.5242
  263.0000    71.1959    32.5212    33.3458
  263.5000    71.5353    31.8285    32.1950
  264.0000    73.0814    30.7719    31.1103
  264.5000    75.5994    30.1414    30.2595
  265.0000    78.0017    28.7124    29.2266
  265.5000    78.9409    27.5372    27.8353
  266.0000    80.4870    26.2378    26.5145
  266.5000    82.3571    25.3446    25.4309
  267.0000    83.5864    24.8240    24.5628
  267.5000    83.9186    23.9801    24.0588
  268.0000    84.2436    23.4888    23.4024
  268.5000    82.7620    23.1683    23.0832
  269.0000    83.7083    23.3361    22.7683
  269.5000    84.6475    23.3407    22.9343
  270.0000    84.3655    23.8496    23.1017
  270.5000    83.4901    24.0110    23.2714
  271.0000    82.4886    23.8478    23.2776
  271.5000    80.5205    23.6869    23.2837
  272.0000    81.1561    24.5327    23.2900
  272.5000    83.3092    25.0570    23.4612
  273.0000    85.7865    24.8867    23.6322
  273.5000    87.3191    25.0669    23.9717
  274.0000    87.9548    25.0719    24.1465
  274.5000    87.9835    25.0770    24.4949
  275.0000    87.4052    24.7360    24.5014
  275.5000    85.9236    24.2291    24.3369
  276.0000    84.7383    23.8986    24.3433
  276.5000    83.8493    23.5725    24.1800
  277.0000    83.2782    23.4135    24.0177
  277.5000    83.6175    23.4193    23.6901
  278.0000    85.1636    23.0998    23.3684
  278.5000    86.1028    22.6265    22.9880
  279.0000    85.8270    22.2952    22.8951
  279.5000    86.1608    22.0133    22.5843
  280.0000    87.4099    22.0188    22.5903
  280.5000    86.8316    21.7173    22.1109
  281.0000    85.3429    21.4142    21.6742
  281.5000    84.4512    20.9832    21.5273
  282.0000    84.8004    20.8416    21.5344
  282.5000    86.0430    20.9915    21.5402
  283.0000    87.2857    20.8509    21.5472
  283.5000    87.6178    21.0019    21.5529
  284.0000    86.4397    21.3008    21.5583
  284.5000    85.8614    21.3050    21.5643
  285.0000    85.2759    21.3092    21.5703
  285.5000    85.0076    21.3135    21.5771
  286.0000    85.0379    21.3187    21.5828
  286.5000    86.2868    21.3229    21.5885
  287.0000    87.8329    21.4762    21.4451
  287.5000    89.0756    21.3313    21.4507
  288.0000    90.0152    21.1885    21.1567
  288.5000    90.6575    21.0455    20.8696
  289.0000    89.4722    20.7574    20.7295
  289.5000    87.3765    20.5534    20.4468
  290.0000    85.5842    20.0372    20.1679
  290.5000    85.9236    19.5083    20.0325
  291.0000    84.7383    19.3767    19.8994
  291.5000    84.4563    19.2460    19.6280
  292.0000    85.4026    19.2508    19.4962
  292.5000    86.0383    19.1209    19.3654
  293.0000    84.5567    18.7300    18.9667
  293.5000    84.2747    18.3453    18.4517
  294.0000    85.8280    18.0959    18.0731
  294.5000    87.1017    17.6030    17.8254
