~VERSION INFORMATION
 VERS.                2.0:   CWLS LOG ASCII STANDARD - VERSION 2.0
 WRAP.                 NO:   ONE LINE PER DEPTH STEP
~WELL INFORMATION
#MNEM.UNIT      DATA TYPE    INFORMATION
#----------   ------------   ------------------------------
 STRT.F           20.0000:   START DEPTH
 STOP.F          678.0000:   STOP DEPTH
 STEP.F            0.5000:   STEP LENGTH
 NULL.          -999.2500:   NO VALUE
 COMP. FENIX & SCISSON INC:   COMPANY
 WELL. 27-42 SX 11 WO #27-11:   WELL
 FLD .        TEAPOT DOME:   FIELD
 LOC .      S11 T38N R78W:   LOCATION
 CNTY.            NATRONA:   COUNTY
 STAT.            WYOMING:   STATE
 CTRY. UNITED STATES OF AMERICA:   COUNTRY
 SRVC.      Dresser Atlas:   SERVICE COMPANY
 DATE.        13-AUG-1985:   LOGDATE
 API .       490251083800:   API NUMBER
~CURVE INFORMATION
#MNEM.UNIT       API CODE    CURVE DESCRIPTION
#----------   ------------   ------------------------------
 DEPT.F                  :   
 RHOB.G/C3   45 350 01 00:   BULK DENSITY
 CORR.G/C3   45 356 01 00:   DENSITY CORRECTION
 CALD.IN     45 280 60 00:   CALIPER
 GRD .GAPI   45 310 01 00:   GAMMA RAY FROM DENSITY LOG
 DPOR.DEC    45 890 12 00:   DENSITY POROSITY SANDSTONE
 NPOR.DEC    42 890 03 00:   NEUTRON POROSITY SANDSTONE
 SPR .MV     07 010 01 00:   SPONTANEOUS POTENTIAL
 SFL .OHMM   07 220 01 00:   SHALLOW FOCUSED LOG RESISTIVITY
 ILD .OHMM   07 120 46 00:   INDUCTION LOG DEEP
 ILM .OHMM   07 120 44 00:   INDUCTION LOG MEDIUM
~PARAMETER INFORMATION
#MNEM.UNIT          VALUE    DESCRIPTION
#----------   ------------   ------------------------------
 PD  .                 GL:   PERMANENT DATUM
 EPD .F              5188:   ELEVATION PERMANENT DATUM
 LMF .                 KB:   LOG MEASURED FROM
 DAPD.F                 5:   FEET ABOVE PERMANENT DATUM
 DMF .                 KB:   DRILLING MEASURED FROM
 EKB .F              5193:   KELLING BUSHING
 EGL .F              5188:   GROUND LEVEL
 DATE.          8-13-1985:   RUN DATE
 RUN .                  8:   RUN NUMBER
 DD  .F               632:   DEPTH DRILLER
 BLI .F               598:   BOTTOM LOG INTERVAL
 TLI .F               303:   TOP LOG INTERVAL
 CBL .F               303:   CASING BOTTOM LOGGER
 BS  .IN              .75:   BIT SIZE
 BSD .F               632:   BIT SIZE AT DEPTH
 DFT .          KCL WATER:   DRILLING FLUID TYPE
 LUN .            HL-6274:   LOGGING UNIT NUMBER
 LUL .           GILLETTE:   LOGGING UNIT LOCATION
 ENGI.             RAUTIO:   RECORDING ENGINEER
 WITN.            SCHULTE:   WITNESSED BY
 CLNT.            A2DTECH:   CLIENT CODE
 ORIG.           2" PRINT:   ORIGIN OF DATA
 UWI .       490251083800:   UNIQUE WELL ID
 DICO. A2D Technologies, Inc.:   DIGITIZING COMPANY
~OTHER INFORMATION
~A   DEPT     RHOB       CORR       CALD        GRD       DPOR       NPOR        SPR        SFL        ILD          ILM 
# ...
  120.5000     2.4607     0.0333     9.0691   115.9420     0.1319     0.3291    -9.9779     7.0930     6.2389     5.9831
  121.0000     2.4562     0.0320     9.0616   113.9734     0.1319     0.3301   -10.0110     7.1272     6.2388     5.9418
  121.5000     2.4610     0.0361     9.0540   113.9108     0.1263     0.3315   -10.0446     7.1885     6.2277     5.9007
  122.0000     2.4693     0.0398     9.0463   114.6129     0.1215     0.3301   -10.0772     7.2504     6.1996     5.8599
  122.5000     2.4706     0.0434     9.0387   115.7470     0.1168     0.3278   -10.1101     7.3443     6.1717     5.8194
  123.0000     2.4795     0.0479     9.0310   115.8068     0.1144     0.3255   -10.1463     7.3317     6.1439     5.7792
  123.5000     2.4871     0.0447     9.0233   114.6914     0.1203     0.3243   -10.1600     7.2380     6.1163     5.7393
  124.0000     2.4770     0.0377     9.0159   114.9229     0.1255     0.3367   -10.1551     7.1455     6.0889     5.6996
  124.5000     2.4706     0.0320     9.0082   115.4405     0.1279     0.3459   -10.0382     7.0542     6.0616     5.6602
  125.0000     2.4664     0.0347     9.0049   115.9652     0.1302     0.3459    -9.9125     6.9641     6.0344     5.6211
  125.5000     2.4613     0.0345     9.0016   116.2427     0.1336     0.3479    -9.7822     6.8751     6.0074     5.5823
  126.0000     2.4569     0.0279     8.9984   115.1184     0.1377     0.3512    -9.6544     6.7872     5.9805     5.5437
  126.5000     2.4516     0.0239     8.9952   115.1644     0.1380     0.3545    -9.5267     6.7005     5.9537     5.5054
  127.0000     2.4463     0.0245     8.9920   116.2162     0.1339     0.3578    -9.3970     6.6149     5.9270     5.4863
  127.5000     2.4497     0.0317     8.9888   116.6247     0.1298     0.3587    -9.2699     6.8573     5.9004     5.4863
  128.0000     2.4661     0.0392     8.9856   115.9559     0.1279     0.3525    -9.1430     7.4944     5.8740     5.4863
  128.5000     2.4666     0.0408     8.9824   115.4681     0.1271     0.3459    -9.0075     7.3581     5.8478     5.4863
  129.0000     2.4716     0.0428     8.9791   116.9875     0.1226     0.3483    -8.9945     7.0678     5.8214     5.4863
  129.5000     2.4815     0.0443     8.9759   115.9476     0.1151     0.3507    -9.0666     6.7878     5.7975     5.4863
  130.0000     2.4910     0.0534     8.9727   114.0473     0.1101     0.3507    -9.1316     6.6214     5.8165     5.5075
  130.5000     2.4952     0.0598     8.9692   112.2098     0.1120     0.3478    -9.1932     6.7339     5.8472     5.5433
  131.0000     2.4916     0.0574     8.9701   111.5571     0.1104     0.3448    -9.2587     6.8482     5.8781     5.5791
  131.5000     2.4922     0.0515     8.9746   112.8727     0.1171     0.3428    -9.3269     6.9645     5.9091     5.6139
  132.0000     2.4809     0.0455     8.9787   115.4335     0.1254     0.3411    -9.3660     7.0828     5.9400     5.6484
  132.5000     2.4697     0.0396     8.9827   119.2188     0.1269     0.3418    -9.3622     7.2243     5.9712     5.6917
  133.0000     2.4660     0.0338     8.9869   119.8941     0.1285     0.3443    -9.3626     7.1005     6.0026     5.6720
  133.5000     2.4623     0.0282     8.9910   118.2520     0.1303     0.3428    -9.3632     6.9533     6.0401     5.6275
  134.0000     2.4613     0.0279     8.9951   116.7849     0.1303     0.3399    -9.3626     6.8091     6.0809     5.5879
  134.5000     2.4681     0.0287     8.9993   115.2900     0.1248     0.3371    -9.3629     6.7132     6.1220     5.5879
  135.0000     2.4683     0.0309     9.0033   113.7460     0.1256     0.3347    -9.3628     6.7941     6.1634     5.6520
  135.5000     2.4719     0.0329     9.0077   112.6779     0.1213     0.3347    -9.3627     6.9453     6.2050     5.7717
  136.0000     2.4822     0.0351     9.0079   112.6990     0.1200     0.3386    -9.3632     7.0998     6.2381     5.8939
  136.5000     2.4748     0.0349     9.0080   113.1272     0.1239     0.3451    -9.3622     7.2577     6.2381     6.0134
  137.0000     2.4711     0.0329     9.0080   113.4663     0.1227     0.3499    -9.3614     7.4192     6.2381     5.9648
  137.5000     2.4757     0.0309     9.0080   114.5352     0.1212     0.3537    -9.3155     7.6011     6.2381     5.8912
  138.0000     2.4790     0.0290     9.0080   116.1724     0.1208     0.3584    -9.2618     7.5247     6.1944     5.8186
  138.5000     2.4828     0.0279     9.0080   116.6327     0.1150     0.3630    -9.2075     7.3741     6.1332     5.7468
  139.0000     2.4881     0.0280     9.0080   114.7044     0.1112     0.3659    -9.1527     7.2266     6.0726     5.6760
  139.5000     2.4937     0.0340     9.0080   115.9321     0.1074     0.3583    -9.0999     7.0820     6.0127     5.6060
  140.0000     2.5055     0.0411     9.0080   118.5364     0.0992     0.3527    -9.0460     6.9404     5.9533     5.5368
  140.5000     2.5099     0.0473     9.0080   120.5990     0.1116     0.3500    -8.9855     6.8375     5.8945     5.4863
  141.0000     2.4887     0.0414     9.0080   119.3178     0.1224     0.3475    -9.0007     6.8375     5.8362     5.4988
  141.5000     2.4738     0.0360     9.0080   117.7603     0.1224     0.3497    -9.0963     6.8375     5.7967     5.5248
  142.0000     2.4750     0.0304     9.0080   116.2837     0.1224     0.3546    -9.1856     6.8375     5.7967     5.5509
  142.5000     2.4671     0.0243     9.0080   116.5838     0.1264     0.3517    -9.2740     6.9609     5.7967     5.5771
  143.0000     2.4660     0.0240     9.0080   117.5999     0.1230     0.3431    -9.3632     7.1269     5.7967     5.5879
  143.5000     2.4782     0.0238     9.0080   118.6488     0.1176     0.3329    -9.4552     7.2243     5.7967     5.5879
  144.0000     2.4826     0.0241     9.0080   119.6521     0.1217     0.3226    -9.5407     7.0701     5.7968     5.5879
  144.5000     2.4718     0.0213     9.0080   120.5966     0.1280     0.3148    -9.6278     6.9235     5.8800     5.6684
  145.0000     2.4628     0.0143     9.0080   120.6520     0.1344     0.3173    -9.7396     6.7116     5.9772     5.7628
  145.5000     2.4537     0.0082     9.0080   120.6314     0.1408     0.3212    -9.5974     6.7139     6.0759     5.8587
  146.0000     2.4435     0.0086     9.0080   120.5571     0.1423     0.3220    -9.2337     6.9441     6.1763     5.9562
  146.5000     2.4458     0.0103     9.0080   118.2891     0.1351     0.3233    -8.9675     7.1517     6.2782     6.0553
  147.0000     2.4513     0.0123     9.0080   115.9526     0.1368     0.3255    -8.9700     7.3589     6.3818     6.1560
  147.5000     2.4504     0.0141     9.0080   113.2633     0.1399     0.3278    -8.9640     7.3581     6.4878     6.2585
  148.0000     2.4470     0.0159     9.0080   113.2668     0.1359     0.3299    -8.9624     7.5607     6.5951     6.3536
  148.5000     2.4508     0.0160     9.0080   113.3949     0.1378     0.3252    -8.9582     7.8021     6.7132     6.3536
  149.0000     2.4425     0.0157     9.0079   111.6489     0.1431     0.3276    -8.7741     8.0513     6.7132     6.2368
  149.5000     2.4375     0.0188     9.0080   109.9171     0.1382     0.3307    -8.5716     8.2144     6.5953     6.1120
  150.0000     2.4550     0.0275     9.0080   111.1108     0.1312     0.3318    -8.3625     7.9265     6.4417     5.9898
  150.5000     2.4588     0.0319     9.0078   113.3494     0.1357     0.3372    -8.1568     7.6411     6.2916     5.8699
  151.0000     2.4448     0.0257     9.0091   113.3166     0.1407     0.3426    -7.9525     7.3659     6.1450     5.7525
  151.5000     2.4321     0.0202     9.0113   112.8312     0.1493     0.3465    -7.7412     7.1007     6.0018     5.6374
  152.0000     2.4197     0.0143     9.0134   112.2399     0.1599     0.3443    -7.5380     6.8450     5.8619     5.5247
  152.5000     2.4096     0.0119     9.0154   112.8619     0.1599     0.3404    -7.3747     6.5985     5.7254     5.4141
  153.0000     2.4193     0.0180     9.0174   113.5577     0.1519     0.3451    -7.3528     6.3536     5.5879     5.2886
  153.5000     2.4317     0.0256     9.0195   113.0346     0.1452     0.3492    -7.5497     6.3536     5.5879     5.2886
