~VERSION INFORMATION
 VERS.                2.0:   CWLS LOG ASCII STANDARD - VERSION 2.0
 WRAP.                 NO:   ONE LINE PER DEPTH STEP
~WELL INFORMATION
#MNEM.UNIT      DATA TYPE    INFORMATION
#----------   ------------   ------------------------------
 STRT.F          148.5000:   START DEPTH
 STOP.F          882.5000:   STOP DEPTH
 STEP.F            0.5000:   STEP LENGTH
 NULL.          -999.2500:   NO VALUE
 COMP.               NAVY:   COMPANY
 WELL. RES 3 TEAPOT DOM #55S-11:   WELL
 FLD .             TEAPOT:   FIELD
 LOC .      S11 T38N R78W:   LOCATION
 CNTY.            NATRONA:   COUNTY
 STAT.            WYOMING:   STATE
 CTRY. UNITED STATES OF AMERICA:   COUNTRY
 SRVC.       Schlumberger:   SERVICE COMPANY
 DATE.        05-AUG-1961:   LOGDATE
 API .       490250634000:   API NUMBER
~CURVE INFORMATION
#MNEM.UNIT       API CODE    CURVE DESCRIPTION
#----------   ------------   ------------------------------
 DEPT.F                  :   
 GR  .GAPI   30 310 01 00:   GAMMA RAY
 SPR .MV     05 010 01 00:   SPONTANEOUS POTENTIAL FROM RES.
 CILD.MMHO   05 110 46 00:   CONDUCTIVITY INDUCTION LOG DEEP
 ASN .OHMM   05 041 16 00:   AMPLIFIED SHORT NORMAL 16"
 ILD .OHMM   05 120 46 00:   INDUCTION LOG DEEP
~PARAMETER INFORMATION
#MNEM.UNIT          VALUE    DESCRIPTION
#----------   ------------   ------------------------------
 PD  .                 GL:   PERMANENT DATUM
 EPD .F              5201:   ELEVATION PERMANENT DATUM
 LMF .                 KB:   LOG MEASURED FROM
 DAPD.F                 6:   FEET ABOVE PERMANENT DATUM
 DMF .                 KB:   DRILLING MEASURED FROM
 EKB .F              5207:   KELLING BUSHING
 EGL .F              5201:   GROUND LEVEL
 DATE.             8-5-61:   RUN DATE
 RUN .                  1:   RUN NUMBER
 DD  .F               880:   DEPTH DRILLER
 DL  .F               882:   DEPTH LOGGER
 BLI .F               881:   BOTTOM LOG INTERVAL
 TLI .F               150:   TOP LOG INTERVAL
 BS  .IN            7.875:   BIT SIZE
 BSD .F               880:   BIT SIZE AT DEPTH
 DFT .       OIL EMULSION:   DRILLING FLUID TYPE
 DFV .                 40:   DRILLING FLUID VISCOSITY
 MSS .           FLOWLINE:   MUD SAMPLE SOURCE
 RMS .OHMM            .96:   RESISTIVITY MUD SAMPLE
 MST .F                74:   MUD SAMPLE TEMPERATURE
 TCS .HRS               1:   TIME CURCULATED STOPPED
 LUN .               2544:   LOGGING UNIT NUMBER
 LUL .                 NC:   LOGGING UNIT LOCATION
 ENGI.            EARNEST:   RECORDING ENGINEER
 WITN.          JORGENSEN:   WITNESSED BY
 CLNT.            A2DTECH:   CLIENT CODE
 ORIG.       2", 5" PRINT:   ORIGIN OF DATA
 UWI .       490250634000:   UNIQUE WELL ID
 DICO. A2D Technologies, Inc.:   DIGITIZING COMPANY
~OTHER INFORMATION
~A   DEPT       GR        SPR       CILD        ASN        ILD   
# ...
  514.5000  -999.2500   -49.4978   140.7191     8.6337     7.6230
  515.0000  -999.2500   -49.6228   140.9379     8.5777     7.5983
  515.5000  -999.2500   -49.7478   141.1568     8.5467     7.5736
  516.0000  -999.2500   -49.8765   141.3756     8.5548     7.5489
  516.5000  -999.2500   -49.9888   141.5944     8.5640     7.5243
  517.0000  -999.2500   -50.0208   141.8132     8.5737     7.4996
  517.5000  -999.2500   -50.0627   142.0321     8.5862     7.4748
  518.0000  -999.2500   -50.1022   142.2509     8.5860     7.4501
  518.5000  -999.2500   -50.1447   142.4697     8.5652     7.4253
  519.0000  -999.2500   -50.1829   142.6886     8.5168     7.4006
  519.5000  -999.2500   -50.2116   142.9074     8.4584     7.3756
  520.0000  -999.2500   -50.1358   143.1262     8.3970     7.3512
  520.5000  -999.2500   -49.9902   143.3450     8.3650     7.3255
  521.0000  -999.2500   -49.8583   143.5639     8.3693     7.3071
  521.5000  -999.2500   -49.7199   143.7827     8.3793     7.3607
  522.0000  -999.2500   -49.5853   144.0081     8.4183     7.4264
  522.5000  -999.2500   -49.4484   142.8529     8.4847     7.4899
  523.0000  -999.2500   -49.3122   141.6622     8.5511     7.5542
  523.5000  -999.2500   -49.1935   140.4715     8.6154     7.6184
  524.0000  -999.2500   -49.2335   139.2809     8.7003     7.6819
  524.5000  -999.2500   -49.3241   138.0902     8.8086     7.7472
  525.0000  -999.2500   -49.4022   136.8995     8.9079     7.8091
  525.5000  -999.2500   -49.4863   135.7088     8.9534     7.8778
  526.0000  -999.2500   -49.5662   134.5018     8.9959     7.9054
  526.5000  -999.2500   -49.6503   133.9216     9.0150     7.8614
  527.0000  -999.2500   -49.7291   134.6720     9.0147     7.8194
  527.5000  -999.2500   -49.8031   135.4114     8.9952     7.7750
  528.0000  -999.2500   -49.7377   136.1500     8.9506     7.7322
  528.5000  -999.2500   -49.6338   136.8885     8.9126     7.6882
  529.0000  -999.2500   -49.5150   137.6241     8.8685     7.6457
  529.5000  -999.2500   -49.3636   138.3597     8.8064     7.5989
  530.0000  -999.2500   -49.2352   139.1010     8.7383     7.5157
  530.5000  -999.2500   -49.0916   139.8370     8.7062     7.4309
  531.0000  -999.2500   -48.9922   140.5731     8.6786     7.3467
  531.5000  -999.2500   -48.9899   141.3092     8.6475     7.2621
  532.0000  -999.2500   -48.9856   141.9940     8.6126     7.1778
  532.5000  -999.2500   -49.0043   141.9940     8.5900     7.0947
  533.0000  -999.2500   -49.1270   144.6712     8.4905     6.9903
  533.5000  -999.2500   -49.2373   147.1624     8.3224     6.8893
  534.0000  -999.2500   -49.3499   149.6797     8.1896     6.7865
  534.5000  -999.2500   -49.4603   152.1628     8.1028     6.7000
  535.0000  -999.2500   -49.5818   154.6354     8.0279     6.6976
  535.5000  -999.2500   -49.5981   157.0961     7.9520     6.6905
  536.0000  -999.2500   -49.5494   158.0382     7.8836     6.7499
  536.5000  -999.2500   -49.4878   158.0105     7.9145     6.8614
  537.0000  -999.2500   -49.4267   155.9877     8.0357     6.9585
  537.5000  -999.2500   -49.3653   153.3383     8.1150     7.0622
  538.0000  -999.2500   -49.3040   151.0455     8.1981     7.1627
  538.5000  -999.2500   -49.2425   148.6642     8.2778     7.2644
  539.0000  -999.2500   -49.1813   146.2828     8.3604     7.3666
  539.5000  -999.2500   -49.1199   143.9014     8.4382     7.4660
  540.0000  -999.2500   -49.0586   141.5201     8.5058     7.5714
  540.5000  -999.2500   -48.9957   139.1387     8.5677     7.6630
  541.0000  -999.2500   -48.9917   136.7573     8.6259     7.7362
  541.5000  -999.2500   -49.0634   135.9390     8.6860     7.7816
  542.0000  -999.2500   -49.1525   135.9441     8.7441     7.7173
  542.5000  -999.2500   -49.2392   137.0845     8.8055     7.6729
  543.0000  -999.2500   -49.3270   138.0572     8.8507     7.6185
  543.5000  -999.2500   -49.4142   139.0278     8.8501     7.5698
  544.0000  -999.2500   -49.5021   139.9983     8.8050     7.5178
  544.5000  -999.2500   -49.5893   140.9706     8.7575     7.4676
  545.0000  -999.2500   -49.6240   141.9450     8.7146     7.4176
  545.5000  -999.2500   -49.6518   142.9182     8.6701     7.3965
  546.0000  -999.2500   -49.6813   143.8913     8.6260     7.3760
  546.5000  -999.2500   -49.7102   144.8635     8.5837     7.3499
  547.0000  -999.2500   -49.7392   145.8360     8.5573     7.3328
  547.5000  -999.2500   -49.7686   146.8089     8.5405     7.3007
  548.0000  -999.2500   -49.7957   147.7820     8.5209     7.3252
  548.5000  -999.2500   -49.9052   148.3748     8.5154     7.5072
  549.0000  -999.2500   -49.5330   148.0401     8.5594     7.6011
  549.5000  -999.2500   -49.1721   147.7054     8.5990     7.6955
  550.0000  -999.2500   -48.7878   145.1936     8.6965     7.7910
  550.5000  -999.2500   -48.5222   141.5414     8.7838     7.8860
  551.0000  -999.2500   -48.7816   137.8892     8.9978     7.9803
  551.5000  -999.2500   -49.0670   134.2456     9.2143     8.0832
  552.0000  -999.2500   -49.3456   130.5802     9.4187     8.2319
  552.5000  -999.2500   -49.6568   127.5141     9.6492     8.3959
  553.0000  -999.2500   -49.7277   126.0725     9.8101     8.5558
  553.5000  -999.2500   -49.7539   124.8376     9.8827     8.7180
  554.0000  -999.2500   -49.7918   123.5917     9.9644     8.8140
  554.5000  -999.2500   -49.8259   121.5903     9.9808     8.9964
  555.0000  -999.2500   -49.8583   119.9275     9.9782     9.1802
  555.5000  -999.2500   -49.8990   117.8648    10.0696     9.3566
  556.0000  -999.2500   -49.8610   115.8028    10.2763     9.5395
  556.5000  -999.2500   -49.7818   113.7524    10.4710     9.7137
  557.0000  -999.2500   -49.7151   111.7164    10.6724     9.9038
  557.5000  -999.2500   -49.6428   109.6901    10.8769    10.0184
  558.0000  -999.2500   -49.5734   107.6629    10.9642    10.0744
  558.5000  -999.2500   -49.5027   105.4386    11.0456    10.1463
  559.0000  -999.2500   -49.4324   104.8216    11.1283    10.2133
  559.5000  -999.2500   -49.3621   104.1312    11.2187    10.2790
  560.0000  -999.2500   -49.2930   103.4538    11.2855    10.3547
  560.5000  -999.2500   -49.2942   102.7764    11.2193    10.3871
  561.0000  -999.2500   -49.3621   102.0991    11.1516    10.3493
  561.5000  -999.2500   -49.4259   101.4056    11.0835    10.3264
  562.0000  -999.2500   -49.4912   103.0712    11.0153    10.2762
  562.5000  -999.2500   -49.5550   105.2103    10.9487    10.1124
  563.0000  -999.2500   -49.6210   107.3494    10.8811     9.9738
  563.5000  -999.2500   -49.6832   109.4885    10.7530     9.8348
  564.0000  -999.2500   -49.7521   111.6276    10.6403     9.7016
  564.5000  -999.2500   -49.8089   113.7666    10.5189     9.5557
  565.0000  -999.2500   -49.8877   115.9057    10.4116     9.4674
  565.5000  -999.2500   -49.8074   119.4779    10.3325     9.4291
  566.0000  -999.2500   -49.6212   118.6407    10.2478     9.3762
  566.5000  -999.2500   -49.4663   117.8591    10.1345     9.3303
  567.0000  -999.2500   -49.2972   117.4699    10.1419     9.2864
  567.5000  -999.2500   -49.1357   116.0643    10.1731     9.3081
  568.0000  -999.2500   -48.9703   114.7942    10.0936     9.3580
  568.5000  -999.2500   -48.8066   113.5241    10.1578     9.4029
  569.0000  -999.2500   -48.6415   112.2540    10.1944     9.4506
  569.5000  -999.2500   -48.4917   111.4458    10.2466     9.4906
  570.0000  -999.2500   -48.5993   113.1390    10.2853     9.5328
  570.5000  -999.2500   -48.7809   115.3359    10.2520     9.5792
  571.0000  -999.2500   -48.9482   117.5328    10.1930     9.4684
  571.5000  -999.2500   -49.1229   119.7297    10.1423     9.3017
  572.0000  -999.2500   -49.2934   121.9266    10.0830     9.1471
  572.5000  -999.2500   -49.4716   124.1235    10.0370     8.9840
  573.0000  -999.2500   -49.4693   126.3204     9.9482     8.8304
  573.5000  -999.2500   -49.4314   127.9211     9.8488     8.6612
  574.0000  -999.2500   -49.3988   128.8176     9.7243     8.5594
  574.5000  -999.2500   -49.3674   129.7142     9.6205     8.5256
  575.0000  -999.2500   -49.3282   130.6107     9.5322     8.4838
