~VERSION INFORMATION
 VERS.                2.0:   CWLS LOG ASCII STANDARD - VERSION 2.0
 WRAP.                 NO:   ONE LINE PER DEPTH STEP
~WELL INFORMATION
#MNEM.UNIT      DATA TYPE    INFORMATION
#----------   ------------   ------------------------------
 STRT.F            1.0000:   START DEPTH
 STOP.F          478.0000:   STOP DEPTH
 STEP.F            0.1000:   STEP LENGTH
 NULL.          -999.2500:   NO VALUE
 COMP. LAWRENCE/ALLISON INC:   COMPANY
 WELL.     58-61 SX #58-3:   WELL
 FLD .             TEAPOT:   FIELD
 LOC .       S3 T38N R78W:   LOCATION
 CNTY.            NATRONA:   COUNTY
 STAT.            WYOMING:   STATE
 CTRY. UNITED STATES OF AMERICA:   COUNTRY
 SRVC.           Gearhart:   SERVICE COMPANY
 DATE.        08-JUL-1988:   LOGDATE
 API .       490251123400:   API NUMBER
~CURVE INFORMATION
#MNEM.UNIT       API CODE    CURVE DESCRIPTION
#----------   ------------   ------------------------------
 DEPT.F                  :   
 GRR .GAPI   07 310 01 00:   GAMMA RAY
 RILD.OHMM   07 120 46 00:   INDUCTION LOG DEEP RESISTIVITY
 RILM.OHMM   07 120 44 00:   INDUCTION LOG MEDIUM RESISTIVITY
~PARAMETER INFORMATION
#MNEM.UNIT          VALUE    DESCRIPTION
#----------   ------------   ------------------------------
 PD  .                 GL:   PERMANENT DATUM
 EPD .F              5184:   ELEVATION PERMANENT DATUM
 LMF .                 KB:   LOG MEASURED FROM
 DAPD.F                 5:   FEET ABOVE PERMANENT DATUM
 DMF .                 KB:   DRILLING MEASURED FROM
 EKB .F              5189:   KELLING BUSHING
 EGL .F              5184:   GROUND LEVEL
 DATE.        08-JUL-1988:   RUN DATE
 RUN .                  1:   RUN NUMBER
 DD  .F               485:   DEPTH DRILLER
 DL  .F               486:   DEPTH LOGGER
 BLI .F               478:   BOTTOM LOG INTERVAL
 CS  .IN            9.625:   CASING SIZE
 CBD .F                45:   CASING BOTTOM DRILLER
 CBL .F                44:   CASING BOTTOM LOGGER
 BS  .IN             8.75:   BIT SIZE
 BSD .F               485:   BIT SIZE AT DEPTH
 DFT .                AIR:   DRILLING FLUID TYPE
 TCS .HRS            2200:   TIME CURCULATED STOPPED
 TLAB.HRS            2315:   TIME LOGGER AT BOTTOM
 LUN .               7597:   LOGGING UNIT NUMBER
 LUL .           GILLETTE:   LOGGING UNIT LOCATION
 ENGI.           JOHNSTON:   RECORDING ENGINEER
 WITN.              FIVAS:   WITNESSED BY
 CLNT.            A2DTECH:   CLIENT CODE
 ORIG.           5" PRINT:   ORIGIN OF DATA
 UWI .       490251123400:   UNIQUE WELL ID
 DICO. A2D Technologies, Inc.:   DIGITIZING COMPANY
~OTHER INFORMATION
~A    DEPT     GRR       RILD       RILM   
# ...
  310.4000   104.7478    22.4287    22.5105
  310.5000   104.4006    22.4278    22.4834
  310.6000   104.1578    22.4269    22.3532
  310.7000   103.9443    22.4259    22.3531
  310.8000   103.9495    22.4523    22.3529
  310.9000   103.9533    22.5815    22.3527
  311.0000   103.9575    22.5806    22.3908
  311.1000   103.9618    22.5796    22.5094
  311.2000   103.9660    22.6463    22.5092
  311.3000   103.9704    22.7746    22.5091
  311.4000   103.9745    22.8951    22.5881
  311.5000   103.7936    22.8939    22.6669
  311.6000   103.2935    22.8931    22.6667
  311.7000   102.6289    22.9715    22.6665
  311.8000   102.1232    23.0520    22.6664
  311.9000   101.2650    23.0510    22.6662
  312.0000   100.8558    23.0499    22.7276
  312.1000   100.6659    23.1699    22.8251
  312.2000   100.9506    23.3012    22.8274
  312.3000   101.6958    23.3720    22.9578
  312.4000   102.4999    23.4016    22.9849
  312.5000   102.9590    23.5342    23.0588
  312.6000   103.6285    23.5332    23.1460
  312.7000   104.1445    23.5322    23.1459
  312.8000   104.3958    23.6039    23.1457
  312.9000   104.6470    23.6955    23.1456
  313.0000   104.8984    23.6945    23.2316
  313.1000   104.9572    23.6933    23.3078
  313.2000   104.8255    23.6925    23.3076
  313.3000   104.5827    23.7758    23.3075
  313.4000   104.3169    23.8569    23.4362
  313.5000   103.7608    23.8559    23.4708
  313.6000   103.3372    23.8548    23.4707
  313.7000   102.8473    23.8539    23.5085
  313.8000   102.1560    23.9489    23.6352
  313.9000   101.2163    24.0194    23.6350
  314.0000   100.4433    24.0184    23.6348
  314.1000   100.2125    24.0174    23.6347
  314.2000    99.9697    24.0164    23.6345
  314.3000    99.8489    23.9082    23.6344
  314.4000    99.9186    23.8469    23.6342
  314.5000   100.1700    23.8459    23.5112
  314.6000   100.4694    23.8315    23.4690
  314.7000   101.0720    23.6774    23.4077
  314.8000   101.8173    23.6766    23.3050
  314.9000   102.4758    23.6756    23.3049
  315.0000   103.0044    23.6195    23.3047
  315.1000   103.8287    23.5085    23.2020
  315.2000   104.4952    23.5074    23.0700
  315.3000   105.0761    23.3797    22.9387
  315.4000   105.5745    23.2461    22.8081
  315.5000   106.0212    23.1132    22.6605
  315.6000   106.2775    23.0152    22.6604
  315.7000   106.2816    23.0099    22.5785
  315.8000   106.4717    22.8526    22.4500
  315.9000   106.5936    22.7477    22.3222
  316.0000   106.6707    22.6176    22.1889
  316.1000   106.9056    22.4883    22.0690
  316.2000   106.9106    22.3742    21.9434
  316.3000   107.1211    22.3731    21.8185
  316.4000   107.3724    22.2600    21.6944
  316.5000   107.5296    22.1327    21.5709
  316.6000   107.5338    22.0061    21.4250
  316.7000   107.5384    21.8803    21.3262
  316.8000   107.7706    21.7510    21.2753
  316.9000   107.8501    21.7501    21.2322
  317.0000   107.8543    21.6582    21.1114
  317.1000   107.8586    21.5966    20.9791
  317.2000   107.8628    21.5616    20.8718
  317.3000   107.8671    21.4382    20.8325
  317.4000   107.8713    21.2936    20.7799
  317.5000   107.8756    21.1938    20.6869
  317.6000   107.8798    21.1435    20.6868
  317.7000   107.8841    21.1426    20.5707
  317.8000   107.8889    21.1260    20.4537
  317.9000   107.8926    20.9933    20.3988
  318.0000   107.8968    20.9925    20.3636
  318.1000   108.0024    20.9116    20.2562
  318.2000   108.2537    20.7920    20.2561
  318.3000   108.5167    20.6981    20.2560
  318.4000   108.5208    20.6972    20.2558
  318.5000   108.7041    20.5808    20.2107
  318.6000   108.8328    20.5511    20.1143
  318.7000   108.9032    20.4891    20.1141
  318.8000   109.1448    20.4061    20.1140
  318.9000   109.1498    20.3976    20.0331
  319.0000   109.3536    20.2619    19.9191
  319.1000   109.7487    20.1651    19.8057
  319.2000   110.1596    20.0498    19.6955
  319.3000   110.4728    19.9779    19.6954
  319.4000   111.2951    19.9603    19.6063
  319.5000   111.2989    19.8368    19.5577
  319.6000   110.9730    19.8361    19.5200
  319.7000   110.5918    19.7578    19.3967
  319.8000   110.3490    19.6448    19.1510
  319.9000   110.1020    19.5324    19.1508
  320.0000   109.3778    19.4207    19.1507
  320.1000   109.0136    19.4198    19.1041
  320.2000   108.5110    19.4190    19.0169
  320.3000   107.7007    19.4182    19.0168
  320.4000   106.7166    19.3831    19.0166
  320.5000   105.5758    19.2812    19.0165
  320.6000   105.1642    19.2802    18.9607
  320.7000   104.6744    19.2795    18.8836
  320.8000   104.2792    19.2787    18.8835
  320.9000   104.0740    19.2779    18.8833
  321.0000   104.0792    19.2771    18.8832
  321.1000   104.3120    19.2763    18.8831
  321.2000   104.3909    19.2755    18.8427
  321.3000   104.5111    19.1976    18.7355
  321.4000   104.8217    19.1395    18.6202
  321.5000   105.3171    19.1120    18.6201
  321.6000   105.5685    19.0026    18.6199
  321.7000   105.8197    18.8940    18.5709
  321.8000   106.2082    18.8703    18.4406
  321.9000   106.6258    18.7506    18.2320
  322.0000   106.9257    18.5718    18.1283
  322.1000   107.7681    18.4656    18.1053
  322.2000   107.9866    18.3461    18.0485
  322.3000   108.3963    18.3455    17.9787
  322.4000   108.7927    18.2782    17.9689
  322.5000   109.0440    18.1736    17.8531
  322.6000   109.3064    18.0697    17.7651
  322.7000   109.7827    17.9612    17.6640
  322.8000   110.1014    17.8636    17.6046
  322.9000   110.3527    17.8345    17.6045
  323.0000   110.6708    17.8338    17.6043
  323.1000   111.1588    17.8330    17.5087
  323.2000   111.4569    17.8323    17.4813
  323.3000   111.4604    17.8314    17.4812
  323.4000   110.8869    17.8308    17.4811
  323.5000   109.9910    17.8300    17.4809
  323.6000   109.2224    17.8293    17.4808
  323.7000   108.1394    17.8285    17.4807
  323.8000   107.4768    17.8277    17.4806
  323.9000   106.9055    17.8270    17.4805
  324.0000   106.4157    17.8263    17.4803
  324.1000   105.9260    17.8255    17.4802
  324.2000   105.4289    17.8248    17.4801
  324.3000   104.9464    17.8240    17.4800
  324.4000   104.4565    17.8233    17.5245
  324.5000   103.7055    17.8976    17.6025
  324.6000   102.7956    17.9469    17.6024
  324.7000   102.0412    17.9462    17.6022
  324.8000   100.9026    17.9454    17.6021
  324.9000   100.2816    17.9445    17.6020
  325.0000    99.8483    17.9439    17.6019
  325.1000    99.6055    17.9432    17.6017
  325.2000    99.4008    17.9424    17.6016
  325.3000    99.4061    17.9551    17.6015
  325.4000    99.4100    18.0668    17.6014
  325.5000    99.5873    18.0662    17.6013
  325.6000    99.8386    18.0654    17.6011
  325.7000   100.1500    18.0193    17.6010
  325.8000   100.6446    17.9379    17.6009
  325.9000   100.8959    17.9371    17.6008
  326.0000   101.7299    17.9364    17.6006
  326.1000   102.5845    17.8589    17.6005
  326.2000   103.4112    17.8098    17.6004
  326.3000   104.4037    17.8091    17.6003
  326.4000   105.5229    17.8083    17.6001
  326.5000   106.3885    17.8074    17.6000
  326.6000   106.9038    17.8068    17.5999
  326.7000   107.4628    17.8061    17.5998
  326.8000   108.3629    17.8053    17.5996
  326.9000   108.8821    17.8046    17.5995
  327.0000   109.3596    17.8038    17.5994
  327.1000   109.6777    17.7104    17.5993
  327.2000   109.9290    17.6782    17.5992
  327.3000   110.1803    17.6774    17.5990
  327.4000   110.4206    17.6767    17.5989
  327.5000   110.4257    17.6759    17.5988
  327.6000   110.4291    17.6752    17.5987
  327.7000   110.2883    17.5972    17.5695
  327.8000   109.9569    17.4966    17.4757
  327.9000   109.4993    17.4273    17.4755
  328.0000   109.2326    17.4185    17.4754
  328.1000   109.0137    17.3042    17.4753
  328.2000   108.6046    17.3036    17.4376
  328.3000   108.1147    17.3029    17.3383
  328.4000   107.6248    17.2635    17.2320
  328.5000   107.1290    17.1648    17.1416
