~VERSION INFORMATION
 VERS.                2.0:   CWLS LOG ASCII STANDARD - VERSION 2.0
 WRAP.                 NO:   ONE LINE PER DEPTH STEP
~WELL INFORMATION
#MNEM.UNIT      DATA TYPE    INFORMATION
#----------   ------------   ------------------------------
 STRT.F          283.5000:   START DEPTH
 STOP.F         3026.0000:   STOP DEPTH
 STEP.F            0.5000:   STEP LENGTH
 NULL.          -999.2500:   NO VALUE
 COMP. DEPARTMENT OF ENERGY:   COMPANY
 WELL. RES 3 TEAPOT DOM "AX" #62-29:   WELL
 FLD .        TEAPOT DOME:   FIELD
 LOC .      S29 T39N R78W:   LOCATION
 CNTY.            NATRONA:   COUNTY
 STAT.            WYOMING:   STATE
 CTRY. UNITED STATES OF AMERICA:   COUNTRY
 SRVC.       Schlumberger:   SERVICE COMPANY
 DATE.        27-JUL-1971:   LOGDATE
 API .       490250659800:   API NUMBER
~CURVE INFORMATION
#MNEM.UNIT       API CODE    CURVE DESCRIPTION
#----------   ------------   ------------------------------
 DEPT.F                  :   
 GRD .GAPI   45 310 01 00:   GAMMA RAY FROM DENSITY LOG
 CALD.IN     45 280 60 00:   CALIPER FROM DENSITY LOG
 RHOB.G/C3   45 350 01 00:   BULK DENSITY
 DPHI.DEC    45 890 12 00:   DENSITY POROSITY SANDSTONE
 CORR.G/C3   45 356 01 00:   DENSITY CORRECTION
 SPR .MV     05 010 01 00:   SPONTANEOUS POTENTIAL FROM RES.
 ASN .OHMM   05 041 16 00:   AMPLIFIED SHORT NORMAL 16"
 ILD .OHMM   05 120 46 00:   INDUCTION LOG DEEP
 CILD.MMHO   05 110 46 00:   CONDUCTIVITY INDUCTION LOG DEEP
~PARAMETER INFORMATION
#MNEM.UNIT          VALUE    DESCRIPTION
#----------   ------------   ------------------------------
 PD  .                 GL:   PERMANENT DATUM
 EPD .F              4998:   ELEVATION PERMANENT DATUM
 LMF .                 KB:   LOG MEASURED FROM
 DAPD.F                11:   FEET ABOVE PERMANENT DATUM
 DMF .                 KB:   DRILLING MEASURED FROM
 EKB .F              5009:   KELLING BUSHING
 EGL .F              4998:   GROUND LEVEL
 DATE.            7-27-71:   RUN DATE
 RUN .                  1:   RUN NUMBER
 DD  .F              3023:   DEPTH DRILLER
 DL  .F              3024:   DEPTH LOGGER
 BLI .F              3023:   BOTTOM LOG INTERVAL
 TLI .F               286:   TOP LOG INTERVAL
 CS  .IN            10.75:   CASING SIZE
 CBD .F               287:   CASING BOTTOM DRILLER
 CBL .F               286:   CASING BOTTOM LOGGER
 BS  .IN                9:   BIT SIZE
 BSD .F              3023:   BIT SIZE AT DEPTH
 DFT .      FRESH GEL MUD:   DRILLING FLUID TYPE
 DFD .                 10:   DRILLING FLUID DENSITY
 DFV .                 90:   DRILLING FLUID VISCOSITY
 DFPH.                7.6:   DRILLING FLUID PH
 DFL .                5.8:   DRILLING FLUID LOSS
 MSS .          FLOW LINE:   MUD SAMPLE SOURCE
 RMS .OHMM           1.74:   RESISTIVITY MUD SAMPLE
 MST .F                75:   MUD SAMPLE TEMPERATURE
 RMF .OHMM            1.5:   RESISTIVITY MUD FILTRATE SAMPLE
 MFST.F                75:   MUD FILTRATE SAMPLE TEMPERATURE
 MFSS.                  C:   MUD FILTRATE SAMPLE SOURCE
 RMB .OHMM           1.12:   RESISTIVITY MUD AT BHT
 BHT .F               116:   BOTTOM HOLE TEMPERATURE
 TCS .HRS               5:   TIME CURCULATED STOPPED
 MRT .F               116:   MAXIMUM RECORDED TEMPERATURE
 LUN .               7041:   LOGGING UNIT NUMBER
 LUL .               CSPR:   LOGGING UNIT LOCATION
 ENGI.             KNOBEL:   RECORDING ENGINEER
 WITN.                MAY:   WITNESSED BY
 CLNT.            A2DTECH:   CLIENT CODE
 ORIG.     1", 2.5" PRINT:   ORIGIN OF DATA
 UWI .       490250659800:   UNIQUE WELL ID
 DICO. A2D Technologies, Inc.:   DIGITIZING COMPANY
~OTHER INFORMATION
~A   DEPT      GRD       CALD       RHOB       DPHI       CORR        SPR        ASN        ILD       CILD   
# ...
 1561.0000   121.8685     9.7598     2.5665     0.0517     0.0372   -47.1043     9.4632     7.5166   127.1135
 1561.5000   123.6291     9.7598     2.5666     0.0518     0.0406   -47.0584     9.3702     7.4704   127.8751
 1562.0000   126.4386     9.7598     2.5738     0.0494     0.0480   -47.0247     9.3050     7.4211   128.6367
 1562.5000   130.5451     9.7598     2.5917     0.0343     0.0490   -47.0334     9.2806     7.3376   129.7030
 1563.0000   132.4688     9.7598     2.5789     0.0386     0.0435   -47.0854     9.2837     7.2573   129.2786
 1563.5000   129.8945     9.7598     2.5665     0.0499     0.0394   -47.1507     9.2957     7.2776   128.5714
 1564.0000   127.3347     9.7598     2.5564     0.0541     0.0388   -47.2052     9.3158     7.4316   127.7228
 1564.5000   125.5988     9.7598     2.5673     0.0577     0.0425   -47.2522     9.3642     7.6485   125.1768
 1565.0000   126.0838     9.7598     2.5815     0.0470     0.0509   -47.3042     9.4637     7.8707   121.9943
 1565.5000   130.3206     9.7598     2.5896     0.0366     0.0545   -47.3603     9.6127     8.1153   118.8119
 1566.0000   128.3070     9.7598     2.5788     0.0452     0.0404   -47.4116     9.7766     8.3619   115.6294
 1566.5000   125.7613     9.7598     2.5564     0.0588     0.0268   -47.4607     9.9091     8.5059   112.4470
 1567.0000   125.4779     9.7598     2.5555     0.0580     0.0211   -47.5163     9.9821     8.4969   109.9010
 1567.5000   125.4592     9.7598     2.5515     0.0594     0.0262   -47.5728     9.9870     8.4101   112.0896
 1568.0000   125.4175     9.7598     2.5478     0.0604     0.0295   -47.6181     9.9212     8.3078   113.9135
 1568.5000   124.0118     9.7598     2.5554     0.0581     0.0367   -47.6629     9.7878     8.1746   115.7374
 1569.0000   122.9260     9.7598     2.5657     0.0516     0.0452   -47.7292     9.6010     8.0457   117.5612
 1569.5000   122.5575     9.7598     2.5766     0.0452     0.0543   -47.7944     9.3708     7.9929   119.3851
 1570.0000   123.8252     9.7598     2.5824     0.0421     0.0551   -47.7925     9.1133     7.9221   121.2090
 1570.5000   125.6030     9.7598     2.5841     0.0373     0.0597   -47.6977     8.8773     7.6009   123.7624
 1571.0000   124.1152     9.7598     2.5900     0.0404     0.0659   -47.5549     8.7059     6.9618   130.6931
 1571.5000   119.4222     9.7599     2.5976     0.0337     0.0743   -47.4016     8.5311     6.1706   137.6238
 1572.0000   115.5878     9.7597     2.5885     0.0376     0.0603   -47.2197     8.1755     5.3670   184.7525
 1572.5000   114.3841     9.7598     2.5708     0.0483     0.0488   -46.9864     7.5311     4.5980   218.4158
 1573.0000   114.1627     9.7602     2.5594     0.0507     0.0570   -46.7089     6.7176     4.0133   252.0792
 1573.5000   115.2422     9.7585     2.5550     0.0597     0.0582   -46.3996     6.0048     3.7970   272.2772
 1574.0000   118.7263     9.7787     2.5587     0.0567     0.0497   -46.1008     5.4412     3.8488   272.2772
 1574.5000   122.8398     9.8312     2.5681     0.0495     0.0724   -45.9296     5.0736     3.8624   270.2970
 1575.0000   123.8916     9.8774     2.5631     0.0512     0.1080   -45.9979     4.9124     3.7996   262.3763
 1575.5000   122.2227     9.9108     2.5556     0.0591     0.1506   -46.2793     5.0187     3.9733   254.4554
 1576.0000   118.9297     9.8312     2.5219     0.0872     0.1358   -46.6360     5.6497     4.5665   229.7030
 1576.5000   117.7171     9.7662     2.4757     0.1149     0.0918   -46.9630     6.7968     5.3893   204.9505
 1577.0000   117.8966     9.6841     2.4901     0.0978     0.0473   -47.2254     7.8821     6.2085   180.1980
 1577.5000   117.9899     9.6823     2.5307     0.0751     0.0421   -47.3927     8.4793     7.0042   155.4455
 1578.0000   118.1090     9.6778     2.5499     0.0648     0.0341   -47.4444     8.7972     7.7657   137.6238
 1578.5000   118.2839     9.6756     2.5656     0.0566     0.0450   -47.4245     9.1128     8.3203   109.9010
 1579.0000   118.3477     9.6718     2.5817     0.0295     0.0536   -47.4090     9.3921     8.5448   110.7496
 1579.5000   118.8074     9.6684     2.5967     0.0323     0.0624   -47.4193     9.5654     8.5642   112.1641
 1580.0000   119.7703     9.6652     2.5903     0.0378     0.0580   -47.4267     9.6717     8.5744   113.8614
 1580.5000   121.0946     9.6618     2.5844     0.0430     0.0544   -47.4196     9.8009     8.6227   111.8812
 1581.0000   122.5626     9.6585     2.5761     0.0390     0.0507   -47.4163    10.0416     8.6764   110.6931
 1581.5000   124.4207     9.6552     2.5685     0.0488     0.0474   -47.4245    10.3136     8.7499   107.9208
 1582.0000   127.0360     9.6518     2.5719     0.0517     0.0430   -47.4258    10.4263     8.8274   108.1330
 1582.5000   127.4380     9.6484     2.5676     0.0454     0.0409   -47.4142    10.4058     8.8048   108.4866
 1583.0000   125.2395     9.6451     2.5539     0.0572     0.0424   -47.4147    10.4378     8.6463   108.8402
 1583.5000   122.8808     9.6418     2.5572     0.0588     0.0489   -47.4340    10.5288     8.4926   109.1938
 1584.0000   123.1359     9.6384     2.5679     0.0535     0.0540   -47.4322    10.5782     8.4941   109.5474
 1584.5000   123.9201     9.6350     2.5843     0.0445     0.0603   -47.3942    10.6108     8.6149   109.9010
 1585.0000   128.1779     9.6317     2.5849     0.0406     0.0566   -47.3962    10.6789     8.7140   109.0274
 1585.5000   132.9059     9.6283     2.6025     0.0255     0.0656   -47.5198    10.7391     8.7428   108.1538
 1586.0000   132.5399     9.6250     2.5886     0.0444     0.0487   -47.7155    10.7686     8.7595   107.2801
 1586.5000   131.3364     9.6216     2.5462     0.0659     0.0339   -47.8465    10.8145     8.7997   106.4065
 1587.0000   130.1223     9.6183     2.5505     0.0659     0.0215   -47.8628    10.8939     8.8287   105.5329
 1587.5000   129.5250     9.6149     2.5729     0.0415     0.0484   -47.8425    10.9835     8.8129   104.6593
 1588.0000   129.3655     9.6116     2.5776     0.0444     0.0563   -47.8572    11.0855     8.7638   103.9604
 1588.5000   129.1918     9.6082     2.5785     0.0430     0.0500   -47.8908    11.1919     8.7078   105.3582
 1589.0000   128.2009     9.6048     2.5879     0.0358     0.0592   -47.9069    11.1655     8.6486   106.5230
 1589.5000   126.3291     9.6025     2.5918     0.0375     0.0546   -47.9122    10.9595     8.5743   107.6878
 1590.0000   124.2131     9.6060     2.5776     0.0461     0.0443   -47.9268    10.6611     8.4917   108.8527
 1590.5000   125.1992     9.6101     2.5760     0.0390     0.0404   -47.9473    10.4429     8.4358   110.0175
 1591.0000   128.1585     9.6144     2.5847     0.0420     0.0531   -47.9630    10.3892     8.4320   111.1823
 1591.5000   130.1823     9.6186     2.5717     0.0469     0.0596   -47.9758    10.4348     8.4638   109.9010
 1592.0000   130.1777     9.6229     2.5786     0.0412     0.0443   -47.9921    10.4788     8.5003   109.9010
 1592.5000   130.3078     9.6271     2.6087     0.0295     0.0581   -48.0083    10.4971     8.5374   109.9010
 1593.0000   131.1026     9.6313     2.6028     0.0366     0.0783   -48.0215    10.5192     8.5792   109.9010
 1593.5000   131.7853     9.6355     2.5775     0.0466     0.0466   -48.0366    10.5513     8.5955   109.9010
 1594.0000   131.9119     9.6399     2.5557     0.0580     0.0334   -48.0572    10.5513     8.5412   109.9010
 1594.5000   130.3493     9.6419     2.5579     0.0549     0.0351   -48.0716    10.4699     8.4148   111.7289
 1595.0000   128.6168     9.6419     2.5521     0.0590     0.0337   -48.0760    10.3017     8.2668   114.0137
 1595.5000   127.9760     9.6403     2.5493     0.0628     0.0354   -48.0925    10.0940     8.1394   116.2986
 1596.0000   126.3535     9.6370     2.5698     0.0477     0.0574   -48.1279     9.8996     8.0233   118.5834
 1596.5000   124.0640     9.6338     2.5653     0.0568     0.0531   -48.1422     9.7319     7.8865   121.7822
 1597.0000   122.8882     9.6307     2.5492     0.0619     0.0358   -48.1206     9.5823     7.7365   122.1375
