~VERSION INFORMATION
 VERS.                2.0:   CWLS LOG ASCII STANDARD - VERSION 2.0
 WRAP.                 NO:   ONE LINE PER DEPTH STEP
~WELL INFORMATION
#MNEM.UNIT      DATA TYPE    INFORMATION
#----------   ------------   ------------------------------
 STRT.F            2.0000:   START DEPTH
 STOP.F          522.0000:   STOP DEPTH
 STEP.F            0.5000:   STEP LENGTH
 NULL.          -999.2500:   NO VALUE
 COMP. LAWRENCE/ALLISON INC:   COMPANY
 WELL.      47-45 SX #3-3:   WELL
 FLD .             TEAPOT:   FIELD
 LOC .       S3 T38N R78W:   LOCATION
 CNTY.            NATRONA:   COUNTY
 STAT.            WYOMING:   STATE
 CTRY. UNITED STATES OF AMERICA:   COUNTRY
 SRVC.           Gearhart:   SERVICE COMPANY
 DATE.        17-JUN-1988:   LOGDATE
 API .       490251123600:   API NUMBER
~CURVE INFORMATION
#MNEM.UNIT       API CODE    CURVE DESCRIPTION
#----------   ------------   ------------------------------
 DEPT.F                  :   
 GRR .GAPI   07 310 01 00:   GAMMA RAY
 RILD.OHMM   07 120 46 00:   INDUCTION LOG DEEP RESISTIVITY
 RILM.OHMM   07 120 44 00:   INDUCTION LOG MEDIUM RESISTIVITY
~PARAMETER INFORMATION
#MNEM.UNIT          VALUE    DESCRIPTION
#----------   ------------   ------------------------------
 PD  .                 GL:   PERMANENT DATUM
 EPD .F              5197:   ELEVATION PERMANENT DATUM
 LMF .                 KB:   LOG MEASURED FROM
 DAPD.F                10:   FEET ABOVE PERMANENT DATUM
 DMF .                 KB:   DRILLING MEASURED FROM
 EKB .F              5207:   KELLING BUSHING
 EGL .F              5197:   GROUND LEVEL
 DATE.        17-JUN-1988:   RUN DATE
 RUN .                  1:   RUN NUMBER
 DD  .F               530:   DEPTH DRILLER
 DL  .F               530:   DEPTH LOGGER
 BLI .F             521.5:   BOTTOM LOG INTERVAL
 TLI .F                48:   TOP LOG INTERVAL
 CS  .IN            9.625:   CASING SIZE
 CBD .F                48:   CASING BOTTOM DRILLER
 CBL .F                48:   CASING BOTTOM LOGGER
 BS  .IN             8.75:   BIT SIZE
 BSD .F               530:   BIT SIZE AT DEPTH
 DFT .                AIR:   DRILLING FLUID TYPE
 TLAB.HRS            0600:   TIME LOGGER AT BOTTOM
 MRT .F                70:   MAXIMUM RECORDED TEMPERATURE
 LUN .               7597:   LOGGING UNIT NUMBER
 LUL .           GILLETTE:   LOGGING UNIT LOCATION
 ENGI.          HUCKFELDT:   RECORDING ENGINEER
 WITN.             STRONG:   WITNESSED BY
 CLNT.            A2DTECH:   CLIENT CODE
 ORIG.           5" PRINT:   ORIGIN OF DATA
 UWI .       490251123600:   UNIQUE WELL ID
 DICO. A2D Technologies, Inc.:   DIGITIZING COMPANY
~OTHER INFORMATION
~A    DEPT      GRR      RILD       RILM   
# ...
  457.0000   100.0000    14.3411    14.3585
  457.5000    99.3939    14.3382    14.3537
  458.0000    99.3939    14.3352    14.3489
  458.5000    99.6970    14.3317    14.3440
  459.0000   100.6061    14.2297    14.3392
  459.5000   100.9091    14.1284    14.3344
  460.0000   100.6061    14.1256    14.2304
  460.5000    99.6970    14.1227    14.1270
  461.0000    98.7879    14.1199    14.1212
  461.5000    99.0909    14.1170    14.0188
  462.0000   100.0363    14.1135    14.0140
  462.5000   100.6061    14.0130    13.9124
  463.0000   100.9091    13.9133    13.9077
  463.5000   101.8182    13.7187    13.9030
  464.0000   103.9394    13.5269    13.7956
  464.5000   105.7576    13.2455    13.3254
  465.0000   106.9697    13.0602    13.1152
  465.5000   106.9697    12.8657    12.9516
  466.0000   108.5819    12.6091    12.7686
  466.5000   110.6061    12.4327    12.5882
  467.0000   110.9091    12.2589    12.4104
  467.5000   110.6061    12.0874    12.3203
  468.0000   110.3030    11.9184    12.0621
  468.5000   110.3030    11.8336    11.9737
  469.0000   109.3939    11.7439    11.9697
  469.5000   109.0909    11.5043    11.8006
  470.0000   109.0909    11.4225    11.7149
  470.5000   110.6061    11.1848    11.5494
  471.0000   113.3333    10.9521    11.3863
  471.5000   115.1515    10.7990    11.1425
  472.0000   116.9697    10.6480    10.9893
  472.5000   118.4848    10.6458    10.8341
  473.0000   118.7879    10.5700    10.7555
  473.5000   116.6334    10.5674    10.7518
  474.0000   114.5455    10.5653    10.6738
  474.5000   113.9394    10.5631    10.6702
  475.0000   115.4545    10.5610    10.6667
  475.5000   116.3636    10.5589    10.6630
  476.0000   117.2727    10.4837    10.6586
  476.5000   117.2727    10.4043    10.6550
  477.0000   116.3636    10.2630    10.4318
  477.5000   116.0606    10.2610    10.2844
  478.0000   115.7576    10.0475    10.0689
  478.5000   115.4545     9.9070     9.7897
  479.0000   115.1515     9.7009     9.5182
  479.5000   116.0606     9.4334     9.3181
  480.0000   117.2727     9.3015     9.0597
  480.5000   117.5971     9.1713     8.9940
  481.0000   115.7393     9.1056     8.9287
  481.5000   115.1515     8.9162     8.8639
  482.0000   115.4545     8.7307     8.7996
  482.5000   116.3636     8.6086     8.7358
  483.0000   117.5758     8.3712     8.5447
  483.5000   117.5758     8.0841     8.2573
  484.0000   116.3636     7.9710     7.7543
  484.5000   115.1515     7.9690     7.3327
  485.0000   115.1515     8.0233     7.1791
  485.5000   115.4545     8.1905     7.0287
  486.0000   115.4545     8.4189     7.3764
  486.5000   116.0606     8.7145     7.7485
  487.0000   116.0606     9.0832     8.2947
  487.5000   116.3636     9.4675     8.8883
  488.0000   118.4848     9.8181     9.2634
  488.5000   119.0909    10.2146     9.7217
  489.0000   118.1395    10.5726    10.1320
  489.5000   117.5758    10.7929    10.5598
  490.0000   116.6667    10.8659    10.7784
  490.5000   116.3636    11.0155    10.8598
  491.0000   116.3636    11.0900    10.9979
  491.5000   115.4545    11.2428    11.1480
  492.0000   115.4545    11.3976    11.2220
  492.5000   115.1515    11.3948    11.2173
  493.0000   115.1515    11.3925    11.2135
  493.5000   116.3636    11.3902    11.1321
  494.0000   116.3636    11.3091    11.1283
  494.5000   116.3636    11.3068    11.0467
  495.0000   113.9394    11.2264    10.8907
  495.5000   111.8182    11.1464    10.8870
  496.0000   110.6061    11.1437    10.8833
  496.5000   112.1757    11.0643    10.8797
  497.0000   113.9394    11.0621    10.8760
  497.5000   114.8485    10.9834    10.9481
  498.0000   115.4545    10.8298    10.8686
  498.5000   115.4545    10.7527    10.7889
  499.0000   113.9394    10.5290    10.4898
  499.5000   112.7273    10.3095    10.2700
  500.0000   113.9394    10.0251    10.1452
  500.5000   114.2424     9.6143     9.8278
  501.0000   112.4242     9.1565     9.5104
  501.5000   111.5152     8.7812     9.1930
  502.0000   110.3030     8.2478     8.6405
  502.5000   110.6061     7.1859     7.9188
  503.0000   112.4242     6.1356     7.3328
  503.5000   113.0303     5.3550     6.6040
  504.0000   113.0303     4.9030     5.3585
  504.5000   112.7273     3.9980     4.7594
  505.0000   113.6364     3.6015     3.8623
  505.5000   115.1515     3.2443     3.4488
  506.0000   116.3636     2.9224     3.1542
  506.5000   118.7879     2.8218     2.9411
  507.0000   119.6970     2.8802     2.8393
  507.5000  -999.2500     3.2174     2.9175
  508.0000  -999.2500     3.6441     3.3045
  508.5000  -999.2500     4.0992     3.7951
  509.0000  -999.2500     4.5791     4.4972
  509.5000  -999.2500     5.1965     5.1820
  510.0000  -999.2500     5.9982     5.6689
  510.5000  -999.2500     6.8415     6.2884
  511.0000  -999.2500     7.2298     7.0233
  511.5000  -999.2500     7.6471     7.5772
  512.0000  -999.2500     7.9073     7.8959
  512.5000  -999.2500     8.1266     8.1191
  513.0000  -999.2500     8.2375     8.3389
  513.5000  -999.2500     8.3500     8.5093
  514.0000  -999.2500     8.4639     8.5645
  514.5000  -999.2500     8.5201     8.5593
  515.0000  -999.2500     8.5167     8.5551
  515.5000  -999.2500     8.5132     8.5509
  516.0000  -999.2500     8.5104     8.5467
  516.5000  -999.2500     8.5077     8.5416
  517.0000  -999.2500     8.5042     8.5374
  517.5000  -999.2500  -999.2500     8.5333
  518.0000  -999.2500  -999.2500     8.5281
  518.5000  -999.2500  -999.2500     8.5239
  519.0000  -999.2500  -999.2500     8.5198
  519.5000  -999.2500  -999.2500     8.5156
  520.0000  -999.2500  -999.2500     8.5105
  520.5000  -999.2500  -999.2500     8.3890
  521.0000  -999.2500  -999.2500     8.2120
  521.5000  -999.2500  -999.2500     8.1502
  522.0000  -999.2500  -999.2500     8.0338
