~VERSION INFORMATION
 VERS.                2.0:   CWLS LOG ASCII STANDARD - VERSION 2.0
 WRAP.                 NO:   ONE LINE PER DEPTH STEP
~WELL INFORMATION
#MNEM.UNIT      DATA TYPE    INFORMATION
#----------   ------------   ------------------------------
 STRT.F           80.0000:   START DEPTH
 STOP.F          820.0000:   STOP DEPTH
 STEP.F            0.5000:   STEP LENGTH
 NULL.          -999.2500:   NO VALUE
 COMP. U S NAVY/INTEX OIL CO:   COMPANY
 WELL.      GOVT #15-S-35:   WELL
 FLD .        EAST TEAPOT:   FIELD
 LOC .      S35 T39N R78W:   LOCATION
 CNTY.            NATRONA:   COUNTY
 STAT.            WYOMING:   STATE
 CTRY. UNITED STATES OF AMERICA:   COUNTRY
 SRVC.       Schlumberger:   SERVICE COMPANY
 DATE.        12-FEB-1961:   LOGDATE
 API .       490250654500:   API NUMBER
~CURVE INFORMATION
#MNEM.UNIT       API CODE    CURVE DESCRIPTION
#----------   ------------   ------------------------------
 DEPT.F                  :   
 SPR .MV     05 010 01 00:   SPONTANEOUS POTENTIAL FROM RES.
 ASN .OHMM   05 041 16 00:   AMPLIFIED SHORT NORMAL 16"
 ILD .OHMM   05 120 46 00:   INDUCTION LOG DEEP
 CILD.MMHO   05 110 46 00:   CONDUCTIVITY INDUCTION LOG DEEP
 GR  .GAPI   30 310 01 00:   GAMMA RAY
~PARAMETER INFORMATION
#MNEM.UNIT          VALUE    DESCRIPTION
#----------   ------------   ------------------------------
 PD  .                 GL:   PERMANENT DATUM
 EPD .F              5069:   ELEVATION PERMANENT DATUM
 LMF .                 KB:   LOG MEASURED FROM
 DAPD.F                 4:   FEET ABOVE PERMANENT DATUM
 DMF .                 KB:   DRILLING MEASURED FROM
 EKB .F              5073:   KELLING BUSHING
 EGL .F              5069:   GROUND LEVEL
 DATE.            2-12-61:   RUN DATE
 RUN .                  1:   RUN NUMBER
 DD  .F               820:   DEPTH DRILLER
 DL  .F               820:   DEPTH LOGGER
 BLI .F               819:   BOTTOM LOG INTERVAL
 TLI .F                90:   TOP LOG INTERVAL
 CBD .F                12:   CASING BOTTOM DRILLER
 BS  .IN            7.875:   BIT SIZE
 BSD .F               820:   BIT SIZE AT DEPTH
 DFT .   GEL OIL EMULSION:   DRILLING FLUID TYPE
 DFD .                9.5:   DRILLING FLUID DENSITY
 DFV .                 50:   DRILLING FLUID VISCOSITY
 DFPH.                  8:   DRILLING FLUID PH
 DFL .                  9:   DRILLING FLUID LOSS
 MSS .          FLOW LINE:   MUD SAMPLE SOURCE
 RMS .OHMM           1.04:   RESISTIVITY MUD SAMPLE
 MST .F                56:   MUD SAMPLE TEMPERATURE
 MFSS.                  C:   MUD FILTRATE SAMPLE SOURCE
 MCSS.                  C:   MUD CAKE SAMPLE SOURCE
 RMB .OHMM           2.78:   RESISTIVITY MUD AT BHT
 BHT .F                77:   BOTTOM HOLE TEMPERATURE
 TCS .HRS               1:   TIME CURCULATED STOPPED
 MRT .F                77:   MAXIMUM RECORDED TEMPERATURE
 LUN .               2523:   LOGGING UNIT NUMBER
 LUL .               CSPR:   LOGGING UNIT LOCATION
 ENGI.             KNOBEL:   RECORDING ENGINEER
 WITN.          JORGENSEN:   WITNESSED BY
 CLNT.            A2DTECH:   CLIENT CODE
 ORIG.       2", 5" PRINT:   ORIGIN OF DATA
 UWI .       490250654500:   UNIQUE WELL ID
 DICO. A2D Technologies, Inc.:   DIGITIZING COMPANY
~OTHER INFORMATION
~A   DEPT      SPR          ASN        ILD      CILD        GR   
# ...
  385.0000   -24.3926     8.9508     6.2952   143.5452  -999.2500
  385.5000   -24.3204     8.8593     6.2313   145.5462  -999.2500
  386.0000   -24.2484     8.7677     6.1669   147.5473  -999.2500
  386.5000   -24.2546     8.6762     6.1120   149.5459  -999.2500
  387.0000   -24.3483     8.5898     6.2044   151.4322  -999.2500
  387.5000   -24.4418     8.5473     6.2074   150.8964  -999.2500
  388.0000   -24.5359     8.5306     6.3111   150.4469  -999.2500
  388.5000   -24.6299     8.5303     6.4558   147.1298  -999.2500
  389.0000   -24.7238     8.5681     6.5955   144.0283  -999.2500
  389.5000   -24.8179     8.6381     6.7358   140.9268  -999.2500
  390.0000   -24.9127     8.8547     6.8759   137.8252  -999.2500
  390.5000   -25.0017     9.0648     7.0159   134.7237  -999.2500
  391.0000   -24.9848     9.2733     7.1560   131.6221  -999.2500
  391.5000   -24.6084     9.4813     7.2962   128.5206  -999.2500
  392.0000   -24.4846     9.6766     7.4365   125.4191  -999.2500
  392.5000   -24.3739     9.7871     7.5764   122.3175  -999.2500
  393.0000   -24.2632     9.8889     7.6924   120.2063  -999.2500
  393.5000   -24.1524     9.9443     7.6640   123.9860  -999.2500
  394.0000   -24.0415     9.9356     7.6349   127.7656  -999.2500
  394.5000   -23.9304     9.7779     7.6092   131.5453  -999.2500
  395.0000   -23.8190     9.6194     7.4023   135.3250  -999.2500
  395.5000   -23.7092     9.4613     7.1142   139.1046  -999.2500
  396.0000   -23.6293     9.3033     6.8243   142.8842  -999.2500
  396.5000   -23.7325     9.1453     6.5371   146.6639  -999.2500
  397.0000   -23.8326     8.9873     6.2993   150.4436  -999.2500
  397.5000   -23.9320     8.8294     6.2481   153.9184  -999.2500
  398.0000   -24.0316     8.6713     6.1701   156.2529  -999.2500
  398.5000   -24.1312     8.5094     6.1302   158.5874  -999.2500
  399.0000   -24.2308     8.4781     6.2535   159.5650  -999.2500
  399.5000   -24.3304     8.5930     6.3732   156.0820  -999.2500
  400.0000   -24.4299     8.7321     6.4925   152.5990  -999.2500
  400.5000   -24.5296     8.8717     6.6120   149.1161  -999.2500
  401.0000   -24.6295     9.0111     6.7315   145.6331  -999.2500
  401.5000   -24.7281     9.1503     6.8509   142.1501  -999.2500
  402.0000   -24.7911     9.2898     6.9705   138.6672  -999.2500
  402.5000   -24.7311     9.4333     7.0901   135.1842  -999.2500
  403.0000   -24.6744     9.4184     7.2090   132.2961  -999.2500
  403.5000   -24.6179     9.3600     7.3076   131.1928  -999.2500
  404.0000   -24.5613     9.2979     7.3321   130.0894  -999.2500
  404.5000   -24.5047     9.3139     7.3584   128.9860  -999.2500
  405.0000   -24.4480     9.3975     7.3850   127.8826  -999.2500
  405.5000   -24.3914     9.4945     7.4115   127.6068  -999.2500
  406.0000   -24.3349     9.5920     7.4379   127.6068  -999.2500
  406.5000   -24.2781     9.6885     7.4645   127.6068  -999.2500
  407.0000   -24.2191     9.7601     7.4934   127.6068  -999.2500
  407.5000   -24.2617     9.7419     7.4301   128.8041  -999.2500
  408.0000   -24.3270     9.7281     7.3415   130.4163  -999.2500
  408.5000   -24.3933     9.6348     7.2519   132.0271  -999.2500
  409.0000   -24.4595     9.5195     7.1624   133.6360  -999.2500
  409.5000   -24.5255     9.4034     7.0730   135.2438  -999.2500
  410.0000   -24.5916     9.2875     6.9836   136.8516  -999.2500
  410.5000   -24.6575     9.1716     6.8942   138.4594  -999.2500
  411.0000   -24.7239     9.0538     6.8049   140.0672  -999.2500
  411.5000   -24.7926     9.0073     6.7154   141.6749  -999.2500
  412.0000   -24.7380     8.9802     6.6232   143.2827  -999.2500
  412.5000   -24.6596     8.9539     6.6361   144.6541  -999.2500
  413.0000   -24.5800     8.9275     6.6779   145.3161  -999.2500
  413.5000   -24.5006     8.9009     6.7207   145.9781  -999.2500
  414.0000   -24.4213     8.8737     6.7634   146.6402  -999.2500
  414.5000   -24.3421     8.8683     6.8059   147.3022  -999.2500
  415.0000   -24.2628     8.8850     6.8485   147.4677  -999.2500
  415.5000   -24.1835     8.9617     6.8912   147.4677  -999.2500
  416.0000   -24.1039     9.0367     6.9288   147.4677  -999.2500
  416.5000   -24.0250     9.1118     6.9649   147.4677  -999.2500
  417.0000   -24.0286     9.1889     7.0010   147.4677  -999.2500
  417.5000   -24.0873     9.1881     7.0371   146.4747  -999.2500
  418.0000   -24.1440     9.1658     7.0732   145.3914  -999.2500
  418.5000   -24.2006     9.1436     7.1093   143.9469  -999.2500
  419.0000   -24.2572     9.1471     7.1454   142.5025  -999.2500
  419.5000   -24.3138     9.2441     7.1815   141.0580  -999.2500
  420.0000   -24.3704     9.3388     7.2177   139.6136  -999.2500
  420.5000   -24.4270     9.4322     7.2538   138.1692  -999.2500
  421.0000   -24.4837     9.5002     7.2895   136.7247  -999.2500
  421.5000   -24.5406     9.4737     7.3374   135.2803  -999.2500
  422.0000   -24.5970     9.4470     7.3886   133.8359  -999.2500
  422.5000   -24.5503     9.5229     7.4398   132.3914  -999.2500
  423.0000   -24.4871     9.6268     7.4911   130.9470  -999.2500
  423.5000   -24.4235     9.7315     7.5424   129.4155  -999.2500
  424.0000   -24.3600     9.8358     7.5936   127.8550  -999.2500
  424.5000   -24.2966     9.9445     7.6449   126.2945  -999.2500
  425.0000   -24.2332    10.1205     7.6961   124.7340  -999.2500
  425.5000   -24.1698    10.1739     7.7474   123.1735  -999.2500
  426.0000   -24.1064    10.2849     7.7986   121.6130  -999.2500
  426.5000   -24.0430    10.3251     7.8499   120.0525  -999.2500
  427.0000   -23.9795    10.4512     7.9011   120.2458  -999.2500
  427.5000   -23.9161    10.5538     7.9523   121.0469  -999.2500
  428.0000   -23.8534    10.5757     8.0035   121.8480  -999.2500
  428.5000   -23.8458    10.5762     8.0551   122.6500  -999.2500
  429.0000   -23.9304    10.5761     8.1209   123.4360  -999.2500
  429.5000   -24.0137    10.5759     8.2381   123.1060  -999.2500
  430.0000   -24.0971    10.5724     8.3540   120.9918  -999.2500
  430.5000   -24.1806    10.6992     8.4698   118.8775  -999.2500
  431.0000   -24.2640    10.8617     8.5856   116.7633  -999.2500
  431.5000   -24.3474    11.0256     8.7017   114.6491  -999.2500
  432.0000   -24.4310    11.1893     8.8283   112.5348  -999.2500
  432.5000   -24.5156    11.3529     8.9929   110.4206  -999.2500
  433.0000   -24.6004    11.5165     9.1565   108.3064  -999.2500
  433.5000   -24.5152    11.6802     9.3200   106.1921  -999.2500
  434.0000   -24.4154    11.8434     9.4836   104.0779  -999.2500
  434.5000   -24.3160    11.9942     9.6472   101.9637  -999.2500
  435.0000   -24.2169    12.0999     9.8106    99.8494  -999.2500
  435.5000   -24.1178    12.2068     9.9744    97.7352  -999.2500
  436.0000   -24.0185    12.3139    10.1421    95.6210  -999.2500
  436.5000   -23.9176    12.4206    10.1569    93.5067  -999.2500
  437.0000   -23.8208    12.5279    10.1300    91.3925  -999.2500
  437.5000   -24.0183    12.6426    10.1005    91.6289  -999.2500
  438.0000   -24.2397    12.4684    10.0426    92.6488  -999.2500
  438.5000   -24.4603    12.2147     9.8809    93.6686  -999.2500
  439.0000   -24.6805    11.9601     9.7218    94.6885  -999.2500
  439.5000   -24.9006    11.7623     9.5627    95.7084  -999.2500
  440.0000   -25.1208    11.7845     9.4047    96.7283  -999.2500
  440.5000   -25.3412    11.8608     9.2783    97.7482  -999.2500
  441.0000   -25.5632    11.9352     9.2672    98.7681  -999.2500
  441.5000   -25.7841    12.0097     9.2531    99.7880  -999.2500
  442.0000   -25.7896    12.0842     9.2388   100.8079  -999.2500
  442.5000   -25.6429    12.1588     9.2247   101.8278  -999.2500
  443.0000   -25.4869    12.2337     9.2106   102.8476  -999.2500
  443.5000   -25.3316    12.3069     9.1963   103.8675  -999.2500
  444.0000   -25.1765    12.3349     9.1793   104.8874  -999.2500
  444.5000   -25.0214    12.1981     9.1522   105.9073  -999.2500
  445.0000   -24.8664    12.0654     9.1253   106.9272  -999.2500
  445.5000   -24.7113    11.9332     9.0985   107.9471  -999.2500
