~VERSION INFORMATION
 VERS.                2.0:   CWLS LOG ASCII STANDARD - VERSION 2.0
 WRAP.                 NO:   ONE LINE PER DEPTH STEP
~WELL INFORMATION
#MNEM.UNIT      DATA TYPE    INFORMATION
#----------   ------------   ------------------------------
 STRT.F            2.0000:   START DEPTH
 STOP.F          670.5000:   STOP DEPTH
 STEP.F            0.5000:   STEP LENGTH
 NULL.          -999.2500:   NO VALUE
 COMP. BROWN JOHN E&C INC:   COMPANY
 WELL. 27-26 STX-11 #26-11:   WELL
 FLD .             TEAPOT:   FIELD
 LOC .      S11 T38N R78W:   LOCATION
 CNTY.            NATRONA:   COUNTY
 STAT.            WYOMING:   STATE
 CTRY. UNITED STATES OF AMERICA:   COUNTRY
 SRVC.           Gearhart:   SERVICE COMPANY
 DATE.        07-JUL-1987:   LOGDATE
 API .       490251114800:   API NUMBER
~CURVE INFORMATION
#MNEM.UNIT       API CODE    CURVE DESCRIPTION
#----------   ------------   ------------------------------
 DEPT.F                  :   
 GRR .GAPI   07 310 01 00:   GAMMA RAY FROM RES. LOG
 RILD.OHMM   07 120 46 00:   INDUCTION LOG DEEP RESISTIVITY
 RILM.OHMM   07 120 44 00:   INDUCTION LOG MEDIUM RESISTIVITY
~PARAMETER INFORMATION
#MNEM.UNIT          VALUE    DESCRIPTION
#----------   ------------   ------------------------------
 PD  .                 GL:   PERMANENT DATUM
 EPD .F              5199:   ELEVATION PERMANENT DATUM
 LMF .                 KB:   LOG MEASURED FROM
 DAPD.F                 8:   FEET ABOVE PERMANENT DATUM
 DMF .                 KB:   DRILLING MEASURED FROM
 EKB .F              5207:   KELLING BUSHING
 EDF .F              5205:   DRILLING FLOOR
 EGL .F              5199:   GROUND LEVEL
 DATE.             7-7-87:   RUN DATE
 RUN .                  1:   RUN NUMBER
 DD  .F               680:   DEPTH DRILLER
 DL  .F               679:   DEPTH LOGGER
 BLI .F               671:   BOTTOM LOG INTERVAL
 CS  .IN            8.625:   CASING SIZE
 CBD .F                50:   CASING BOTTOM DRILLER
 CBL .F                50:   CASING BOTTOM LOGGER
 BS  .IN             7.87:   BIT SIZE
 BSD .F               680:   BIT SIZE AT DEPTH
 DFT .                AIR:   DRILLING FLUID TYPE
 TCS .HRS            1800:   TIME CURCULATED STOPPED
 TLAB.HRS            1954:   TIME LOGGER AT BOTTOM
 LUN .               7597:   LOGGING UNIT NUMBER
 LUL .           GILLETTE:   LOGGING UNIT LOCATION
 ENGI. JOHNSTON/HUCKFELDT:   RECORDING ENGINEER
 WITN.             STRONG:   WITNESSED BY
 CLNT.            A2DTECH:   CLIENT CODE
 ORIG.       2", 5" PRINT:   ORIGIN OF DATA
 UWI .       490251114800:   UNIQUE WELL ID
 DICO. A2D Technologies, Inc.:   DIGITIZING COMPANY
~OTHER INFORMATION
~A    DEPT      GRR      RILD       RILM   
# ...
  366.0000   119.2392     5.1502     6.2657
  366.5000   119.8242     4.5641     5.5589
  367.0000   119.1975     4.0447     4.8483
  367.5000   118.0689     3.5844     4.2264
  368.0000   116.9195     3.1765     3.6845
  368.5000   115.7736     2.8988     3.3233
  369.0000   114.6315     2.7247     3.0540
  369.5000   111.9571     2.5610     2.8555
  370.0000   108.7409     2.4071     2.7259
  370.5000   105.5539     2.3354     2.6021
  371.0000   103.6254     2.3335     2.5383
  371.5000   104.3283     2.4448     2.8695
  372.0000   107.0996     2.6254     3.1198
  372.5000   111.4661     2.8916     3.4699
  373.0000   115.8525     3.2289     3.9442
  373.5000   120.3235     3.6057     4.4902
  374.0000   121.6330     4.0609     5.1112
  374.5000   122.4276     4.6145     5.8164
  375.0000   123.1984     5.2435     5.9459
  375.5000   124.0448     5.7321     6.0027
  376.0000   126.4001     5.7606     6.0601
  376.5000   128.8453     5.7921     6.1188
  377.0000   129.3018     5.8392     6.1775
  377.5000   126.5903     5.7442     6.2301
  378.0000   123.4178     5.5651     6.0252
  378.5000   123.0125     5.3915     5.8479
  379.0000   126.4000     5.2234     5.6757
  379.5000   129.7598     5.0354     5.5081
  380.0000   132.6543     5.0354     5.3472
  380.5000   129.0828     5.0504     5.2739
  381.0000   125.4425     5.0615     5.3572
  381.5000   121.8710     5.0728     5.4469
  382.0000   120.9669     5.1153     5.5560
  382.5000   126.5250     5.3333     5.7682
  383.0000   130.9269     5.5605     5.9885
  383.5000   134.9924     5.7974     6.2171
  384.0000   133.9498     6.0445     6.4545
  384.5000   132.8748     6.3020     6.7010
  385.0000   131.8163     6.5705     6.9617
  385.5000   130.7606     6.8506     7.2867
  386.0000   129.7114     7.1427     7.6340
  386.5000   129.2890     7.4467     7.9961
  387.0000   129.6928     7.6373     8.1486
  387.5000   130.3907     7.5469     8.0282
  388.0000   132.5762     7.4354     7.9092
  388.5000   134.1149     7.3248     7.7920
  389.0000   134.2771     7.2162     7.6764
  389.5000   133.5427     7.1093     7.5626
  390.0000   132.0631     7.0268     7.4748
  390.5000   130.5960     6.8999     7.3673
  391.0000   129.0958     6.7777     7.2647
  391.5000   129.3176     6.6257     7.1312
  392.0000   130.1214     6.4360     6.9236
  392.5000   130.9347     6.2508     6.7176
  393.0000   131.7444     6.0248     6.4369
  393.5000   131.4898     5.6505     6.1182
  394.0000   130.1312     5.3029     5.8167
  394.5000   128.8437     4.9762     5.5300
  395.0000   129.9573     4.7634     5.2744
  395.5000   131.7034     4.6475     5.1758
  396.0000   133.4769     4.5903     5.1302
  396.5000   133.7754     4.5454     5.4464
  397.0000   133.1411     4.8982     5.7109
  397.5000   132.5011     5.1920     5.9885
  398.0000   131.8508     5.5038     6.2796
  398.5000   131.6532     5.8343     6.5848
  399.0000   131.8656     6.1847     6.9048
  399.5000   131.9612     6.5561     7.2406
  400.0000   130.0953     6.9498     7.5929
  400.5000   129.9324     7.3672     7.9612
  401.0000   130.4985     7.4972     8.0003
  401.5000   131.0806     7.5073     8.0122
  402.0000   131.6508     7.5185     8.0241
  402.5000   132.0670     7.5297     8.0362
  403.0000   131.8486     7.5410     8.0482
  403.5000   131.4538     7.5522     8.0602
  404.0000   128.7024     7.5635     8.0723
  404.5000   123.5578     7.5748     8.0843
  405.0000   122.8264     7.5862     8.0964
  405.5000   123.3793     7.5975     8.1085
  406.0000   126.3349     7.6088     8.1206
  406.5000   129.9673     7.6202     8.1327
  407.0000   131.8180     7.6362     8.1472
  407.5000   133.7447     7.6125     8.1279
  408.0000   135.6706     7.5634     8.0984
  408.5000   137.6425     7.5146     8.0691
  409.0000   137.9783     7.4660     8.0398
  409.5000   137.3812     7.4178     8.0107
  410.0000   136.7347     7.3699     7.9817
  410.5000   136.0896     7.3223     7.9528
  411.0000   135.4390     7.2751     7.9239
  411.5000   134.6350     7.2281     7.8952
  412.0000   133.7667     7.1815     7.8666
  412.5000   132.8887     7.0964     7.7558
  413.0000   134.3875     6.9742     7.5663
  413.5000   137.1486     6.8542     7.3815
  414.0000   139.9233     6.7230     7.2011
  414.5000   142.8094     6.5644     7.0251
  415.0000   141.4963     6.4094     6.8535
  415.5000   138.0069     6.2581     6.6860
  416.0000   134.1085     6.1104     6.5227
  416.5000   132.0692     5.9661     6.3633
  417.0000   132.8511     5.8141     6.2078
  417.5000   135.1237     5.5683     6.0561
  418.0000   137.3732     5.3328     5.8962
  418.5000   139.6797     5.1295     5.9170
  419.0000   140.3718     5.2056     5.9431
  419.5000   141.0200     5.3163     5.9694
  420.0000   141.4489     5.4983     5.9957
  420.5000   141.1466     5.7587     6.1913
  421.0000   139.1471     6.0315     6.4696
  421.5000   136.1317     6.3172     6.7604
  422.0000   133.1053     6.6165     7.1527
  422.5000   130.0562     6.8344     7.1150
  423.0000   128.3478     6.7090     7.0521
  423.5000   127.4935     6.5573     6.9903
  424.0000   126.6642     6.2773     6.9289
  424.5000   127.6440     6.0092     6.7287
  425.0000   129.1632     5.7526     6.4014
  425.5000   130.7040     5.5070     6.0898
  426.0000   132.2443     5.2719     5.7937
  426.5000   133.8033     5.0467     5.5120
  427.0000   133.9751     4.8524     5.2000
  427.5000   133.7618     4.8077     5.0805
  428.0000   131.3826     5.0555     5.4128
  428.5000   128.4550     5.3456     5.7340
  429.0000   130.5703     5.6530     6.0731
  429.5000   133.2230     5.9780     6.4322
  430.0000   135.9321     6.3217     6.8126
  430.5000   135.3131     6.6786     7.1750
  431.0000   132.8554     6.8438     7.3460
  431.5000   130.3586     6.9959     7.5210
  432.0000   127.8596     7.1518     7.7002
  432.5000   125.3621     7.3112     7.8837
  433.0000   122.8648     7.4741     8.0715
  433.5000   120.3715     7.6407     8.2638
  434.0000   119.8049     7.8109     8.4607
  434.5000   120.9794     7.9854     8.6623
  435.0000   122.1365     8.1588     8.8687
  435.5000   122.7600     8.2584     9.0800
  436.0000   123.1177     8.3598     9.3605
  436.5000   122.6301     8.4624     9.3502
  437.0000   122.2502     8.5349     9.3329
  437.5000   122.9290     8.5318     9.3156
  438.0000   124.0244     8.5046     9.2984
  438.5000   125.1471     8.4775     9.2812
  439.0000   126.2392     8.4505     9.2640
  439.5000   126.8864     8.4235     9.2469
  440.0000   126.5034     8.3956     9.2297
  440.5000   124.9582     8.4031     9.2120
  441.0000   123.4197     8.6069     9.1957
  441.5000   122.0351     8.8685     8.9297
  442.0000   120.6020     9.2503     8.5697
  442.5000   119.0278     9.1602     8.2243
  443.0000   117.4415     8.7809     7.8645
  443.5000   115.8553     8.1614     7.2806
  444.0000   114.6205     7.5854     6.7401
  444.5000   117.2183     7.0508     6.2397
  445.0000   120.0377     6.5253     5.7765
  445.5000   123.5064     6.1158     5.3465
  446.0000   137.5000     6.2390     4.9869
  446.5000   140.8153     6.4193     5.3463
  447.0000   134.6192     6.6267     5.9063
  447.5000   124.0169     7.2661     6.5242
  448.0000   113.4210     8.2131     7.2060
  448.5000   108.2728     9.2836     7.9589
  449.0000   107.3826    10.3806     8.7904
  449.5000   109.9278    10.5295     9.7088
  450.0000   112.7094    10.6805     9.9097
  450.5000   115.4970    10.7795    10.0247
  451.0000   116.7385    10.8249    10.1405
  451.5000   116.4627    10.8706    10.2584
  452.0000   116.2110    10.9164    10.3778
  452.5000   115.9646    11.0204    10.4984
  453.0000   115.7050    11.6664    10.6193
  453.5000   114.9303    12.3502    10.7444
  454.0000   112.1911    13.3415    11.0039
  454.5000   108.0291    14.7069    12.5886
  455.0000    98.0520    16.2120    14.4016
  455.5000    88.3596    17.8712    16.4756
  456.0000    78.6706    19.4223    18.8484
  456.5000    68.9730    20.9798    21.5628
