~VERSION INFORMATION
 VERS.                2.0:   CWLS LOG ASCII STANDARD - VERSION 2.0
 WRAP.                 NO:   ONE LINE PER DEPTH STEP
~WELL INFORMATION
#MNEM.UNIT      DATA TYPE    INFORMATION
#----------   ------------   ------------------------------
 STRT.F           30.0000:   START DEPTH
 STOP.F          468.0000:   STOP DEPTH
 STEP.F            0.1000:   STEP LENGTH
 NULL.          -999.2500:   NO VALUE
 COMP. LAWRENCE/ALLISON INC:   COMPANY
 WELL.    72-12 SX #10-10:   WELL
 FLD .             TEAPOT:   FIELD
 LOC .      S10 T38N R78W:   LOCATION
 CNTY.            NATRONA:   COUNTY
 STAT.            WYOMING:   STATE
 CTRY. UNITED STATES OF AMERICA:   COUNTRY
 SRVC.           Gearhart:   SERVICE COMPANY
 DATE.        17-MAY-1988:   LOGDATE
 API .       490251122400:   API NUMBER
~CURVE INFORMATION
#MNEM.UNIT       API CODE    CURVE DESCRIPTION
#----------   ------------   ------------------------------
 DEPT.F                  :   
 GRR .GAPI   07 310 01 00:   GAMMA RAY
 RILD.OHMM   07 120 46 00:   INDUCTION LOG DEEP RESISTIVITY
 RILM.OHMM   07 120 44 00:   INDUCTION LOG MEDIUM RESISTIVITY
~PARAMETER INFORMATION
#MNEM.UNIT          VALUE    DESCRIPTION
#----------   ------------   ------------------------------
 PD  .                 GL:   PERMANENT DATUM
 EPD .F              5166:   ELEVATION PERMANENT DATUM
 LMF .                 KB:   LOG MEASURED FROM
 DAPD.F              10.2:   FEET ABOVE PERMANENT DATUM
 DMF .                 KB:   DRILLING MEASURED FROM
 EKB .F            5176.2:   KELLING BUSHING
 EGL .F              5166:   GROUND LEVEL
 DATE.        17-MAY-1988:   RUN DATE
 RUN .                  1:   RUN NUMBER
 DD  .F               480:   DEPTH DRILLER
 DL  .F               476:   DEPTH LOGGER
 BLI .F               468:   BOTTOM LOG INTERVAL
 TLI .F                47:   TOP LOG INTERVAL
 CS  .IN            9.625:   CASING SIZE
 CBD .F                43:   CASING BOTTOM DRILLER
 CBL .F                47:   CASING BOTTOM LOGGER
 BS  .IN             8.75:   BIT SIZE
 BSD .F               480:   BIT SIZE AT DEPTH
 DFT .                AIR:   DRILLING FLUID TYPE
 TCS .HRS            0630:   TIME CURCULATED STOPPED
 TLAB.HRS            0930:   TIME LOGGER AT BOTTOM
 LUN .               7597:   LOGGING UNIT NUMBER
 LUL .           GILLETTE:   LOGGING UNIT LOCATION
 ENGI.             SLATKY:   RECORDING ENGINEER
 WITN.             STRONG:   WITNESSED BY
 CLNT.            A2DTECH:   CLIENT CODE
 ORIG.           5" PRINT:   ORIGIN OF DATA
 UWI .       490251122400:   UNIQUE WELL ID
 DICO. A2D Technologies, Inc.:   DIGITIZING COMPANY
~OTHER INFORMATION
~A   DEPT      GRR       RILD       RILM   
# ...
  284.8000    77.2170    26.4328    24.4652
  284.9000    77.7861    26.2947    24.1935
  285.0000    78.4747    26.1485    23.9964
  285.1000    78.7625    26.0708    23.8237
  285.2000    79.3672    26.0391    23.5659
  285.3000    79.8184    25.8922    23.4109
  285.4000    80.0643    25.8933    23.4117
  285.5000    80.3102    25.8944    23.4884
  285.6000    80.6020    25.8217    23.6215
  285.7000    80.8018    25.7170    23.7679
  285.8000    80.9127    25.7135    24.0769
  285.9000    80.9170    25.5707    24.0778
  286.0000    80.9090    25.5419    24.1618
  286.1000    80.6718    25.4638    24.2987
  286.2000    80.4344    25.3670    24.4364
  286.3000    80.1970    25.3680    24.5902
  286.4000    79.9596    25.3693    24.5911
  286.5000    79.7222    25.3702    24.6820
  286.6000    79.4849    25.3712    24.7649
  286.7000    79.2475    25.3723    24.7660
  286.8000    79.0101    25.3560    24.7671
  286.9000    78.7727    25.1986    24.7680
  287.0000    78.5393    25.1995    24.7691
  287.1000    78.5436    25.1096    24.7701
  287.2000    78.3637    25.0269    24.7711
  287.3000    78.2491    25.0045    24.7722
  287.4000    78.1919    24.8556    24.6396
  287.5000    77.9546    24.7273    24.6024
  287.6000    77.9588    24.6853    24.5370
  287.7000    77.9630    24.6863    24.4337
  287.8000    78.0860    24.6579    24.4348
  287.9000    78.2745    24.5172    24.2989
  288.0000    78.2789    24.5182    24.1640
  288.1000    78.5206    24.4183    24.0999
  288.2000    78.5903    24.3503    24.0633
  288.3000    78.8241    24.3161    23.9295
  288.4000    79.3115    24.1808    23.7967
  288.5000    79.8153    24.0465    23.7707
  288.6000    80.2506    24.0179    23.6976
  288.7000    80.7009    23.9459    23.5659
  288.8000    81.1511    23.8534    23.4449
  288.9000    81.6014    23.8456    23.4461
  289.0000    82.0517    23.6902    23.3374
  289.1000    82.3933    23.5814    23.2852
  289.2000    82.7062    23.4503    23.2401
  289.3000    83.1937    23.3656    23.1109
  289.4000    83.6813    23.3521    22.9662
  289.5000    84.1687    23.2057    22.8550
  289.6000    84.5317    23.2065    22.8087
  289.7000    84.7776    23.1252    22.7597
  289.8000    85.0218    22.9966    22.6333
  289.9000    84.2963    22.8687    22.4962
  290.0000    83.7576    22.7311    22.2690
  290.1000    83.2786    22.7320    22.1039
  290.2000    82.8586    22.6466    21.9811
  290.3000    82.6188    22.5207    21.8590
  290.4000    82.3838    22.3954    21.7311
  290.5000    81.9687    22.2662    21.5026
  290.6000    81.6061    22.1471    21.3477
  290.7000    81.3687    22.1137    21.2292
  290.8000    81.1250    22.1146    21.1112
  290.9000    80.8939    22.0850    20.9921
  291.0000    80.8303    21.9631    20.8774
  291.1000    80.8345    21.9641    20.7615
  291.2000    80.7879    21.8703    20.6462
  291.3000    80.5402    21.8136    20.5315
  291.4000    80.7754    21.8145    20.4174
  291.5000    81.0212    21.8089    20.3041
  291.6000    81.2670    21.6653    20.2799
  291.7000    81.5129    21.6660    20.2195
  291.8000    81.7736    21.5970    20.1408
  291.9000    82.2318    21.5176    20.1417
  292.0000    82.5536    21.5185    20.1427
  292.1000    82.9036    21.5195    20.1434
  292.2000    83.3911    21.5203    20.1442
  292.3000    83.9161    21.4463    20.1451
  292.4000    84.3661    21.3729    20.1459
  292.5000    84.6919    21.3738    20.1469
  292.6000    85.0379    21.3748    20.1476
  292.7000    85.5254    21.3756    20.1484
  292.8000    86.0586    21.3765    20.1493
  292.9000    86.5004    21.3261    20.1501
  293.0000    86.9878    21.2299    20.1510
  293.1000    87.4753    21.2310    20.1518
  293.2000    87.9627    21.2318    20.1526
  293.3000    88.5041    21.2327    20.1535
  293.4000    88.7229    21.2336    20.1543
  293.5000    88.8152    21.2345    20.1552
  293.6000    88.9115    21.2354    20.1560
  293.7000    89.1261    21.2363    20.1568
  293.8000    88.8284    21.2372    20.1577
  293.9000    88.8321    21.2380    20.1585
  294.0000    88.5373    21.2389    20.1594
  294.1000    88.1465    21.2398    20.1602
  294.2000    87.9091    21.2409    20.0792
  294.3000    87.6376    21.2416    20.0220
  294.4000    87.4343    21.2425    20.0228
  294.5000    86.9060    21.2434    20.0237
  294.6000    86.2695    21.2443    20.0245
  294.7000    85.7905    21.2453    19.9399
  294.8000    85.2346    21.2460    19.8873
  294.9000    84.8325    21.2469    19.8881
  295.0000    84.6364    21.2478    19.8843
  295.1000    84.6406    21.2487    19.7519
  295.2000    84.6634    21.2497    19.7526
  295.3000    84.9529    21.2505    19.7534
  295.4000    84.9564    21.2513    19.7542
  295.5000    85.0980    21.2522    19.7551
  295.6000    85.4198    21.2531    19.7560
  295.7000    85.9072    21.2541    19.7567
  295.8000    86.4893    21.2549    19.7575
  295.9000    87.0769    21.2558    19.7584
  296.0000    87.5394    21.2567    19.7592
  296.1000    87.9292    21.2576    19.7601
  296.2000    88.6372    21.2585    19.7608
  296.3000    88.8830    21.2593    19.7617
  296.4000    89.3196    21.2602    19.7625
  296.5000    89.8071    21.3220    19.7633
  296.6000    90.1588    21.4104    19.7642
  296.7000    90.1695    21.4113    19.7650
  296.8000    90.4153    21.4122    19.7658
  296.9000    90.4745    21.4131    19.7666
  297.0000    90.4788    21.3477    19.7675
  297.1000    90.5469    21.2664    19.7683
  297.2000    90.7903    21.2673    19.8748
  297.3000    90.7945    21.2684    19.9080
  297.4000    90.6162    21.1694    19.9089
  297.5000    90.5000    21.0518    19.9097
  297.6000    90.5042    20.9770    19.9105
  297.7000    90.5085    20.9636    19.9114
  297.8000    90.2727    20.8334    19.9122
  297.9000    90.0353    20.8342    19.9130
  298.0000    89.6808    20.8350    19.9139
  298.1000    89.2575    20.7886    19.9174
  298.2000    89.0146    20.6922    20.0303
  298.3000    88.3109    20.6933    20.0555
  298.4000    87.7649    20.5866    20.0563
  298.5000    87.2859    20.5515    20.0913
  298.6000    86.8586    20.5523    20.1981
  298.7000    86.6117    20.5288    20.1991
  298.8000    86.6158    20.4116    20.1998
  298.9000    86.6200    20.4124    20.2007
  299.0000    86.7334    20.4132    20.2015
  299.1000    86.9792    20.4141    20.2024
  299.2000    87.2390    20.4150    20.2033
  299.3000    87.2430    20.4158    20.2040
  299.4000    87.4137    20.4167    20.1352
  299.5000    87.5545    20.4175    20.0655
  299.6000    87.5588    20.4184    20.0512
  299.7000    87.5633    20.4192    19.9281
  299.8000    87.3435    20.4201    19.9288
  299.9000    87.1061    20.4211    19.9297
  300.0000    86.9697    20.5168    19.9306
  300.1000    86.9733    20.4981    19.9316
  300.2000    86.4290    20.4240    19.9327
  300.3000    85.8267    20.4132    19.9216
  300.4000    85.3447    20.2849    19.7968
  300.5000    84.8666    20.2858    19.7977
  300.6000    84.8703    20.2870    19.7287
  300.7000    84.8739    20.2447    19.5761
  300.8000    84.8776    20.1484    19.3916
  300.9000    84.8812    20.1498    19.3930
  301.0000    84.8848    20.0493    19.2944
  301.1000    84.8885    20.0122    19.1874
  301.2000    85.0788    20.0134    19.0809
  301.3000    85.1988    19.9944    18.9749
  301.4000    85.2687    19.8769    18.8656
  301.5000    85.5091    19.8779    18.8666
  301.6000    85.5127    19.8790    18.7912
  301.7000    85.7051    19.8802    18.7378
  301.8000    85.8230    19.8572    18.7388
  301.9000    85.8949    19.7446    18.7399
  302.0000    86.1414    19.7456    18.7409
  302.1000    86.3879    19.7467    18.7420
  302.2000    86.6344    19.7478    18.7430
  302.3000    86.8808    19.7489    18.7441
  302.4000    87.1272    19.7500    18.7451
  302.5000    87.3838    19.7511    18.7463
  302.6000    87.8731    19.7522    18.7472
  302.7000    88.1697    19.7533    18.7482
  302.8000    88.2836    19.7544    18.7493
  302.9000    88.4318    19.7555    18.7503
