~VERSION INFORMATION
 VERS.                2.0:   CWLS LOG ASCII STANDARD - VERSION 2.0
 WRAP.                 NO:   ONE LINE PER DEPTH STEP
~WELL INFORMATION
#MNEM.UNIT      DATA TYPE    INFORMATION
#----------   ------------   ------------------------------
 STRT.F           86.0000:   START DEPTH
 STOP.F          770.0000:   STOP DEPTH
 STEP.F            0.5000:   STEP LENGTH
 NULL.          -999.2500:   NO VALUE
 COMP.           U S NAVY:   COMPANY
 WELL. NPR 3 TEAPOT DOM #85-S-34:   WELL
 FLD .        TEAPOT DOME:   FIELD
 LOC .      S34 T39N R78W:   LOCATION
 CNTY.            NATRONA:   COUNTY
 STAT.            WYOMING:   STATE
 CTRY. UNITED STATES OF AMERICA:   COUNTRY
 SRVC. Schlumberger Well Surveying Corp:   SERVICE COMPANY
 DATE.        31-JUL-1963:   LOGDATE
 API .       490250652800:   API NUMBER
~CURVE INFORMATION
#MNEM.UNIT       API CODE    CURVE DESCRIPTION
#----------   ------------   ------------------------------
 DEPT.F                  :   
 ASN .OHMM   05 041 16 00:   AMPLIFIED SHORT NORMAL 16"
 CILD.MMHO   05 110 46 00:   CONDUCTIVITY INDUCTION LOG DEEP
 ILD .OHMM   05 120 46 00:   INDUCTION LOG DEEP
 SPR .MV     05 010 01 00:   SPONTANEOUS POTENTIAL FROM RES.
 GR  .GAPI   30 310 01 00:   GAMMA RAY
~PARAMETER INFORMATION
#MNEM.UNIT          VALUE    DESCRIPTION
#----------   ------------   ------------------------------
 PD  .                 GL:   PERMANENT DATUM
 EPD .F              5071:   ELEVATION PERMANENT DATUM
 LMF .                 KB:   LOG MEASURED FROM
 DAPD.F                 5:   FEET ABOVE PERMANENT DATUM
 DMF .                 KB:   DRILLING MEASURED FROM
 EKB .F              5076:   KELLING BUSHING
 EGL .F              5071:   GROUND LEVEL
 DATE.        31-JUL-1963:   RUN DATE
 RUN .                  1:   RUN NUMBER
 DD  .F               770:   DEPTH DRILLER
 DL  .F               771:   DEPTH LOGGER
 BLI .F               770:   BOTTOM LOG INTERVAL
 TLI .F                86:   TOP LOG INTERVAL
 CS  .IN            8.625:   CASING SIZE
 CBD .F                10:   CASING BOTTOM DRILLER
 BS  .IN             6.75:   BIT SIZE
 BSD .F               770:   BIT SIZE AT DEPTH
 DFT .          GEL & OIL:   DRILLING FLUID TYPE
 DFD .                9.6:   DRILLING FLUID DENSITY
 DFV .                 39:   DRILLING FLUID VISCOSITY
 DFPH.                9.0:   DRILLING FLUID PH
 DFL .                8.8:   DRILLING FLUID LOSS
 MSS .           FLOWLINE:   MUD SAMPLE SOURCE
 RMS .OHMM           3.06:   RESISTIVITY MUD SAMPLE
 MST .F                94:   MUD SAMPLE TEMPERATURE
 RMF .OHMM           2.64:   RESISTIVITY MUD FILTRATE SAMPLE
 MFST.F                94:   MUD FILTRATE SAMPLE TEMPERATURE
 MFSS.               MEAS:   MUD FILTRATE SAMPLE SOURCE
 TCS .HRS               1:   TIME CURCULATED STOPPED
 MRT .F           LESS 80:   MAXIMUM RECORDED TEMPERATURE
 LUN .               4507:   LOGGING UNIT NUMBER
 LUL .               CSPR:   LOGGING UNIT LOCATION
 ENGI.            WINKLER:   RECORDING ENGINEER
 WITN.          JORGENSON:   WITNESSED BY
 CLNT.            A2DTECH:   CLIENT CODE
 ORIG.           5" PRINT:   ORIGIN OF DATA
 UWI .       490250652800:   UNIQUE WELL ID
 DICO. A2D Technologies, Inc.:   DIGITIZING COMPANY
~OTHER INFORMATION
~A   DEPT        ASN      CILD         ILD      SPR         GR   
# ...
  574.0000     6.0765   216.7909     4.7460   -27.2222    91.5827
  574.5000     5.8718   224.7243     4.7437   -27.0710    92.2268
  575.0000     5.5886   225.5599     4.7414   -27.0807    86.9515
  575.5000     5.4781   221.6636     4.8174   -28.3444    84.4733
  576.0000     5.9955   207.5149     4.8935   -29.2940    85.1006
  576.5000     6.1364   194.9436     5.1371   -29.6158    87.5921
  577.0000     6.1514   187.1040     5.4665   -29.9375    91.3263
  577.5000     6.3548   178.4759     5.9047   -30.2592    93.9730
  578.0000     6.8251   173.0023     6.0597   -30.5822    93.8237
  578.5000     6.9344   168.3174     6.2141   -30.9040    93.6744
  579.0000     6.9337   162.0552     6.3686   -30.5958    93.5266
  579.5000     6.9331   155.7929     6.5230   -30.4466    90.2704
  580.0000     7.0926   151.1080     6.5990   -30.2974    89.3444
  580.5000     7.2321   149.5659     6.7529   -29.6791    89.1936
  581.0000     7.3165   149.6246     6.8295   -28.7450    96.9681
  581.5000     7.7939   148.0942     6.9833   -28.5938    95.1100
  582.0000     8.3584   146.5639     6.9810   -28.7605    94.4946
  582.5000     8.6090   144.2449     7.1360   -29.0822    92.6381
  583.0000     8.6556   141.1372     7.1331   -29.5609    89.2266
  583.5000     8.6707   138.8170     7.1308   -29.8827    90.0093
  584.0000     8.6385   138.0757     7.1284   -30.0474    90.9473
  584.5000     8.6222   140.4893     7.1261   -30.0552    89.5553
  585.0000     8.6216   142.1136     6.9670   -30.0629    88.4272
  585.5000     8.5896   143.7646     6.8864   -30.0707    91.2990
  586.0000     8.4320   145.3628     6.8056   -29.7645    91.5928
  586.5000     8.3372   146.1987     6.8033   -29.4583    89.8915
  587.0000     8.3052   145.4559     6.8009   -29.2904    90.5174
  587.5000     8.2574   144.7141     6.7986   -29.1598    89.1253
  588.0000     8.2254   143.9724     6.7958   -28.8555    91.7736
  588.5000     8.2248   142.4420     6.7935   -28.7063    91.4690
  589.0000     8.2085   142.5007     6.7911   -28.5551    89.7662
  589.5000     8.1922   151.2227     6.7888   -28.4078    89.9278
  590.0000     8.0815   162.3107     5.8460   -28.2567    89.0031
  590.5000     7.9082   178.9191     5.1384   -28.5804    86.3668
  591.0000     7.6093   197.8935     4.9010   -28.5881    89.0151
  591.5000     6.9651   210.5587     4.8986   -28.5959    90.4191
  592.0000     6.2266   213.7602     4.8963   -28.6036    88.5611
  592.5000     5.9120   214.5958     4.7372   -28.2974    89.9651
  593.0000     6.2411   217.0086     4.5782   -27.9893    94.8273
  593.5000     5.9108   218.6328     4.4975   -27.3710    95.5709
  594.0000     5.4706   220.2571     4.4174   -26.9078    94.1788
  594.5000     5.9409   213.9909     4.8847   -27.5435    95.4276
  595.0000     6.6624   199.8423     5.0392   -28.3362    95.1229
  595.5000     6.8973   193.5800     5.1936   -28.8149    94.6614
  596.0000     6.9752   195.4162     5.0345   -28.8227    90.4747
  596.5000     6.8804   209.7632     4.7181   -28.8305    90.9535
  597.0000     6.4559   224.7942     4.4770   -28.6812    91.4188
  597.5000     5.8383   230.1789     4.3143   -28.6892    87.8535
  598.0000     5.5565   226.1608     4.2414   -28.6970    90.3449
  598.5000     5.5121   225.4074     4.2386   -28.3925    93.6130
  599.0000     6.0451   225.4660     4.2362   -27.4583    96.4152
  599.5000     5.8718   225.5129     4.3912   -26.8362    96.8872
  600.0000     5.5906   222.3956     4.6234   -26.5300    96.7379
  600.5000     6.4860   201.0797     5.1741   -27.4877   100.0088
  601.0000     7.1965   182.7762     5.4890   -28.0902   100.6378
  601.5000     7.4483   169.5676     6.1311   -28.0856    98.4706
  602.0000     7.6214   157.6310     6.7464   -28.2392   100.1869
  602.5000     7.7000   149.7220     6.9830   -28.3916   100.2563
  603.0000     7.7628   144.1789     6.9061   -28.7010    93.0564
  603.5000     7.7942   152.8991     6.4374   -28.3813    91.4859
  604.0000     7.7940   163.8443     5.9687   -28.2198    85.4598
  604.5000     7.7938   176.4400     5.5000   -28.7080    87.0227
  605.0000     7.6677   186.6699     5.1829   -29.3096    88.1176
  605.5000     7.1951   192.9565     5.0328   -29.7748    85.4844
  606.0000     6.5650   193.7225     5.0347   -29.9284    86.4240
  606.5000     6.4661   192.1171     5.0362   -29.2947    89.2277
  607.0000     6.5332   192.0945     5.0378   -28.5052    89.7279
  607.5000     6.4701   193.6492     5.0393   -27.7157    89.0770
  608.0000     6.5486   193.6267     5.1192   -28.0335    91.7358
  608.5000     7.3044   181.7437     5.5198   -28.6485    90.0347
  609.0000     7.9971   168.3394     6.2981   -28.6428    93.1509
  609.5000     8.3277   151.7553     6.6915   -28.7952    88.3430
  610.0000     8.5638   139.9031     7.0848   -28.7907    88.8165
  610.5000     8.8005   131.9941     7.3998   -28.9442    91.3095
  611.0000     9.0117   130.3943     7.6365   -29.2536    92.8705
  611.5000     9.1460   130.3661     7.7163   -29.2479    93.0334
  612.0000     9.2245   130.3435     7.7179   -29.5573    93.1963
  612.5000     9.3032   130.3210     7.7194   -29.5526    90.4078
  613.0000     9.3030   130.2984     7.7213   -29.5471    89.6386
  613.5000     9.3186   130.2759     7.7228   -29.7006    91.3568
  614.0000     9.3342   129.4591     7.8027   -29.8531    91.0537
  614.5000     9.4177   127.8592     7.8825   -30.1613    89.8167
  615.0000     9.5228   125.4707     7.8841   -30.3149    88.7369
  615.5000     9.5856   123.0823     7.9639   -30.4662    86.5697
  616.0000     9.6170   124.6370     7.9540   -30.4615    88.5985
  616.5000     9.6326   127.8918     7.8886   -30.4559    87.2080
  617.0000     9.6482   129.3181     7.8905   -30.6095    87.3709
  617.5000     9.6160   129.2956     7.8920   -30.6037    86.0945
  618.0000     9.4381   128.4844     7.8152   -30.7573    86.2514
  618.5000     9.3170   126.8845     7.8950   -30.7516    87.2402
  619.0000     9.2696   125.2839     7.9749   -30.7470    82.2769
  619.5000     9.2694   122.1019     8.2116   -30.5855    76.6922
  620.0000     9.4582   118.1362     8.3702   -30.4239    75.6105
  620.5000     9.8360   115.7533     8.2150   -30.4182    75.6200
  621.0000     9.9934   124.4002     7.5895   -30.5718    75.6275
  621.5000    10.0090   139.9451     6.9641   -30.7242    76.4118
  622.0000    10.0088   160.6271     5.8684   -30.7185    73.3126
  622.5000     8.8631   184.2638     5.3997   -30.7139    83.0343
  623.0000     7.5045   185.8242     5.4013   -30.3954    84.3587
  623.5000     7.0004   180.2755     5.4031   -29.9199    83.7449
  624.0000     7.2680   178.6751     5.4046   -28.7913    84.0632
  624.5000     7.1734   179.4418     5.4845   -27.7118    84.2261
  625.0000     7.0787   179.4136     5.6428   -28.3352    82.9909
  625.5000     8.3227   165.1954     6.5063   -29.9005    80.5130
  626.0000     9.9918   139.1477     8.3887   -30.3680    80.5206
  626.5000    10.6216   121.3480     9.3443   -30.6774    76.1787
  627.0000    10.9364   104.3966     9.8028   -30.9859    71.9777
  627.5000    11.0937    98.8554     9.6472   -30.9811    71.3801
  628.0000    11.1744   100.4206     9.4920   -30.9765    71.2305
  628.5000    11.2509   105.1138     9.3371   -30.9709    78.0749
  629.0000    11.3295   105.8856     9.3386   -30.6523    80.2572
  629.5000    11.4080   105.8574     9.4185   -30.6478    81.5075
  630.0000    11.5653   102.6803     9.6656   -30.3292    83.3792
  630.5000    11.8801    99.5031    10.2056   -29.8537    83.6974
  631.0000    12.3524    91.5885    10.9125   -29.3782    79.5108
  631.5000    13.4687    83.6795    11.8544   -29.3736    75.7325
  632.0000    15.5017    77.3478    12.7180   -30.0304    69.5721
  632.5000    16.7614    71.8048    13.7383   -31.4041    60.5839
  633.0000    18.4148    67.0504    15.0721   -32.4985    50.6497
  633.5000    20.7768    60.7130    16.3422   -33.9068    45.9952
  634.0000    22.4302    56.7473    17.6618   -34.8441    47.0902
  634.5000    22.4301    53.5701    18.8388   -35.9385    46.3210
