~VERSION INFORMATION
 VERS.                2.0:   CWLS LOG ASCII STANDARD - VERSION 2.0
 WRAP.                 NO:   ONE LINE PER DEPTH STEP
~WELL INFORMATION
#MNEM.UNIT      DATA TYPE    INFORMATION
#----------   ------------   ------------------------------
 STRT.F           90.0000:   START DEPTH
 STOP.F          928.0000:   STOP DEPTH
 STEP.F            0.5000:   STEP LENGTH
 NULL.          -999.2500:   NO VALUE
 COMP.  UNITED STATE NAVY:   COMPANY
 WELL.      NPR 3 #58-S-2:   WELL
 FLD .             TEAPOT:   FIELD
 LOC .       S2 T38N R78W:   LOCATION
 CNTY.            NATRONA:   COUNTY
 STAT.            WYOMING:   STATE
 CTRY. UNITED STATES OF AMERICA:   COUNTRY
 SRVC.       Schlumberger:   SERVICE COMPANY
 DATE.        26-JUN-1962:   LOGDATE
 API .       490250639500:   API NUMBER
~CURVE INFORMATION
#MNEM.UNIT       API CODE    CURVE DESCRIPTION
#----------   ------------   ------------------------------
 DEPT.F                  :   
 ASN .OHMM   05 041 16 00:   AMPLIFIED SHORT NORMAL 16"
 ILD .OHMM   05 120 46 00:   INDUCTION LOG DEEP
 CILD.MMHO   05 110 46 00:   CONDUCTIVITY INDUCTION LOG DEEP
 SPR .MV     05 010 01 00:   SPONTANEOUS POTENTIAL FROM RES.
 GR  .GAPI   30 310 01 00:   GAMMA RAY
~PARAMETER INFORMATION
#MNEM.UNIT          VALUE    DESCRIPTION
#----------   ------------   ------------------------------
 PD  .                 KB:   PERMANENT DATUM
 EKB .F              5189:   KELLING BUSHING
 EGL .F              5184:   GROUND LEVEL
 DATE.        26-JUN-1962:   RUN DATE
 RUN .                  1:   RUN NUMBER
 DD  .F               925:   DEPTH DRILLER
 DL  .F               929:   DEPTH LOGGER
 BLI .F               928:   BOTTOM LOG INTERVAL
 TLI .F                90:   TOP LOG INTERVAL
 BS  .IN             6.75:   BIT SIZE
 BSD .F               925:   BIT SIZE AT DEPTH
 DFT .       OIL EMULSION:   DRILLING FLUID TYPE
 DFD .                 10:   DRILLING FLUID DENSITY
 DFV .                 50:   DRILLING FLUID VISCOSITY
 DFL .                3.7:   DRILLING FLUID LOSS
 RMS .OHMM            4.7:   RESISTIVITY MUD SAMPLE
 MST .F                83:   MUD SAMPLE TEMPERATURE
 RMF .OHMM            3.8:   RESISTIVITY MUD FILTRATE SAMPLE
 MFST.F                83:   MUD FILTRATE SAMPLE TEMPERATURE
 RMC .OHMM            4.4:   RESISTIVITY MUD CAKE
 MCST.F                83:   MUD CAKE SAMPLE TEMPERATURE
 TCS .HRS               1:   TIME CURCULATED STOPPED
 LUN .               2503:   LOGGING UNIT NUMBER
 LUL .               CSPR:   LOGGING UNIT LOCATION
 ENGI.             DANNER:   RECORDING ENGINEER
 WITN.          JORGENSEN:   WITNESSED BY
 CLNT.            A2DTECH:   CLIENT CODE
 ORIG.      2" & 5" PRINT:   ORIGIN OF DATA
 UWI .       490250639500:   UNIQUE WELL ID
 DICO. A2D Technologies, Inc.:   DIGITIZING COMPANY
~OTHER INFORMATION
~A   DEPT        ASN        ILD      CILD       SPR         GR   
   90.0000     7.0675     6.5967   151.2775   -51.4029  -999.2500
   90.5000     7.1729     7.9460   146.7586   -51.3999  -999.2500
   91.0000     7.3083     8.1709   139.2323   -51.5463  -999.2500
   91.5000     7.5037     8.1709   133.2097   -51.6926  -999.2500
   92.0000     7.7440     8.1709   132.4503   -51.8388  -999.2500
   92.5000     8.0143     8.1709   132.4427   -51.9851  -999.2500
   93.0000     7.5800     8.1709   132.4352   -52.2805  -999.2500
   93.5000     7.3256     8.1709   133.1814   -53.0238  -999.2500
   94.0000     7.5063     8.0960   133.1720   -53.3194  -999.2500
   94.5000     8.0161     8.0960   133.1644   -52.8685  -999.2500
   95.0000     8.0614     8.0210   134.6607   -52.4178  -999.2500
   95.5000     7.8671     8.0210   137.6606   -52.5640  -999.2500
   96.0000     7.6726     7.9460   142.1644   -52.5610  -999.2500
   96.5000     7.5231     7.9460   143.6625   -52.5580  -999.2500
   97.0000     7.4785     7.8711   144.4068   -52.7050  -999.2500
   97.5000     7.4640     7.7961   143.6455   -52.7013  -999.2500
   98.0000     7.4645     7.7961   143.6379   -52.8483  -999.2500
   98.5000     7.4200     7.7961   142.8785   -52.8446  -999.2500
   99.0000     7.3905     7.8711   142.8710   -52.8416  -999.2500
   99.5000     7.3909     7.8711   142.8634   -52.9886  -999.2500
  100.0000     7.4963     7.9460   142.8559   -52.9848  -999.2500
  100.5000     7.5566     7.9460   142.0965   -52.8326  -999.2500
  101.0000     7.4523     7.8711   141.3370   -52.5311  -999.2500
  101.5000     7.3628     7.8711   141.3295   -51.9311  -999.2500
  102.0000     7.3481     7.7961   142.8257   -51.9281  -999.2500
  102.5000     7.4086     7.7211   144.3219   -52.9698  -999.2500
  103.0000     7.4391     7.7211   145.8181   -53.1169  -999.2500
  103.5000     7.4215     7.6462   146.5644   -53.1131  -999.2500
  104.0000     7.3923     7.6462   147.3068   -53.1101  -999.2500
  104.5000     7.3481     7.5712   147.2993   -53.1071  -999.2500
  105.0000     7.3038     7.4963   148.0455   -53.1041  -999.2500
  105.5000     7.2296     7.3463   148.9297   -53.1011  -999.2500
  106.0000     7.1854     7.3463   150.2860   -53.0981  -999.2500
  106.5000     7.1712     7.2714   151.0304   -53.2451  -999.2500
  107.0000     7.1569     7.2714   151.7747   -53.3914  -999.2500
  107.5000     7.1282     7.3463   152.6189   -53.5377  -999.2500
  108.0000     7.1288     7.3463   152.4213   -53.5339  -999.2500
  108.5000     7.1591     7.3463   150.1678   -53.6809  -999.2500
  109.0000     7.2945     7.4213   147.9849   -53.9764  -999.2500
  109.5000     7.3699     7.4213   148.0374   -54.2712  -999.2500
  110.0000     7.3403     7.4213   149.5240   -54.2682  -999.2500
  110.5000     7.0709     7.3463   150.9700   -54.4152  -999.2500
  111.0000     7.0698     7.3463   150.9924   -54.4115  -999.2500
  111.5000     7.2068     7.2714   152.4587   -54.5585  -999.2500
  112.0000     7.2222     7.2714   152.4410   -54.5547  -999.2500
  112.5000     7.1627     7.2714   151.6917   -54.5517  -999.2500
  113.0000     7.1032     7.2714   150.1804   -54.6987  -999.2500
  113.5000     7.0735     7.3463   147.9172   -54.6950  -999.2500
  114.0000     7.1940     7.4253   147.1578   -54.8420  -999.2500
  114.5000     7.2694     7.5712   146.3984   -54.9875  -999.2500
  115.0000     7.5098     7.6462   145.6390   -55.1338  -999.2500
  115.5000     7.5852     7.6479   144.8795   -55.2808  -999.2500
  116.0000     7.5856     7.7211   144.8720   -54.9785  -999.2500
  116.5000     7.5561     7.7961   144.1126   -54.6770  -999.2500
  117.0000     7.5116     7.7476   142.6013   -54.8233  -999.2500
  117.5000     7.4671     7.6991   141.0900   -54.9703  -999.2500
  118.0000     7.3776     7.6462   139.5787   -54.7901  -999.2500
  118.5000     7.4080     7.7211   140.3233   -54.1920  -999.2500
  119.0000     7.7683     7.7211   138.8117   -53.6179  -999.2500
  119.5000     7.9936     7.8711   137.3004   -53.4438  -999.2500
  120.0000     8.0990     7.9460   135.7891   -53.3134  -999.2500
  120.5000     8.1294     8.0210   133.5259   -53.2925  -999.2500
  121.0000     8.1899     8.0960   132.7665   -52.9930  -999.2500
  121.5000     8.1903     8.2459   132.0071   -52.7074  -999.2500
  122.0000     8.1308     7.9460   130.4958   -52.5552  -999.2500
  122.5000     8.0862     8.0210   129.7363   -52.5423  -999.2500
  123.0000     8.2217     8.0210   129.7288   -52.4000  -999.2500
  123.5000     8.5070     8.0960   129.7213   -52.2478  -999.2500
  124.0000     8.6123     8.1709   128.9618   -52.3940  -999.2500
  124.5000     8.2680     8.2459   128.9543   -52.6896  -999.2500
  125.0000     8.2234     8.3958   127.4430   -52.8358  -999.2500
  125.5000     8.6587     8.4708   126.6836   -52.9821  -999.2500
  126.0000     8.2993     8.1709   125.9260   -53.1283  -999.2500
  126.5000     8.1198     8.0960   128.1722   -53.2746  -999.2500
  127.0000     8.3002     8.0960   130.4203   -53.4209  -999.2500
  127.5000     8.3156     8.1709   132.6684   -53.4179  -999.2500
  128.0000     8.1212     8.0960   134.1665   -53.4149  -999.2500
  128.5000     8.0287     8.0210   134.9109   -53.2626  -999.2500
  129.0000     8.0021     7.9460   134.9014   -52.9611  -999.2500
  129.5000     7.9806     7.9460   134.8939   -52.6596  -999.2500
  130.0000     7.8171     7.9460   136.3901   -52.5074  -999.2500
  130.5000     7.6736     7.8711   138.6382   -52.3551  -999.2500
  131.0000     7.7054     7.6462   141.6382   -52.5015  -999.2500
  131.5000     7.7195     7.5712   145.3900   -52.3491  -999.2500
  132.0000     7.6078     7.4213   147.6400   -52.3461  -999.2500
  132.5000     7.3151     7.3463   149.8862   -52.3431  -999.2500
  133.0000     7.2559     7.2714   150.6324   -52.3401  -999.2500
  133.5000     7.2115     7.1964   150.6230   -52.3371  -999.2500
  134.0000     7.1970     7.1964   151.3692   -52.3341  -999.2500
  134.5000     7.1675     7.1964   151.3598   -52.3312  -999.2500
  135.0000     7.1379     7.1964   150.6004   -52.3282  -999.2500
  135.5000     7.1234     7.2714   149.0891   -52.1767  -999.2500
  136.0000     7.1223     7.2714   148.3296   -52.3229  -999.2500
  136.5000     7.1393     7.1964   149.8259   -52.3192  -999.2500
  137.0000     7.0348     7.1214   152.0740   -52.3162  -999.2500
  137.5000     7.0652     7.0465   155.0739   -52.3132  -999.2500
  138.0000     7.0807     6.9715   158.0739   -52.4594  -999.2500
  138.5000     6.9912     6.8966   161.8258   -52.6057  -999.2500
  139.0000     6.7218     6.7466   166.3295   -52.7527  -999.2500
  139.5000     6.5873     6.6717   170.8332   -52.8990  -999.2500
  140.0000     6.4828     6.5217   174.5851   -52.8952  -999.2500
  140.5000     6.4681     6.3718   179.0888   -52.7430  -999.2500
  141.0000     6.3937     6.2084   183.5925   -52.4415  -999.2500
  141.5000     6.2892     6.0720   182.8331   -52.2892  -999.2500
  142.0000     5.8699     6.0720   182.0737   -52.2862  -999.2500
  142.5000     5.7953     6.0720   181.3158   -52.1340  -999.2500
  143.0000     6.1707     6.1469   182.0605   -52.1310  -999.2500
  143.5000     6.3060     6.2219   181.3008   -52.2780  -999.2500
  144.0000     6.3365     6.2309   180.5414   -52.4242  -999.2500
  144.5000     6.1420     6.2969   178.1679   -53.0175  -999.2500
  145.0000     6.0075     6.2219   175.9150   -53.4623  -999.2500
  145.5000     5.9479     6.2219   174.5038   -53.4593  -999.2500
  146.0000     6.3383     6.2969   173.7444   -53.4563  -999.2500
  146.5000     6.3837     6.2969   173.7368   -53.4533  -999.2500
  147.0000     6.3692     6.3718   173.7893   -53.4503  -999.2500
  147.5000     6.2797     6.3718   174.4738   -53.4473  -999.2500
  148.0000     6.2052     6.2969   175.9700   -53.4443  -999.2500
  148.5000     6.1755     6.2969   176.7443   -53.2921  -999.2500
  149.0000     6.1761     6.2219   177.4587   -53.2891  -999.2500
  149.5000     6.1765     6.2219   178.2030   -53.2861  -999.2500
  150.0000     6.1731     6.2219   178.9474   -53.2919  -999.2500
  150.5000     6.1175     6.2234   179.6856   -53.3882  -999.2500
