~VERSION INFORMATION
 VERS.                2.0:   CWLS LOG ASCII STANDARD - VERSION 2.0
 WRAP.                 NO:   ONE LINE PER DEPTH STEP
~WELL INFORMATION
#MNEM.UNIT      DATA TYPE    INFORMATION
#----------   ------------   ------------------------------
 STRT.F          160.0000:   START DEPTH
 STOP.F         1181.5000:   STOP DEPTH
 STEP.F            0.5000:   STEP LENGTH
 NULL.          -999.2500:   NO VALUE
 COMP.            US NAVY:   COMPANY
 WELL. RES 3 TEAPOT DOM #71-SX-14:   WELL
 FLD .             TEAPOT:   FIELD
 LOC .      S14 T38N R78W:   LOCATION
 CNTY.            NATRONA:   COUNTY
 STAT.            WYOMING:   STATE
 CTRY. UNITED STATES OF AMERICA:   COUNTRY
 SRVC.       Schlumberger:   SERVICE COMPANY
 DATE.        23-AUG-1959:   LOGDATE
 API .       490250632200:   API NUMBER
~CURVE INFORMATION
#MNEM.UNIT       API CODE    CURVE DESCRIPTION
#----------   ------------   ------------------------------
 DEPT.F                  :   
 SPR .MV     05 010 01 00:   SPONTANEOUS POTENTIAL FROM RES.
 IL  .OHMM   05 120 00 00:   INDUCTION LOG
 ASN .OHMM   05 041 16 00:   AMPLIFIED SHORT NORMAL 16"
 CIL .MMHO   05 110 00 00:   CONDUCTIVITY INDUCTION LOG
~PARAMETER INFORMATION
#MNEM.UNIT          VALUE    DESCRIPTION
#----------   ------------   ------------------------------
 PD  .                 GL:   PERMANENT DATUM
 EPD .F              5259:   ELEVATION PERMANENT DATUM
 LMF .                 KB:   LOG MEASURED FROM
 DAPD.F                 4:   FEET ABOVE PERMANENT DATUM
 DMF .                 KB:   DRILLING MEASURED FROM
 EKB .F              5263:   KELLING BUSHING
 EGL .F              5259:   GROUND LEVEL
 DATE.            8-23-59:   RUN DATE
 RUN .                  1:   RUN NUMBER
 DD  .F              1190:   DEPTH DRILLER
 DL  .F              1186:   DEPTH LOGGER
 BLI .F              1180:   BOTTOM LOG INTERVAL
 TLI .F               150:   TOP LOG INTERVAL
 CBD .F                17:   CASING BOTTOM DRILLER
 BS  .IN             6.75:   BIT SIZE
 BSD .F              1190:   BIT SIZE AT DEPTH
 DFT .                GEL:   DRILLING FLUID TYPE
 DFD .                9.5:   DRILLING FLUID DENSITY
 DFV .                 52:   DRILLING FLUID VISCOSITY
 MSS .           FLOWLINE:   MUD SAMPLE SOURCE
 RMS .OHMM            2.6:   RESISTIVITY MUD SAMPLE
 MST .F                62:   MUD SAMPLE TEMPERATURE
 MFSS.                  M:   MUD FILTRATE SAMPLE SOURCE
 MCSS.                  M:   MUD CAKE SAMPLE SOURCE
 RMB .OHMM            2.2:   RESISTIVITY MUD AT BHT
 BHT .F                80:   BOTTOM HOLE TEMPERATURE
 TCS .HRS               1:   TIME CURCULATED STOPPED
 MRT .F                80:   MAXIMUM RECORDED TEMPERATURE
 LUN .               2523:   LOGGING UNIT NUMBER
 LUL .               CSPR:   LOGGING UNIT LOCATION
 ENGI.             ATWOOD:   RECORDING ENGINEER
 WITN.             MARTIN:   WITNESSED BY
 CLNT.            A2DTECH:   CLIENT CODE
 ORIG.     1", 2.5" PRINT:   ORIGIN OF DATA
 UWI .       490250632200:   UNIQUE WELL ID
 DICO. A2D Technologies, Inc.:   DIGITIZING COMPANY
~OTHER INFORMATION
~A   DEPT      SPR           IL        ASN      CIL   
# ...
  598.0000   -52.8642    11.2582    12.0234    98.1363
  598.5000   -53.0710    11.2584    12.1181    98.1441
  599.0000   -52.7650    11.2594    12.2116    98.1515
  599.5000   -52.1497    11.2595    12.3062    98.1577
  600.0000   -51.5086    11.2542    12.4003    98.1622
  600.5000   -51.4045    11.3094    12.4944    98.1652
  601.0000   -51.8414    11.4266    12.5886    97.6161
  601.5000   -52.2243    11.5374    12.6827    96.4991
  602.0000   -52.6083    11.6486    12.7771    95.3812
  602.5000   -53.0044    11.7610    12.8709    94.2631
  603.0000   -53.3912    11.8723    12.9654    93.1456
  603.5000   -53.7801    11.9841    13.0599    92.0290
  604.0000   -54.1750    12.0959    13.1521    90.9131
  604.5000   -54.5585    12.2075    13.2980    89.7975
  605.0000   -54.9492    12.3191    13.5164    88.6825
  605.5000   -55.3622    12.4321    13.7321    87.5675
  606.0000   -55.5253    12.5788    13.9492    86.4525
  606.5000   -55.8587    12.7777    14.1663    85.3374
  607.0000   -56.6084    12.9776    14.3830    84.2224
  607.5000   -57.3521    13.1788    14.5999    83.1074
  608.0000   -57.7043    13.3793    14.8168    81.9924
  608.5000   -57.6819    13.5799    15.0337    80.8773
  609.0000   -57.6552    13.7806    15.2505    79.7623
  609.5000   -57.9224    13.9814    15.4675    78.6473
  610.0000   -58.5092    14.1821    15.6846    77.5323
  610.5000   -58.7720    14.3826    15.9014    76.4173
  611.0000   -58.7439    14.5841    16.1189    75.3023
  611.5000   -58.7537    14.7837    16.3354    74.1872
  612.0000   -58.7359    14.9853    16.5521    73.0722
  612.5000   -58.9151    15.1895    16.7730    71.9572
  613.0000   -59.2384    15.3356    16.9350    70.8422
  613.5000   -59.4609    15.3368    16.8797    69.4971
  614.0000   -59.6937    15.3423    16.6683    68.3852
  614.5000   -60.0191    15.2755    16.4555    68.3852
  615.0000   -60.1617    15.0005    16.2395    68.8619
  615.5000   -60.5148    14.7291    16.0255    70.2169
  616.0000   -61.1095    14.4501    15.8099    71.5720
  616.5000   -61.2652    14.1760    15.5972    72.9270
  617.0000   -61.2409    13.8975    15.3812    74.2821
  617.5000   -61.2691    13.6221    15.1624    75.6372
  618.0000   -61.0896    13.3936    14.9960    76.9922
  618.5000   -60.6914    13.3897    14.9797    78.3473
  619.0000   -60.2923    13.3863    14.9447    79.7023
  619.5000   -59.8937    13.3852    14.4219    80.6420
  620.0000   -59.4852    13.3923    13.9469    80.6420
  620.5000   -59.0944    13.3885    13.4513    80.6420
  621.0000   -58.6852    13.3456    12.9523    81.9397
  621.5000   -58.2697    12.8137    12.4749    86.4636
  622.0000   -57.9430    11.9963    11.7463    90.9900
  622.5000   -56.7826    11.1969    11.0620    95.5184
  623.0000   -54.7648    10.3880    10.3561   100.0482
  623.5000   -52.8570     9.5920     9.6628   106.4961
  624.0000   -50.9486     8.7780     8.9625   118.2085
  624.5000   -48.9223     7.9875     8.2655   129.9211
  625.0000   -47.8732     7.2106     7.5818   141.6134
  625.5000   -47.7753     6.9475     7.1903   153.3112
  626.0000   -47.6679     6.7076     7.0910   165.0089
  626.5000   -47.6669     6.4876     6.9964   176.7066
  627.0000   -47.6969     6.4934     6.9016   185.0560
  627.5000   -47.5025     6.5099     7.0652   182.2685
  628.0000   -47.2299     6.5376     7.2325   179.4809
  628.5000   -47.0848     6.5575     7.4233   176.6934
  629.0000   -46.9261     6.5801     7.1270   173.9141
  629.5000   -46.7637     6.6026     7.1213   171.7005
  630.0000   -46.6083     6.6244     7.0981   171.9610
  630.5000   -46.4460     6.6465     7.1091   173.2613
  631.0000   -46.2891     6.6685     6.9137   174.5611
  631.5000   -46.1336     6.6904     6.8698   175.8624
  632.0000   -45.9555     6.7125     6.9297   176.9285
  632.5000   -45.9877     6.7343     7.0152   176.9455
  633.0000   -46.2304     6.7561     7.0963   175.4822
  633.5000   -46.4509     6.7789     7.1803   174.2378
  634.0000   -46.6717     6.7992     7.2577   172.9933
  634.5000   -46.8990     6.8239     7.3499   171.7489
  635.0000   -47.1203     6.8006     7.3077   170.5045
  635.5000   -47.3419     6.7691     7.2472   169.2600
  636.0000   -47.5773     6.7364     7.1822   168.1907
  636.5000   -47.6885     6.7049     7.1208   170.3988
  637.0000   -47.6764     6.6728     7.0582   172.3346
  637.5000   -47.6831     6.6407     6.9955   174.2704
  638.0000   -47.6354     6.6091     6.9325   176.2062
  638.5000   -47.5316     6.5766     6.8718   178.1420
  639.0000   -47.4356     6.5448     6.8081   180.0778
  639.5000   -47.3384     6.5142     6.8329   182.0136
  640.0000   -47.2401     6.4778     6.8977   183.9494
  640.5000   -47.1428     6.5027     6.9605   185.7004
  641.0000   -47.0454     6.5595     7.0222   182.9436
  641.5000   -46.9476     6.6111     7.0851   180.4270
  642.0000   -46.8500     6.6619     7.1475   177.9105
  642.5000   -46.7538     6.7142     7.2098   175.3940
  643.0000   -46.6522     6.7656     7.2724   172.8774
  643.5000   -46.5990     6.8173     7.3346   170.3609
  644.0000   -46.6485     6.8690     7.3770   167.8444
  644.5000   -46.7416     6.9206     7.4292   165.3278
  645.0000   -46.8299     6.9723     7.4949   162.9377
  645.5000   -46.9192     7.0239     7.5571   162.9377
  646.0000   -47.0095     7.0757     7.6192   162.9377
  646.5000   -47.0980     7.1271     7.6818   161.1255
  647.0000   -47.1875     7.1793     7.7445   159.3833
  647.5000   -47.2808     7.2305     7.8068   157.6411
  648.0000   -47.3246     7.2814     7.8685   155.8988
  648.5000   -47.3256     7.3375     7.9344   154.1566
  649.0000   -47.2714     7.3417     7.9637   152.4144
  649.5000   -47.1564     7.2981     7.9599   150.6809
  650.0000   -47.0467     7.2597     7.9650   150.6809
  650.5000   -46.9376     7.2210     7.9168   152.7716
  651.0000   -46.8269     7.1816     7.8127   154.8623
  651.5000   -46.7173     7.1423     7.7152   156.9529
  652.0000   -46.6071     7.1037     7.6188   159.0436
  652.5000   -46.4970     7.0651     7.5147   161.1868
  653.0000   -46.3872     7.0218     7.4544   161.1868
  653.5000   -46.2769     7.0192     7.5236   161.1868
  654.0000   -46.1668     7.0673     7.6666   159.4358
  654.5000   -46.0583     7.1104     7.8043   158.0423
  655.0000   -45.9438     7.1537     7.9580   156.5905
  655.5000   -45.8828     7.1989     8.0067   155.1386
  656.0000   -45.9479     7.2417     7.9072   153.6868
  656.5000   -46.0721     7.2855     7.8214   152.2349
  657.0000   -46.1898     7.3351     7.7358   150.6809
  657.5000   -46.3092     7.3353     7.6465   150.6809
  658.0000   -46.4286     7.2551     7.5517   153.5805
  658.5000   -46.5479     7.1815     7.5131   156.7165
  659.0000   -46.6674     7.1060     7.5793   159.8525
  659.5000   -46.7850     7.0304     7.6419   162.9885
  660.0000   -46.9092     6.9556     7.6562   166.4048
  660.5000   -46.9747     6.8785     7.5688   165.6261
  661.0000   -46.9092     6.8247     7.4857   164.7670
  661.5000   -46.7850     6.8447     7.4515   163.9091
  662.0000   -46.6674     6.9101     7.5326   162.9415
  662.5000   -46.5480     6.9753     7.6109   162.5076
  663.0000   -46.4287     7.0417     7.6926   162.0096
  663.5000   -46.3089     7.1079     7.7713   161.5103
  664.0000   -46.1905     7.1726     7.8533   161.0115
  664.5000   -46.0715     7.2409     7.9359   160.5153
  665.0000   -45.9470     7.3051     7.9516   160.0187
  665.5000   -45.8885     7.3509     7.7517   159.4428
  666.0000   -45.8878     7.2684     7.5539   161.3540
  666.5000   -45.9538     7.2001     7.3479   163.6165
  667.0000   -46.0942     7.1244     7.1808   165.8776
  667.5000   -46.2281     7.0518     7.1206   168.1425
  668.0000   -46.3604     6.9788     7.0658   170.4074
  668.5000   -46.4972     6.9053     7.0141   172.6723
  669.0000   -46.6295     6.8321     6.9694   174.9372
  669.5000   -46.7615     6.7588     6.9684   177.2020
  670.0000   -46.9092     6.6861     6.9672   179.4669
  670.5000   -46.9075     6.6119     6.9687   181.7318
