~VERSION INFORMATION
 VERS.                2.0:   CWLS LOG ASCII STANDARD - VERSION 2.0
 WRAP.                 NO:   ONE LINE PER DEPTH STEP
~WELL INFORMATION
#MNEM.UNIT      DATA TYPE    INFORMATION
#----------   ------------   ------------------------------
 STRT.F         1400.0000:   START DEPTH
 STOP.F         3422.0000:   STOP DEPTH
 STEP.F            0.5000:   STEP LENGTH
 NULL.          -999.2500:   NO VALUE
 COMP. LAWRENCE/ALLISON INC:   COMPANY
 WELL.   NPR 3 #36-STX-23:   WELL
 FLD .             TEAPOT:   FIELD
 LOC .      S23 T38N R78W:   LOCATION
 CNTY.            NATRONA:   COUNTY
 STAT.            WYOMING:   STATE
 CTRY. UNITED STATES OF AMERICA:   COUNTRY
 SRVC.            Unknown:   SERVICE COMPANY
 DATE.        04-JAN-1985:   LOGDATE
 API .       490251137700:   API NUMBER
~CURVE INFORMATION
#MNEM.UNIT       API CODE    CURVE DESCRIPTION
#----------   ------------   ------------------------------
 DEPT.F                  :   
 ROP .MIN/FT 91 810 01 00:   RAT OF DRILLING PENETRATION
 TGAS.UNITS  91 830 01 00:   TOTAL GAS UNIT
~PARAMETER INFORMATION
#MNEM.UNIT          VALUE    DESCRIPTION
#----------   ------------   ------------------------------
 DATE.           1-4-1985:   RUN DATE
 RUN .                  1:   RUN NUMBER
 DD  .F              3427:   DEPTH DRILLER
 TLI .F              1400:   TOP LOG INTERVAL
 BSD .F              3427:   BIT SIZE AT DEPTH
 WITN. RAY ANDERSON/JACK HARBISON:   WITNESSED BY
 CLNT.            A2DTECH:   CLIENT CODE
 ORIG.           5" PRINT:   ORIGIN OF DATA
 UWI .       490251137700:   UNIQUE WELL ID
 DICO. A2D Technologies, Inc.:   DIGITIZING COMPANY
~OTHER INFORMATION
~A  DEPT       ROP       TGAS   
# ...
 1886.0000     0.8624     0.0000
 1886.5000     0.8622     0.0000
 1887.0000     0.8619     0.0000
 1887.5000     0.8617     0.0000
 1888.0000     0.8615     0.0000
 1888.5000     0.8612     0.0000
 1889.0000     0.8610     0.0000
 1889.5000     0.8607     0.0000
 1890.0000     0.8605     0.0000
 1890.5000     0.8603     0.0000
 1891.0000     0.8600     0.0000
 1891.5000     0.8598     0.0000
 1892.0000     0.8595     0.0000
 1892.5000     0.8593     0.0000
 1893.0000     0.8591     0.0000
 1893.5000     0.8588     0.0000
 1894.0000     0.8586     0.0000
 1894.5000     0.8583     0.0000
 1895.0000     0.8581     0.0000
 1895.5000     0.8579     0.0000
 1896.0000     0.8576     0.0000
 1896.5000     0.8574     0.0000
 1897.0000     0.8571     0.0000
 1897.5000     0.8569     0.0000
 1898.0000     0.8567     0.0000
 1898.5000     0.8564     0.0000
 1899.0000     0.8562     0.0000
 1899.5000     0.8559     0.0000
 1900.0000     0.8563     0.0000
 1900.5000     0.8597     0.0000
 1901.0000     0.8631     0.0000
 1901.5000     0.8666     0.0000
 1902.0000     0.8700     0.0000
 1902.5000     0.8734     0.0000
 1903.0000     0.8768     0.0000
 1903.5000     0.8802     0.0000
 1904.0000     0.8836     0.0000
 1904.5000     0.8871     0.0000
 1905.0000     0.8876     0.0000
 1905.5000     0.8872     0.0000
 1906.0000     0.8868     0.0000
 1906.5000     0.8864     0.0000
 1907.0000     0.8860     0.0000
 1907.5000     0.8856     0.0000
 1908.0000     0.8851     0.0000
 1908.5000     0.8847     0.0000
 1909.0000     0.8843     0.0000
 1909.5000     0.8839     0.0000
 1910.0000     0.8835     0.0000
 1910.5000     0.8830     0.0000
 1911.0000     0.8817     0.0000
 1911.5000     0.8789     0.0000
 1912.0000     0.8761     0.0000
 1912.5000     0.8733     0.0000
 1913.0000     0.8705     0.0000
 1913.5000     0.8677     0.0000
 1914.0000     0.8649     0.0000
 1914.5000     0.8621     0.0000
 1915.0000     0.8593     0.0000
 1915.5000     0.8565     0.0000
 1916.0000     0.8537     0.0000
 1916.5000     0.8509     0.0000
 1917.0000     0.8481     0.0000
 1917.5000     0.8453     0.0000
 1918.0000     0.8425     0.0000
 1918.5000     0.8397     0.0000
 1919.0000     0.8369     0.0000
 1919.5000     0.8341     0.0000
 1920.0000     0.8317     0.0000
 1920.5000     0.8330     0.0000
 1921.0000     0.8342     0.0000
 1921.5000     0.8353     0.0000
 1922.0000     0.8365     0.0000
 1922.5000     0.8376     0.0000
 1923.0000     0.8388     0.0000
 1923.5000     0.8400     0.0000
 1924.0000     0.8411     0.0000
 1924.5000     0.8423     0.0000
 1925.0000     0.8434     0.0000
 1925.5000     0.8446     0.0000
 1926.0000     0.8458     0.0000
 1926.5000     0.8469     0.0000
 1927.0000     0.8481     0.0000
 1927.5000     0.8492     0.0000
 1928.0000     0.8504     0.0000
 1928.5000     0.8516     0.0026
 1929.0000     0.8527     0.0191
 1929.5000     0.8539     0.0357
 1930.0000     0.8551     0.0522
 1930.5000     0.8562     0.0687
 1931.0000     0.8574     0.0852
 1931.5000     0.8585     0.1017
 1932.0000     0.8596     0.1182
 1932.5000     0.8600     0.1348
 1933.0000     0.8603     0.1513
 1933.5000     0.8607     0.1678
 1934.0000     0.8611     0.1843
 1934.5000     0.8614     0.2008
 1935.0000     0.8618     0.2173
 1935.5000     0.8621     0.2338
 1936.0000     0.8625     0.2504
 1936.5000     0.8629     0.2655
 1937.0000     0.8632     0.2549
 1937.5000     0.8636     0.2451
 1938.0000     0.8639     0.2353
 1938.5000     0.8643     0.2255
 1939.0000     0.8647     0.2157
 1939.5000     0.8650     0.2059
 1940.0000     0.8654     0.1961
 1940.5000     0.8651     0.1863
 1941.0000     0.8648     0.1765
 1941.5000     0.8646     0.1667
 1942.0000     0.8643     0.1569
 1942.5000     0.8641     0.1471
 1943.0000     0.8638     0.1373
 1943.5000     0.8636     0.1274
 1944.0000     0.8633     0.1176
 1944.5000     0.8631     0.1078
 1945.0000     0.8628     0.0980
 1945.5000     0.8626     0.0882
 1946.0000     0.8627     0.0784
 1946.5000     0.8642     0.0686
 1947.0000     0.8657     0.0588
 1947.5000     0.8672     0.0490
 1948.0000     0.8687     0.0392
 1948.5000     0.8702     0.0294
 1949.0000     0.8717     0.0196
 1949.5000     0.8731     0.0098
 1950.0000     0.8746     0.0000
 1950.5000     0.8761     0.0270
 1951.0000     0.8776     0.0574
 1951.5000     0.8791     0.0878
 1952.0000     0.8806     0.1181
 1952.5000     0.8821     0.1485
 1953.0000     0.8836     0.1789
 1953.5000     0.8850     0.2092
 1954.0000     0.8865     0.2396
 1954.5000     0.8880     0.2700
 1955.0000     0.8895     0.3003
 1955.5000     0.8910     0.3307
 1956.0000     0.8925     0.3611
 1956.5000     0.9459     0.3914
 1957.0000     1.0509     0.4218
 1957.5000     1.1558     0.4522
 1958.0000     1.2991     0.4825
 1958.5000     1.1843     0.5129
 1959.0000     1.0502     0.5433
 1959.5000     0.9739     0.5736
 1960.0000     0.9264     0.6014
 1960.5000     0.9161     0.6238
 1961.0000     0.9145     0.6461
 1961.5000     0.9129     0.6684
 1962.0000     0.9113     0.6907
 1962.5000     0.9097     0.7131
 1963.0000     0.9081     0.7354
 1963.5000     0.9066     0.7577
 1964.0000     0.9050     0.7800
 1964.5000     0.9034     0.8024
 1965.0000     0.9018     0.8247
 1965.5000     0.9002     0.8470
 1966.0000     0.8986     0.8693
 1966.5000     0.8970     0.8917
 1967.0000     0.8954     0.9140
 1967.5000     0.8938     0.9363
 1968.0000     0.8922     0.9586
 1968.5000     0.8906     0.9810
 1969.0000     0.8890     1.0033
 1969.5000     0.8875     1.0256
 1970.0000     0.8859     1.0479
 1970.5000     0.8843     1.0703
 1971.0000     0.8827     1.0926
 1971.5000     0.8813     1.1149
 1972.0000     0.8808     1.1372
 1972.5000     0.8802     1.1596
 1973.0000     0.8797     1.1819
 1973.5000     0.8791     1.2042
 1974.0000     0.8786     1.2265
 1974.5000     0.8781     1.2488
 1975.0000     0.8775     1.2712
 1975.5000     0.8770     1.2935
 1976.0000     0.8765     1.3158
 1976.5000     0.8759     1.3381
 1977.0000     0.8754     1.3605
 1977.5000     0.8749     1.3828
 1978.0000     0.8743     1.4051
 1978.5000     0.8738     1.4274
 1979.0000     0.8733     1.4498
 1979.5000     0.8727     1.4721
 1980.0000     0.8722     1.4944
 1980.5000     0.8724     1.5167
 1981.0000     0.8729     1.5391
 1981.5000     0.8735     1.5614
 1982.0000     0.8740     1.5837
 1982.5000     0.8746     1.6060
 1983.0000     0.8752     1.6284
 1983.5000     0.8757     1.5991
 1984.0000     0.8763     1.5284
 1984.5000     0.8768     1.4577
 1985.0000     0.8774     1.3870
 1985.5000     0.8780     1.3162
 1986.0000     0.8785     1.2455
 1986.5000     0.8791     1.1748
 1987.0000     0.8796     1.1041
 1987.5000     0.8802     1.0334
 1988.0000     0.8808     0.9627
 1988.5000     0.8813     0.8920
 1989.0000     0.8819     0.8213
 1989.5000     0.8811     0.7506
 1990.0000     0.8804     0.6799
 1990.5000     0.8796     0.6092
 1991.0000     0.8789     0.5385
 1991.5000     0.8781     0.4677
 1992.0000     0.8774     0.3970
 1992.5000     0.8766     0.3263
 1993.0000     0.8759     0.0000
 1993.5000     0.8751     0.0000
 1994.0000     0.8744     0.0000
 1994.5000     0.8736     0.0000
 1995.0000     0.8729     0.0000
 1995.5000     0.8721     0.0000
 1996.0000     0.8714     0.0000
 1996.5000     0.8706     0.0000
 1997.0000     0.8699     0.0000
 1997.5000     0.8691     0.0000
 1998.0000     0.8684     0.0000
 1998.5000     0.8676     0.0000
 1999.0000     0.8669     0.0000
 1999.5000     0.8661     0.0000
 2000.0000     0.8654     0.0000
 2000.5000     0.8659     0.0080
 2001.0000     0.8663     0.0160
 2001.5000     0.8668     0.0239
 2002.0000     0.8673     0.0319
 2002.5000     0.8678     0.0399
 2003.0000     0.8683     0.0479
 2003.5000     0.8688     0.0558
 2004.0000     0.8692     0.0638
 2004.5000     0.8697     0.0718
 2005.0000     0.8702     0.0798
 2005.5000     0.8707     0.0877
 2006.0000     0.8712     0.0957
 2006.5000     0.8716     0.1037
 2007.0000     0.8721     0.1117
