~VERSION INFORMATION
 VERS.                2.0:   CWLS LOG ASCII STANDARD - VERSION 2.0
 WRAP.                 NO:   ONE LINE PER DEPTH STEP
~WELL INFORMATION
#MNEM.UNIT      DATA TYPE    INFORMATION
#----------   ------------   ------------------------------
 STRT.F           66.0000:   START DEPTH
 STOP.F         1030.5000:   STOP DEPTH
 STEP.F            0.5000:   STEP LENGTH
 NULL.          -999.2500:   NO VALUE
 COMP. U S NAVY/INTEX OIL CO:   COMPANY
 WELL.      NRP-3 #68S-11:   WELL
 FLD .             TEAPOT:   FIELD
 LOC .      S11 T38N R78W:   LOCATION
 CNTY.            NATRONA:   COUNTY
 STAT.            WYOMING:   STATE
 CTRY. UNITED STATES OF AMERICA:   COUNTRY
 SRVC.       Schlumberger:   SERVICE COMPANY
 DATE.        07-JUL-1962:   LOGDATE
 API .       490250632700:   API NUMBER
~CURVE INFORMATION
#MNEM.UNIT       API CODE    CURVE DESCRIPTION
#----------   ------------   ------------------------------
 DEPT.F                  :   
 SPR .MV     05 010 01 00:   SPONTANEOUS POTENTIAL FROM RES.
 ASN .OHMM   05 041 16 00:   AMPLIFIED SHORT NORMAL 16"
 ILD .OHMM   05 120 46 00:   INDUCTION LOG DEEP
 CILD.MMHO   05 110 46 00:   CONDUCTIVITY INDUCTION LOG DEEP
 GRN .GAPI   35 310 30 00:   GAMMA RAY
 GR  .GAPI   81 310 01 00:   GAMMA RAY
~PARAMETER INFORMATION
#MNEM.UNIT          VALUE    DESCRIPTION
#----------   ------------   ------------------------------
 LMF .                 KB:   LOG MEASURED FROM
 DMF .                 KB:   DRILLING MEASURED FROM
 EKB .F              5226:   KELLING BUSHING
 EGL .F              5221:   GROUND LEVEL
 DATE.           7-7-1962:   RUN DATE
 RUN .                  1:   RUN NUMBER
 DD  .F              1030:   DEPTH DRILLER
 DL  .F              1031:   DEPTH LOGGER
 BLI .F              1030:   BOTTOM LOG INTERVAL
 TLI .F                90:   TOP LOG INTERVAL
 CBD .F                10:   CASING BOTTOM DRILLER
 BS  .IN             6.75:   BIT SIZE
 BSD .F              1030:   BIT SIZE AT DEPTH
 DFT .            GEL-OIL:   DRILLING FLUID TYPE
 DFD .               10.2:   DRILLING FLUID DENSITY
 DFV .                 50:   DRILLING FLUID VISCOSITY
 DFL .                3.6:   DRILLING FLUID LOSS
 RMS .OHMM           5.06:   RESISTIVITY MUD SAMPLE
 MST .F                71:   MUD SAMPLE TEMPERATURE
 RMF .OHMM           4.89:   RESISTIVITY MUD FILTRATE SAMPLE
 MFST.F                71:   MUD FILTRATE SAMPLE TEMPERATURE
 RMC .OHMM           4.85:   RESISTIVITY MUD CAKE
 MCST.F                71:   MUD CAKE SAMPLE TEMPERATURE
 MFSS.                  M:   MUD FILTRATE SAMPLE SOURCE
 MCSS.                  M:   MUD CAKE SAMPLE SOURCE
 RMB .OHMM           4.54:   RESISTIVITY MUD AT BHT
 BHT .F                82:   BOTTOM HOLE TEMPERATURE
 TCS .HRS               1:   TIME CURCULATED STOPPED
 MRT .F                82:   MAXIMUM RECORDED TEMPERATURE
 LUN .               2503:   LOGGING UNIT NUMBER
 LUL .              CSPR.:   LOGGING UNIT LOCATION
 ENGI.             KNOBEL:   RECORDING ENGINEER
 WITN.          JORGENSEN:   WITNESSED BY
 CLNT.            A2DTECH:   CLIENT CODE
 ORIG.      2" & 5" PRINT:   ORIGIN OF DATA
 UWI .       490250632700:   UNIQUE WELL ID
 DICO. A2D Technologies, Inc.:   DIGITIZING COMPANY
~OTHER INFORMATION
~A   DEPT      SPR        ASN        ILD       CILD        GRN          GR  
# ...
  898.0000   -39.9327    13.7033    11.8370    87.5710    45.6328    99.6539
  898.5000   -40.3570    13.6203    11.9492    87.7491    42.6324    99.9204
  899.0000   -40.6040    13.5374    12.1312    86.5716    35.3715    97.1970
  899.5000   -40.8493    13.4560    12.3160    85.3941    29.3300    94.5113
  900.0000   -41.2723    13.5088    12.5005    84.2166    24.9273    93.7803
  900.5000   -41.8779    13.7026    12.6847    83.0391    20.4443    95.0544
  901.0000   -42.4767    13.8965    12.8473    81.8616    22.1631    95.2348
  901.5000   -43.0453    14.0559    12.9680    80.6841    23.8936    92.7574
  902.0000   -44.4570    13.9059    13.0864    79.5077    30.8519    90.3383
  902.5000   -45.9324    13.6803    13.2052    78.9855    33.4404    88.4393
  903.0000   -47.4454    13.5372    13.3071    78.5563    40.8794    90.0289
  903.5000   -47.1590    14.0916    13.2100    78.1263    42.3878    91.6009
  904.0000   -46.0615    14.4846    13.1118    77.6952    43.6003    92.2587
  904.5000   -44.9399    14.1157    13.0146    77.5783    49.0730    92.7736
  905.0000   -44.0428    13.7365    12.9176    78.3328    50.0673    94.8784
  905.5000   -43.2655    13.5422    12.8206    79.0872    51.8869    97.0863
  906.0000   -42.4722    13.4347    12.7236    79.8417    52.8628    99.0575
  906.5000   -42.8272    13.3272    12.6266    80.5962    53.0090    96.7195
  907.0000   -43.3933    13.3604    12.5295    81.3507    57.4540    94.2278
  907.5000   -43.9197    13.4076    12.4331    82.1051    61.6573    92.0250
  908.0000   -43.5441    13.3198    12.3633    82.8596    65.5059    93.5143
  908.5000   -43.1340    13.2289    12.2993    83.6141    68.7437    95.0620
  909.0000   -42.7232    13.1385    12.2354    84.3474    66.3030    94.4548
  909.5000   -42.6302    13.0484    12.1714    84.9137    56.3122    89.6521
  910.0000   -42.7584    12.9582    12.1075    85.4646    53.7051    87.3151
  910.5000   -41.8322    12.8685    12.0432    86.0155    55.7731    85.9331
  911.0000   -40.6153    12.8099    12.0021    86.5664    56.6801    87.8762
  911.5000   -40.6825    12.7986    11.9743    87.1173    58.5211    90.9576
  912.0000   -41.0809    12.7867    11.9466    87.6681    60.7618    94.0960
  912.5000   -41.0566    12.7750    11.9201    88.2190    60.9227    97.3148
  913.0000   -40.7263    12.7632    11.9191    88.0599    54.4544    96.0046
  913.5000   -40.4027    12.7514    11.9192    87.6092    51.2341    91.5158
  914.0000   -40.2941    12.7394    11.9192    87.1585    47.7217    87.1307
  914.5000   -40.6724    12.7272    11.9196    86.7078    49.8463    85.3612
  915.0000   -41.0416    12.7183    11.9406    86.2567    50.4658    85.1430
  915.5000   -41.4104    12.8009    11.9983    85.8041    49.5079    83.4837
  916.0000   -41.7823    12.8886    12.0555    85.3429    48.9646    80.9421
  916.5000   -41.9641    12.9768    12.1129    85.2649    48.7252    78.9527
  917.0000   -41.9396    13.0138    12.1700    85.1637    42.7456    82.7750
  917.5000   -41.4897    13.0144    12.2192    85.0625    40.1726    86.8778
  918.0000   -41.1939    13.0145    12.2181    84.9613    38.2223    88.8229
  918.5000   -41.3356    13.0144    12.2180    84.8602    41.8986    87.3723
  919.0000   -41.0475    13.0144    12.2182    84.7590    44.6140    85.9529
  919.5000   -40.5867    13.0146    12.2169    84.6578    52.4697    88.2006
  920.0000   -40.1174    13.0138    12.1661    84.5558    56.2293    90.8370
  920.5000   -39.6468    12.9800    12.1171    84.4554    52.2207    92.9444
  921.0000   -39.5935    12.9432    12.1183    84.3474    49.7762    93.5401
  921.5000   -39.8560    12.9065    12.1191    85.1446    51.6382    94.1625
  922.0000   -40.1216    12.8698    12.1168    86.2354    52.4183    96.0570
  922.5000   -40.3849    12.8331    11.9864    87.3261    50.0664    98.4014
  923.0000   -40.6485    12.7618    11.8425    88.4169    57.9785   100.7313
  923.5000   -40.9134    12.6577    11.6988    89.5076    55.9669   100.7746
  924.0000   -41.1579    12.5540    11.5552    90.5984    54.3428    98.5548
  924.5000   -41.0034    12.4502    11.4115    91.6891    52.9942    96.2083
  925.0000   -40.9450    12.3464    11.2674    92.7799    52.2445    94.3247
  925.5000   -40.8727    12.2427    11.1256    93.8706    48.2396    95.3572
  926.0000   -40.8052    12.1388    11.0703    94.9614    43.1598    96.4002
  926.5000   -40.5191    12.0327    11.2795    94.0266    42.4529    97.0974
  927.0000   -40.0896    11.9191    11.4848    92.1859    42.6887    94.5246
  927.5000   -39.6622    12.3396    11.7400    90.3441    34.7528    91.9032
  928.0000   -39.3811    12.8168    11.9882    88.5020    37.1328    89.6075
  928.5000   -39.3871    13.2963    12.2367    86.6605    44.3817    91.2966
  929.0000   -39.3860    13.7735    12.4840    84.8190    47.9731    93.0424
  929.5000   -39.2794    14.2472    12.5366    82.9774    52.8756    93.8107
  930.0000   -38.5228    14.4475    12.5595    82.3562    54.2836    93.5617
  930.5000   -37.7647    14.0738    12.5813    82.7886    54.9115    94.7647
  931.0000   -36.9742    13.9323    12.5975    83.7329    56.3890    95.8047
  931.5000   -37.2118    13.9762    12.3954    84.6773    55.0906    94.1931
  932.0000   -37.7589    13.6390    12.0287    85.6217    54.8883    92.5874
  932.5000   -38.3171    12.7931    11.5961    87.1531    56.6113    90.9925
  933.0000   -38.5262    11.9537    11.1602    90.5373    58.1396    91.1837
  933.5000   -38.3231    11.6804    10.8028    93.9149    59.8517    97.1497
  934.0000   -38.1178    11.5175    10.7426    97.2959    61.4569   100.3262
  934.5000   -37.9121    11.3510    10.6778   100.6748    63.4468   102.8487
  935.0000   -37.7089    11.2173    10.6124   101.1986    61.2818   104.8942
  935.5000   -37.7090    11.2101    10.5469   101.0806    60.6620   104.5685
  936.0000   -37.9436    11.2007    10.4815   100.9625    64.5173   104.2614
  936.5000   -38.1780    11.1910    10.4160   100.8445    65.1699   103.6985
  937.0000   -38.3693    11.1813    10.3505   100.7264    64.4903   102.7150
  937.5000   -37.9169    11.1716    10.2849   100.6084    63.5256   101.8308
  938.0000   -37.4576    11.1619    10.2197   100.4904    61.8024   101.0031
  938.5000   -37.0016    11.1522    10.1531   100.3723    61.7814    98.1763
  939.0000   -36.5448    11.1424    10.1720   100.2543    61.7988    95.1162
  939.5000   -36.0818    11.1327    10.2455   100.1362    58.9544    92.0134
  940.0000   -36.1399    11.1229    10.3196   100.0182    57.2825    91.3030
  940.5000   -36.2946    11.1155    10.3948    99.9001    59.7787    91.6608
  941.0000   -36.4516    11.1081    10.4101    99.7821    58.5270    92.0318
  941.5000   -36.6075    11.1007    10.3843    99.6640    58.4376    92.4040
  942.0000   -36.7634    11.0933    10.3579    99.5460    60.5762    92.9863
  942.5000   -36.9206    11.0859    10.3314    99.4279    60.1783    94.8614
  943.0000   -37.0751    11.0785    10.3049    99.3099    64.5995    96.8252
  943.5000   -37.1106    11.0711    10.2785    99.4969    67.8516    95.5935
  944.0000   -36.5206    11.0637    10.2520    99.7830    65.2468    91.8553
  944.5000   -35.9386    11.0563    10.2256   100.0690    61.1616    85.1297
  945.0000   -35.3583    11.0489    10.1992   100.3550    62.8010    80.3465
  945.5000   -34.7780    11.0415    10.1727   100.6411    67.1095    75.8059
  946.0000   -34.1976    11.0341    10.1463   100.9271    68.2678    76.8003
  946.5000   -33.6236    11.0267    10.1198   101.2132    67.9790    85.1724
  947.0000   -33.1461    11.0193    10.0934   101.4992    66.8956    92.4489
  947.5000   -33.1009    11.0119    10.0670   101.7852    66.4688    99.0753
  948.0000   -33.2149    11.0045    10.0405   102.0713    68.4447    98.6714
  948.5000   -33.3313    10.9971    10.0279   102.3712    67.9500    96.0412
  949.0000   -33.3679    10.9897    10.0276   102.7018    67.0926    93.4842
  949.5000   -32.7758    10.9823    10.0272   103.0323    70.8096    92.7545
