~VERSION INFORMATION
 VERS.                2.0:   CWLS LOG ASCII STANDARD - VERSION 2.0
 WRAP.                 NO:   ONE LINE PER DEPTH STEP
~WELL INFORMATION
#MNEM.UNIT      DATA TYPE    INFORMATION
#----------   ------------   ------------------------------
 STRT.F         2000.0000:   START DEPTH
 STOP.F         2706.0000:   STOP DEPTH
 STEP.F            0.5000:   STEP LENGTH
 NULL.          -999.2500:   NO VALUE
 COMP. INTEX OIL CO INCORP:   COMPANY
 WELL.    N/A "A" #409-20:   WELL
 FLD .        TEAPOT DOME:   FIELD
 LOC .      S20 T39N R78W:   LOCATION
 CNTY.            NATRONA:   COUNTY
 STAT.            WYOMING:   STATE
 CTRY. UNITED STATES OF AMERICA:   COUNTRY
 SRVC.      NL McCullough:   SERVICE COMPANY
 DATE.        12-SEP-1965:   LOGDATE
 API .       490251021400:   API NUMBER
~CURVE INFORMATION
#MNEM.UNIT       API CODE    CURVE DESCRIPTION
#----------   ------------   ------------------------------
 DEPT.F                  :   
 CALI.IN     70 280 01 00:   CALIPER
 GR  .GAPI   30 310 01 00:   GAMMA RAY
~PARAMETER INFORMATION
#MNEM.UNIT          VALUE    DESCRIPTION
#----------   ------------   ------------------------------
 PD  .                 GL:   PERMANENT DATUM
 LMF .                 GL:   LOG MEASURED FROM
 DATE.            9-12-65:   RUN DATE
 RUN .                  1:   RUN NUMBER
 DL  .F              2708:   DEPTH LOGGER
 BLI .F              2706:   BOTTOM LOG INTERVAL
 TLI .F              2000:   TOP LOG INTERVAL
 CS  .IN            8.625:   CASING SIZE
 CBD .F              2525:   CASING BOTTOM DRILLER
 DFT .                DRY:   DRILLING FLUID TYPE
 TCS .HRS               1:   TIME CURCULATED STOPPED
 ENGI.            JACKSON:   RECORDING ENGINEER
 WITN.          JORGENSEN:   WITNESSED BY
 CLNT.            A2DTECH:   CLIENT CODE
 ORIG.           5" PRINT:   ORIGIN OF DATA
 UWI .       490251021400:   UNIQUE WELL ID
 DICO. A2D Technologies, Inc.:   DIGITIZING COMPANY
~OTHER INFORMATION
~A  DEPT      CALI          GR  
# ...
 2607.5000     9.0318   183.2039
 2608.0000     9.1699   190.9792
 2608.5000     9.1443   190.6891
 2609.0000     9.1232   192.7882
 2609.5000     9.2018   193.0517
 2610.0000     9.1587   195.4853
 2610.5000     9.4650   193.5070
 2611.0000     9.7187   200.7356
 2611.5000     9.8309   196.4521
 2612.0000     9.7857   209.7432
 2612.5000     9.9089   225.5609
 2613.0000    10.3578   236.2953
 2613.5000     9.9783   222.3458
 2614.0000    10.3205   206.1301
 2614.5000    10.5043   193.6143
 2615.0000     9.3925   188.0704
 2615.5000     9.5793   183.7662
 2616.0000     9.7427   183.6683
 2616.5000     9.8792   183.6131
 2617.0000     9.9524   184.2218
 2617.5000     9.7791   182.7306
 2618.0000     9.6124   183.4234
 2618.5000     9.4972   179.1863
 2619.0000     9.3532   187.5693
 2619.5000     9.3409   182.3194
 2620.0000     9.4301   180.0923
 2620.5000     9.4828   177.1193
 2621.0000     9.1723   178.7638
 2621.5000     8.9891   180.6043
 2622.0000     8.9834   174.7278
 2622.5000     9.0262   180.7933
 2623.0000     8.9636   182.3353
 2623.5000     8.9854   179.7701
 2624.0000     9.1700   178.8810
 2624.5000     9.2082   184.4148
 2625.0000     8.7370   175.2580
 2625.5000     8.4284   170.3278
 2626.0000     8.4102   169.3355
 2626.5000     8.3271   171.3970
 2627.0000     8.3648   176.6525
 2627.5000     8.6276   176.1912
 2628.0000     9.0469   177.5357
 2628.5000     9.2809   180.9414
 2629.0000     9.3255   192.7041
 2629.5000     9.2080   198.9011
 2630.0000     9.1583   202.2743
 2630.5000     9.9649   200.9500
 2631.0000     9.1203   203.5409
 2631.5000     9.1574   204.4145
 2632.0000    11.5450   208.6994
 2632.5000    10.1370   213.0201
 2633.0000     8.8566   209.2063
 2633.5000     8.3450   199.3634
 2634.0000     8.3589   178.2826
 2634.5000     8.3350   160.4795
 2635.0000     8.4028   150.0039
 2635.5000     8.2884   150.0554
 2636.0000     8.4161   158.5977
 2636.5000     8.4512   158.5512
 2637.0000     8.5759   152.0909
 2637.5000     9.0907   152.8470
 2638.0000     9.3534   164.0314
 2638.5000     8.8782   150.9855
 2639.0000     8.8245   163.6872
 2639.5000     8.8274   166.4136
 2640.0000     8.8311   170.1239
 2640.5000     8.9108   179.9777
 2641.0000     9.4650   186.5181
 2641.5000     9.4680   183.9722
 2642.0000     9.2261   192.2806
 2642.5000     9.2214   202.0139
 2643.0000     9.3584   214.0894
 2643.5000     9.7301   228.3559
 2644.0000     9.9440   240.8532
 2644.5000     9.5618   252.8006
 2645.0000     9.4135   263.5711
 2645.5000     8.7056   245.9454
 2646.0000     8.2321   213.9727
 2646.5000     8.7263   180.6896
 2647.0000     9.1273   169.1921
 2647.5000     8.9784   165.8934
 2648.0000     9.1065   174.7356
 2648.5000     9.3283   171.2256
 2649.0000     9.1483   171.4873
 2649.5000     9.2063   176.7051
 2650.0000     9.1215   183.2920
 2650.5000     9.5054   189.5846
 2651.0000     9.3600   185.3185
 2651.5000     9.5303   182.9113
 2652.0000     9.3121   184.4569
 2652.5000     9.2844   185.2593
 2653.0000     9.1663   184.0465
 2653.5000     9.3824   184.8908
 2654.0000     9.4758   188.6909
 2654.5000     9.1316   182.0457
 2655.0000     8.6934   186.8020
 2655.5000     9.8282   184.4444
 2656.0000     9.7814   191.1345
 2656.5000    11.4652   191.6393
 2657.0000     9.7442   191.4634
 2657.5000     9.3221   191.2880
 2658.0000     9.2711   193.6615
 2658.5000     9.4874   200.3390
 2659.0000     9.4045   203.0109
 2659.5000     9.5155   196.1378
 2660.0000    11.0071   210.4779
 2660.5000    11.9160   215.6088
 2661.0000    11.3731   211.6089
 2661.5000    11.2235   214.6171
 2662.0000    11.7538   208.9565
 2662.5000    10.3999   215.3077
 2663.0000    11.1850   209.2342
 2663.5000    13.1509   198.1014
 2664.0000    14.9450   194.9842
 2664.5000    10.7250   200.2268
 2665.0000     9.6650   198.1125
 2665.5000    10.3150   208.4153
 2666.0000     8.1588   195.9498
 2666.5000     8.3783   196.6456
 2667.0000     8.0607   192.2244
 2667.5000     8.0811   182.9198
 2668.0000     7.9992   187.4424
 2668.5000     8.0225   187.5180
 2669.0000     8.9184   191.9529
 2669.5000     8.1175   195.9544
 2670.0000     8.0204   202.8026
 2670.5000     8.0196   200.6044
 2671.0000     9.7135   194.9960
 2671.5000     9.2298   190.8208
 2672.0000     8.6799   188.2796
 2672.5000     8.4436   191.3658
 2673.0000     9.3769   183.3627
 2673.5000     9.0075   177.1155
 2674.0000    10.1853   177.3246
 2674.5000    10.3200   171.4357
 2675.0000     9.9940   166.1059
 2675.5000    12.8050   153.9777
 2676.0000    10.8650   139.9964
 2676.5000    11.8950   142.2499
 2677.0000    11.1450   135.2766
 2677.5000    10.2252   133.0291
 2678.0000     9.0050   123.0581
 2678.5000     8.7863   122.5711
 2679.0000     8.6681   117.8148
 2679.5000     9.0329   106.0311
 2680.0000     9.0947   102.3722
 2680.5000     9.4034    99.9847
 2681.0000    10.0662   100.2322
 2681.5000     9.6450    98.6774
 2682.0000    10.1748   100.2972
 2682.5000     9.3903    92.2316
 2683.0000     8.9602    89.0714
 2683.5000     9.2589    84.4272
 2684.0000     9.0058    87.4361
 2684.5000    10.0300    88.4571
 2685.0000    10.0274    92.4623
 2685.5000     9.8011    91.9735
 2686.0000     9.9909   100.1411
 2686.5000     9.2469    94.2956
 2687.0000     9.5492    91.5891
 2687.5000     9.7382    98.0500
 2688.0000     9.3746   101.5660
 2688.5000     9.9041   100.1871
 2689.0000     9.4761   101.9751
 2689.5000     9.0866   106.8086
 2690.0000     9.1904   101.8310
 2690.5000     9.0403    96.3747
 2691.0000     9.3420    98.7385
 2691.5000     9.7450   108.1741
 2692.0000     9.3545   102.7598
 2692.5000     9.0799   108.8334
 2693.0000     9.4695   110.5772
 2693.5000     8.9412   112.8401
 2694.0000     8.8758    98.2533
 2694.5000     9.0559   105.5313
 2695.0000     8.9422   102.0129
 2695.5000     8.9955    93.8057
 2696.0000     9.4468    88.4490
 2696.5000     9.0090    91.6634
 2697.0000     8.7379    92.7306
 2697.5000     9.1621    92.4603
 2698.0000     9.5724    91.5079
 2698.5000     9.0910    92.6705
 2699.0000     9.5407    92.5628
 2699.5000     9.3041    88.4927
 2700.0000     9.1029    88.5437
 2700.5000     8.9083    87.0957
 2701.0000     8.7462    88.1441
 2701.5000     8.5173    89.8223
 2702.0000     8.1540    87.7944
 2702.5000     8.7662    86.6305
 2703.0000     7.9330    84.8397
 2703.5000     8.0176    84.5598
 2704.0000     8.0755    82.1740
 2704.5000  -999.2500    80.9452
 2705.0000  -999.2500    83.3383
 2705.5000  -999.2500    87.0775
 2706.0000  -999.2500    82.6556
