~VERSION INFORMATION
 VERS.                2.0:   CWLS LOG ASCII STANDARD - VERSION 2.0
 WRAP.                 NO:   ONE LINE PER DEPTH STEP
~WELL INFORMATION
#MNEM.UNIT      DATA TYPE    INFORMATION
#----------   ------------   ------------------------------
 STRT.F           36.0000:   START DEPTH
 STOP.F         3160.0000:   STOP DEPTH
 STEP.F            0.5000:   STEP LENGTH
 NULL.          -999.2500:   NO VALUE
 COMP.    FENIX & SCISSON:   COMPANY
 WELL.        NPR-3 #28-3:   WELL
 FLD .             TEAPOT:   FIELD
 LOC .       S3 T38N R78W:   LOCATION
 CNTY.            NATRONA:   COUNTY
 STAT.            WYOMING:   STATE
 CTRY. UNITED STATES OF AMERICA:   COUNTRY
 SRVC.            Unknown:   SERVICE COMPANY
 DATE.        01-JUL-1978:   LOGDATE
 API .       490251066500:   API NUMBER
~CURVE INFORMATION
#MNEM.UNIT       API CODE    CURVE DESCRIPTION
#----------   ------------   ------------------------------
 DEPT.F                  :   
 ILD .OHMM   05 120 46 00:   INDUCTION LOG DEEP
 SN  .OHMM   05 040 16 00:   SHORT NORMAL 16"
 SPR .MV     05 010 01 00:   SPONTANEOUS POTENTIAL FROM RES.
 CALD.IN     45 280 60 00:   CALIPER FROM DENSITY LOG
 CORR.G/C3   45 356 01 00:   DENSITY CORRECTION
 DPHI.DEC    45 890 12 00:   DENSITY POROSITY SANDSTONE
 GRD .GAPI   45 310 01 00:   GAMMA RAY FROM DENSITY LOG
 RHOB.G/C3   45 350 01 00:   BULK DENSITY
 GR  .GAPI   30 310 01 00:   GAMMA RAY
~PARAMETER INFORMATION
#MNEM.UNIT          VALUE    DESCRIPTION
#----------   ------------   ------------------------------
 PD  .                 GL:   PERMANENT DATUM
 EPD .F              5264:   ELEVATION PERMANENT DATUM
 LMF .                 KB:   LOG MEASURED FROM
 DAPD.F                 4:   FEET ABOVE PERMANENT DATUM
 DMF .                 KB:   DRILLING MEASURED FROM
 EKB .F              5268:   KELLING BUSHING
 EGL .F              5264:   GROUND LEVEL
 DATE.        01-JUL-1978:   RUN DATE
 RUN .                  1:   RUN NUMBER
 DD  .F               630:   DEPTH DRILLER
 DL  .F               636:   DEPTH LOGGER
 BLI .F               630:   BOTTOM LOG INTERVAL
 TLI .F                50:   TOP LOG INTERVAL
 CS  .IN            8.625:   CASING SIZE
 CBD .F                40:   CASING BOTTOM DRILLER
 BS  .IN            7.875:   BIT SIZE
 BSD .F               630:   BIT SIZE AT DEPTH
 DFT .                KCL:   DRILLING FLUID TYPE
 DFD .                8.6:   DRILLING FLUID DENSITY
 DFV .                 32:   DRILLING FLUID VISCOSITY
 DFPH.                9.5:   DRILLING FLUID PH
 MSS .           FLOWLINE:   MUD SAMPLE SOURCE
 BHT .F                74:   BOTTOM HOLE TEMPERATURE
 TCS .HRS               1:   TIME CURCULATED STOPPED
 MRT .F                74:   MAXIMUM RECORDED TEMPERATURE
 LUN .               2958:   LOGGING UNIT NUMBER
 LUL .               CASP:   LOGGING UNIT LOCATION
 ENGI.             MILLER:   RECORDING ENGINEER
 WITN.           MCGINLEY:   WITNESSED BY
 CLNT.            A2DTECH:   CLIENT CODE
 ORIG.        2" 5" PRINT:   ORIGIN OF DATA
 UWI .       490251066500:   UNIQUE WELL ID
 DICO. A2D Technologies, Inc.:   DIGITIZING COMPANY
~OTHER INFORMATION
~A   DEPT      ILD         SN        SPR       CALD       CORR       DPHI         GRD      RHOB         GR   
   36.0000  -999.2500  -999.2500  -999.2500  -999.2500  -999.2500  -999.2500    52.9429  -999.2500  -999.2500
   36.5000  -999.2500  -999.2500  -999.2500  -999.2500  -999.2500  -999.2500    54.8991  -999.2500  -999.2500
   37.0000  -999.2500  -999.2500  -999.2500  -999.2500  -999.2500  -999.2500    58.4996  -999.2500  -999.2500
   37.5000  -999.2500  -999.2500  -999.2500  -999.2500  -999.2500  -999.2500    59.4096  -999.2500  -999.2500
   38.0000  -999.2500  -999.2500  -999.2500  -999.2500  -999.2500  -999.2500    59.8711  -999.2500  -999.2500
   38.5000  -999.2500  -999.2500  -999.2500  -999.2500  -999.2500  -999.2500    57.0441  -999.2500  -999.2500
   39.0000  -999.2500  -999.2500  -999.2500  -999.2500  -999.2500  -999.2500    55.8646  -999.2500  -999.2500
   39.5000  -999.2500  -999.2500  -999.2500  -999.2500  -999.2500  -999.2500    54.3829  -999.2500  -999.2500
   40.0000  -999.2500  -999.2500  -999.2500  -999.2500  -999.2500  -999.2500    56.4886  -999.2500  -999.2500
   40.5000  -999.2500  -999.2500  -999.2500  -999.2500  -999.2500  -999.2500    58.5943  -999.2500  -999.2500
   41.0000  -999.2500  -999.2500  -999.2500  -999.2500  -999.2500  -999.2500    53.3757  -999.2500  -999.2500
   41.5000  -999.2500  -999.2500  -999.2500  -999.2500  -999.2500  -999.2500    55.1825  -999.2500  -999.2500
   42.0000  -999.2500  -999.2500  -999.2500  -999.2500  -999.2500  -999.2500    57.5097  -999.2500  -999.2500
   42.5000  -999.2500  -999.2500  -999.2500  -999.2500  -999.2500  -999.2500    59.8424  -999.2500  -999.2500
   43.0000  -999.2500  -999.2500  -999.2500  -999.2500  -999.2500  -999.2500    56.1218  -999.2500  -999.2500
   43.5000  -999.2500  -999.2500  -999.2500  -999.2500  -999.2500  -999.2500    55.6832  -999.2500  -999.2500
   44.0000  -999.2500  -999.2500  -999.2500  -999.2500  -999.2500  -999.2500    59.8848  -999.2500  -999.2500
   44.5000  -999.2500  -999.2500  -999.2500  -999.2500  -999.2500  -999.2500    62.8874  -999.2500  -999.2500
   45.0000  -999.2500  -999.2500  -999.2500  -999.2500  -999.2500  -999.2500    63.6479  -999.2500  -999.2500
   45.5000  -999.2500  -999.2500  -999.2500  -999.2500  -999.2500  -999.2500    62.7641  -999.2500  -999.2500
   46.0000  -999.2500  -999.2500  -999.2500  -999.2500  -999.2500  -999.2500    54.6696  -999.2500  -999.2500
   46.5000  -999.2500  -999.2500  -999.2500  -999.2500  -999.2500  -999.2500    54.4195  -999.2500  -999.2500
   47.0000  -999.2500  -999.2500  -999.2500  -999.2500  -999.2500  -999.2500    55.1832  -999.2500  -999.2500
   47.5000  -999.2500  -999.2500  -999.2500  -999.2500  -999.2500  -999.2500    55.0435  -999.2500  -999.2500
   48.0000  -999.2500  -999.2500  -999.2500  -999.2500  -999.2500  -999.2500    55.0599  -999.2500  -999.2500
   48.5000  -999.2500  -999.2500  -999.2500  -999.2500  -999.2500  -999.2500    54.7740  -999.2500  -999.2500
   49.0000  -999.2500  -999.2500  -999.2500  -999.2500  -999.2500  -999.2500    54.6343  -999.2500  -999.2500
   49.5000  -999.2500  -999.2500  -999.2500  -999.2500  -999.2500  -999.2500    54.8001  -999.2500  -999.2500
   50.0000  -999.2500  -999.2500  -999.2500     8.0344     0.0179     0.1533    55.1121     2.2030  -999.2500
   50.5000  -999.2500     4.1530  -999.2500     7.9315     0.0391     0.2696    62.2586     2.3299  -999.2500
   51.0000  -999.2500     4.1530  -999.2500     7.7984     0.0405     0.1955    65.1564     2.3054  -999.2500
   51.5000  -999.2500     4.1244    -8.1288     7.7696     0.0258     0.2039    63.8242     2.3331  -999.2500
   52.0000  -999.2500     5.8667    -8.2787     7.8013     0.0080     0.2105    62.6415     2.3578  -999.2500
   52.5000  -999.2500    10.0567    -6.8997     7.8475     0.0036     0.2035    61.9071     2.3362  -999.2500
   53.0000  -999.2500     9.9874    -4.7008     7.8942     0.0052     0.1879    61.4718     2.3386  -999.2500
   53.5000  -999.2500    11.2440    -4.2556     7.9105     0.0098     0.1831    65.8197     2.3670  -999.2500
   54.0000    16.7509    11.9529    -4.2644     7.8970     0.0159     0.1705    67.7759     2.3947  -999.2500
   54.5000    16.4046    12.1192    -4.1212     7.8831     0.0250     0.1620    66.2706     2.4127  -999.2500
   55.0000    16.2894    12.1192    -3.9781     7.8550     0.0355     0.1980    66.0083     2.4083  -999.2500
   55.5000    16.1751    12.1192    -3.6848     7.7671     0.0341     0.2018    67.5194     2.3827  -999.2500
   56.0000    16.3975    12.1192    -3.6937     7.6639     0.0103     0.2141    69.0272     2.3486  -999.2500
   56.5000    16.6240    12.1192    -4.0026     7.4859     0.0060     0.2216    69.1898     2.3257  -999.2500
   57.0000    16.8531    12.1192    -4.1598     7.3229     0.0106     0.2224    69.5018     2.3153  -999.2500
   57.5000    17.3225    12.1192    -4.3170     7.2048     0.0152     0.2200    70.5612     2.3214  -999.2500
   58.0000    17.6829    12.1192    -4.4759     7.1169     0.0169     0.2181    71.3216     2.3237  -999.2500
   58.5000    17.9266    12.1192    -4.4829     7.0735     0.0170     0.2142    71.4843     2.3133  -999.2500
   59.0000    17.6781    12.1192    -4.3397     7.0446     0.0171     0.2091    71.3244     2.3231  -999.2500
   59.5000    17.3127    12.1192    -4.1892     7.0165     0.0172     0.2013    70.3177     2.3344  -999.2500
   60.0000    16.8385    12.1192    -2.8540     6.9880     0.0233     0.1931    69.1350     2.3449  -999.2500
   60.5000    16.4909    12.1192    -1.2094     6.9898     0.0324     0.1928    68.1017     2.3577  -999.2500
   61.0000    16.1504    12.1192     0.1350     6.9912     0.0355     0.2015    67.8126     2.3652  -999.2500
   61.5000    15.8170    12.0358     4.1803     7.0226     0.0341     0.2048    70.0710     2.3456  -999.2500
   62.0000    15.2485    12.0358     7.3264     7.0838     0.0357     0.1963    72.7747     2.3326  -999.2500
   62.5000    14.2555    12.0358    10.7728     7.2048     0.0418     0.1879    72.4888     2.3633  -999.2500
   63.0000    13.4871    11.8706    15.7508     7.3261     0.0464     0.1858    71.4380     2.3686  -999.2500
   63.5000    12.4123    11.7037    19.1655     7.4173     0.0510     0.1842    71.1696     2.3746  -999.2500
   64.0000    11.2664    11.3101    20.9603     7.4486     0.0511     0.1723    71.3354     2.3859  -999.2500
   64.5000    10.2262    10.8508    20.5028     7.4350     0.0378     0.1647    71.6474     2.4039  -999.2500
   65.0000     9.0834    10.3385    19.7433     7.4365     0.0111     0.1712    72.8563     2.4017  -999.2500
   65.5000     7.9718     9.7826    19.1357     7.4681     0.0022     0.1652    76.4568     2.4033  -999.2500
   66.0000     7.5421     9.1295    18.3779     7.5443     0.0008     0.1607    81.1037     2.4131  -999.2500
   66.5000     7.3356     8.5200    17.7678     7.5756     0.0024     0.1588    86.1989     2.4184  -999.2500
   67.0000     7.0855     8.1121    16.7105     7.5920     0.0011     0.1630    88.1555     2.4176  -999.2500
   67.5000     6.9392     7.7880    15.8026     7.6084    -0.0003     0.1633    88.4705     2.4133  -999.2500
   68.0000     6.9383     7.5236    14.8947     7.5952    -0.0017     0.1623    89.2309     2.4134  -999.2500
   68.5000     6.9374     7.2681    13.8348     7.5966    -0.0015     0.1617    90.2903     2.4157  -999.2500
   69.0000     6.9846     7.2180    12.9269     7.5980    -0.0014     0.1614    91.0508     2.4166  -999.2500
   69.5000     6.8876     7.1683    12.0190     7.5995     0.0002     0.1635    91.3628     2.4151  -999.2500
   70.0000     6.8392     7.0700    11.1111     7.6009     0.0003     0.1658    91.5253     2.4137  -999.2500
   70.5000     6.7912     7.0700     9.9011     7.5877     0.0004     0.1655    91.5384     2.4041  -999.2500
   71.0000     6.7903     7.1190     8.8431     7.5738     0.0020     0.1670    91.5516     2.4072  -999.2500
   71.5000     6.7927     7.1190     8.0853     7.5603     0.0066     0.1648    91.5650     2.4043  -999.2500
   72.0000     6.8828     7.1683     7.3073     7.5468     0.0142     0.1618    90.3850     2.4053  -999.2500
