~VERSION INFORMATION
 VERS.                2.0:   CWLS LOG ASCII STANDARD - VERSION 2.0
 WRAP.                 NO:   ONE LINE PER DEPTH STEP
~WELL INFORMATION
#MNEM.UNIT      DATA TYPE    INFORMATION
#----------   ------------   ------------------------------
 STRT.F            0.0000:   START DEPTH
 STOP.F         1027.0000:   STOP DEPTH
 STEP.F            0.1000:   STEP LENGTH
 NULL.          -999.2500:   NO VALUE
 COMP.       F D SERV INC:   COMPANY
 WELL.   77-1 X 27 #77-27:   WELL
 FLD .             TEAPOT:   FIELD
 LOC .      S27 T39N R78W:   LOCATION
 CNTY.            NATRONA:   COUNTY
 STAT.            WYOMING:   STATE
 CTRY. UNITED STATES OF AMERICA:   COUNTRY
 SRVC.      Western Atlas:   SERVICE COMPANY
 DATE.        04-NOV-1991:   LOGDATE
 API .       490252248600:   API NUMBER
~CURVE INFORMATION
#MNEM.UNIT       API CODE    CURVE DESCRIPTION
#----------   ------------   ------------------------------
 DEPT.F                  :   
 GRR .GAPI   07 310 01 00:   GAMMA RAY
 RILD.OHMM   07 120 46 00:   INDUCTION LOG DEEP RESISTIVITY
 RFOC.OHMM   07 220 04 00:   RESISTIVITY FOCUSED LOG
 RILM.OHMM   07 120 44 00:   INDUCTION LOG MEDIUM RESISTIVITY
 SPR .MV     07 010 01 00:   SPONTANEOUS POTENTIAL
~PARAMETER INFORMATION
#MNEM.UNIT          VALUE    DESCRIPTION
#----------   ------------   ------------------------------
 PD  .                 GL:   PERMANENT DATUM
 EPD .F              5077:   ELEVATION PERMANENT DATUM
 LMF .                 KB:   LOG MEASURED FROM
 DAPD.F                10:   FEET ABOVE PERMANENT DATUM
 DMF .                 KB:   DRILLING MEASURED FROM
 EKB .F              5087:   KELLING BUSHING
 EDF .F              5086:   DRILLING FLOOR
 EGL .F              5077:   GROUND LEVEL
 DATE.        04-NOV-1991:   RUN DATE
 RUN .                  1:   RUN NUMBER
 DD  .F              1030:   DEPTH DRILLER
 DL  .F              1030:   DEPTH LOGGER
 BLI .F              1027:   BOTTOM LOG INTERVAL
 CS  .IN            9.625:   CASING SIZE
 CBD .F                50:   CASING BOTTOM DRILLER
 CBL .F                52:   CASING BOTTOM LOGGER
 BS  .IN             8.75:   BIT SIZE
 BSD .F              1030:   BIT SIZE AT DEPTH
 DFT .          KCL WATER:   DRILLING FLUID TYPE
 MSS .           FLOWLINE:   MUD SAMPLE SOURCE
 RMS .OHMM            .24:   RESISTIVITY MUD SAMPLE
 MST .F                72:   MUD SAMPLE TEMPERATURE
 RMB .OHMM            .19:   RESISTIVITY MUD AT BHT
 BHT .F                90:   BOTTOM HOLE TEMPERATURE
 TCS .HRS               2:   TIME CURCULATED STOPPED
 MRT .F                90:   MAXIMUM RECORDED TEMPERATURE
 LUN .            HL-6274:   LOGGING UNIT NUMBER
 LUL .             CASPER:   LOGGING UNIT LOCATION
 ENGI.             RAUTIO:   RECORDING ENGINEER
 WITN.             STRONG:   WITNESSED BY
 CLNT.            A2DTECH:   CLIENT CODE
 ORIG.           5" PRINT:   ORIGIN OF DATA
 UWI .       490252248600:   UNIQUE WELL ID
 DICO. A2D Technologies, Inc.:   DIGITIZING COMPANY
~OTHER INFORMATION
~A    DEPT      GRR      RILD       RFOC       RILM        SPR   
# ...
  183.0000    93.4955     4.9849     5.5984     4.6485   -25.1018
  183.1000    93.1265     4.9992     5.5665     4.5957   -25.1128
  183.2000    92.8599     5.0193     5.5258     4.5654   -25.2502
  183.3000    92.7391     5.0192     5.4651     4.5601   -25.3583
  183.4000    92.7877     5.0190     5.4296     4.5339   -25.4811
  183.5000    93.1910     5.0435     5.4030     4.5598   -25.5479
  183.6000    93.7006     5.0537     5.3526     4.5656   -25.5473
  183.7000    93.9973     5.0535     5.2918     4.5952   -25.5467
  183.8000    94.3653     5.0534     5.2316     4.6296   -25.5460
  183.9000    94.9222     5.0533     5.1722     4.6296   -25.6457
  184.0000    95.4910     5.0817     5.1427     4.6297   -25.6946
  184.1000    96.3429     5.0882     5.1134     4.6297   -25.6940
  184.2000    96.9752     5.0880     5.0677     4.6298   -25.6934
  184.3000    97.4804     5.0780     5.0307     4.6429   -25.6928
  184.4000    97.7731     5.0526     5.0265     4.6622   -25.6922
  184.5000    97.9596     5.0524     4.9960     4.6639   -25.6916
  184.6000    98.1461     5.0523     4.9960     4.6948   -25.6255
  184.7000    98.3326     5.0521     4.9960     4.7406   -25.5407
  184.8000    98.3731     5.0520     4.9960     4.7778   -25.5401
  184.9000    98.4811     5.0519     4.9960     4.8052   -25.5395
  185.0000    98.5329     5.0517     4.9983     4.8272   -25.5389
  185.1000    98.3769     5.0516     5.0307     4.8273   -25.5383
  185.2000    98.3785     5.0514     5.0307     4.8547   -25.4806
  185.3000    98.2060     5.0513     5.0496     4.8611   -25.3567
  185.4000    98.1566     5.0512     5.0785     4.8457   -25.2371
  185.5000    97.9678     5.0510     5.1143     4.8276   -25.2364
  185.6000    97.5431     5.0509     5.1730     4.8241   -25.1345
  185.7000    96.9726     5.0507     5.2326     4.7943   -25.0856
  185.8000    96.1412     5.0506     5.2928     4.7944   -25.0363
  185.9000    95.6560     5.0354     5.3536     4.7897   -24.9347
  186.0000    94.9791     5.0154     5.4151     4.7829   -24.9341
  186.1000    94.1563     5.0153     5.4824     4.7761   -24.9335
  186.2000    93.1878     5.0151     5.5823     4.7694   -24.9329
  186.3000    92.0827     5.0170     5.6430     4.7615   -24.9323
  186.4000    90.9847     5.0191     5.7079     4.7388   -24.9317
  186.5000    90.2336     5.0212     5.7564     4.7118   -24.9311
  186.6000    89.7533     5.0234     5.7793     4.6961   -24.9305
  186.7000    89.5695     5.0255     5.7793     4.6962   -24.8190
  186.8000    89.4177     5.0276     5.7793     4.6962   -24.7796
  186.9000    89.6439     5.0297     5.7793     4.6700   -24.7790
  187.0000    89.8233     5.0319     5.7793     4.6639   -24.8104
  187.1000    90.0099     5.0340     5.7793     4.6788   -24.9276
  187.2000    90.2958     5.0361     5.7715     4.6965   -24.9268
  187.3000    90.6075     5.0382     5.7393     4.6966   -24.9264
  187.4000    90.8353     5.0404     5.7393     4.6966   -24.9258
  187.5000    91.4485     5.0425     5.7129     4.6967   -24.9251
  187.6000    91.7826     5.0446     5.6997     4.7155   -24.9246
  187.7000    92.1543     5.0467     5.6750     4.7426   -24.9239
  187.8000    92.3506     5.0478     5.6158     4.7625   -24.9234
  187.9000    92.4486     5.0548     5.5823     4.7640   -24.9228
  188.0000    92.8114     5.0836     5.5519     4.7958   -24.9222
  188.1000    93.0285     5.1179     5.4971     4.8190   -24.9216
  188.2000    93.1844     5.1177     5.4509     4.8294   -24.9210
  188.3000    93.4863     5.1176     5.4199     4.8294   -24.9203
  188.4000    93.7820     5.1175     5.3859     4.8295   -25.0319
  188.5000    93.9686     5.1173     5.3178     4.8296   -25.0689
  188.6000    94.1578     5.1172     5.3178     4.8296   -25.1277
  188.7000    94.5242     5.1170     5.2974     4.8297   -25.2505
  188.8000    94.8959     5.1169     5.2810     4.8298   -25.3665
  188.9000    95.1638     5.1167     5.2885     4.8391   -25.3658
  189.0000    95.3503     5.1254     5.3178     4.8635   -25.4691
  189.1000    95.5619     5.1521     5.3178     4.8636   -25.4369
  189.2000    95.9624     5.1519     5.3178     4.8890   -25.3641
  189.3000    96.3053     5.1773     5.3178     4.8976   -25.3387
  189.4000    96.6770     5.1875     5.3178     4.9111   -25.2132
  189.5000    97.0487     5.1874     5.3178     4.9319   -25.2126
  189.6000    97.4204     5.1872     5.3178     4.9333   -25.2120
  189.7000    97.8054     5.1871     5.3178     4.9664   -25.1423
  189.8000    98.4406     5.1869     5.3178     4.9664   -25.0611
  189.9000    98.6009     5.1868     5.3178     4.9665   -25.0605
  190.0000    98.9072     5.1866     5.3178     4.9781   -25.0598
  190.1000    99.2789     5.1865     5.3178     5.0012   -25.0593
  190.2000    99.6096     5.1863     5.3178     5.0013   -25.0587
  190.3000    99.7961     5.1862     5.3178     5.0293   -25.0581
  190.4000    99.9827     5.1861     5.3178     5.0363   -25.0575
  190.5000   100.1692     5.1859     5.3178     5.0363   -25.0569
  190.6000   100.2476     5.1858     5.3178     5.0364   -25.0562
  190.7000   100.3177     5.1856     5.3178     5.0365   -25.0557
  190.8000   100.4748     5.1855     5.3178     5.0366   -25.1337
  190.9000   100.4763     5.1853     5.3178     5.0366   -25.2042
  191.0000   100.4775     5.1852     5.3178     5.0367   -25.2036
  191.1000   100.4789     5.1850     5.3178     5.0368   -25.2030
  191.2000   100.4802     5.1968     5.3178     5.0368   -25.2024
  191.3000   100.4816     5.2209     5.3178     5.0369   -25.2018
  191.4000   100.4829     5.2207     5.3178     5.0370   -25.1309
  191.5000   100.4844     5.2495     5.3178     5.0370   -25.0509
  191.6000   100.3222     5.2567     5.3178     5.0371   -25.0503
  191.7000   100.1383     5.2566     5.3178     5.0372   -25.0497
  191.8000    99.9545     5.2565     5.3498     5.0373   -25.0491
  191.9000    99.7707     5.2594     5.4113     5.0373   -25.0485
  192.0000    99.5868     5.2927     5.4674     5.0374   -25.0479
  192.1000    99.3699     5.2926     5.4674     5.0375   -25.0473
  192.2000    99.2192     5.2723     5.5229     5.0375   -25.0467
  192.3000    98.9229     5.2557     5.5650     5.0376   -25.0460
  192.4000    98.5539     5.2556     5.5969     5.0344   -25.1517
  192.5000    98.1849     5.2554     5.6369     5.0029   -25.1946
  192.6000    97.8045     5.2553     5.7016     5.0030   -25.1940
  192.7000    97.0879     5.2531     5.7793     4.9835   -25.2206
  192.8000    96.3485     5.2504     5.7793     4.9685   -25.3425
  192.9000    95.5084     5.2477     5.7992     4.9614   -25.3419
  193.0000    94.6452     5.2450     5.8195     4.9331   -25.3413
  193.1000    93.8839     5.2423     5.8253     4.9002   -25.3407
  193.2000    92.8726     5.2396     5.8600     4.9003   -25.3852
  193.3000    91.8670     5.2369     5.8600     4.8833   -25.4893
  193.4000    90.2435     5.2342     5.8600     4.8555   -25.4886
  193.5000    88.3931     5.2315     5.8600     4.8329   -25.4880
  193.6000    86.8408     5.2287     5.8600     4.8330   -25.4874
  193.7000    86.1323     5.2260     5.8529     4.8331   -25.4868
  193.8000    85.9197     5.2233     5.7793     4.8331   -25.4862
  193.9000    86.0769     5.2206     5.7793     4.8481   -25.4960
  194.0000    86.2635     5.2179     5.7347     4.8669   -25.6347
  194.1000    86.5274     5.2350     5.6695     4.8700   -25.6341
  194.2000    86.8611     5.2648     5.6050     4.9010   -25.6335
  194.3000    87.0490     5.2894     5.5413     4.9010   -25.6329
  194.4000    87.6018     5.2892     5.4674     4.9202   -25.6040
  194.5000    88.1586     5.3181     5.4161     4.9485   -25.4800
  194.6000    88.7155     5.3257     5.3546     4.9697   -25.3316
  194.7000    89.2067     5.3256     5.3178     4.9698   -25.3311
  194.8000    89.5784     5.3254     5.3122     4.9699   -25.4032
  194.9000    89.9763     5.3253     5.2810     4.9934   -25.4796
  195.0000    90.1497     5.3251     5.2518     5.0221   -25.4790
  195.1000    90.2034     5.3518     5.2445     5.0396   -25.4784
