~VERSION INFORMATION
 VERS.                2.0:   CWLS LOG ASCII STANDARD - VERSION 2.0
 WRAP.                 NO:   ONE LINE PER DEPTH STEP
~WELL INFORMATION
#MNEM.UNIT      DATA TYPE    INFORMATION
#----------   ------------   ------------------------------
 STRT.F           90.0000:   START DEPTH
 STOP.F          712.0000:   STOP DEPTH
 STEP.F            0.5000:   STEP LENGTH
 NULL.          -999.2500:   NO VALUE
 COMP. U S NAVY-INTEX OIL:   COMPANY
 WELL. RES 3 TEAPOT DOM #76S-34:   WELL
 FLD .             TEAPOT:   FIELD
 LOC .      S34 T39N R78W:   LOCATION
 CNTY.            NATRONA:   COUNTY
 STAT.            WYOMING:   STATE
 CTRY. UNITED STATES OF AMERICA:   COUNTRY
 SRVC.       Schlumberger:   SERVICE COMPANY
 DATE.        08-AUG-1961:   LOGDATE
 API .       490250651700:   API NUMBER
~CURVE INFORMATION
#MNEM.UNIT       API CODE    CURVE DESCRIPTION
#----------   ------------   ------------------------------
 DEPT.F                  :   
 SPR .MV     05 010 01 00:   SPONTANEOUS POTENTIAL FROM RES.
 ASN .OHMM   05 041 16 00:   AMPLIFIED SHORT NORMAL 16"
 CILD.MMHO   05 110 46 00:   CONDUCTIVITY INDUCTION LOG DEEP
 ILD .OHMM   05 120 46 00:   INDUCTION LOG DEEP
~PARAMETER INFORMATION
#MNEM.UNIT          VALUE    DESCRIPTION
#----------   ------------   ------------------------------
 LMF .                 KB:   LOG MEASURED FROM
 DMF .                 KB:   DRILLING MEASURED FROM
 EKB .F              5092:   KELLING BUSHING
 EGL .F              5087:   GROUND LEVEL
 DATE.        08-AUG-1961:   RUN DATE
 RUN .                  1:   RUN NUMBER
 DD  .F               710:   DEPTH DRILLER
 DL  .F               713:   DEPTH LOGGER
 BLI .F               712:   BOTTOM LOG INTERVAL
 TLI .F               100:   TOP LOG INTERVAL
 BS  .IN             6.75:   BIT SIZE
 BSD .F               710:   BIT SIZE AT DEPTH
 DFT .       OIL EMULSION:   DRILLING FLUID TYPE
 DFD .               10.4:   DRILLING FLUID DENSITY
 DFV .                 45:   DRILLING FLUID VISCOSITY
 RMS .OHMM           1.21:   RESISTIVITY MUD SAMPLE
 MST .F                78:   MUD SAMPLE TEMPERATURE
 TCS .HRS               1:   TIME CURCULATED STOPPED
 LUN .               2544:   LOGGING UNIT NUMBER
 LUL .                 NC:   LOGGING UNIT LOCATION
 ENGI.             QUINBY:   RECORDING ENGINEER
 WITN.          JORGENSON:   WITNESSED BY
 CLNT.            A2DTECH:   CLIENT CODE
 ORIG.      2" , 5" PRINT:   ORIGIN OF DATA
 UWI .       490250651700:   UNIQUE WELL ID
 DICO. A2D Technologies, Inc.:   DIGITIZING COMPANY
~OTHER INFORMATION
~A   DEPT      SPR        ASN       CILD        ILD   
# ...
  309.0000   -47.2067    11.2676    79.1903     9.9615
  309.5000   -47.0519    11.2195    79.8297     9.8826
  310.0000   -46.8965    11.1724    80.7390     9.8509
  310.5000   -46.7409    11.0329    80.7874     9.7249
  311.0000   -46.3960    10.9999    82.2877     9.7245
  311.5000   -45.8950    10.8764    83.8501     9.7241
  312.0000   -45.4923    10.8273    83.8354     9.6452
  312.5000   -45.2717    10.7802    86.8384     9.6121
  313.0000   -45.1818    10.7199    88.6294     9.5659
  313.5000   -45.1834    10.6859    91.1413     9.4677
  314.0000   -45.3772    10.6416    93.6530     9.3904
  314.5000   -45.6569    10.6416    94.7838     9.2507
  315.0000   -46.0397    10.6416    96.3443     9.2504
  315.5000   -46.2983    10.6416    98.0437     9.2500
  316.0000   -46.7022    10.6416    99.4654     9.2496
  316.5000   -46.7983    10.6416   101.0281     9.2492
  317.0000   -46.9186    10.6926   102.5858     9.2488
  317.5000   -46.9201    10.7398   102.5747     9.2484
  318.0000   -46.9216    10.8764   102.5629     9.2439
  318.5000   -46.9232    10.9905   100.9767     9.1692
  319.0000   -46.6865    11.1894   100.9670     9.1688
  319.5000   -46.1428    11.1111   100.9547     9.1683
  320.0000   -45.6844    11.0120    99.3711     9.1680
  320.5000   -45.3401    10.7981    97.7869     9.0891
  321.0000   -44.9446    10.5678    97.7733     9.0358
  321.5000   -44.8947    10.2388    98.3110     8.9313
  322.0000   -44.7399     9.9880    99.3239     8.8524
  322.5000   -44.9739    10.0593   101.7623     8.6977
  323.0000   -45.0836    10.3286   104.5309     8.6026
  323.5000   -45.5285    10.2908   110.2931     8.3017
  324.0000   -45.7325    10.0880   114.6017     8.0984
  324.5000   -46.0017     9.9793   119.7050     7.8300
  325.0000   -46.1599     9.8037   124.6724     7.5942
  325.5000   -46.1614     9.4053   129.7079     7.4287
  326.0000   -46.0066     8.9764   135.3916     7.3579
  326.5000   -45.8025     8.4524   137.5800     7.3575
  327.0000   -45.6959     8.2629   140.0865     7.3571
  327.5000   -45.3030     8.2582   138.5023     7.5543
  328.0000   -45.0533     8.2629   136.2473     7.6892
  328.5000   -44.7605     8.3816   132.1881     7.8269
  329.0000   -44.7618     8.6212   127.7017     7.9835
  329.5000   -44.9201     8.9515   122.6874     8.1401
  330.0000   -44.9216     9.2919   119.1562     8.2234
  330.5000   -45.1014     9.6401   114.4719     8.2963
  331.0000   -45.3952     9.8306   110.1168     8.2959
  331.5000   -45.6071     9.9596   107.8290     8.1901
  332.0000   -45.7117    10.0442   106.9501     8.1381
  332.5000   -45.9561    10.0395   112.1527     8.0161
  333.0000   -46.0522     9.7809   117.1883     7.9804
  333.5000   -46.1868     9.4407   122.6366     8.1369
  334.0000   -46.1881     9.3228   125.7704     8.1931
  334.5000   -46.1897     9.2801   127.3316     8.2932
  335.0000   -46.1912     9.2855   122.5999     8.4498
  335.5000   -46.1928     9.3271   118.5391     8.6064
  336.0000   -46.1946     9.4738   111.5715     8.7629
  336.5000   -46.1959     9.6877   106.0652     8.7921
  337.0000   -46.0408     9.9044   100.2177     8.9191
  337.5000   -45.9509    10.1936    95.8115     9.0430
  338.0000   -45.7302    10.4976    93.7369     9.0754
  338.5000   -45.5754    10.8015    91.0725     9.0749
  339.0000   -45.3584    11.1055    93.4565     9.0746
  339.5000   -45.1082    11.4094    96.1701     8.9172
  340.0000   -45.0157    11.4676   102.0421     8.6656
  340.5000   -44.7659    11.2090   106.2409     8.4135
  341.0000   -44.4861    10.9504   109.8817     8.2880
  341.5000   -44.4875    10.6918   113.8771     8.2092
  342.0000   -44.4890    10.4331   116.3889     8.2088
  342.5000   -44.3339    10.1745   117.7083     8.2084
  343.0000   -44.4922     9.9159   119.8402     8.2080
  343.5000   -44.4939     9.5266   120.8294     8.1291
  344.0000   -44.7189     9.5149   120.8176     8.1287
  344.5000   -44.9671     9.5377   120.8058     8.1283
  345.0000   -45.0679     9.5775   120.7924     8.1279
  345.5000   -45.1270     9.5981   119.2099     8.0491
  346.0000   -45.1287     9.6401   119.1981     8.0486
  346.5000   -45.1301     9.5931   117.6140     7.9698
  347.0000   -45.1317     9.4416   116.6562     7.9694
  347.5000   -45.1332     9.2612   114.4444     7.9690
  348.0000   -44.9778     9.2070   114.4340     7.9686
  348.5000   -44.8230     9.1663   114.4222     7.8897
  349.0000   -44.7523     9.1393   114.4104     7.8893
  349.5000   -44.6594     9.0848   114.0395     7.8104
  350.0000   -44.5141     9.0597   112.8132     7.8100
  350.5000   -44.4734     9.0767   114.3750     7.8097
  351.0000   -44.3605     9.1014   114.3632     7.7307
  351.5000   -44.2874     9.1393   115.3708     7.7304
  352.0000   -44.2068     9.1704   116.3103     7.6515
  352.5000   -44.2088     9.2034   117.4725     7.6510
  353.0000   -44.3668     9.2332   119.7615     7.6507
  353.5000   -44.5252     9.2535   120.7011     7.6503
  354.0000   -44.7607     9.2645   123.2127     7.6499
  354.5000   -45.0136     9.2645   125.2890     7.6419
  355.0000   -45.3138     9.2107   126.8466     7.5706
  355.5000   -45.4718     9.0454   126.8357     7.5703
  356.0000   -45.4734     8.9319   126.8239     7.5698
  356.5000   -45.2382     8.9176   126.8099     7.6480
  357.0000   -44.9707     8.9915   126.8003     7.6565
  357.5000   -44.5379     9.0648   125.2155     7.8041
  358.0000   -44.1755     9.1236   122.8250     7.8540
  358.5000   -43.7571     9.1702   120.1035     7.9604
  359.0000   -43.5193     9.2645   114.1725     8.1170
  359.5000   -43.2696     9.3843   112.0743     8.2838
  360.0000   -43.1348     9.5368   107.8611     8.4301
  360.5000   -42.9796     9.5931   107.8498     8.4562
  361.0000   -42.9813     9.6194   107.8381     8.5078
  361.5000   -43.0679     9.8609   107.8244     8.4648
  362.0000   -43.3438    10.1478   106.7977     8.4286
  362.5000   -43.7698    10.1787   107.8027     8.3496
  363.0000   -43.9833     9.9310   107.7909     8.3216
  363.5000   -44.0863     9.8592   109.3527     8.2704
  364.0000   -44.0000     9.8652   110.9103     8.2700
  364.5000   -43.9070     9.8727   113.0673     8.1911
  365.0000   -43.6209     9.6013   114.0330     8.1122
  365.5000   -43.4075     9.5737   115.5936     8.0828
  366.0000   -43.1536     9.5832   117.1555     7.9545
  366.5000   -42.9984     9.5931   118.7131     7.9269
  367.0000   -43.0000     9.5999   118.7028     7.8752
  367.5000   -43.0018     9.5694   120.3026     7.7872
  368.0000   -43.0637     9.4053   125.9329     7.6389
  368.5000   -43.1614     9.2585   130.0171     7.5347
  369.0000   -43.4127     8.9828   132.8053     7.4811
  369.5000   -43.7915     8.8278   135.0406     7.4392
  370.0000   -43.9500     8.7337   135.9279     7.4019
  370.5000   -43.9514     8.5759   135.9159     7.4014
  371.0000   -43.9530     8.4455   135.9041     7.4011
  371.5000   -43.9545     8.3568   134.3188     7.4007
  372.0000   -43.9561     8.3910   132.0230     7.4432
  372.5000   -43.9579     8.4755   129.4877     7.4902
  373.0000   -43.9592     8.5915   126.9523     7.6349
  373.5000   -43.9608     8.6918   123.9951     7.7411
  374.0000   -43.9624     8.7951   120.1091     7.7912
  374.5000   -43.9279     8.8704   117.7739     7.9920
  375.0000   -43.8088     8.9430   115.2384     8.1175
  375.5000   -43.5852     9.2332   112.2108     8.2609
  376.0000   -43.3354     9.3870   110.1677     8.3684
  376.5000   -43.0857     9.4215   107.4717     8.4172
  377.0000   -42.8359     9.4716   106.6693     8.4168
  377.5000   -42.7194     9.5218   104.3042     8.4949
  378.0000   -42.7210     9.6714   102.7180     8.4160
  378.5000   -42.7226     9.8052   101.1360     8.4156
  379.0000   -42.8276    10.1488   101.1236     8.4152
  379.5000   -43.0805    10.2381   101.1124     8.4148
  380.0000   -43.3544    10.0876   102.8826     8.3203
  380.5000   -43.5125     9.8604   105.8039     8.2570
  381.0000   -43.5141     9.3897   108.4460     8.1463
  381.5000   -43.5157     9.4698   113.6435     8.0993
