~VERSION INFORMATION
 VERS.                2.0:   CWLS LOG ASCII STANDARD - VERSION 2.0
 WRAP.                 NO:   ONE LINE PER DEPTH STEP
~WELL INFORMATION
#MNEM.UNIT      DATA TYPE    INFORMATION
#----------   ------------   ------------------------------
 STRT.F          100.0000:   START DEPTH
 STOP.F          812.0000:   STOP DEPTH
 STEP.F            0.5000:   STEP LENGTH
 NULL.          -999.2500:   NO VALUE
 COMP.               NAVY:   COMPANY
 WELL. RES 3 TEAPOT DOM #42S-11:   WELL
 FLD .             TEAPOT:   FIELD
 LOC .      S11 T38N R78W:   LOCATION
 CNTY.            NATRONA:   COUNTY
 STAT.            WYOMING:   STATE
 CTRY. UNITED STATES OF AMERICA:   COUNTRY
 SRVC.       Schlumberger:   SERVICE COMPANY
 DATE.        02-AUG-1961:   LOGDATE
 API .       490250636700:   API NUMBER
~CURVE INFORMATION
#MNEM.UNIT       API CODE    CURVE DESCRIPTION
#----------   ------------   ------------------------------
 DEPT.F                  :   
 SPR .MV     05 010 01 00:   SPONTANEOUS POTENTIAL FROM RES.
 ILD .OHMM   05 120 46 00:   INDUCTION LOG DEEP
 ASN .OHMM   05 041 16 00:   AMPLIFIED SHORT NORMAL 16"
 CILD.MMHO   05 110 46 00:   CONDUCTIVITY INDUCTION LOG DEEP
 GR  .GAPI   30 310 01 00:   GAMMA RAY
~PARAMETER INFORMATION
#MNEM.UNIT          VALUE    DESCRIPTION
#----------   ------------   ------------------------------
 PD  .                 GL:   PERMANENT DATUM
 EPD .F              5172:   ELEVATION PERMANENT DATUM
 LMF .                 KB:   LOG MEASURED FROM
 DAPD.F                 5:   FEET ABOVE PERMANENT DATUM
 DMF .                 KB:   DRILLING MEASURED FROM
 EKB .F              5177:   KELLING BUSHING
 EGL .F              5172:   GROUND LEVEL
 DATE.             8-2-61:   RUN DATE
 RUN .                  1:   RUN NUMBER
 DD  .F               810:   DEPTH DRILLER
 DL  .F               813:   DEPTH LOGGER
 BLI .F               812:   BOTTOM LOG INTERVAL
 TLI .F               100:   TOP LOG INTERVAL
 BS  .IN             6.75:   BIT SIZE
 BSD .F               810:   BIT SIZE AT DEPTH
 DFT .       OIL EMULSION:   DRILLING FLUID TYPE
 DFD .                9.2:   DRILLING FLUID DENSITY
 DFV .                 56:   DRILLING FLUID VISCOSITY
 MFSS.                  M:   MUD FILTRATE SAMPLE SOURCE
 MCSS.                  M:   MUD CAKE SAMPLE SOURCE
 RMB .OHMM            .70:   RESISTIVITY MUD AT BHT
 BHT .F                80:   BOTTOM HOLE TEMPERATURE
 TCS .HRS               1:   TIME CURCULATED STOPPED
 MRT .F                80:   MAXIMUM RECORDED TEMPERATURE
 LUN .               2552:   LOGGING UNIT NUMBER
 LUL .                RIV:   LOGGING UNIT LOCATION
 ENGI.             RANDLE:   RECORDING ENGINEER
 WITN.          VORGENSON:   WITNESSED BY
 CLNT.            A2DTECH:   CLIENT CODE
 ORIG.       2", 5" PRINT:   ORIGIN OF DATA
 UWI .       490250636700:   UNIQUE WELL ID
 DICO. A2D Technologies, Inc.:   DIGITIZING COMPANY
~OTHER INFORMATION
~A   DEPT      SPR        ILD        ASN        CILD        GR   
# ...
  710.0000   -23.0646    13.1091    15.2065    76.8844    38.0263
  710.5000   -20.9351    12.9021    13.5572    78.2147    39.1502
  711.0000   -20.7423    12.7098    13.3332    79.4262    40.8005
  711.5000   -20.2842    12.5009    12.6407    80.6370    42.4568
  712.0000   -20.9907    12.2998    13.2745    81.8467    44.1077
  712.5000   -22.1124    12.1635    14.6671    83.0584    44.6384
  713.0000   -22.8414    11.9880    14.5366    84.2732    43.3470
  713.5000   -22.3521    11.8767    14.2289    85.4916    42.1611
  714.0000   -22.4804    11.7550    13.9207    86.7119    42.4208
  714.5000   -22.9778    11.6432    13.7607    87.9313    43.3252
  715.0000   -23.3724    11.5203    13.7028    89.1480    43.7399
  715.5000   -22.9557    11.4142    13.6084    90.0619    40.6171
  716.0000   -21.5356    11.2683    13.5220    90.4195    37.1907
  716.5000   -20.4396    11.1446    13.4362    90.7771    35.0638
  717.0000   -19.8672    11.0846    13.2685    91.1347    38.2860
  717.5000   -20.2230    10.9906    13.0951    91.4923    41.7449
  718.0000   -20.8490    10.9095    12.9231    91.8500    45.1586
  718.5000   -20.9635    10.8230    12.7733    92.2076    45.8003
  719.0000   -21.6366    10.7359    12.7775    92.5651    44.3657
  719.5000   -22.8662    10.6728    12.8453    92.9648    42.5897
  720.0000   -24.1920    10.7550    12.7958    92.7875    43.1259
  720.5000   -25.1961    10.8420    12.8394    92.1844    45.6385
  721.0000   -25.1387    10.9344    12.9260    91.5814    45.1187
  721.5000   -24.9472    11.0151    13.0006    90.9548    46.2342
  722.0000   -24.6751    11.1193    13.0606    91.5020    46.0286
  722.5000   -24.4075    11.0954    13.0359    92.0715    44.3742
  723.0000   -24.2591    11.0100    13.0195    92.6410    43.7425
  723.5000   -24.3646    10.9102    12.9876    92.9648    44.2266
  724.0000   -24.4806    10.7962    12.9840    91.1127    43.1380
  724.5000   -24.4533    10.7569    12.8296    90.3805    40.0172
  725.0000   -24.3500    10.7704    12.5730    91.2958    37.8431
  725.5000   -24.2551    10.7926    12.3536    92.2111    29.0961
  726.0000   -24.1605    10.8214    12.1238    93.1264    30.4571
  726.5000   -24.0645    10.8432    12.0512    94.0416    33.6591
  727.0000   -24.2818    10.8709    12.1003    94.9734    36.8934
  727.5000   -24.6136    10.7759    12.1644    94.4126    38.3412
  728.0000   -24.7590    10.6386    12.2434    93.9997    39.9334
  728.5000   -23.3524    10.5276    12.2124    95.6773    40.6016
  729.0000   -22.4802    10.4062    12.1434    97.0510    37.1553
  729.5000   -23.7047    10.2889    12.0132    98.0366    39.1817
  730.0000   -22.7423    10.1743    11.8958    97.8247    42.0440
  730.5000   -21.6660    10.1910    11.9885    97.4063    43.6020
  731.0000   -22.4656    10.2396    12.0463    96.9661    44.1236
  731.5000   -23.4240    10.2548    12.1175    97.7173    46.1956
  732.0000   -24.6860    10.1895    12.1814    98.7388    49.1296
  732.5000   -27.4067    10.1311    12.2541    99.9687    47.9938
  733.0000   -29.0903    10.0667    12.2640    99.7098    45.5960
  733.5000   -29.3883    10.0588    12.2617    99.3878    43.1967
  734.0000   -29.8969    10.0603    12.2638    99.0628    41.1043
  734.5000   -29.9149    10.0600    12.2609    98.7327    43.0353
  735.0000   -29.9149    10.0600    12.2802    98.4114    45.7633
  735.5000   -29.9293    10.0606    12.3228    98.0807    47.0989
  736.0000   -29.8601    10.0598    12.3541    98.4422    44.8452
  736.5000   -29.6715    10.0617    12.2960    99.0656    42.2360
  737.0000   -29.6933    10.0588    12.2204    99.6890    41.0848
  737.5000   -29.6816    10.0651    12.1481   100.3124    43.5957
  738.0000   -29.6883     9.9913    12.0714   100.9358    45.3112
  738.5000   -29.6733     9.8932    12.0593   101.5592    43.5903
  739.0000   -29.4632     9.7794    12.0648   102.1825    43.9065
  739.5000   -29.1823     9.6685    12.0347   102.8059    44.1980
  740.0000   -28.9160     9.5574    11.9823   103.4293    39.4376
  740.5000   -28.6400     9.4500    11.9392   104.0527    30.8310
  741.0000   -28.3739     9.3016    11.8870   104.6761    32.3306
  741.5000   -28.0911     9.1706    11.8597   105.2995    34.3528
  742.0000   -27.8869     9.1549    11.9216   105.9229    36.3676
  742.5000   -27.8712     9.1654    12.0041   106.5462    38.3915
  743.0000   -27.8814     9.1873    12.0846   107.0352    38.5671
  743.5000   -27.8609     9.2067    12.1652   107.4803    40.2913
  744.0000   -28.0505     9.2306    12.2582   107.8464    41.5938
  744.5000   -28.4237     9.2600    12.4521   106.4322    35.7063
  745.0000   -28.6978     9.4701    12.7080   104.2355    38.5739
  745.5000   -29.0732     9.6198    13.1902   102.0388    42.2126
  746.0000   -29.1195    10.1039    13.5571    97.9523    41.5950
  746.5000   -29.1788    11.1665    14.3245    91.9598    38.6588
  747.0000   -29.4759    12.2289    15.3562    85.6501    35.2245
  747.5000   -29.6394    13.1215    16.5619    79.0829    36.0168
  748.0000   -29.8290    14.5840    17.6011    72.5157    36.9499
  748.5000   -30.1066    15.6340    20.0550    65.9485    32.0512
  749.0000   -30.4249    17.6324    22.0650    59.3813    30.2965
  749.5000   -30.6764    19.7092    24.0699    52.8141    26.7504
  750.0000   -30.9540    21.8359    25.5873    49.6777    23.0624
  750.5000   -31.2152    23.8112    25.5756    48.1096    24.1506
  751.0000   -31.4919    23.5906    25.1068    46.7337    25.0576
  751.5000   -31.7070    22.7352    24.6847    47.6539    24.0629
  752.0000   -31.7091    21.7814    24.2626    48.6489    24.9668
  752.5000   -31.5864    21.1431    23.9740    49.6439    29.3800
  753.0000   -31.4368    21.0228    23.6807    50.6389    25.4413
  753.5000   -31.3031    20.5882    23.5736    51.6338    24.1487
  754.0000   -31.1433    20.0920    23.4453    52.6288    23.8493
  754.5000   -31.0552    19.6125    22.9088    53.6238    24.9338
  755.0000   -31.0177    19.1293    22.4677    54.6188    27.8095
  755.5000   -31.0809    18.6817    22.3652    55.7789    29.8877
  756.0000   -30.6019    18.5251    22.3580    54.7739    23.7761
  756.5000   -29.8670    18.2159    21.9878    54.7739    20.4058
  757.0000   -29.5867    17.8565    21.6991    55.8480    18.2319
  757.5000   -28.9498    17.5222    21.4091    57.4754    16.4939
  758.0000   -29.3129    17.1572    21.0893    59.1027    19.3188
  758.5000   -30.3522    16.8519    20.8492    60.7300    22.8307
  759.0000   -30.4727    16.6429    20.7552    62.3574    27.8204
  759.5000   -30.8072    16.4341    20.7922    62.8141    31.4140
  760.0000   -30.9440    16.2319    20.6096    62.8141    29.8803
  760.5000   -30.1369    16.0252    20.1451    62.8141    34.2303
  761.0000   -29.1094    15.8223    19.6628    63.3626    38.5261
  761.5000   -28.1549    15.6140    19.4459    64.3469    36.4374
  762.0000   -27.6598    15.4156    19.4894    65.3312    35.3455
  762.5000   -27.1306    15.1979    19.3234    66.3155    38.3621
  763.0000   -26.6244    15.0076    19.1108    67.2997    40.3209
  763.5000   -25.9166    14.8347    18.8112    68.2840    41.4369
  764.0000   -25.0229    14.6431    18.5142    68.8442    42.5688
  764.5000   -25.6642    14.6824    18.3419    68.5779    36.2038
  765.0000   -24.9632    14.7505    18.2152    68.2600    36.7709
  765.5000   -25.0214    14.8285    18.0969    67.9422    37.6405
  766.0000   -25.9225    14.9016    17.9764    67.6244    36.7537
  766.5000   -26.6134    14.9697    17.8440    67.3065    32.7607
  767.0000   -27.1889    15.0543    17.7389    66.9887    33.9549
  767.5000   -27.4294    14.9758    17.4998    67.1245    36.7651
  768.0000   -26.9199    14.6721    17.1983    67.6896    39.7388
  768.5000   -26.8226    14.3571    16.9310    69.2635    41.4789
  769.0000   -27.0903    14.0349    16.6491    71.2008    42.7068
  769.5000   -26.8933    13.7185    16.3704    73.1381    44.2682
  770.0000   -25.0140    13.3959    16.1038    75.0754    48.2786
  770.5000   -22.1722    13.0825    15.8004    76.8710  -999.2500
