~VERSION INFORMATION
 VERS.                2.0:   CWLS LOG ASCII STANDARD - VERSION 2.0
 WRAP.                 NO:   ONE LINE PER DEPTH STEP
~WELL INFORMATION
#MNEM.UNIT      DATA TYPE    INFORMATION
#----------   ------------   ------------------------------
 STRT.F          906.5000:   START DEPTH
 STOP.F         2710.5000:   STOP DEPTH
 STEP.F            0.5000:   STEP LENGTH
 NULL.          -999.2500:   NO VALUE
 COMP.   FLUOR DANIEL INC:   COMPANY
 WELL. NAVAL PETROLEUM RESERVE 3 X-4 #77-4:   WELL
 FLD .             TEAPOT:   FIELD
 LOC .       S4 T38N R78W:   LOCATION
 CNTY.            NATRONA:   COUNTY
 STAT.            WYOMING:   STATE
 CTRY. UNITED STATES OF AMERICA:   COUNTRY
 SRVC.            Unknown:   SERVICE COMPANY
 DATE.        21-JUN-1995:   LOGDATE
 API .       490252273600:   API NUMBER
~CURVE INFORMATION
#MNEM.UNIT       API CODE    CURVE DESCRIPTION
#----------   ------------   ------------------------------
 DEPT.F                  :   
 TGAS.UNITS  91 830 01 00:   TOTAL GAS FROM HOTWIRE
 ROP .MIN/FT 91 810 01 00:   RAT OF DRILLING PENETRATION
~PARAMETER INFORMATION
#MNEM.UNIT          VALUE    DESCRIPTION
#----------   ------------   ------------------------------
 EKB .F              5291:   KELLING BUSHING
 EGL .F              5281:   GROUND LEVEL
 DATE.            6-21-95:   RUN DATE
 DD  .F              2711:   DEPTH DRILLER
 CBD .F               893:   CASING BOTTOM DRILLER
 ENGI.               HUSK:   RECORDING ENGINEER
 WITN.              TOWER:   WITNESSED BY
 CLNT.            A2DTECH:   CLIENT CODE
 ORIG.           5" PRINT:   ORIGIN OF DATA
 UWI .       490252273600:   UNIQUE WELL ID
 DICO. A2D Technologies, Inc.:   DIGITIZING COMPANY
~OTHER INFORMATION
~A   DEPT      TGAS         ROP 
# ...
 2364.5000   246.4255     0.6198
 2365.0000   246.3890     0.6193
 2365.5000   246.3525     0.6189
 2366.0000   246.3161     0.6185
 2366.5000   246.2796     0.6181
 2367.0000   246.2431     0.6176
 2367.5000   246.2066     0.6172
 2368.0000   246.1702     0.6168
 2368.5000   246.1337     0.6164
 2369.0000   246.0972     0.6159
 2369.5000   246.0607     0.6155
 2370.0000   246.0242     0.6151
 2370.5000   245.9878     0.6147
 2371.0000   245.9513     0.6142
 2371.5000   245.9148     0.6138
 2372.0000   245.8783     0.4547
 2372.5000   245.8419     0.4587
 2373.0000   245.8054     0.4626
 2373.5000   245.7689     0.4666
 2374.0000   245.7324     0.4705
 2374.5000   245.6959     0.4744
 2375.0000   245.6595     0.4784
 2375.5000   245.6230     0.4823
 2376.0000   245.5865     0.4862
 2376.5000   245.5500     0.4901
 2377.0000   245.5135     0.4941
 2377.5000   245.4771     0.4980
 2378.0000   245.4406     0.5019
 2378.5000   245.4041     0.5058
 2379.0000   245.3676     0.5098
 2379.5000   245.3312     0.5137
 2380.0000   245.2947     0.5161
 2380.5000   245.2582     0.5162
 2381.0000   245.2182     0.5164
 2381.5000   245.1719     0.5165
 2382.0000   245.1256     0.5166
 2382.5000   245.0793     0.5168
 2383.0000   245.0330     0.5169
 2383.5000   244.9867     0.5170
 2384.0000   244.9404     0.5172
 2384.5000   244.8941     0.5173
 2385.0000   244.8478     0.5174
 2385.5000   244.8015     0.5176
 2386.0000   244.7552     0.5177
 2386.5000   244.7089     0.5178
 2387.0000   244.6626     0.5180
 2387.5000   244.6163     0.5181
 2388.0000   244.5700     0.5182
 2388.5000   244.5237     0.5184
 2389.0000   244.4774     0.5185
 2389.5000   244.4311     0.5187
 2390.0000   244.3848     0.5188
 2390.5000   244.3385     0.5189
 2391.0000   244.2922     0.5191
 2391.5000   244.2459     0.5192
 2392.0000   244.1996     0.5193
 2392.5000   244.1533     0.5195
 2393.0000   244.1070     0.5196
 2393.5000   244.0607     0.5197
 2394.0000   244.0144     0.5199
 2394.5000   243.9681     0.5200
 2395.0000   243.9218     0.5201
 2395.5000   243.8755     0.5203
 2396.0000   243.8292     0.5204
 2396.5000   243.7829     0.5205
 2397.0000   243.7366     0.5207
 2397.5000   243.6903     0.5208
 2398.0000   243.6440     0.5209
 2398.5000   243.5977     0.5211
 2399.0000   243.5514     0.5212
 2399.5000   243.5051     0.5213
 2400.0000   243.4588     0.5215
 2400.5000   243.4125     0.5208
 2401.0000   243.3662     0.5201
 2401.5000   243.3199     0.5194
 2402.0000   243.2736     0.5187
 2402.5000   243.2273     0.5180
 2403.0000   243.1810     0.5173
 2403.5000   243.1347     0.5166
 2404.0000   243.0884     0.5159
 2404.5000   243.0421     0.5152
 2405.0000   242.9958     0.5145
 2405.5000   242.9495     0.5137
 2406.0000   242.9032     0.5130
 2406.5000   242.8569     0.5123
 2407.0000   242.8106     0.5116
 2407.5000   242.7643     0.5109
 2408.0000   242.7180     0.5102
 2408.5000   242.6717     0.5095
 2409.0000   242.6254     0.5088
 2409.5000   242.5791     0.5081
 2410.0000   242.5328     0.5074
 2410.5000   242.4865     0.5067
 2411.0000   242.4402     0.5060
 2411.5000   242.3939     0.5052
 2412.0000   242.3476     0.5045
 2412.5000   242.3013     0.5038
 2413.0000   242.2550     0.5031
 2413.5000   242.2087     0.5024
 2414.0000   242.1624     0.5017
 2414.5000   242.1161     0.5010
 2415.0000   242.0698     0.5003
 2415.5000   242.0235     0.4996
 2416.0000   241.9772     0.4989
 2416.5000   241.9309     0.4982
 2417.0000   241.8846     0.4974
 2417.5000   241.8383     0.4967
 2418.0000   241.7920     0.4960
 2418.5000   241.7457     0.4953
 2419.0000   241.6994     0.4946
 2419.5000   241.6531     0.4939
 2420.0000   241.6068     0.4931
 2420.5000   241.5605     0.4934
 2421.0000   241.5142     0.4937
 2421.5000   241.4679     0.4940
 2422.0000   241.4216     0.4942
 2422.5000   241.3753     0.4945
 2423.0000   241.3290     0.4948
 2423.5000   241.2827     0.4951
 2424.0000   241.2364     0.4954
 2424.5000   241.1901     0.4957
 2425.0000   241.1438     0.4959
 2425.5000   241.0975     0.4962
 2426.0000   241.0512     0.4965
 2426.5000   241.0049     0.4968
 2427.0000   240.9586     0.4971
 2427.5000   240.9123     0.4974
 2428.0000   240.8660     0.4976
 2428.5000   240.8197     0.4979
 2429.0000   240.7734     0.4982
 2429.5000   240.7271     0.4985
 2430.0000   240.6808     0.4988
 2430.5000   240.6345     0.4991
 2431.0000   240.5882     0.4993
 2431.5000   240.5419     0.4996
 2432.0000   240.4956     0.4999
 2432.5000   240.4493     0.5002
 2433.0000   240.4030     0.5005
 2433.5000   240.3567     0.5008
 2434.0000   240.3104     0.5010
 2434.5000   240.2641     0.5013
 2435.0000   240.2178     0.5016
 2435.5000   240.1715     0.5019
 2436.0000   240.1252     0.5022
 2436.5000   240.0789     0.5024
 2437.0000   240.0326     0.5027
 2437.5000   239.9863     0.5030
 2438.0000   239.9400     0.5033
 2438.5000   239.8937     0.5036
 2439.0000   239.8474     0.5039
 2439.5000   239.8011     0.5041
 2440.0000   239.7548     0.5044
 2440.5000   239.7085     0.5047
 2441.0000   239.6622     0.5050
 2441.5000   239.6159     0.5053
 2442.0000   239.5696     0.5056
 2442.5000   239.5233     0.5058
 2443.0000   239.4770     0.5061
 2443.5000   239.4307     0.5064
 2444.0000   239.3844     0.5067
 2444.5000   239.3381     0.5070
 2445.0000   239.2918     0.5073
 2445.5000   239.2455     0.5075
 2446.0000   239.1992     0.5078
 2446.5000   239.1529     0.5081
 2447.0000   239.1066     0.5084
 2447.5000   239.0603     0.5087
 2448.0000   239.0140     0.5089
 2448.5000   238.9677     0.5092
 2449.0000   238.9214     0.5095
 2449.5000   238.8751     0.5098
 2450.0000   238.8288     0.5101
 2450.5000   238.7825     0.5104
 2451.0000   238.7362     0.5106
 2451.5000   238.6899     0.5109
 2452.0000   238.6436     0.5112
 2452.5000   238.5973     0.5115
 2453.0000   238.5510     0.5118
 2453.5000   238.5047     0.5121
 2454.0000   238.4584     0.5123
 2454.5000   238.4121     0.5126
 2455.0000   238.3658     0.5129
 2455.5000   238.3195     0.5132
 2456.0000   238.2732     0.5135
 2456.5000   238.2269     0.5138
 2457.0000   238.1806     0.5140
 2457.5000   238.1343     0.5143
 2458.0000   238.0880     0.5146
 2458.5000   238.0417     0.5149
 2459.0000   237.9954     0.5152
 2459.5000   237.9491     0.5155
 2460.0000   237.9028     0.5157
 2460.5000   237.8565     0.5087
 2461.0000   237.8102     0.4993
 2461.5000   237.7639     0.4900
 2462.0000   237.7176     0.4807
 2462.5000   237.6713     0.5938
 2463.0000   237.6250     0.6049
 2463.5000   237.5787     0.6045
 2464.0000   237.5324     0.6043
 2464.5000   237.4861     0.6040
 2465.0000   237.4398     0.6151
 2465.5000   237.3935     0.6148
 2466.0000   237.3472     0.6145
 2466.5000   237.3009     0.6142
 2467.0000   237.2546     0.6139
 2467.5000   237.2083     0.6137
 2468.0000   237.1620     0.6134
 2468.5000   237.1157     0.6131
 2469.0000   237.0694     0.6128
 2469.5000   237.0231     0.6125
 2470.0000   236.9768     0.6122
 2470.5000   236.9305     0.6120
 2471.0000   236.8842     0.6117
 2471.5000   236.8379     0.6114
 2472.0000   236.7916     0.6111
 2472.5000   236.7453     0.6108
 2473.0000   236.6990     0.6105
 2473.5000   236.6527     0.6103
 2474.0000   236.6064     0.6100
 2474.5000   236.5601     0.6097
 2475.0000   236.5138     0.6094
 2475.5000   236.4675     0.6091
 2476.0000   236.4212     0.6088
 2476.5000   236.3749     0.6086
 2477.0000   236.3286     0.6083
 2477.5000   236.2823     0.6080
 2478.0000   236.2360     0.6077
 2478.5000   236.1897     0.6074
 2479.0000   236.1434     0.6071
 2479.5000   236.0971     0.6069
 2480.0000   236.0508     0.6066
 2480.5000   236.0045     0.5904
 2481.0000   235.9582     0.5921
 2481.5000   235.9119     0.5812
 2482.0000   235.8656     0.5932
 2482.5000   235.8193     0.5938
 2483.0000   235.7730     0.5944
 2483.5000   235.7267     0.5949
 2484.0000   235.6804     0.5955
 2484.5000   235.6341     0.5960
 2485.0000   235.5878     0.5966
 2485.5000   235.5415     0.5972
