~VERSION INFORMATION
 VERS.                2.0:   CWLS LOG ASCII STANDARD - VERSION 2.0
 WRAP.                 NO:   ONE LINE PER DEPTH STEP
~WELL INFORMATION
#MNEM.UNIT      DATA TYPE    INFORMATION
#----------   ------------   ------------------------------
 STRT.F           30.0000:   START DEPTH
 STOP.F          506.0000:   STOP DEPTH
 STEP.F            0.5000:   STEP LENGTH
 NULL.          -999.2500:   NO VALUE
 COMP. FENIX & SCISSON INC:   COMPANY
 WELL.    42 SX-3F1 #55-3:   WELL
 FLD .             TEAPOT:   FIELD
 LOC .       S3 T38N R78W:   LOCATION
 CNTY.            NATRONA:   COUNTY
 STAT.            WYOMING:   STATE
 CTRY. UNITED STATES OF AMERICA:   COUNTRY
 SRVC.              Welex:   SERVICE COMPANY
 DATE.        26-MAY-1980:   LOGDATE
 API .       490251082900:   API NUMBER
~CURVE INFORMATION
#MNEM.UNIT       API CODE    CURVE DESCRIPTION
#----------   ------------   ------------------------------
 DEPT.F                  :   
 GRD .GAPI   45 310 01 00:   GAMMA RAY FROM DENSITY LOG
 CALD.IN     45 280 60 00:   CALIPER
 RHOB.G/C3   45 350 01 00:   BULK DENSITY
 CORR.G/C3   45 356 01 00:   DENSITY CORRECTION
 DPHI.DEC    45 890 12 00:   DENSITY POROSITY SANDSTONE
 NPHI.DEC    42 890 03 00:   NEUTRON POROSITY SANDSTONE
 GURD.OHMM   07 220 05 00:   GUARD RESISTIVITY
 ILD .OHMM   07 120 46 00:   INDUCTION LOG DEEP
 ILM .OHMM   07 120 44 00:   INDUCTION LOG MEDIUM
 SPR .MV     07 010 01 00:   SPONTANEOUS POTENTIAL
~PARAMETER INFORMATION
#MNEM.UNIT          VALUE    DESCRIPTION
#----------   ------------   ------------------------------
 PD  .                 GL:   PERMANENT DATUM
 EPD .F              5161:   ELEVATION PERMANENT DATUM
 LMF .                 KB:   LOG MEASURED FROM
 DAPD.F                 4:   FEET ABOVE PERMANENT DATUM
 DMF .                 KB:   DRILLING MEASURED FROM
 EKB .F              5165:   KELLING BUSHING
 EGL .F              5161:   GROUND LEVEL
 DATE.            5-26-80:   RUN DATE
 RUN .                  1:   RUN NUMBER
 DD  .F               500:   DEPTH DRILLER
 DL  .F               502:   DEPTH LOGGER
 BLI .F               500:   BOTTOM LOG INTERVAL
 TLI .F                34:   TOP LOG INTERVAL
 BS  .IN            9.875:   BIT SIZE
 BSD .F               500:   BIT SIZE AT DEPTH
 DFT .          KCL WATER:   DRILLING FLUID TYPE
 DFD .                9.5:   DRILLING FLUID DENSITY
 DFV .                 45:   DRILLING FLUID VISCOSITY
 MSS .            MUD PIT:   MUD SAMPLE SOURCE
 RMS .OHMM            .39:   RESISTIVITY MUD SAMPLE
 MST .F                75:   MUD SAMPLE TEMPERATURE
 RMF .OHMM           .312:   RESISTIVITY MUD FILTRATE SAMPLE
 MFST.F                75:   MUD FILTRATE SAMPLE TEMPERATURE
 RMC .OHMM           .468:   RESISTIVITY MUD CAKE
 MCST.F                75:   MUD CAKE SAMPLE TEMPERATURE
 MFSS.           MEASURED:   MUD FILTRATE SAMPLE SOURCE
 MCSS.           MEASURED:   MUD CAKE SAMPLE SOURCE
 RMB .OHMM            .39:   RESISTIVITY MUD AT BHT
 BHT .F                75:   BOTTOM HOLE TEMPERATURE
 TCS .HRS               2:   TIME CURCULATED STOPPED
 MRT .F                75:   MAXIMUM RECORDED TEMPERATURE
 LUN .               9685:   LOGGING UNIT NUMBER
 LUL .             CASPER:   LOGGING UNIT LOCATION
 ENGI.            TOTHILL:   RECORDING ENGINEER
 WITN.            RHOADES:   WITNESSED BY
 CLNT.            A2DTECH:   CLIENT CODE
 ORIG.           5" PRINT:   ORIGIN OF DATA
 UWI .       490251082900:   UNIQUE WELL ID
 DICO. A2D Technologies, Inc.:   DIGITIZING COMPANY
~OTHER INFORMATION
~A   DEPT      GRD       CALD       RHOB       CORR         DPHI       NPHI      GURD        ILD        ILM       SPR   
# ...
  432.0000   101.7213     8.5374     2.5336     0.1112     0.0970     0.2652    11.1664    10.6773    10.2845   -25.6920
  432.5000   101.3915     8.4738     2.5202     0.1002     0.0990     0.2700    12.1239    10.6284    10.2614   -25.4937
  433.0000   101.0251     8.5413     2.5185     0.0895     0.1030     0.2717    11.8202    10.5797    10.2390   -25.2881
  433.5000   100.0203     8.6710     2.5054     0.0784     0.0970     0.2751    11.3342    10.5312    10.2166   -25.4024
  434.0000    98.9695     9.0409     2.4876     0.0676     0.1103     0.2709    10.9713    10.4829    10.1906   -25.5986
  434.5000    97.9236     9.4046     2.5181     0.0503     0.1184     0.2680    10.9600    10.0448    10.2890   -25.8024
  435.0000    96.8499     9.7382     2.4913     0.0326     0.1225     0.2639    11.8018     9.5536    10.4079   -25.7585
  435.5000    96.3241     9.8179     2.4764     0.0159     0.1218     0.2642    11.4593     9.3831    10.4750   -25.6187
  436.0000    97.1459     9.8361     2.4810     0.0312     0.1177     0.2680    10.9667     9.3831    10.1459   -25.4773
  436.5000    98.0585     9.8365     2.4883     0.0413     0.1161     0.2712    10.7202     9.3831     9.8397   -25.3381
  437.0000    98.9719     9.8363     2.4853     0.0447     0.1097     0.2740    10.4894     9.2978     9.5428   -25.3027
  437.5000    99.8838     9.8363     2.4976     0.0566     0.1113     0.2795    10.2635     9.1098     9.2566   -25.4411
  438.0000   100.7946     9.8363     2.4983     0.0683     0.1065     0.2775    10.0528     8.8594     8.9424   -25.5767
  438.5000   101.6345     9.8346     2.5064     0.0778     0.1134     0.2911     9.8766     8.4614     8.6370   -25.7131
  439.0000   101.9452     9.8276     2.4918     0.0701     0.1203     0.2955     9.7036     8.0814     8.3410   -25.8488
  439.5000   102.2292     9.8209     2.4855     0.0848     0.1329     0.3000     9.5336     7.7389     8.0552   -25.9872
  440.0000   102.5827     9.8142     2.4634     0.0807     0.1466     0.3045     9.3665     7.2351     7.7792   -25.9607
  440.5000   104.1846     9.8074     2.4434     0.0780     0.1456     0.3135     9.2125     6.7890     7.5288   -25.8414
  441.0000   105.7627     9.8002     2.4344     0.0962     0.1440     0.3216     8.6962     6.3887     7.1518   -25.7202
  441.5000   106.3055     9.7704     2.4388     0.1151     0.1354     0.3221     8.2364     6.0320     6.8141   -25.5989
  442.0000   104.5265     9.7110     2.4552     0.1327     0.1254     0.3153     6.2499     5.8291     6.4922   -25.4777
  442.5000   102.8027     9.5830     2.4697     0.1495     0.1165     0.3237     4.8007     5.6653     6.2668   -25.3566
  443.0000   101.0751     9.4444     2.4883     0.1325     0.1185     0.3173     4.3419     5.6653     6.8364   -25.2354
  443.5000    99.3225     9.2980     2.4875     0.1003     0.1086     0.3010     6.7405     5.6653     7.4155   -25.1143
  444.0000    98.0619     8.9835     2.5064     0.1000     0.0950     0.3068     8.9624     5.8036     7.7389   -24.9930
  444.5000    98.5499     8.6616     2.5377     0.1201     0.0799     0.3034    10.2256     6.1061     7.5288   -24.8713
  445.0000    99.0570     8.3440     2.5464     0.1249     0.0842     0.3097    12.1311     6.4243     8.2284   -24.7513
  445.5000    99.5497     8.5660     2.5421     0.1080     0.0883     0.2961    11.0677     6.7590     8.7580   -24.6925
  446.0000    99.0833     8.9637     2.5365     0.0915     0.0905     0.2835    11.5872     7.1912     9.0631   -24.8444
  446.5000    98.4634     9.3608     2.5257     0.0746     0.0986     0.2819    10.2845     7.6908     9.1274   -24.9898
  447.0000    97.8402     9.7137     2.5138     0.0599     0.1065     0.2835    10.7673     8.1768     9.1922   -25.1349
  447.5000    97.2142     9.7495     2.5014     0.0375     0.1143     0.2831    10.5982     8.6920     9.2575   -25.2803
  448.0000    97.6873     9.7421     2.4814     0.0150     0.1185     0.2856    10.3575     9.0739     9.3231   -25.4251
  448.5000    98.6230     9.7217     2.4904     0.0138     0.1087     0.2839    10.1906     9.1737     9.3831   -25.5683
  449.0000    99.5607     9.7006     2.5055     0.0257     0.1031     0.2811    10.3125     9.2747     9.6380   -25.5441
  449.5000   100.4974     9.6799     2.5101     0.0367     0.1022     0.2743    10.5481     9.3767     9.8772   -25.3382
  450.0000   101.3537     9.7287     2.5126     0.0302     0.1108     0.2763    11.1359     9.4695    10.0976   -25.1340
  450.5000   100.7927     9.7846     2.4951     0.0168     0.1125     0.2729    11.6940     9.6445    10.0383   -24.9288
  451.0000   100.1831     9.8429     2.5048     0.0227     0.0970     0.2691    12.2429     9.8427    10.0054   -24.7212
  451.5000    99.5773     9.8403     2.5207     0.0304     0.0883     0.2688    12.1840    10.0450    10.2870   -24.6622
  452.0000    98.9725     9.8190     2.5364     0.0382     0.0910     0.2700    12.1284    10.2515    10.4808   -24.6612
  452.5000    98.3670     9.7972     2.5308     0.0327     0.0812     0.2800    12.8035    10.4622    10.6777   -24.6615
  453.0000    97.7608     9.7756     2.5486     0.0486     0.0745     0.2805    13.4470    10.6772    10.8781   -24.6616
  453.5000    97.1564     9.7578     2.5653     0.0665     0.0735     0.2757    13.7935    10.8976    11.0823   -24.6616
  454.0000    97.1510     9.7641     2.5565     0.0689     0.0812     0.2704    13.1245    11.0312    11.2726   -24.6616
  454.5000    98.5949     9.7700     2.5436     0.0667     0.0839     0.2724    12.9356    11.1264    11.4263   -24.6616
  455.0000   100.0524     9.7759     2.5483     0.0732     0.0807     0.2722    14.9807    11.2224    11.5872   -24.6616
  455.5000   101.5094     9.7817     2.5241     0.0582     0.1004     0.2670    14.5220    11.2726    11.4445   -24.6616
  456.0000   102.9656     9.7876     2.5097     0.0423     0.1056     0.2591    13.8722    10.9829    11.2849   -24.6616
  456.5000   104.4217     9.7933     2.5019     0.0265     0.1081     0.2540    13.4191    10.7673    11.1701   -24.6616
  457.0000   105.8780     9.7905     2.5057     0.0300     0.0986     0.2526    13.4864    10.9300    11.2745   -24.6616
  457.5000   107.3348     9.7746     2.5165     0.0367     0.0984     0.2524    13.5637    11.1192    11.3574   -24.6616
  458.0000   108.7942     9.7590     2.5210     0.0360     0.0922     0.2549    13.6416    11.3118    11.4408   -24.6616
  458.5000   109.9775     9.7429     2.5270     0.0460     0.1006     0.2573    13.9630    11.3765    11.5249   -24.6612
  459.0000   111.0034     9.7540     2.5111     0.0319     0.1054     0.2576    14.5740    11.3221    11.5872   -24.6589
  459.5000   112.0325     9.7785     2.5085     0.0190     0.0935     0.2592    14.5005    11.2851    11.5400   -24.7554
  460.0000   113.5492     9.8034     2.5337     0.0499     0.0903     0.2608    14.3903    11.2483    11.5029   -24.8643
  460.5000   115.0257     9.8284     2.5239     0.0373     0.0942     0.2603    14.1826    11.2116    11.4659   -24.9736
  461.0000   116.6068     9.8529     2.5269     0.0469     0.1001     0.2537    13.7040    11.1750    11.4290   -25.0826
  461.5000   120.7130     9.8626     2.5136     0.0365     0.1051     0.2505    13.2415    11.1385    11.3922   -25.1915
  462.0000   124.7301     9.8699     2.5047     0.0260     0.1057     0.2513    13.1751    11.1021    11.3555   -25.2682
  462.5000   128.7238     9.8773     2.5223     0.0422     0.0823     0.2473    13.7588    11.0677    11.3190   -25.3052
  463.0000   132.7143     9.8846     2.5536     0.0627     0.0791     0.2419    14.3091    11.0119    11.2826   -25.3425
  463.5000   136.7040     9.8920     2.5305     0.0503     0.0896     0.2369    13.8586    10.9589    11.2463   -25.3797
  464.0000   140.6970     9.8925     2.5359     0.0360     0.1019     0.2380    13.5395    10.9062    11.2100   -25.4169
  464.5000   144.7636     9.8870     2.5055     0.0226     0.1088     0.2417    13.7745    10.8064    11.1740   -25.4541
  465.0000   148.3692     9.8815     2.4979     0.0252     0.1122     0.2428    13.9165    10.5618    11.1380   -25.4914
