~VERSION INFORMATION
 VERS.                2.0:   CWLS LOG ASCII STANDARD - VERSION 2.0
 WRAP.                 NO:   ONE LINE PER DEPTH STEP
~WELL INFORMATION
#MNEM.UNIT      DATA TYPE    INFORMATION
#----------   ------------   ------------------------------
 STRT.F          100.0000:   START DEPTH
 STOP.F         1196.0000:   STOP DEPTH
 STEP.F            0.5000:   STEP LENGTH
 NULL.          -999.2500:   NO VALUE
 COMP. DEPARTMENT OF ENERGY:   COMPANY
 WELL.     NRP ##3 77S-11:   WELL
 FLD .             TEAPOT:   FIELD
 LOC .      S11 T38N R78W:   LOCATION
 CNTY.            NATRONA:   COUNTY
 STAT.            WYOMING:   STATE
 CTRY. UNITED STATES OF AMERICA:   COUNTRY
 SRVC.       Schlumberger:   SERVICE COMPANY
 DATE.        18-AUG-1959:   LOGDATE
 API .       490250632900:   API NUMBER
~CURVE INFORMATION
#MNEM.UNIT       API CODE    CURVE DESCRIPTION
#----------   ------------   ------------------------------
 DEPT.F                  :   
 SPR .MV     05 010 01 00:   SPONTANEOUS POTENTIAL FROM RES.
 ASN .OHMM   05 041 16 00:   AMPLIFIED SHORT NORMAL 16"
 ILD .OHMM   05 120 46 00:   INDUCTION LOG DEEP
 CILD.MMHO   05 110 46 00:   CONDUCTIVITY INDUCTION LOG DEEP
~PARAMETER INFORMATION
#MNEM.UNIT          VALUE    DESCRIPTION
#----------   ------------   ------------------------------
 PD  .                 GL:   PERMANENT DATUM
 EPD .F              5258:   ELEVATION PERMANENT DATUM
 LMF .                 KB:   LOG MEASURED FROM
 DAPD.F                 4:   FEET ABOVE PERMANENT DATUM
 DMF .                 KB:   DRILLING MEASURED FROM
 EKB .F              5262:   KELLING BUSHING
 EGL .F              5258:   GROUND LEVEL
 DATE.            8-18-59:   RUN DATE
 RUN .                  1:   RUN NUMBER
 DD  .F              1200:   DEPTH DRILLER
 DL  .F              1201:   DEPTH LOGGER
 BLI .F              1196:   BOTTOM LOG INTERVAL
 TLI .F               100:   TOP LOG INTERVAL
 CBD .F                17:   CASING BOTTOM DRILLER
 BS  .IN             6.75:   BIT SIZE
 BSD .F              1200:   BIT SIZE AT DEPTH
 DFT . GEL-OIL-PHDS-CAUSTIC:   DRILLING FLUID TYPE
 DFD .               10.8:   DRILLING FLUID DENSITY
 DFV .                 60:   DRILLING FLUID VISCOSITY
 DFPH.                  9:   DRILLING FLUID PH
 DFL .                  4:   DRILLING FLUID LOSS
 RMS .OHMM            1.8:   RESISTIVITY MUD SAMPLE
 MST .F                90:   MUD SAMPLE TEMPERATURE
 RMF .OHMM            1.5:   RESISTIVITY MUD FILTRATE SAMPLE
 MFST.F                90:   MUD FILTRATE SAMPLE TEMPERATURE
 RMC .OHMM              2:   RESISTIVITY MUD CAKE
 MCST.F                90:   MUD CAKE SAMPLE TEMPERATURE
 TCS .HRS               1:   TIME CURCULATED STOPPED
 LUN .               2523:   LOGGING UNIT NUMBER
 LUL .               CSPR:   LOGGING UNIT LOCATION
 ENGI.             KNOBEL:   RECORDING ENGINEER
 WITN.             MARTIN:   WITNESSED BY
 CLNT.            A2DTECH:   CLIENT CODE
 ORIG.     1", 2.5" PRINT:   ORIGIN OF DATA
 UWI .       490250632900:   UNIQUE WELL ID
 DICO. A2D Technologies, Inc.:   DIGITIZING COMPANY
~OTHER INFORMATION
~A   DEPT      SPR          ASN        ILD      CILD  
# ...
  684.0000   -34.1875     7.0879     6.4550   150.8392
  684.5000   -34.2194     7.2506     6.5221   148.4988
  685.0000   -34.1724     7.3861     6.6040   146.1584
  685.5000   -34.0582     7.4912     6.6908   143.8180
  686.0000   -33.9230     7.5661     6.7853   141.4775
  686.5000   -33.8004     7.6056     6.8837   139.1371
  687.0000   -33.6926     7.6245     6.9575   136.7967
  687.5000   -33.5816     7.6526     6.9806   133.8652
  688.0000   -33.4498     7.6923     6.9645   133.2092
  688.5000   -33.3076     7.7093     6.9440   132.0922
  689.0000   -33.2002     7.6723     6.9356   133.2411
  689.5000   -33.1657     7.5915     6.9294   134.8209
  690.0000   -33.1893     7.5036     6.9164   136.4007
  690.5000   -33.2218     7.4295     6.9025   137.9805
  691.0000   -33.2381     7.3541     6.8937   139.5603
  691.5000   -33.2501     7.2546     6.8851   141.1401
  692.0000   -33.2703     7.1446     6.8711   142.7199
  692.5000   -33.2928     7.0772     6.8577   144.2997
  693.0000   -33.3108     7.0915     6.8526   145.8794
  693.5000   -33.3280     7.1771     6.8455   148.0497
  694.0000   -33.3479     7.3075     6.8229   146.9503
  694.5000   -33.3671     7.4866     6.8024   145.1950
  695.0000   -33.3844     7.7291     6.8281   143.4397
  695.5000   -33.4041     8.0028     6.9319   140.9574
  696.0000   -33.4255     8.2310     7.1201   138.7293
  696.5000   -33.4425     8.3605     7.3903   134.9261
  697.0000   -33.4563     8.4097     7.7117   131.1229
  697.5000   -33.4791     8.4355     7.9855   127.3197
  698.0000   -33.5090     8.4676     8.0912   123.5165
  698.5000   -33.5143     8.4838     8.0108   117.9078
  699.0000   -33.4581     8.4421     7.8551   119.2908
  699.5000   -33.3364     8.3272     7.7323   123.2270
  700.0000   -33.1862     8.1582     7.6381   123.2270
  700.5000   -33.0506     7.9682     7.5148   128.5461
  701.0000   -32.9350     7.7844     7.3592   130.3192
  701.5000   -32.8046     7.6240     7.2123   134.1888
  702.0000   -32.6444     7.4873     7.0911   136.8085
  702.5000   -32.5127     7.3585     6.9851   139.4282
  703.0000   -32.4930     7.2373     6.8834   142.0479
  703.5000   -32.5906     7.1699     6.7659   144.6676
  704.0000   -32.7293     7.1968     6.6191   146.2766
  704.5000   -32.8564     7.2783     6.4986   151.5957
  705.0000   -32.9816     7.3401     6.5133   151.5957
  705.5000   -33.0954     7.4163     6.6977   147.0984
  706.0000   -33.1291     7.6504     6.9573   143.7801
  706.5000   -33.0438     8.0992     7.1831   140.4619
  707.0000   -32.8947     8.6116     7.3589   137.1436
  707.5000   -32.7617     8.9688     7.5303   133.8253
  708.0000   -32.6584     9.0897     7.7235   130.5071
  708.5000   -32.5492     9.0426     7.9246   127.1888
  709.0000   -32.4208     8.9126     8.0936   123.8706
  709.5000   -32.2966     8.7379     8.1790   120.5523
  710.0000   -32.1898     8.5452     8.1602   117.9078
  710.5000   -32.0790     8.3782     8.0797   120.0089
  711.0000   -31.9440     8.2793     8.0011   121.7553
  711.5000   -31.8167     8.2629     7.9439   123.2270
  712.0000   -31.7661     8.3049     7.8869   123.9007
  712.5000   -31.8219     8.3512     7.8191   124.4829
  713.0000   -31.9364     8.3495     7.7510   125.0000
  713.5000   -32.0434     8.2780     7.6889   126.6179
  714.0000   -32.1309     8.1486     7.6262   128.0733
  714.5000   -32.2250     7.9917     7.5607   129.5287
  715.0000   -32.3287     7.8428     7.4963   130.9840
  715.5000   -32.4215     7.7294     7.4332   132.4394
  716.0000   -32.5091     7.6550     7.3675   133.8948
  716.5000   -32.6182     7.6051     7.3015   135.3502
  717.0000   -32.7307     7.5711     7.2402   136.8056
  717.5000   -32.7739     7.5626     7.1792   138.2609
  718.0000   -32.7029     7.5878     7.1086   139.7163
  718.5000   -32.5597     7.6347     7.0372   141.1717
  719.0000   -32.4186     7.6781     6.9943   142.7305
  719.5000   -32.2993     7.7025     6.9991   141.9193
  720.0000   -32.1730     7.7166     7.0359   141.0461
  720.5000   -32.0353     7.7434     7.0746   140.1729
  721.0000   -31.9115     7.7916     7.1039   139.2997
  721.5000   -31.7962     7.8425     7.1320   138.4264
  722.0000   -31.6516     7.8772     7.1648   137.5532
  722.5000   -31.4941     7.9071     7.1986   136.6800
  723.0000   -31.4213     7.9566     7.2298   135.8067
  723.5000   -31.5076     8.0233     7.2600   134.9335
  724.0000   -31.7099     8.0784     7.2926   134.0603
  724.5000   -31.9248     8.1105     7.3308   133.1871
  725.0000   -32.1095     8.1392     7.3775   132.0922
  725.5000   -32.2937     8.1825     7.4329   132.0922
  726.0000   -32.4940     8.2296     7.4923   131.4539
  726.5000   -32.6878     8.2611     7.5506   130.5807
  727.0000   -32.8698     8.2876     7.6074   129.7074
  727.5000   -33.0701     8.3366     7.6662   128.8334
  728.0000   -33.2920     8.3963     7.7262   127.9518
  728.5000   -33.4830     8.4202     7.7826   127.1053
  729.0000   -33.5985     8.4228     7.8369   126.1981
  729.5000   -33.6608     8.5071     7.8978   125.0186
  730.0000   -33.7247     8.7273     7.9627   124.0815
  730.5000   -33.8092     8.9765     8.0155   122.5921
  731.0000   -33.8955     9.1023     8.0595   121.1129
  731.5000   -33.9714     9.0940     8.1306   119.5659
  732.0000   -34.0452     9.0653     8.2451   118.1532
  732.5000   -34.1250     9.0809     8.3560   116.5362
  733.0000   -34.2070     9.1045     8.4044   114.4460
  733.5000   -34.2850     9.1051     8.3976   114.2656
  734.0000   -34.3600     9.1117     8.3889   115.1282
  734.5000   -34.4384     9.1532     8.3941   115.3506
  735.0000   -34.5218     9.2181     8.3880   115.8910
  735.5000   -34.6013     9.2939     8.3798   116.1348
  736.0000   -34.6716     9.3964     8.4244   113.6170
  736.5000   -34.7481     9.5498     8.5434   111.8706
  737.0000   -34.8426     9.7505     8.6932   110.1241
  737.5000   -34.9231     9.9524     8.8270   108.3777
  738.0000   -34.9292    10.0941     8.9443   106.6312
  738.5000   -34.8438    10.1587     9.0633   104.8848
  739.0000   -34.7164    10.2038     9.1825   103.1383
  739.5000   -34.6017    10.3104     9.2902   101.3918
  740.0000   -34.5063    10.4978     9.3857    99.6454
  740.5000   -34.4084    10.7102     9.4757    97.8989
  741.0000   -34.3001    10.8821     9.5646    96.1525
  741.5000   -34.1910    10.9975     9.6545    94.4060
  742.0000   -34.0884    11.0801     9.7421    93.0851
  742.5000   -33.9904    11.1495     9.8233    91.7819
  743.0000   -33.8876    11.2090     9.9076    90.6478
  743.5000   -33.7756    11.2669    10.0068    89.7198
  744.0000   -33.6675    11.3312    10.0997    88.5438
  744.5000   -33.5764    11.3771    10.1347    87.8024
  745.0000   -33.4808    11.3499    10.0887    89.0338
  745.5000   -33.3511    11.2247    10.0000    90.3287
  746.0000   -33.2291    11.0351     9.9186    91.3739
  746.5000   -33.2420    10.8325     9.8499    92.6564
  747.0000   -33.4897    10.6553     9.7739    93.7152
  747.5000   -33.9166    10.5400     9.6961    94.9846
  748.0000   -34.3251    10.5094     9.6423    96.0549
  748.5000   -34.5305    10.5396     9.6152    97.3144
  749.0000   -34.5024    10.5821     9.5894    98.3585
  749.5000   -34.3535    10.6234     9.5488    98.4418
  750.0000   -34.2051    10.6670     9.5015    98.8596
  750.5000   -34.0881    10.6638     9.4593    99.4142
  751.0000   -33.9717    10.5406     9.4207    99.8421
  751.5000   -33.8413    10.3224     9.3797   100.3737
  752.0000   -33.7108    10.1582     9.3368   100.8240
  752.5000   -33.5854    10.1725     9.2950   101.3315
  753.0000   -33.4592    10.3313     9.2543   101.8000
  753.5000   -33.3351    10.4893     9.2130   102.2904
  754.0000   -33.2144    10.5447     9.1716   102.7706
  754.5000   -33.0819    10.5147     9.1303   103.2552
  755.0000   -32.9387    10.4868     9.0886   103.7358
  755.5000   -32.8293    10.5147     9.0469   104.2241
  756.0000   -32.8054    10.5520     9.0061   104.6970
  756.5000   -32.8688    10.4843     8.9656   105.1964
