~VERSION INFORMATION
 VERS.                2.0:   CWLS LOG ASCII STANDARD - VERSION 2.0
 WRAP.                 NO:   ONE LINE PER DEPTH STEP
~WELL INFORMATION
#MNEM.UNIT      DATA TYPE    INFORMATION
#----------   ------------   ------------------------------
 STRT.F           80.0000:   START DEPTH
 STOP.F          715.0000:   STOP DEPTH
 STEP.F            0.5000:   STEP LENGTH
 NULL.          -999.2500:   NO VALUE
 COMP. U S NAVY-INTEX OIL:   COMPANY
 WELL.     NPR #3 #37-S-2:   WELL
 FLD .             TEAPOT:   FIELD
 LOC .       S2 T38N R78W:   LOCATION
 CNTY.            NATRONA:   COUNTY
 STAT.            WYOMING:   STATE
 CTRY. UNITED STATES OF AMERICA:   COUNTRY
 SRVC.       Schlumberger:   SERVICE COMPANY
 DATE.        21-JUN-1962:   LOGDATE
 API .       490250640600:   API NUMBER
~CURVE INFORMATION
#MNEM.UNIT       API CODE    CURVE DESCRIPTION
#----------   ------------   ------------------------------
 DEPT.F                  :   
 ASN .OHMM   05 041 16 00:   AMPLIFIED SHORT NORMAL 16"
 CILD.MMHO   05 110 46 00:   CONDUCTIVITY INDUCTION LOG DEEP
 ILD .OHMM   05 120 46 00:   INDUCTION LOG DEEP
 SPR .MV     05 010 01 00:   SPONTANEOUS POTENTIAL FROM RES.
 GR  .GAPI   30 310 01 00:   GAMMA RAY
~PARAMETER INFORMATION
#MNEM.UNIT          VALUE    DESCRIPTION
#----------   ------------   ------------------------------
 LMF .                 KB:   LOG MEASURED FROM
 DMF .                 KB:   DRILLING MEASURED FROM
 EKB .F              5159:   KELLING BUSHING
 EGL .F              5154:   GROUND LEVEL
 DATE.        21-JUN-1962:   RUN DATE
 RUN .                  1:   RUN NUMBER
 DD  .F               715:   DEPTH DRILLER
 DL  .F               716:   DEPTH LOGGER
 BLI .F               715:   BOTTOM LOG INTERVAL
 TLI .F                80:   TOP LOG INTERVAL
 BS  .IN             6.75:   BIT SIZE
 BSD .F               715:   BIT SIZE AT DEPTH
 DFT .       OIL-EMULSION:   DRILLING FLUID TYPE
 DFD .                9.3:   DRILLING FLUID DENSITY
 DFV .                 50:   DRILLING FLUID VISCOSITY
 DFL .                3.8:   DRILLING FLUID LOSS
 RMS .OHMM            3.9:   RESISTIVITY MUD SAMPLE
 MST .F                72:   MUD SAMPLE TEMPERATURE
 RMF .OHMM            2.6:   RESISTIVITY MUD FILTRATE SAMPLE
 MFST.F                72:   MUD FILTRATE SAMPLE TEMPERATURE
 RMC .OHMM            5.2:   RESISTIVITY MUD CAKE
 MCST.F                72:   MUD CAKE SAMPLE TEMPERATURE
 TCS .HRS               1:   TIME CURCULATED STOPPED
 LUN .               2503:   LOGGING UNIT NUMBER
 LUL .               CSPR:   LOGGING UNIT LOCATION
 ENGI.             DANNER:   RECORDING ENGINEER
 WITN.          JORGENSEN:   WITNESSED BY
 CLNT.            A2DTECH:   CLIENT CODE
 ORIG.           5" PRINT:   ORIGIN OF DATA
 UWI .       490250640600:   UNIQUE WELL ID
 DICO. A2D Technologies, Inc.:   DIGITIZING COMPANY
~OTHER INFORMATION
~A   DEPT        ASN      CILD         ILD      SPR         GR   
# ...
  507.0000     8.5279   125.5491     7.8854   -72.7380   102.6028
  507.5000     8.3318   125.4821     7.8889   -72.4009   101.5478
  508.0000     8.2103   125.4151     7.8919   -70.5836    98.0672
  508.5000     8.0598   126.1224     7.8949   -70.2698    99.3090
  509.0000     7.8749   129.8265     7.8978   -70.8706    91.3708
  509.5000     7.6744   135.0625     7.7499   -71.9287    90.8080
  510.0000     7.4123   143.3289     7.6767   -72.3792   110.8836
  510.5000     7.2314   153.1103     7.5296   -71.3010   114.0840
  511.0000     6.9747   165.1646     7.0801   -70.5298   107.5639
  511.5000     6.7180   177.2187     6.4043   -71.1306   105.4452
  512.0000     6.1280   192.3640     5.3514   -71.5789   106.0679
  512.5000     5.6744   217.8039     4.4116   -71.2651   109.5722
  513.0000     5.2207   241.8144     3.2835   -70.0366    93.7816
  513.5000     4.7974   304.2067     2.7969   -69.2652    96.3771
  514.0000     4.5256   320.8063     2.5736   -69.2338   101.3009
  514.5000     4.2689   348.7696     2.3504   -69.0928   105.3674
  515.0000     4.0425   369.1572     2.2017   -69.0838   100.0631
  515.5000     3.8010   388.0296     2.2054   -69.2273   101.8987
  516.0000     3.6352   403.8716     2.2084   -69.3707    99.4789
  516.5000     3.4846   402.2895     2.2113   -70.2764    91.5880
  517.0000     3.4398   384.0406     2.3651   -70.2674    89.7732
  517.5000     3.4712   356.7009     2.5189   -70.1082    95.5631
  518.0000     3.7146   327.0884     2.8235   -71.9263   118.9793
  518.5000     4.0185   264.1426     3.2162   -71.7649   122.6386
  519.0000     4.6709   236.8029     3.7722   -70.9937   110.1831
  519.5000     5.2222   217.5085     4.6431   -70.3750   117.3432
  520.0000     5.8808   196.2636     5.4002   -71.2806   106.8717
  520.5000     6.3335   171.4336     5.8556   -70.9446    91.0781
  521.0000     6.5125   162.2757     6.2357   -70.1934    95.0413
  521.5000     6.6302   154.6329     6.3133   -69.8795   100.2204
  522.0000     6.7068   151.5356     6.1654   -69.7181    98.4055
  522.5000     6.7532   151.4686     6.2445   -69.4043   114.6818
  523.0000     6.8147   154.4319     6.2475   -69.7024   118.1891
  523.5000     6.8762   163.4558     6.1750   -70.3009   111.8180
  524.0000     6.8771   171.7221     6.1780   -70.9017   107.8704
  524.5000     6.7568   177.7157     5.8428   -71.1999   114.1322
  525.0000     6.5456   183.7093     5.3979   -71.6460   115.2227
  525.5000     6.3646   189.7029     4.9802   -71.4846   120.9870
  526.0000     6.1837   198.7268     4.8331   -70.8658   119.7831
  526.5000     6.0331   206.3331     4.6845   -70.2469   118.5791
  527.0000     5.8370   211.5555     4.5373   -70.4116   111.2962
  527.5000     5.6410   214.5707     4.2386   -71.2940   100.5178
  528.0000     5.6873   213.5936     4.0907   -71.5921    94.7545
  528.5000     5.8852   206.7084     4.2445   -71.4285    93.7026
  529.0000     5.9770   199.0656     4.6246   -70.8097    91.8908
  529.5000     6.1143   191.4228     4.9292   -70.3434    94.4065
  530.0000     6.3121   181.5073     5.3092   -69.8772   109.6957
  530.5000     6.5555   173.1070     5.7710   -69.5633   100.1331
  531.0000     6.9524   166.2218     6.0819   -69.2517   106.8348
  531.5000     7.2268   159.3366     6.5254   -70.1551   105.0230
  532.0000     7.5679   149.4211     6.7546   -71.2132   104.7279
  532.5000     7.8583   142.5359     6.9084   -70.7469    98.0558
  533.0000     8.1511   137.9235     7.1376   -69.8048   101.4082
  533.5000     8.2884   132.5353     7.3668   -69.2043    99.9003
  534.0000     8.2739   129.4545     7.4452   -69.0409   110.0975
  534.5000     8.2295   130.2677     7.4481   -68.8795   107.3680
  535.0000     8.1698   131.5948     7.3757   -68.8705   104.8021
  535.5000     8.0495   134.5581     7.1524   -68.8615   116.9750
  536.0000     7.9292   140.5350     7.0045   -68.8526   118.2027
  536.5000     7.8089   145.0134     6.8442   -68.8436   116.5428
  537.0000     7.6734   148.7343     6.6209   -69.1418   105.0046
  537.5000     7.5380   152.4551     6.4108   -69.4377   108.5119
  538.0000     7.3571   158.4655     6.1875   -69.8838   101.5329
  538.5000     7.1913   165.1999     5.8888   -70.3321   105.4961
  539.0000     6.9649   175.7390     5.3639   -70.6280   106.4964
  539.5000     6.7688   196.1265     4.7635   -71.2288   106.4270
  540.0000     6.5273   208.9383     4.4641   -71.2195   106.7475
  540.5000     6.3464   212.6591     4.3916   -70.9037   104.4086
  541.0000     5.9685   210.9644     4.4707   -70.2850    99.1755
  541.5000     5.9014   205.4877     4.4737   -69.6663   106.6312
  542.0000     6.1673   201.0586     4.6275   -69.0475   103.4515
  542.5000     6.2139   197.1114     4.5550   -68.7337   111.6731
  543.0000     6.3261   192.5911     4.7215   -68.8794   106.5178
  543.5000     6.8445   183.2578     5.2404   -69.3255    99.5387
  544.0000     7.3077   168.3941     5.8466   -69.3165   108.2132
  544.5000     7.6227   151.4947     6.6037   -69.4600   112.6324
  545.0000     7.8699   140.8216     7.0592   -69.9083   112.9482
  545.5000     8.0223   134.6940     7.2130   -70.0518   110.6611
  546.0000     8.1595   133.1118     7.2159   -70.3477   108.5676
  546.5000     8.2211   133.8024     7.0681   -70.1860   110.7072
  547.0000     8.2977   134.5097     7.0710   -69.8702   106.9197
  547.5000     8.3592   134.4259     7.0740   -69.8612   101.0055
  548.0000     8.4056   132.8438     7.0769   -69.6998    96.9140
  548.5000     8.4671   132.0192     7.1554   -69.6908   106.3484
  549.0000     8.4983   130.4371     7.2338   -69.6818   108.1810
  549.5000     8.5598   129.6125     7.2374   -69.5204   110.0195
  550.0000     8.6819   131.8182     7.1642   -69.5114   121.1256
  550.5000     8.8343   135.5390     7.2433   -69.5025   130.2560
  551.0000     9.0625   135.4697     7.3216   -69.6463   130.5897
  551.5000     9.0785   133.1156     7.3246   -70.0943   113.1065
  552.0000     9.0643   130.0182     7.4784   -70.9999   108.2552
  552.5000     9.0197   127.6785     7.5567   -71.6083   116.7777
  553.0000     9.1115   125.3388     7.5597   -72.2015   107.2180
  553.5000     9.5821   122.2415     7.6381   -72.4952   110.1175
  554.0000     9.9174   118.3866     7.8673   -72.6409   107.0898
  554.5000    10.6914   113.7741     8.1028   -72.3248   106.4938
  555.0000    11.1470   107.6465     8.5144   -71.4012   104.6819
  555.5000    11.7541   102.2765     9.3852   -70.3251    90.4081
  556.0000    12.6763    95.3913     9.9914   -70.3161    74.4625
  556.5000    13.7273    87.7485    10.5977   -71.0694    61.5565
  557.0000    16.7575    80.1057    11.5056   -71.6702    53.4498
  557.5000    19.0312    72.3861    13.0169   -72.7282    37.5209
  558.0000    21.3050    64.6360    14.5281   -75.4631    10.2273
  558.5000    23.4272    55.6455    16.6427   -79.2650     7.0476
  559.0000    26.3071    49.5179    18.7367   -81.8475     4.4759
  559.5000    30.3990    44.1479    20.0247   -82.7714     2.3601
  560.0000    32.5213    41.7474    20.4832   -83.3740     1.6092
  560.5000    34.0375    40.9594    20.6399   -84.5622     1.7730
  561.0000    34.8718    40.1713    20.8721   -85.6203    -3.9872
  561.5000    35.5600    39.1667    21.0289   -86.5260    -5.7991
  562.0000    35.5557    38.3333    21.3364   -85.7548    -3.6595
  562.5000    35.3297    37.4861    21.7195   -84.2214    11.3222
  563.0000    35.2548    37.4117    22.1780   -83.6027    17.4650
  563.5000    35.7106    37.3374    22.0985   -83.5937    16.6173
  564.0000    36.4692    37.2631    21.8881   -83.2799     9.8476
  564.5000    37.3793    37.1887    21.7432   -84.0331     9.4619
  565.0000    37.3044    37.1144    21.8260   -86.0058     8.3579
  565.5000    37.6844    36.2825    22.2845   -86.6067    10.0485
  566.0000    38.1400    35.4506    22.6675   -86.2886    22.0696
  566.5000    37.9896    35.3762    22.2209   -84.7196    19.6530
  567.0000    37.6785    35.3019    21.6235   -83.6585    21.0358
  567.5000    35.8023    37.5256    20.9507   -83.5196    20.5912
