~VERSION INFORMATION
 VERS.                2.0:   CWLS LOG ASCII STANDARD - VERSION 2.0
 WRAP.                 NO:   ONE LINE PER DEPTH STEP
~WELL INFORMATION
#MNEM.UNIT      DATA TYPE    INFORMATION
#----------   ------------   ------------------------------
 STRT.F           85.0000:   START DEPTH
 STOP.F          780.0000:   STOP DEPTH
 STEP.F            0.5000:   STEP LENGTH
 NULL.          -999.2500:   NO VALUE
 COMP. U S NAVY-INTEX OIL:   COMPANY
 WELL.        NPR #47-S-2:   WELL
 FLD .             TEAPOT:   FIELD
 LOC .       S2 T38N R78W:   LOCATION
 CNTY.            NATRONA:   COUNTY
 STAT.            WYOMING:   STATE
 CTRY. UNITED STATES OF AMERICA:   COUNTRY
 SRVC.       Schlumberger:   SERVICE COMPANY
 DATE.        30-JUN-1962:   LOGDATE
 API .       490250640200:   API NUMBER
~CURVE INFORMATION
#MNEM.UNIT       API CODE    CURVE DESCRIPTION
#----------   ------------   ------------------------------
 DEPT.F                  :   
 SPR .MV     05 010 01 00:   SPONTANEOUS POTENTIAL FROM RES.
 ASN .OHMM   05 041 18 00:   AMPLIFIED SHORT NORMAL 18"
 ILD .OHMM   05 120 46 00:   INDUCTION LOG DEEP
 CILD.MMHO   05 110 46 00:   CONDUCTIVITY INDUCTION LOG DEEP
 CALM.IN     15 280 01 00:   CALIPER FROM MICRO LOG
 GR  .GAPI   30 310 01 00:   GAMMA RAY
~PARAMETER INFORMATION
#MNEM.UNIT          VALUE    DESCRIPTION
#----------   ------------   ------------------------------
 PD  .                 KB:   PERMANENT DATUM
 LMF .                 KB:   LOG MEASURED FROM
 DMF .                 KB:   DRILLING MEASURED FROM
 EKB .F              5175:   KELLING BUSHING
 EGL .F              5170:   GROUND LEVEL
 DATE.          6-30-1962:   RUN DATE
 RUN .                  1:   RUN NUMBER
 DD  .F               775:   DEPTH DRILLER
 DL  .F               781:   DEPTH LOGGER
 BLI .F               780:   BOTTOM LOG INTERVAL
 TLI .F                86:   TOP LOG INTERVAL
 BS  .IN             6.75:   BIT SIZE
 BSD .F               775:   BIT SIZE AT DEPTH
 DFT .            GEL-OIL:   DRILLING FLUID TYPE
 DFD .                 10:   DRILLING FLUID DENSITY
 DFV .                 50:   DRILLING FLUID VISCOSITY
 DFL .                3.6:   DRILLING FLUID LOSS
 MSS .           FLOWLINE:   MUD SAMPLE SOURCE
 RMS .OHMM           5.75:   RESISTIVITY MUD SAMPLE
 MST .F                69:   MUD SAMPLE TEMPERATURE
 RMF .OHMM           4.96:   RESISTIVITY MUD FILTRATE SAMPLE
 MFST.F                69:   MUD FILTRATE SAMPLE TEMPERATURE
 RMC .OHMM           4.80:   RESISTIVITY MUD CAKE
 MCST.F                69:   MUD CAKE SAMPLE TEMPERATURE
 RMB .OHMM           5.13:   RESISTIVITY MUD AT BHT
 BHT .F                78:   BOTTOM HOLE TEMPERATURE
 TCS .HRS               1:   TIME CURCULATED STOPPED
 MRT .F                78:   MAXIMUM RECORDED TEMPERATURE
 LUN .               2503:   LOGGING UNIT NUMBER
 LUL .              CSPR.:   LOGGING UNIT LOCATION
 ENGI.             KNOBEL:   RECORDING ENGINEER
 WITN.          JORGENSEN:   WITNESSED BY
 CLNT.            A2DTECH:   CLIENT CODE
 ORIG.      2" & 5" PRINT:   ORIGIN OF DATA
 UWI .       490250640200:   UNIQUE WELL ID
 DICO. A2D Technologies, Inc.:   DIGITIZING COMPANY
~OTHER INFORMATION
~A   DEPT      SPR        ASN        ILD         CILD     CALM         GR   
# ...
  189.0000   -31.0177     6.1144     5.3812   201.3392  -999.2500  -999.2500
  189.5000   -30.8659     6.0194     5.2250   208.8655  -999.2500  -999.2500
  190.0000   -30.5654     5.7969     5.0075   211.8804  -999.2500  -999.2500
  190.5000   -30.4136     5.3387     4.8580   214.8954  -999.2500  -999.2500
  191.0000   -30.2619     4.9647     4.7085   217.1585  -999.2500  -999.2500
  191.5000   -30.1101     4.8153     4.5590   220.1735  -999.2500  -999.2500
  192.0000   -29.8095     4.7706     4.4096   219.4290  -999.2500  -999.2500
  192.5000   -29.8165     5.1452     4.4843   217.9309  -999.2500  -999.2500
  193.0000   -30.2659     5.5647     4.7085   213.4289  -999.2500  -999.2500
  193.5000   -30.5448     5.9093     5.0075   200.6544  -999.2500  -999.2500
  194.0000   -30.3929     6.1192     5.4559   187.8799  -999.2500  -999.2500
  194.5000   -30.2405     6.2991     5.9043   180.3685  -999.2500  -999.2500
  195.0000   -30.3871     6.3593     6.2033   174.3610  -999.2500  -999.2500
  195.5000   -30.6810     6.3895     6.4275   170.6066  -999.2500  -999.2500
  196.0000   -30.8276     6.4800     6.4275   166.8268  -999.2500  -999.2500
  196.5000   -30.8240     6.6163     6.5022   163.0476  -999.2500  -999.2500
  197.0000   -30.6722     6.6599     6.5022   160.0202  -999.2500  -999.2500
  197.5000   -30.5204     6.6282     6.5770   157.7443  -999.2500  -999.2500
  198.0000   -30.5175     6.6357     6.8012   155.4689  -999.2500  -999.2500
  198.5000   -30.5145     6.7656     6.8759   152.6105  -999.2500  -999.2500
  199.0000   -30.3628     6.8707     6.8759   150.3623  -999.2500  -999.2500
  199.5000   -30.2110     6.9758     6.8012   148.1141  -999.2500  -999.2500
  200.0000   -30.0595     7.0210     6.8012   147.3678  -999.2500  -999.2500
  200.5000   -30.6533     6.9162     6.5479   151.8749  -999.2500  -999.2500
  201.0000   -30.8026     6.7814     6.2947   154.8970  -999.2500  -999.2500
  201.5000   -30.9479     6.6317     6.0414   159.3836  -999.2500  -999.2500
  202.0000   -30.9464     6.4521     5.7528   163.8900  -999.2500  -999.2500
  202.5000   -30.7961     6.2725     5.5282   169.1979  -999.2500  -999.2500
  203.0000   -30.4970     6.0778     5.2362   176.0305  -999.2500  -999.2500
  203.5000   -30.3398     5.8683     5.0040   183.4933  -999.2500  -999.2500
  204.0000   -30.0396     5.5539     4.6298   195.0179  -999.2500  -999.2500
  204.5000   -29.7395     5.3593     4.3303   210.8435  -999.2500  -999.2500
  205.0000   -29.4395     5.1796     4.0309   225.9144  -999.2500  -999.2500
  205.5000   -29.1393     5.0000     3.8062   237.9806  -999.2500  -999.2500
  206.0000   -28.7024     4.7605     3.4471   266.9464  -999.2500  -999.2500
  206.5000   -28.5392     4.4611     3.2236   283.6543  -999.2500  -999.2500
  207.0000   -28.4018     4.2365     3.2244   286.2563  -999.2500  -999.2500
  207.5000   -28.6980     4.1168     3.2998   284.7339  -999.2500  -999.2500
  208.0000   -28.8453     4.0269     3.4501   283.2151  -999.2500  -999.2500
  208.5000   -28.9926     3.9970     3.6750   280.9445  -999.2500  -999.2500
  209.0000   -28.9911     4.1617     3.9000   278.6738  -999.2500  -999.2500
  209.5000   -28.9896     4.4461     4.1997   274.1476  -999.2500  -999.2500
  210.0000   -29.1370     4.7455     4.5741   264.3582  -999.2500  -999.2500
  210.5000   -29.1354     4.9551     4.8738   240.2830  -999.2500  -999.2500
  211.0000   -29.1339     5.0898     5.0988   213.9522  -999.2500  -999.2500
  211.5000   -28.9836     5.1647     5.1743   199.6515  -999.2500  -999.2500
  212.0000   -28.9821     5.2096     5.1001   189.1102  -999.2500  -999.2500
  212.5000   -28.9806     5.2246     5.1010   184.5877  -999.2500  -999.2500
  213.0000   -29.1280     5.2246     5.0268   191.3359  -999.2500  -999.2500
  213.5000   -29.1265     5.2246     5.0278   192.8284  -999.2500  -999.2500
  214.0000   -29.2739     5.1946     4.9536   192.8097  -999.2500  -999.2500
  214.5000   -29.2723     5.1647     4.8798   193.5503  -999.2500  -999.2500
  215.0000   -29.2705     5.1347     4.8805   195.0354  -999.2500  -999.2500
  215.5000   -29.1202     5.0449     4.8063   198.0279  -999.2500  -999.2500
  216.0000   -28.9699     4.9251     4.6578   207.0354  -999.2500  -999.2500
  216.5000   -28.8197     4.7904     4.5089   219.8024  -999.2500  -999.2500
  217.0000   -28.5205     4.4457     4.1361   237.8326  -999.2500  -999.2500
  217.5000   -28.2214     4.1908     3.4642   277.6672  -999.2500  -999.2500
  218.0000   -28.0711     3.8898     2.7923   337.8026  -999.2500  -999.2500
  218.5000   -28.0697     3.4248     2.3446   400.1936  -999.2500  -999.2500
  219.0000   -27.9194     3.1566     1.9717   439.2763  -999.2500  -999.2500
  219.5000   -27.7691     3.1437     1.8975   457.3065  -999.2500  -999.2500
  220.0000   -27.9168     3.2794     2.0479   461.0546  -999.2500  -999.2500
  220.5000   -28.0641     3.3084     2.1981   448.2540  -999.2500  -999.2500
  221.0000   -28.2114     3.1873     2.4978   442.2239  -999.2500  -999.2500
  221.5000   -28.3587     3.0645     2.9470   426.4194  -999.2500  -999.2500
  222.0000   -28.2081     3.3394     3.3962   375.2766  -999.2500  -999.2500
  222.5000   -28.2066     3.9678     3.9201   312.1038  -999.2500  -999.2500
  223.0000   -28.2051     4.3900     4.3693   263.9685  -999.2500  -999.2500
  223.5000   -28.2036     4.4910     4.6689   224.1039  -999.2500  -999.2500
  224.0000   -28.2021     4.4760     4.6697   206.0438  -999.2500  -999.2500
  224.5000   -28.0518     4.5083     4.6841   199.2656  -999.2500  -999.2500
  225.0000   -28.0503     4.5509     4.6712   206.7657  -999.2500  -999.2500
  225.5000   -28.0489     4.5210     4.5972   218.0289  -999.2500  -999.2500
  226.0000   -28.1962     4.5387     4.5232   223.2770  -999.2500  -999.2500
  226.5000   -28.3439     4.5659     4.3745   223.2621  -999.2500  -999.2500
  227.0000   -28.3420     4.5060     4.2257   224.0027  -999.2500  -999.2500
  227.5000   -28.1917     4.4012     4.0770   226.2396  -999.2500  -999.2500
  228.0000   -28.1902     4.2814     3.8535   232.9915  -999.2500  -999.2500
  228.5000   -28.0399     4.1916     3.7048   243.5029  -999.2500  -999.2500
  229.0000   -27.8897     4.1018     3.4813   255.5180  -999.2500  -999.2500
  229.5000   -27.7394     3.9671     3.2579   274.2999  -999.2500  -999.2500
  230.0000   -27.5891     3.7275     2.8102   335.1872  -999.2500  -999.2500
  230.5000   -27.5876     3.3982     2.4359   375.0219  -999.2500  -999.2500
  231.0000   -27.5861     3.1886     2.1390   414.1046  -999.2500  -999.2500
  231.5000   -27.4358     2.9641     2.1398   430.6310  -999.2500  -999.2500
  232.0000   -27.5835     3.2335     2.1405   432.6724  -999.2500  -999.2500
  232.5000   -27.7304     3.3533     2.2970   420.8266  -999.2500  -999.2500
  233.0000   -27.8781     3.2186     2.5232   405.7740  -999.2500  -999.2500
  233.5000   -28.0255     3.0090     2.8241   389.9695  -999.2500  -999.2500
  234.0000   -28.1728     2.9192     3.2098   367.3981  -999.2500  -999.2500
  234.5000   -28.3201     4.4760     3.5755   335.0523  -999.2500  -999.2500
  235.0000   -28.3183     4.8952     3.8764   285.4133  -999.2500  -999.2500
  235.5000   -28.3168     4.7904     4.2521   251.5637  -999.2500  -999.2500
  236.0000   -28.1665     4.7305     4.6130   210.9472  -999.2500  -999.2500
  236.5000   -28.1650     4.8952     4.8380   199.6540  -999.2500  -999.2500
  237.0000   -28.1635     4.9850     4.9133   194.3759  -999.2500  -999.2500
  237.5000   -28.0132     4.9850     4.7645   195.1128  -999.2500  -999.2500
  238.0000   -27.8629     4.9701     4.5412   200.3813  -999.2500  -999.2500
  238.5000   -27.7126     4.9401     4.1683   207.1725  -999.2500  -999.2500
  239.0000   -27.7111     4.8503     3.8701   218.5269  -999.2500  -999.2500
  239.5000   -27.7096     4.6557     3.4971   238.1891  -999.2500  -999.2500
  240.0000   -27.8573     4.3862     3.1989   264.6613  -999.2500  -999.2500
  240.5000   -27.8555     4.0120     2.9755   294.1823  -999.2500  -999.2500
