~VERSION INFORMATION
 VERS.                2.0:   CWLS LOG ASCII STANDARD - VERSION 2.0
 WRAP.                 NO:   ONE LINE PER DEPTH STEP
~WELL INFORMATION
#MNEM.UNIT      DATA TYPE    INFORMATION
#----------   ------------   ------------------------------
 STRT.F            0.0000:   START DEPTH
 STOP.F         2660.0000:   STOP DEPTH
 STEP.F            0.5000:   STEP LENGTH
 NULL.          -999.2500:   NO VALUE
 COMP. FENIX & SCISSON INC:   COMPANY
 WELL.     101-20 #101-20:   WELL
 FLD .        TEAPOT DOME:   FIELD
 LOC .      S20 T39N R78W:   LOCATION
 CNTY.            NATRONA:   COUNTY
 STAT.            WYOMING:   STATE
 CTRY. UNITED STATES OF AMERICA:   COUNTRY
 SRVC.      NL McCullough:   SERVICE COMPANY
 DATE.        19-SEP-1965:   LOGDATE
 API .       490251022100:   API NUMBER
~CURVE INFORMATION
#MNEM.UNIT       API CODE    CURVE DESCRIPTION
#----------   ------------   ------------------------------
 DEPT.F                  :   
 GR  .GAPI   30 310 01 00:   GAMMA RAY
 CALI.IN     30 280 01 00:   CALIPER
~PARAMETER INFORMATION
#MNEM.UNIT          VALUE    DESCRIPTION
#----------   ------------   ------------------------------
 PD  .                 GL:   PERMANENT DATUM
 LMF .                 GL:   LOG MEASURED FROM
 DMF .                 GL:   DRILLING MEASURED FROM
 DATE.          9-19-1965:   RUN DATE
 RUN .                  1:   RUN NUMBER
 DD  .F              2661:   DEPTH DRILLER
 DL  .F              2659:   DEPTH LOGGER
 BLI .F              2657:   BOTTOM LOG INTERVAL
 TLI .F              2000:   TOP LOG INTERVAL
 CS  .IN              6.5:   CASING SIZE
 CBD .F              2619:   CASING BOTTOM DRILLER
 BSD .F              2661:   BIT SIZE AT DEPTH
 DFT .              WATER:   DRILLING FLUID TYPE
 TCS .HRS               1:   TIME CURCULATED STOPPED
 ENGI.        FITZSIMMONS:   RECORDING ENGINEER
 WITN.          JORGENSEN:   WITNESSED BY
 CLNT.            A2DTECH:   CLIENT CODE
 ORIG.           5" PRINT:   ORIGIN OF DATA
 UWI .       490251022100:   UNIQUE WELL ID
 DICO. A2D Technologies, Inc.:   DIGITIZING COMPANY
~OTHER INFORMATION
~A    DEPT      GR         CALI 
# ...
  972.0000  -999.2500     6.5220
  972.5000  -999.2500     6.5312
  973.0000  -999.2500     6.5403
  973.5000  -999.2500     6.5437
  974.0000  -999.2500     6.5354
  974.5000  -999.2500     6.5271
  975.0000  -999.2500     6.5359
  975.5000  -999.2500     6.5472
  976.0000  -999.2500     6.5566
  976.5000  -999.2500     6.5564
  977.0000  -999.2500     6.5564
  977.5000  -999.2500     6.5564
  978.0000  -999.2500     6.5564
  978.5000  -999.2500     6.5564
  979.0000  -999.2500     6.5564
  979.5000  -999.2500     6.5564
  980.0000  -999.2500     6.5564
  980.5000  -999.2500     6.5564
  981.0000  -999.2500     6.5564
  981.5000  -999.2500     6.5564
  982.0000  -999.2500     6.5564
  982.5000  -999.2500     6.5564
  983.0000  -999.2500     6.5564
  983.5000  -999.2500     6.5563
  984.0000  -999.2500     6.5643
  984.5000  -999.2500     6.5759
  985.0000  -999.2500     6.5732
  985.5000  -999.2500     6.5696
  986.0000  -999.2500     6.5669
  986.5000  -999.2500     6.5769
  987.0000  -999.2500     6.5871
  987.5000  -999.2500     6.5975
  988.0000  -999.2500     6.6035
  988.5000  -999.2500     6.5446
  989.0000  -999.2500     6.5397
  989.5000  -999.2500     6.5354
  990.0000  -999.2500     6.5332
  990.5000  -999.2500     6.5310
  991.0000  -999.2500     6.5287
  991.5000  -999.2500     6.5264
  992.0000  -999.2500     6.5241
  992.5000  -999.2500     6.5219
  993.0000  -999.2500     6.5196
  993.5000  -999.2500     6.5173
  994.0000  -999.2500     6.5163
  994.5000  -999.2500     6.5163
  995.0000  -999.2500     6.5163
  995.5000  -999.2500     6.5163
  996.0000  -999.2500     6.5163
  996.5000  -999.2500     6.5163
  997.0000  -999.2500     6.5163
  997.5000  -999.2500     6.5163
  998.0000  -999.2500     6.5163
  998.5000  -999.2500     6.5195
  999.0000  -999.2500     6.5253
  999.5000  -999.2500     6.5311
 1000.0000  -999.2500     6.5366
 1000.5000  -999.2500     6.5420
 1001.0000  -999.2500     6.5473
 1001.5000  -999.2500     6.5525
 1002.0000  -999.2500     6.5544
 1002.5000  -999.2500     6.5445
 1003.0000  -999.2500     6.5363
 1003.5000  -999.2500     6.5377
 1004.0000  -999.2500     6.5390
 1004.5000  -999.2500     6.5402
 1005.0000  -999.2500     6.5415
 1005.5000  -999.2500     6.5427
 1006.0000  -999.2500     6.5439
 1006.5000  -999.2500     6.5450
 1007.0000  -999.2500     6.5476
 1007.5000  -999.2500     6.5793
 1008.0000  -999.2500     6.6112
 1008.5000  -999.2500     6.6358
 1009.0000  -999.2500     6.5708
 1009.5000  -999.2500     6.5467
 1010.0000  -999.2500     6.5462
 1010.5000  -999.2500     6.5463
 1011.0000  -999.2500     6.5464
 1011.5000  -999.2500     6.5464
 1012.0000  -999.2500     6.5464
 1012.5000  -999.2500     6.5464
 1013.0000  -999.2500     6.5464
 1013.5000  -999.2500     6.5464
 1014.0000  -999.2500     6.5464
 1014.5000  -999.2500     6.5464
 1015.0000  -999.2500     6.5464
 1015.5000  -999.2500     6.5464
 1016.0000  -999.2500     6.5464
 1016.5000  -999.2500     6.5464
 1017.0000  -999.2500     6.5463
 1017.5000  -999.2500     6.5485
 1018.0000  -999.2500     6.5515
 1018.5000  -999.2500     6.5545
 1019.0000  -999.2500     6.5557
 1019.5000  -999.2500     6.5539
 1020.0000  -999.2500     6.5521
 1020.5000  -999.2500     6.5503
 1021.0000  -999.2500     6.5485
 1021.5000  -999.2500     6.5466
 1022.0000  -999.2500     6.5464
 1022.5000  -999.2500     6.5464
 1023.0000  -999.2500     6.5464
 1023.5000  -999.2500     6.5464
 1024.0000  -999.2500     6.5464
 1024.5000  -999.2500     6.5464
 1025.0000  -999.2500     6.5464
 1025.5000  -999.2500     6.5464
 1026.0000  -999.2500     6.5483
 1026.5000  -999.2500     6.5539
 1027.0000  -999.2500     6.5593
 1027.5000  -999.2500     6.5649
 1028.0000  -999.2500     6.5798
 1028.5000  -999.2500     6.5993
 1029.0000  -999.2500     6.5557
 1029.5000  -999.2500     6.5162
 1030.0000  -999.2500     6.5162
 1030.5000  -999.2500     6.5162
 1031.0000  -999.2500     6.5163
 1031.5000  -999.2500     6.5163
 1032.0000  -999.2500     6.5163
 1032.5000  -999.2500     6.5163
 1033.0000  -999.2500     6.5163
 1033.5000  -999.2500     6.5163
 1034.0000  -999.2500     6.5163
 1034.5000  -999.2500     6.5163
 1035.0000  -999.2500     6.5163
 1035.5000  -999.2500     6.5163
 1036.0000  -999.2500     6.5179
 1036.5000  -999.2500     6.5208
 1037.0000  -999.2500     6.5236
 1037.5000  -999.2500     6.5273
 1038.0000  -999.2500     6.5455
 1038.5000  -999.2500     6.5422
 1039.0000  -999.2500     6.5391
 1039.5000  -999.2500     6.5371
 1040.0000  -999.2500     6.5568
 1040.5000  -999.2500     6.5662
 1041.0000  -999.2500     6.5665
 1041.5000  -999.2500     6.5665
 1042.0000  -999.2500     6.5663
 1042.5000  -999.2500     6.5597
 1043.0000  -999.2500     6.5458
 1043.5000  -999.2500     6.5319
 1044.0000  -999.2500     6.5257
 1044.5000  -999.2500     6.5244
 1045.0000  -999.2500     6.5232
 1045.5000  -999.2500     6.5220
 1046.0000  -999.2500     6.5207
 1046.5000  -999.2500     6.5195
 1047.0000  -999.2500     6.5182
 1047.5000  -999.2500     6.5173
 1048.0000  -999.2500     6.5300
 1048.5000  -999.2500     6.5716
 1049.0000  -999.2500     6.5972
 1049.5000  -999.2500     6.6254
 1050.0000  -999.2500     6.5566
 1050.5000  -999.2500     6.5167
 1051.0000  -999.2500     6.5473
 1051.5000  -999.2500     6.5601
 1052.0000  -999.2500     6.5657
 1052.5000  -999.2500     6.5619
 1053.0000  -999.2500     6.5562
 1053.5000  -999.2500     6.5505
 1054.0000  -999.2500     6.5469
 1054.5000  -999.2500     6.5500
 1055.0000  -999.2500     6.5528
 1055.5000  -999.2500     6.5561
 1056.0000  -999.2500     6.5410
 1056.5000  -999.2500     6.5201
 1057.0000  -999.2500     6.5175
 1057.5000  -999.2500     6.5191
 1058.0000  -999.2500     6.5208
 1058.5000  -999.2500     6.5223
 1059.0000  -999.2500     6.5240
 1059.5000  -999.2500     6.5256
 1060.0000  -999.2500     6.5419
 1060.5000  -999.2500     6.5678
 1061.0000  -999.2500     6.5718
 1061.5000  -999.2500     6.5765
 1062.0000  -999.2500     6.5811
 1062.5000  -999.2500     6.5858
 1063.0000  -999.2500     6.5904
 1063.5000  -999.2500     6.5950
 1064.0000  -999.2500     6.6022
 1064.5000  -999.2500     6.6103
 1065.0000  -999.2500     6.6185
 1065.5000  -999.2500     6.6257
 1066.0000  -999.2500     6.5978
 1066.5000  -999.2500     6.5896
 1067.0000  -999.2500     6.5937
 1067.5000  -999.2500     6.5865
 1068.0000  -999.2500     6.5639
 1068.5000  -999.2500     6.5637
 1069.0000  -999.2500     6.5716
 1069.5000  -999.2500     6.5798
 1070.0000  -999.2500     6.5897
 1070.5000  -999.2500     6.6081
 1071.0000  -999.2500     6.6252
 1071.5000  -999.2500     6.5914
 1072.0000  -999.2500     6.5749
 1072.5000  -999.2500     6.5738
 1073.0000  -999.2500     6.5726
 1073.5000  -999.2500     6.5712
 1074.0000  -999.2500     6.5699
 1074.5000  -999.2500     6.5686
 1075.0000  -999.2500     6.5672
 1075.5000  -999.2500     6.5664
 1076.0000  -999.2500     6.5664
 1076.5000  -999.2500     6.5664
 1077.0000  -999.2500     6.5664
 1077.5000  -999.2500     6.5664
 1078.0000  -999.2500     6.5664
 1078.5000  -999.2500     6.5664
 1079.0000  -999.2500     6.5664
 1079.5000  -999.2500     6.5664
 1080.0000  -999.2500     6.5664
 1080.5000  -999.2500     6.5664
 1081.0000  -999.2500     6.5664
 1081.5000  -999.2500     6.5680
 1082.0000  -999.2500     6.5700
 1082.5000  -999.2500     6.5719
 1083.0000  -999.2500     6.5738
 1083.5000  -999.2500     6.5757
 1084.0000  -999.2500     6.5775
 1084.5000  -999.2500     6.5794
 1085.0000  -999.2500     6.5813
 1085.5000  -999.2500     6.5833
 1086.0000  -999.2500     6.5851
 1086.5000  -999.2500     6.5845
 1087.0000  -999.2500     6.5776
 1087.5000  -999.2500     6.5708
 1088.0000  -999.2500     6.5664
 1088.5000  -999.2500     6.5664
 1089.0000  -999.2500     6.5664
 1089.5000  -999.2500     6.5664
 1090.0000  -999.2500     6.5662
 1090.5000  -999.2500     6.5731
 1091.0000  -999.2500     6.5812
 1091.5000  -999.2500     6.6108
 1092.0000  -999.2500     6.5951
 1092.5000  -999.2500     6.5675
 1093.0000  -999.2500     6.5663
