~VERSION INFORMATION
 VERS.                2.0:   CWLS LOG ASCII STANDARD - VERSION 2.0
 WRAP.                 NO:   ONE LINE PER DEPTH STEP
~WELL INFORMATION
#MNEM.UNIT      DATA TYPE    INFORMATION
#----------   ------------   ------------------------------
 STRT.F           38.0000:   START DEPTH
 STOP.F          663.5000:   STOP DEPTH
 STEP.F            0.5000:   STEP LENGTH
 NULL.          -999.2500:   NO VALUE
 COMP. FENIX & SCISSON INC:   COMPANY
 WELL.   NPR SX #3 #35-34:   WELL
 FLD .             TEAPOT:   FIELD
 LOC .      S34 T39N R78W:   LOCATION
 CNTY.            NATRONA:   COUNTY
 STAT.            WYOMING:   STATE
 CTRY. UNITED STATES OF AMERICA:   COUNTRY
 SRVC.       Schlumberger:   SERVICE COMPANY
 DATE.        21-MAR-1977:   LOGDATE
 API .       490251031500:   API NUMBER
~CURVE INFORMATION
#MNEM.UNIT       API CODE    CURVE DESCRIPTION
#----------   ------------   ------------------------------
 DEPT.F                  :   
 SPR .MV     07 010 01 00:   SPONTANEOUS POTENTIAL
 LL8 .OHMM   07 220 08 00:   LATEROLOG-8 RES.
 ILD .OHMM   07 120 46 00:   INDUCTION LOG DEEP
 ILM .OHMM   07 120 44 00:   INDUCTION LOG MEDIUM
 CALD.IN     45 280 60 00:   CALIPER
 RHOB.G/C3   45 350 01 00:   BULK DENSITY
 DPHI.DEC    45 890 12 00:   DENSITY POROSITY SANDSTONE
 CORR.G/C3   45 356 01 00:   DENSITY CORRECTION
 GRD .GAPI   45 310 01 00:   GAMMA RAY FROM DENSITY LOG
~PARAMETER INFORMATION
#MNEM.UNIT          VALUE    DESCRIPTION
#----------   ------------   ------------------------------
 PD  .                 GL:   PERMANENT DATUM
 EPD .F              5081:   ELEVATION PERMANENT DATUM
 LMF .                 GL:   LOG MEASURED FROM
 DMF .                 KB:   DRILLING MEASURED FROM
 EKB .F              5086:   KELLING BUSHING
 EGL .F              5081:   GROUND LEVEL
 DATE.          3-21-1977:   RUN DATE
 RUN .                  1:   RUN NUMBER
 DD  .F               670:   DEPTH DRILLER
 DL  .F               665:   DEPTH LOGGER
 BLI .F               659:   BOTTOM LOG INTERVAL
 TLI .F                40:   TOP LOG INTERVAL
 CS  .IN            8.625:   CASING SIZE
 CBD .F                40:   CASING BOTTOM DRILLER
 CBL .F                40:   CASING BOTTOM LOGGER
 BS  .IN            7.875:   BIT SIZE
 BSD .F               670:   BIT SIZE AT DEPTH
 DFT .           CHEM GEL:   DRILLING FLUID TYPE
 DFV .                 33:   DRILLING FLUID VISCOSITY
 MSS .           MUD TANK:   MUD SAMPLE SOURCE
 RMS .OHMM           4.98:   RESISTIVITY MUD SAMPLE
 MST .F                53:   MUD SAMPLE TEMPERATURE
 RMF .OHMM           4.94:   RESISTIVITY MUD FILTRATE SAMPLE
 MFST.F                53:   MUD FILTRATE SAMPLE TEMPERATURE
 RMC .OHMM            2.5:   RESISTIVITY MUD CAKE
 MCST.F                53:   MUD CAKE SAMPLE TEMPERATURE
 MFSS.                  M:   MUD FILTRATE SAMPLE SOURCE
 MCSS.                  C:   MUD CAKE SAMPLE SOURCE
 RMB .OHMM              4:   RESISTIVITY MUD AT BHT
 BHT .F                65:   BOTTOM HOLE TEMPERATURE
 TCS .HRS            1000:   TIME CURCULATED STOPPED
 TLAB.HRS            1400:   TIME LOGGER AT BOTTOM
 MRT .F                65:   MAXIMUM RECORDED TEMPERATURE
 LUN .               7742:   LOGGING UNIT NUMBER
 LUL .                GLT:   LOGGING UNIT LOCATION
 ENGI.               LANE:   RECORDING ENGINEER
 WITN.              BURKE:   WITNESSED BY
 CLNT.            A2DTECH:   CLIENT CODE
 ORIG.       2", 5" PRINT:   ORIGIN OF DATA
 UWI .       490251031500:   UNIQUE WELL ID
 DICO. A2D Technologies, Inc.:   DIGITIZING COMPANY
~OTHER INFORMATION
~A   DEPT      SPR        LL8        ILD        ILM       CALD       RHOB       DPHI       CORR         GRD  
# ...
  257.0000   -64.8549    11.9805     8.7798     7.2570     8.0141     2.4459     0.1268     0.0113   127.9768
  257.5000   -64.9260    12.6597     8.9208     7.2225     8.0412     2.4635     0.1193     0.0241   132.2804
  258.0000   -64.9948    12.1065     8.9980     7.1880     8.0937     2.4819     0.1106     0.0352   134.0472
  258.5000   -65.0644    11.6441     8.9677     7.1537     8.1475     2.4574     0.1138     0.0201   135.8839
  259.0000   -65.1336    11.5824     8.8680     7.1196     8.1504     2.4523     0.1176     0.0076   138.6776
  259.5000   -65.2027    11.4420     8.7693     7.0857     8.1501     2.4572     0.1214     0.0088   141.6669
  260.0000   -65.2018    11.1718     8.6717     7.0519     8.1500     2.4624     0.1194     0.0202   140.9833
  260.5000   -65.1311    10.9220     8.5753     7.0183     8.1500     2.4595     0.1194     0.0216   136.5057
  261.0000   -65.0603    10.7223     8.4799     6.9848     8.1500     2.4647     0.1156     0.0321   131.9177
  261.5000   -64.9894    10.8087     8.3855     6.9515     8.1500     2.4722     0.1114     0.0391   127.4282
  262.0000   -64.9187    10.9056     8.2922     6.9183     8.1500     2.4376     0.1299     0.0198   126.1600
  262.5000   -64.8479    11.0226     8.2000     6.8854     8.1500     2.4355     0.1325     0.0166   126.4253
  263.0000   -64.7771    10.9249     8.1295     6.8525     8.1500     2.4384     0.1313     0.0219   124.6672
  263.5000   -64.7063    10.8054     8.1295     6.8198     8.1500     2.4450     0.1191     0.0394   122.6755
  264.0000   -64.6355    10.7342     8.1572     6.7873     8.1500     2.4460     0.1279     0.0238   120.6958
  264.5000   -64.5648    11.2269     8.2514     6.7548     8.1500     2.4455     0.1239     0.0200   118.7082
  265.0000   -64.4940    11.1488     8.3466     6.7227     8.1500     2.4449     0.1264     0.0182   118.5817
  265.5000   -64.4232    11.0076     8.4429     6.6974     8.1500     2.4444     0.1270     0.0165   120.1252
  266.0000   -64.3524    10.8217     8.5391     6.8619     8.1500     2.4498     0.1235     0.0148   122.9312
  266.5000   -64.2816    11.1385     8.6786     7.0279     8.1500     2.4625     0.1202     0.0178   123.9163
  267.0000   -64.2109    11.6332     8.8610     7.1978     8.1500     2.4762     0.1090     0.0321   123.3707
  267.5000   -64.1402    11.8985     9.0493     7.3719     8.1500     2.4903     0.0970     0.0431   122.4090
  268.0000   -64.0688    11.9556     9.2411     7.5503     8.1500     2.4896     0.0969     0.0316   121.8844
  268.5000   -63.9716    12.2130     9.4370     7.7329     8.1500     2.4845     0.1046     0.0336   123.0783
  269.0000   -63.8351    12.6084     9.6370     7.8452     8.1500     2.4881     0.0968     0.0430   125.0464
  269.5000   -63.6991    12.8966     9.8412     7.8852     8.1500     2.5019     0.0886     0.0506   127.2214
  270.0000   -63.5629    12.8956    10.0498     7.9255     8.1500     2.4827     0.0984     0.0434   127.1745
  270.5000   -63.4267    12.8960    10.2628     7.9658     8.1500     2.4765     0.1073     0.0312   122.4430
  271.0000   -63.2906    12.8922    10.4803     8.0064     8.1500     2.4832     0.0994     0.0249   116.7560
  271.5000   -63.1544    12.8955    10.7025     8.0472     8.1500     2.5022     0.0913     0.0501   113.2937
  272.0000   -63.0183    13.7225    10.9293     8.0882     8.1500     2.5095     0.0842     0.0378   111.5562
  272.5000   -62.8822    14.2574    11.1609     8.1295     8.1500     2.4913     0.0986     0.0238   109.9127
  273.0000   -62.7461    14.6165    11.3975     8.1710     8.1500     2.4901     0.0986     0.0176   106.3805
  273.5000   -62.6096    14.9105    11.6391     8.2467     8.1500     2.4773     0.1015     0.0113   102.1147
  274.0000   -62.4746    15.3040    11.8857     8.4841     8.1500     2.4725     0.1069     0.0093    99.2309
  274.5000   -62.2570    15.8467    12.1377     8.7274     8.1500     2.4767     0.1058     0.0148   101.9172
  275.0000   -62.0011    16.2440    12.3949     8.9790     8.1500     2.4786     0.1058     0.0199   104.7193
  275.5000   -61.7211    15.9436    12.6576     9.2491     8.1500     2.4700     0.1110     0.0211   105.3253
  276.0000   -61.4005    15.3668    12.7771     9.1474     8.1500     2.4632     0.1183     0.0224   104.0057
  276.5000   -61.0758    15.0485    12.5759     8.9980     8.1500     2.4677     0.1144     0.0277   102.8594
  277.0000   -61.0167    14.7283    12.3655     9.0516     8.1500     2.4641     0.1090     0.0341   104.9796
  277.5000   -61.0111    14.4149    12.1587     9.1656     8.1500     2.4582     0.1147     0.0270   107.2363
  278.0000   -61.0062    14.1421    11.9552     8.9942     8.1500     2.4628     0.1141     0.0342   103.8024
  278.5000   -61.0006    14.4056    11.7552     8.7518     8.1500     2.4699     0.1091     0.0431    99.8232
  279.0000   -60.9950    14.2455    11.5586     8.5118     8.1500     2.4669     0.1072     0.0401    97.0756
  279.5000   -60.9894    13.9679    11.3652     8.5847     8.1500     2.4729     0.1131     0.0310    97.2429
  280.0000   -60.9838    13.6957    11.1751     8.6770     8.1500     2.4629     0.1173     0.0219    97.8898
  280.5000   -60.9782    13.4877    10.9882     8.7699     8.1498     2.4561     0.1202     0.0191    97.1247
  281.0000   -60.9726    13.4292    10.7223     8.8334     8.1495     2.4631     0.1181     0.0309    99.9728
  281.5000   -60.9670    13.3804    10.7458     8.7623     8.1491     2.4573     0.1204     0.0253   107.0683
  282.0000   -60.9614    13.4550    10.7886     8.6997     8.1488     2.4478     0.1262     0.0175   113.2588
  282.5000   -60.9557    13.5045    10.8317     8.6376     8.1484     2.4383     0.1320     0.0098   112.9265
  283.0000   -60.9501    13.2021    10.8749     8.5923     8.1480     2.4288     0.1370     0.0090   112.5075
  283.5000   -60.9445    12.8955    10.9183     8.6171     8.1477     2.4289     0.1361     0.0090   110.9189
  284.0000   -60.9389    12.9298    10.9619     8.6367     8.1473     2.4228     0.1401     0.0091   108.8765
  284.5000   -60.9333    12.9775    11.0057     8.6564     8.1469     2.4189     0.1431     0.0113   106.7983
  285.0000   -60.9277    13.0151    11.0233     8.6761     8.1466     2.4309     0.1334     0.0135   105.9547
  285.5000   -60.9221    12.8900    10.9431     8.6959     8.1462     2.4418     0.1282     0.0177   107.3302
  286.0000   -60.9165    12.7771    10.8864     8.7156     8.1459     2.4576     0.1150     0.0340   110.9473
  286.5000   -60.9109    12.8848    10.8300     8.7355     8.1455     2.4632     0.1122     0.0272   114.6274
  287.0000   -60.9053    13.0151    10.7738     8.7523     8.1451     2.4457     0.1287     0.0157   115.4815
  287.5000   -60.8996    12.9592    10.7180     8.6335     8.1448     2.4527     0.1247     0.0183   110.2636
  288.0000   -60.8940    12.6733    10.6625     8.5323     8.1444     2.4539     0.1217     0.0214   105.8058
  288.5000   -60.8884    12.3937    10.6072     8.4323     8.1440     2.4505     0.1241     0.0165   103.1850
  289.0000   -60.8828    12.2104    10.5522     8.3334     8.1437     2.4514     0.1233     0.0214   100.9920
  289.5000   -60.8772    12.3277    10.4942     8.2357     8.1433     2.4512     0.1237     0.0231    98.8045
  290.0000   -60.8716    12.4260    10.3981     8.1391     8.1430     2.4416     0.1308     0.0138    96.6497
  290.5000   -60.8660    12.5426    10.3030     8.0437     8.1426     2.4301     0.1363     0.0121    95.4934
  291.0000   -60.8604    12.3699    10.2087     7.9494     8.1422     2.4410     0.1261     0.0260    98.6854
  291.5000   -60.8548    12.1632    10.1153     7.8562     8.1419     2.4576     0.1199     0.0365   103.2898
  292.0000   -60.8491    11.8690    10.0227     7.7640     8.1415     2.4546     0.1225     0.0253   107.9313
  292.5000   -60.8435    11.9278     9.9310     7.6730     8.1411     2.4424     0.1267     0.0289   112.0482
  293.0000   -60.8379    12.0889     9.8401     7.5830     8.1408     2.4399     0.1307     0.0213   110.0681
