~VERSION INFORMATION
 VERS.                2.0:   CWLS LOG ASCII STANDARD - VERSION 2.0
 WRAP.                 NO:   ONE LINE PER DEPTH STEP
~WELL INFORMATION
#MNEM.UNIT      DATA TYPE    INFORMATION
#----------   ------------   ------------------------------
 STRT.F            0.0000:   START DEPTH
 STOP.F          701.0000:   STOP DEPTH
 STEP.F            0.5000:   STEP LENGTH
 NULL.          -999.2500:   NO VALUE
 COMP. U S NAVY-INTEX OIL:   COMPANY
 WELL. RES 3 TEAPOT DOM #22-S-2:   WELL
 FLD .             TEAPOT:   FIELD
 LOC .       S2 T38N R78W:   LOCATION
 CNTY.            NATRONA:   COUNTY
 STAT.            WYOMING:   STATE
 CTRY. UNITED STATES OF AMERICA:   COUNTRY
 SRVC.      NL McCullough:   SERVICE COMPANY
 DATE.        23-AUG-1961:   LOGDATE
 API .       490250647200:   API NUMBER
~CURVE INFORMATION
#MNEM.UNIT       API CODE    CURVE DESCRIPTION
#----------   ------------   ------------------------------
 DEPT.F                  :   
 GRN .GAPI   35 310 01 00:   GAMMA RAY
 NEUT.NAPI   35 330 01 00:   NEUTRON
~PARAMETER INFORMATION
#MNEM.UNIT          VALUE    DESCRIPTION
#----------   ------------   ------------------------------
 PD  .                 GL:   PERMANENT DATUM
 EPD .F              5115:   ELEVATION PERMANENT DATUM
 LMF .                 KB:   LOG MEASURED FROM
 DAPD.F                 6:   FEET ABOVE PERMANENT DATUM
 DMF .                 KB:   DRILLING MEASURED FROM
 EKB .F              5121:   KELLING BUSHING
 EGL .F              5115:   GROUND LEVEL
 DATE.          8-23-1961:   RUN DATE
 RUN .                  1:   RUN NUMBER
 DL  .F               676:   DEPTH LOGGER
 BLI .F               674:   BOTTOM LOG INTERVAL
 TLI .F               450:   TOP LOG INTERVAL
 DFT .                OIL:   DRILLING FLUID TYPE
 TCS .HRS              30:   TIME CURCULATED STOPPED
 ENGI.            JACKSON:   RECORDING ENGINEER
 WITN.             HUDSON:   WITNESSED BY
 CLNT.            A2DTECH:   CLIENT CODE
 ORIG.           5" PRINT:   ORIGIN OF DATA
 UWI .       490250647200:   UNIQUE WELL ID
 DICO. A2D Technologies, Inc.:   DIGITIZING COMPANY
~OTHER INFORMATION
~A    DEPT       GRN     NEUT   
# ...
  121.5000     5.4632   264.2686
  122.0000     5.4496   261.2829
  122.5000     5.4233   258.6017
  123.0000     5.3971   256.5833
  123.5000     5.3758   253.2430
  124.0000     5.3189   260.4030
  124.5000     5.2214   270.3936
  125.0000     5.1223   326.5549
  125.5000     5.0750   387.0741
  126.0000     5.0796   382.8625
  126.5000     5.0799   381.7850
  127.0000     5.0752   378.4805
  127.5000     5.1145   376.4221
  128.0000     5.1853   374.2271
  128.5000     5.2515   371.6797
  129.0000     5.3171   369.1172
  129.5000     5.3556   371.4601
  130.0000     5.3784   386.0367
  130.5000     5.4011   400.2425
  131.0000     5.4242   414.8723
  131.5000     5.4468   429.2821
  132.0000     5.4692   443.6530
  132.5000     5.4932   458.8362
  133.0000     5.5139   468.3778
  133.5000     5.5370   471.8274
  134.0000     5.4821   476.6978
  134.5000     5.4065   473.6605
  135.0000     5.3827   463.9708
  135.5000     5.3801   455.3192
  136.0000     5.3804   447.7473
  136.5000     5.3816   440.5695
  137.0000     5.3794   433.6598
  137.5000     5.3763   430.5284
  138.0000     5.2974   428.9026
  138.5000     5.2173   427.2504
  139.0000     5.1395   425.6582
  139.5000     5.1015   423.7827
  140.0000     5.1019   423.8227
  140.5000     5.1373   423.9802
  141.0000     5.1710   429.4243
  141.5000     5.1994   435.7791
  142.0000     5.2077   442.3651
  142.5000     5.2161   457.9645
  143.0000     5.1988   473.3448
  143.5000     5.1055   489.2661
  144.0000     5.0410   505.0806
  144.5000     5.0438   518.0804
  145.0000     5.0452   523.2343
  145.5000     5.0489   527.9076
  146.0000     5.0515   532.2448
  146.5000     5.0542   536.7256
  147.0000     5.0586   542.0233
  147.5000     5.0475   540.1705
  148.0000     5.0163   526.4648
  148.5000     4.9861   514.4035
  149.0000     4.9515   487.8142
  149.5000     4.9602   443.8423
  150.0000     5.0169   399.9267
  150.5000     5.0689   356.1863
  151.0000     5.1217   312.4016
  151.5000     5.1745   268.5446
  152.0000     5.2262   241.8899
  152.5000     5.2833   226.4673
  153.0000     5.2770   208.8174
  153.5000     5.2259   212.9595
  154.0000     5.1800   222.3037
  154.5000     5.1361   230.4334
  155.0000     5.1019   299.1498
  155.5000     5.0736   385.6822
  156.0000     5.0464   469.6728
  156.5000     5.0188   563.2061
  157.0000     4.9918   571.8989
  157.5000     4.9599   580.4130
  158.0000     4.9103   590.1016
  158.5000     4.8480   598.8334
  159.0000     4.7845   607.4267
  159.5000     4.7272   583.6397
  160.0000     4.6648   561.0356
  160.5000     4.7434   538.0399
  161.0000     4.8346   514.5779
  161.5000     4.9334   491.3786
  162.0000     5.0238   468.2043
  162.5000     5.1140   444.4712
  163.0000     5.0938   421.9325
  163.5000     5.0710   400.1422
  164.0000     5.0487   372.5643
  164.5000     5.0176   393.5649
  165.0000     4.9893   464.8128
  165.5000     4.8421   536.0528
  166.0000     4.8814   608.1312
  166.5000     4.9080   640.7488
  167.0000     4.9450   629.6428
  167.5000     4.9794   628.7326
  168.0000     5.0131   636.9277
  168.5000     5.0392   644.3647
  169.0000     5.0376   653.3511
  169.5000     5.0331   648.8524
  170.0000     5.0279   637.9473
  170.5000     5.0223   628.3291
  171.0000     5.0188   618.6648
  171.5000     5.0217   620.8727
  172.0000     5.0285   626.8275
  172.5000     5.0358   633.5680
  173.0000     5.0421   627.0356
  173.5000     5.0486   619.0843
  174.0000     5.0589   610.3544
  174.5000     5.0279   602.5394
  175.0000     4.9500   594.8898
  175.5000     4.8771   601.3534
  176.0000     4.8046   608.0889
  176.5000     4.7268   615.4477
  177.0000     4.7032   622.3993
  177.5000     4.7251   629.5757
  178.0000     4.7395   636.7837
  178.5000     4.7534   640.2202
  179.0000     4.7829   631.0737
  179.5000     4.6910   622.4035
  180.0000     4.6463   613.1508
  180.5000     4.6713   603.1964
  181.0000     4.6947   599.5921
  181.5000     4.7119   605.8202
  182.0000     4.7335   611.4055
  182.5000     4.7250   617.6733
  183.0000     4.7076   619.4816
  183.5000     4.6906   630.6700
  184.0000     4.6729   664.2435
  184.5000     4.6574   660.1478
  185.0000     4.6403   643.9405
  185.5000     4.6880   629.9797
  186.0000     4.7399   615.8954
  186.5000     4.7954   601.4794
  187.0000     4.7977   587.3727
  187.5000     4.7988   572.6808
  188.0000     4.7985   559.3152
  188.5000     4.8000   544.7887
  189.0000     4.8194   551.8768
  189.5000     4.8485   563.6063
  190.0000     4.8737   576.1711
  190.5000     4.8940   588.0468
  191.0000     4.8407   600.4258
  191.5000     4.7892   612.2773
  192.0000     4.7394   623.5356
  192.5000     4.7068   622.9516
  193.0000     4.8177   621.4214
  193.5000     4.9093   619.1786
  194.0000     5.0098   602.3373
  194.5000     5.0863   586.9555
  195.0000     5.1033   574.0431
  195.5000     5.1238   571.2714
  196.0000     5.1965   568.7205
  196.5000     5.2870   566.3624
  197.0000     5.2690   563.9709
  197.5000     5.2597   561.3354
  198.0000     5.3009   560.9346
  198.5000     5.4082   563.8611
  199.0000     5.5129   566.8039
  199.5000     5.6175   569.3249
  200.0000     5.7229   571.9199
  200.5000     5.8277   576.2189
  201.0000     5.9330   562.6815
  201.5000     6.0376   532.7672
  202.0000     6.1431   504.6246
  202.5000     6.2096   476.8445
  203.0000     6.2503   447.9136
  203.5000     6.2915   434.4677
  204.0000     6.3321   430.4752
  204.5000     6.3594   425.7980
  205.0000     6.3274   421.6607
  205.5000     6.2735   417.2048
  206.0000     6.2205   434.1486
  206.5000     6.1680   464.3810
  207.0000     6.1152   458.9839
  207.5000     6.0630   445.9071
  208.0000     6.0088   433.2026
  208.5000     5.9585   420.9036
  209.0000     5.9078   408.3070
  209.5000     5.9419   395.5990
  210.0000     5.9786   383.4088
  210.5000     5.9609   370.3174
  211.0000     5.9439   366.0203
  211.5000     5.9194   361.6370
  212.0000     5.8916   357.7740
  212.5000     5.7412   353.5014
  213.0000     5.6296   349.5394
  213.5000     5.6702   345.9352
  214.0000     5.7075   346.8589
  214.5000     5.7512   348.5653
  215.0000     5.7920   350.6208
  215.5000     5.8329   368.0752
  216.0000     5.8737   383.7932
  216.5000     5.9179   397.1230
  217.0000     5.9543   394.0515
  217.5000     5.9399   392.4628
  218.0000     5.8693   399.3400
  218.5000     5.7940   405.0818
  219.0000     5.7921   411.3336
  219.5000     5.8846   417.8688
  220.0000     5.9308   419.3225
  220.5000     5.9374   408.6738
  221.0000     5.9390   407.7929
  221.5000     5.9306   424.1408
  222.0000     5.9216   431.1853
  222.5000     5.9131   426.6870
  223.0000     5.9093   423.4604
  223.5000     5.8630   419.0488
  224.0000     5.7909   424.0920
  224.5000     5.7243   440.1400
  225.0000     5.6584   455.2549
  225.5000     5.5981   471.4430
  226.0000     5.5467   474.2963
  226.5000     5.4857   464.4692
  227.0000     5.5101   453.0170
  227.5000     5.5441   458.6926
  228.0000     5.5809   472.2805
  228.5000     5.6154   484.6934
  229.0000     5.6516   500.1852
  229.5000     5.6856   491.0475
  230.0000     5.7189   470.2451
  230.5000     5.6926   451.5713
  231.0000     5.6685   432.8890
  231.5000     5.6455   430.5113
  232.0000     5.6959   434.7745
  232.5000     5.7432   439.5747
  233.0000     5.7934   440.5375
  233.5000     5.8432   441.7732
  234.0000     5.8837   442.5713
  234.5000     5.8486   443.6510
  235.0000     5.7026   440.0161
  235.5000     5.6133   435.6787
  236.0000     5.6556   415.3832
  236.5000     5.6934   396.0292
  237.0000     5.7354   377.8109
  237.5000     5.7808   427.0623
  238.0000     5.7885   476.6768
  238.5000     5.7441   482.7484
  239.0000     5.7037   486.6888
  239.5000     5.6611   488.9459
  240.0000     5.6398   492.0749
  240.5000     5.6405   494.3916
  241.0000     5.6552   496.2854
  241.5000     5.6856   497.8493
  242.0000     5.7146   495.5318
  242.5000     5.7417   493.6665
