~VERSION INFORMATION
 VERS.                2.0:   CWLS LOG ASCII STANDARD - VERSION 2.0
 WRAP.                 NO:   ONE LINE PER DEPTH STEP
~WELL INFORMATION
#MNEM.UNIT      DATA TYPE    INFORMATION
#----------   ------------   ------------------------------
 STRT.F           20.0000:   START DEPTH
 STOP.F          505.0000:   STOP DEPTH
 STEP.F            0.5000:   STEP LENGTH
 NULL.          -999.2500:   NO VALUE
 COMP.    FENIX & SCISSON:   COMPANY
 WELL.   NPR #3 #56-SX-10:   WELL
 FLD .             TEAPOT:   FIELD
 LOC .      S10 T38N R78W:   LOCATION
 CNTY.            NATRONA:   COUNTY
 STAT.            WYOMING:   STATE
 CTRY. UNITED STATES OF AMERICA:   COUNTRY
 SRVC.              Welex:   SERVICE COMPANY
 DATE.        01-MAY-1980:   LOGDATE
 API .       490251081300:   API NUMBER
~CURVE INFORMATION
#MNEM.UNIT       API CODE    CURVE DESCRIPTION
#----------   ------------   ------------------------------
 DEPT.F                  :   
 ILD .OHMM   07 120 46 00:   INDUCTION LOG DEEP
 ILM .OHMM   07 120 44 00:   INDUCTION LOG MEDIUM
 SGRD.OHMM   07 220 05 00:   SHALLOW GUARD RESISTIVITY
 SPR .MV     07 010 01 00:   SPONATANEOUS POTENTIAL FROM RES.
 CALD.IN     45 280 60 00:   CALIPER FROM DENSITY LOG
 DPHI.DEC    45 890 12 00:   DENSITY POROSITY SANDSTONE
 DRHO.G/C3   45 356 01 00:   DENSITY CORRECTION
 GRD .GAPI   45 310 01 00:   GAMMA RAY FROM DENSITY LOG
 RHOB.G/C3   45 350 01 00:   BULK DENSITY
~PARAMETER INFORMATION
#MNEM.UNIT          VALUE    DESCRIPTION
#----------   ------------   ------------------------------
 PD  .                 GL:   PERMANENT DATUM
 EPD .F              5180:   ELEVATION PERMANENT DATUM
 LMF .                 KB:   LOG MEASURED FROM
 DAPD.F                 4:   FEET ABOVE PERMANENT DATUM
 DMF .                 KB:   DRILLING MEASURED FROM
 EKB .F              5184:   KELLING BUSHING
 EGL .F              5180:   GROUND LEVEL
 DATE.        01-MAY-1980:   RUN DATE
 RUN .                  1:   RUN NUMBER
 DD  .F               489:   DEPTH DRILLER
 DL  .F               506:   DEPTH LOGGER
 BLI .F               504:   BOTTOM LOG INTERVAL
 TLI .F                30:   TOP LOG INTERVAL
 BS  .IN            7.875:   BIT SIZE
 BSD .F               489:   BIT SIZE AT DEPTH
 DFT .    WATER BASED MUD:   DRILLING FLUID TYPE
 DFD .                9.9:   DRILLING FLUID DENSITY
 DFV .                 46:   DRILLING FLUID VISCOSITY
 MSS .                PIT:   MUD SAMPLE SOURCE
 RMS .OHMM           0.99:   RESISTIVITY MUD SAMPLE
 MST .F                75:   MUD SAMPLE TEMPERATURE
 RMF .OHMM           0.78:   RESISTIVITY MUD FILTRATE SAMPLE
 MFST.F                75:   MUD FILTRATE SAMPLE TEMPERATURE
 RMC .OHMM           1.18:   RESISTIVITY MUD CAKE
 MCST.F                75:   MUD CAKE SAMPLE TEMPERATURE
 MFSS.               MEAS:   MUD FILTRATE SAMPLE SOURCE
 MCSS.               MEAS:   MUD CAKE SAMPLE SOURCE
 BHT .F               100:   BOTTOM HOLE TEMPERATURE
 TCS .HRS               1:   TIME CURCULATED STOPPED
 MRT .F               100:   MAXIMUM RECORDED TEMPERATURE
 LUN .               9685:   LOGGING UNIT NUMBER
 LUL .             CASPER:   LOGGING UNIT LOCATION
 ENGI.            TOTHILL:   RECORDING ENGINEER
 WITN.           DINSMORE:   WITNESSED BY
 CLNT.            A2DTECH:   CLIENT CODE
 ORIG.           5" PRINT:   ORIGIN OF DATA
 UWI .       490251081300:   UNIQUE WELL ID
 DICO. A2D Technologies, Inc.:   DIGITIZING COMPANY
~OTHER INFORMATION
~A   DEPT       ILD        ILM      SGRD        SPR       CALD       DPHI       DRHO        GRD       RHOB   
# ...
  458.0000     9.3306    12.2908    15.1726   -33.4828     7.6810     0.0971     0.0582    89.1386     2.4807
  458.5000     9.3319    12.3642    14.8614   -33.4828     7.6220     0.1082     0.0397    89.0105     2.4627
  459.0000     9.2688    11.8613    14.4562   -33.4828     7.7582     0.1160     0.0178    89.0241     2.4500
  459.5000     9.2061    11.6983    14.2580   -33.4828     7.8492     0.1140     0.0148    89.7462     2.4612
  460.0000     9.1439    11.4579    13.9655   -33.6323     7.8952     0.1034     0.0298    89.9572     2.4765
  460.5000     9.0195    11.6176    13.8697   -33.6323     7.9114     0.0974     0.0419    89.7412     2.4883
  461.0000     8.9585    11.9437    13.7745   -33.6323     7.9150     0.0929     0.0509    90.2094     2.4861
  461.5000     8.9600    12.1101    13.8707   -33.7818     7.9439     0.0977     0.0524    90.9002     2.4673
  462.0000     8.8993    12.1942    13.9675   -33.9312     8.0050     0.1142     0.0105    91.1393     2.4523
  462.5000     8.7780    12.1942    13.9680   -33.9312     8.0211     0.1144     0.0364    91.1524     2.4703
  463.0000     8.7190    12.1942    13.7765   -33.9983     7.9771     0.1037     0.0570    91.1657     2.4809
  463.5000     8.6003    12.0250    13.5875   -34.0182     7.9483     0.0970     0.0615    91.4078     2.4839
  464.0000     8.3667    11.9437    13.3089   -33.9312     7.9947     0.1010     0.0556    91.8728     2.4711
  464.5000     8.0833    11.8613    13.2174   -33.9312     8.0407     0.1105     0.0466    92.5636     2.4623
  465.0000     7.8637    11.6983    12.8571   -33.9312     8.0269     0.1159     0.0406    93.0285     2.4471
  465.5000     7.7032    11.6176    12.4204   -34.0067     8.1931     0.1192     0.0392    93.7194     2.4404
  466.0000     7.5607    11.4579    12.1655   -34.0807     8.2541     0.1090     0.0662    94.6372     2.4705
  466.5000     7.3919    11.3005    11.9987   -33.9312     8.2400     0.1007     0.0657    95.3270     2.4772
  467.0000     7.1911    11.1451    11.9164   -33.9312     8.3462     0.0994     0.0318    96.2636     2.4607
  467.5000     7.0932    10.9920    11.9169   -33.7818     8.3920     0.1062     0.0228    97.6155     2.4622
  468.0000     7.0453    10.9162    11.9173   -33.7818     8.2138     0.1129     0.0063    98.5323     2.4517
  468.5000     6.9976    10.8409    11.8355   -33.7919     7.7509     0.1222    -0.0011    98.7713     2.4412
  469.0000     6.9504    10.7661    11.6732   -33.9312     7.6623     0.1216     0.0109    98.7844     2.4495
  469.5000     6.8085    10.6919    11.5132   -33.9312     7.6335     0.1231     0.0049    98.5716     2.4398
  470.0000     6.6695    10.6845    11.5136   -33.9312     7.5901     0.1273     0.0033    98.3589     2.4353
  470.5000     6.5284    10.6181    11.4346   -33.9312     7.7409     0.1273     0.0096    97.6943     2.4323
  471.0000     6.3492    10.4722    11.2779   -34.0265     7.8020     0.1225     0.0125    96.8038     2.4421
  471.5000     6.1408    10.4000    11.2004   -34.0807     7.7582     0.1274     0.0035    96.8202     2.4346
  472.0000     6.0991    10.4000    10.9707   -34.1236     7.6696     0.1381    -0.0054    97.7370     2.4166
  472.5000     5.9748    10.4000    10.7457   -34.2302     7.7007     0.1453    -0.0174    99.7832     2.4030
  473.0000     5.9756    10.4000    10.5253   -34.2302     7.7467     0.1432    -0.0084   101.1518     2.4076
  473.5000     5.8943    10.3283    10.4380   -34.2302     7.7030     0.1429    -0.0068   101.8426     2.4001
  474.0000     5.8139    10.3283    10.3813   -34.5291     7.6593     0.1488    -0.0128   102.0816     2.3979
  474.5000     5.8149    10.3283    10.3817   -34.5291     7.7206     0.1512    -0.0158   101.6348     2.3941
  475.0000     5.7754    10.3283    10.3104   -34.4876     7.7367     0.1524    -0.0140   102.3720     2.3919
  475.5000     5.7654    10.1863    10.3108   -34.3797     7.7529     0.1448    -0.0007   103.2538     2.4107
  476.0000     5.6975    10.1161    10.3111   -34.2302     7.7540     0.1336     0.0068   103.0378     2.4235
  476.5000     5.6590    10.0407    10.2404   -34.2302     7.7252     0.1285     0.0113   102.3732     2.4318
  477.0000     5.5437     9.9041    10.0303   -34.0807     7.7114     0.1261     0.0174   101.9345     2.4379
  477.5000     5.4683     9.8289     9.8804   -34.0807     7.7126     0.1243     0.0234   101.7217     2.4415
  478.0000     5.3938     9.7447     9.6231   -33.9990     7.7138     0.1237     0.0339   102.4158     2.4378
  478.5000     5.3572     9.5713     9.4257   -33.9210     7.6682     0.1275     0.0354   104.7229     2.4325
  479.0000     5.3211     9.3100     9.2323   -33.6323     7.6562     0.1272     0.0295   107.1894     2.4356
  479.5000     5.2125     9.3746     8.9807   -33.4828     7.6726     0.1260     0.0325   109.4615     2.4356
  480.0000     5.1773     9.2458     8.7358   -33.1839     7.6585     0.1164     0.0355   110.3783     2.4408
  480.5000     5.1780     9.1820     8.5565   -33.4828     7.7199     0.1129     0.0491   110.1622     2.4536
  481.0000     5.2147     9.1820     8.7364   -33.7818     7.7058     0.1125     0.0491   110.4045     2.4600
  481.5000     5.3618     9.2458     9.0443   -33.9312     7.6773     0.1060     0.0521   110.4176     2.4814
  482.0000     5.4791     9.4437     9.4280   -34.0807     7.6934     0.0958     0.0656   110.6567     2.4920
  482.5000     5.6353     9.8496     9.7602   -34.0807     7.6946     0.0933     0.0595   110.9224     2.4837
  483.0000     5.8286    10.2571     9.9653   -34.2302     7.7130     0.1060     0.0368   111.3639     2.4657
  483.5000     5.9564    10.6181    10.3215   -34.2302     7.7870     0.1265     0.0013   111.6030     2.4455
  484.0000     6.0774    10.9920    10.8359   -34.3797     7.7882     0.1443    -0.0362   111.8420     2.4057
  484.5000     6.1629    11.3005    11.2232   -34.5291     7.7894     0.1488    -0.0317   112.3069     2.3996
  485.0000     6.1637    11.5375    11.5256   -34.2302     7.8953     0.1371    -0.0211   112.3200     2.4200
  485.5000     6.2074    11.3789    11.5260   -34.2302     7.9115     0.1329    -0.0196   112.3332     2.4177
  486.0000     6.1654    11.2225    11.2117   -34.2302     7.7929     0.1299    -0.0106   112.3463     2.4305
  486.5000     6.1663    10.9920    10.9817   -34.2302     7.7491     0.1224     0.0075   111.6817     2.4448
  487.0000     6.1671    10.9162    10.8870   -34.2302     7.7810     0.1124     0.0305   110.5686     2.4651
  487.5000     6.2108    10.6919    10.6827   -34.2302     7.7964     0.1043     0.0495   109.9007     2.4733
  488.0000     6.2116    10.6919    10.5854   -34.2302     7.8128     0.0993     0.0570   109.6880     2.4756
  488.5000     6.1694    10.9254    10.5190   -34.2302     7.8289     0.1098     0.0420   109.4752     2.4651
  489.0000     6.2133    11.2225    10.4642   -34.2302     7.8301     0.1107     0.0436   109.0398     2.4651
  489.5000     6.2142    11.3789    10.6104   -34.2302     7.8462     0.1077     0.0376   109.0529     2.4629
  490.0000     6.2582    11.6176    10.9086   -34.2302     7.8022     0.1008     0.0361   109.2922     2.4689
  490.5000     6.2590    11.6983    11.2154   -34.2302     7.7138     0.0927     0.0452   109.3084     2.4952
  491.0000     6.2599    11.6983    11.5421   -34.2302     7.6551     0.0903     0.0402   108.8697     2.4900
  491.5000     6.2608    11.6925    11.8543   -34.2302     7.6724     0.0972     0.0317   108.8828     2.4877
  492.0000     6.2616    11.5375    11.5312   -34.2302     7.7625     0.0870     0.0468   108.8959     2.4960
  492.5000     6.2193    11.3485    11.2947   -34.2302     7.8086     0.0834     0.0498   109.1350     2.5028
  493.0000     6.2202    11.2671    11.0630   -34.2302     7.7499     0.1110     0.0213   109.3740     2.4750
  493.5000     6.1781    11.0683    10.9112   -34.2302     7.7361     0.1143     0.0064   109.3871     2.4629
  494.0000     6.1790    10.9920    10.8363   -34.2302     7.7073     0.1173    -0.0011   108.9484     2.4525
