~VERSION INFORMATION
 VERS.                2.0:   CWLS LOG ASCII STANDARD - VERSION 2.0
 WRAP.                 NO:   ONE LINE PER DEPTH STEP
~WELL INFORMATION
#MNEM.UNIT      DATA TYPE    INFORMATION
#----------   ------------   ------------------------------
 STRT.F            8.0000:   START DEPTH
 STOP.F          508.0000:   STOP DEPTH
 STEP.F            0.1000:   STEP LENGTH
 NULL.          -999.2500:   NO VALUE
 COMP. LAWRENCE/ALLISON INC:   COMPANY
 WELL. NPR 3 47-12 SX #3-3:   WELL
 FLD .             TEAPOT:   FIELD
 LOC .       S3 T38N R78W:   LOCATION
 CNTY.            NATRONA:   COUNTY
 STAT.            WYOMING:   STATE
 CTRY. UNITED STATES OF AMERICA:   COUNTRY
 SRVC.           Gearhart:   SERVICE COMPANY
 DATE.        12-AUG-1988:   LOGDATE
 API .       490251124100:   API NUMBER
~CURVE INFORMATION
#MNEM.UNIT       API CODE    CURVE DESCRIPTION
#----------   ------------   ------------------------------
 DEPT.F                  :   
 GRR .GAPI   07 310 01 00:   GAMMA RAY
 RILD.OHMM   07 120 46 00:   INDUCTION LOG DEEP RESISTIVITY
 RILM.OHMM   07 120 44 00:   INDUCTION LOG MEDIUM RESISTIVITY
~PARAMETER INFORMATION
#MNEM.UNIT          VALUE    DESCRIPTION
#----------   ------------   ------------------------------
 PD  .                 GL:   PERMANENT DATUM
 EPD .F              5208:   ELEVATION PERMANENT DATUM
 LMF .                 KB:   LOG MEASURED FROM
 DAPD.F                10:   FEET ABOVE PERMANENT DATUM
 DMF .                 KB:   DRILLING MEASURED FROM
 EKB .F              5218:   KELLING BUSHING
 EDF .F              5216:   DRILLING FLOOR
 EGL .F              5208:   GROUND LEVEL
 DATE.        12-AUG-1988:   RUN DATE
 RUN .                  1:   RUN NUMBER
 DD  .F               515:   DEPTH DRILLER
 DL  .F               516:   DEPTH LOGGER
 BLI .F               508:   BOTTOM LOG INTERVAL
 TLI .F                50:   TOP LOG INTERVAL
 CS  .IN            9.625:   CASING SIZE
 CBD .F                50:   CASING BOTTOM DRILLER
 CBL .F                50:   CASING BOTTOM LOGGER
 BS  .IN             8.75:   BIT SIZE
 BSD .F               515:   BIT SIZE AT DEPTH
 DFT .                AIR:   DRILLING FLUID TYPE
 TCS .HRS            1500:   TIME CURCULATED STOPPED
 TLAB.HRS            1640:   TIME LOGGER AT BOTTOM
 MRT .F                70:   MAXIMUM RECORDED TEMPERATURE
 LUN .               7597:   LOGGING UNIT NUMBER
 LUL .           GILLETTE:   LOGGING UNIT LOCATION
 ENGI.         WEATHERMON:   RECORDING ENGINEER
 WITN.             STRONG:   WITNESSED BY
 CLNT.            A2DTECH:   CLIENT CODE
 ORIG.       2", 5" PRINT:   ORIGIN OF DATA
 UWI .       490251124100:   UNIQUE WELL ID
 DICO. A2D Technologies, Inc.:   DIGITIZING COMPANY
~OTHER INFORMATION
~A    DEPT      GRR      RILD       RILM   
# ...
  244.6000   141.5708     7.5566     7.5954
  244.7000   141.5685     7.5164     7.5874
  244.8000   140.9671     7.5163     7.5424
  244.9000   140.5496     7.4767     7.4561
  245.0000   140.2017     7.4331     7.4035
  245.1000   139.8337     7.3897     7.3602
  245.2000   139.3905     7.3465     7.3171
  245.3000   139.1174     7.3036     7.2649
  245.4000   138.5502     7.2591     7.1817
  245.5000   138.3249     7.2185     7.1330
  245.6000   138.0704     7.1442     7.0632
  245.7000   137.6852     7.1092     7.0075
  245.8000   137.2591     7.0766     6.9295
  245.9000   137.0402     6.9943     6.8301
  246.0000   137.0409     6.9135     6.7840
  246.1000   137.0415     6.8661     6.6529
  246.2000   137.2373     6.8329     6.6183
  246.3000   137.4929     6.7678     6.5529
  246.4000   137.7485     6.7066     6.4767
  246.5000   138.0041     6.6573     6.4013
  246.6000   138.2547     6.5826     6.3314
  246.7000   138.2555     6.5397     6.2920
  246.8000   138.0437     6.4725     6.2235
  246.9000   137.9540     6.3972     6.1778
  247.0000   137.9546     6.3415     6.1219
  247.1000   137.9552     6.2928     6.0379
  247.2000   137.9558     6.2195     5.9387
  247.3000   137.9565     6.1429     5.8685
  247.4000   137.7279     6.0756     5.7682
  247.5000   137.4736     6.0314     5.6680
  247.6000   137.2193     5.9765     5.5694
  247.7000   136.9649     5.9199     5.4725
  247.8000   136.7491     5.8917     5.3773
  247.9000   136.7498     5.8916     5.2845
  248.0000   137.7343     5.8508     5.2134
  248.1000   138.3583     5.8507     5.1624
  248.2000   138.8688     5.8506     5.1023
  248.3000   139.4824     5.8506     5.0430
  248.4000   140.1923     5.8589     4.9999
  248.5000   140.7032     5.8912     4.9997
  248.6000   141.2927     5.8911     4.9996
  248.7000   141.5086     5.8910     4.9995
  248.8000   141.7643     5.8909     4.9993
  248.9000   141.8996     5.8909     5.0140
  249.0000   141.9728     5.9012     5.0433
  249.1000   142.2033     5.9317     5.0727
  249.2000   141.5205     5.9316     5.1041
  249.3000   141.2356     5.9315     5.1319
  249.4000   140.6923     5.9571     5.1845
  249.5000   140.2167     5.9919     5.2453
  249.6000   139.5171     6.0143     5.3067
  249.7000   138.8955     6.0202     5.3689
  249.8000   138.3861     6.0560     5.4327
  249.9000   137.9245     6.0907     5.4955
  250.0000   137.6702     6.1507     5.5862
  250.1000   137.4849     6.2171     5.6840
  250.2000   137.3676     6.2835     5.7818
  250.3000   137.3676     6.3328     5.8796
  250.4000   137.3676     6.3565     5.9803
  250.5000   137.3676     6.3646     6.0832
  250.6000   137.5390     6.4449     6.1768
  250.7000   137.7861     6.5105     6.2505
  250.8000   138.0939     6.5595     6.3720
  250.9000   138.5831     6.6136     6.4676
  251.0000   138.8301     6.6890     6.5544
  251.1000   138.8805     6.7649     6.6623
  251.2000   138.8805     6.8032     6.7988
  251.3000   138.7091     6.8724     6.8770
  251.4000   138.2451     6.9732     6.9550
  251.5000   137.9728     7.0651     7.0657
  251.6000   137.5292     7.1099     7.1645
  251.7000   136.8685     7.1992     7.2463
  251.8000   136.3489     7.2730     7.3290
  251.9000   136.0462     7.3845     7.4216
  252.0000   135.5522     7.4916     7.4975
  252.1000   135.5522     7.5769     7.5539
  252.2000   135.5522     7.6626     7.6367
  252.3000   135.8246     7.7060     7.7574
  252.4000   136.4804     7.7847     7.8458
  252.5000   137.4684     7.8734     7.9356
  252.6000   138.5779     7.9632     7.9898
  252.7000   139.6623     8.0538     8.0618
  252.8000   140.5751     8.1542     8.1371
  252.9000   141.5283     8.1960     8.1768
  253.0000   142.7130     8.2424     8.1764
  253.1000   143.7216     8.3110     8.2190
  253.2000   144.6896     8.3940     8.2657
  253.3000   145.3052     8.4416     8.2898
  253.4000   145.6682     8.4893     8.2895
  253.5000   145.8396     8.5375     8.2892
  253.6000   145.8193     8.5859     8.2887
  253.7000   145.5371     8.6170     8.2884
  253.8000   144.9015     8.6231     8.2881
  253.9000   144.1603     8.6762     8.2878
  254.0000   143.4190     8.6759     8.2952
  254.1000   142.7230     8.7097     8.3448
  254.2000   142.2088     8.7356     8.3445
  254.3000   141.7347     8.7353     8.3442
  254.4000   141.6036     8.7349     8.3438
  254.5000   141.4776     8.7345     8.3435
  254.6000   141.2304     8.7342     8.3432
  254.7000   140.9834     8.7338     8.3427
  254.8000   140.6959     8.7335     8.3424
  254.9000   140.4891     8.7331     8.3421
  255.0000   140.3933     8.7327     8.3611
  255.1000   140.4891     8.7781     8.3996
  255.2000   140.6959     8.7929     8.3992
  255.3000   140.6959     8.7925     8.4454
  255.4000   140.6959     8.7921     8.4571
  255.5000   140.6959     8.7918     8.4567
  255.6000   140.8170     8.7913     8.4713
  255.7000   140.9985     8.7910     8.5194
  255.8000   140.9985     8.7907     8.5740
  255.9000   140.9985     8.8087     8.5737
  256.0000   140.9985     8.8513     8.5734
  256.1000   140.9985     8.8508     8.5730
  256.2000   140.9985     8.8505     8.5726
  256.3000   140.9985     8.8501     8.5723
  256.4000   140.9985     8.8497     8.5237
  256.5000   140.7715     8.8494     8.5122
  256.6000   140.6959     8.8490     8.5118
  256.7000   140.6959     8.8486     8.5115
  256.8000   140.7564     8.8483     8.5057
  256.9000   140.9985     8.8180     8.4518
  257.0000   140.9985     8.7863     8.4514
  257.1000   140.9985     8.7859     8.4511
  257.2000   141.1397     8.7855     8.4508
  257.3000   141.4726     8.7388     8.4391
  257.4000   141.9666     8.7240     8.3915
  257.5000   142.5114     8.6995     8.3912
  257.6000   142.7332     8.6498     8.3528
  257.7000   142.6476     8.6026     8.3050
  257.8000   142.4005     8.6022     8.2575
  257.9000   142.1534     8.6019     8.2167
  258.0000   141.9062     8.6015     8.2163
  258.1000   141.6590     8.6011     8.1731
  258.2000   141.4120     8.5930     8.1263
  258.3000   141.1649     8.5409     8.0798
  258.4000   140.8370     8.5405     8.0335
  258.5000   140.3933     8.5402     7.9893
  258.6000   140.3933     8.5398     7.9889
  258.7000   140.1765     8.5395     7.9886
  258.8000   139.7679     8.5391     7.9883
  258.9000   139.3797     8.5387     7.9880
  259.0000   139.1831     8.5384     7.9876
  259.1000   139.1831     8.5677     7.9873
  259.2000   139.1831     8.5972     7.9870
  259.3000   139.1831     8.5968     7.9867
  259.4000   139.4454     8.5965     7.9863
  259.5000   140.0152     8.5961     7.9860
  259.6000   140.7364     8.5958     7.9857
  259.7000   141.3011     8.5954     7.9853
  259.8000   141.5128     8.5951     7.9850
  259.9000   141.6036     8.5947     7.9846
  260.0000   141.6036     8.5943     7.9843
  260.1000   141.6036     8.5940     7.9839
  260.2000   141.6036     8.5936     7.9836
  260.3000   141.6036     8.5933     8.0275
  260.4000   141.4221     8.5929     8.0387
  260.5000   141.3011     8.5925     8.0383
  260.6000   141.3011     8.5922     8.0380
  260.7000   141.2860     8.5919     8.0377
  260.8000   140.9985     8.5915     8.0373
  260.9000   140.9985     8.5911     8.0770
  261.0000   140.9985     8.5908     8.0927
  261.1000   140.9985     8.5903     8.0924
  261.2000   140.9985     8.5900     8.0920
  261.3000   140.9985     8.5897     8.0917
  261.4000   140.9985     8.5893     8.0914
  261.5000   140.9985     8.5889     8.0910
  261.6000   140.8775     8.5886     8.0907
  261.7000   140.6304     8.5883     8.1058
  261.8000   140.3832     8.5879     8.1465
  261.9000   140.0908     8.5875     8.1461
  262.0000   139.6873     8.5872     8.1458
  262.1000   139.1932     8.5868     8.1769
  262.2000   138.6083     8.5864     8.2019
  262.3000   137.9375     8.5861     8.2015
  262.4000   137.6702     8.5857     8.2019
  262.5000   137.4432     8.6053     8.2485
  262.6000   137.3676     8.6449     8.2577
  262.7000   137.3676     8.6445     8.2574
