~VERSION INFORMATION
 VERS.                2.0:   CWLS LOG ASCII STANDARD - VERSION 2.0
 WRAP.                 NO:   ONE LINE PER DEPTH STEP
~WELL INFORMATION
#MNEM.UNIT      DATA TYPE    INFORMATION
#----------   ------------   ------------------------------
 STRT.F           22.0000:   START DEPTH
 STOP.F          564.0000:   STOP DEPTH
 STEP.F            0.5000:   STEP LENGTH
 NULL.          -999.2500:   NO VALUE
 COMP.    FENIX & SCISSON:   COMPANY
 WELL. NPR # #3 12 - SX 11:   WELL
 FLD .             TEAPOT:   FIELD
 LOC .      S11 T38N R78W:   LOCATION
 CNTY.            NATRONA:   COUNTY
 STAT.            WYOMING:   STATE
 CTRY. UNITED STATES OF AMERICA:   COUNTRY
 SRVC.           BIRDWELL:   SERVICE COMPANY
 DATE.        29-NOV-1978:   LOGDATE
 API .       490251075500:   API NUMBER
~CURVE INFORMATION
#MNEM.UNIT       API CODE    CURVE DESCRIPTION
#----------   ------------   ------------------------------
 DEPT.F                  :   
 ILD .OHMM   05 120 46 00:   INDUCTION LOG DEEP
 SN  .OHMM   05 040 00 00:   SHORT NORMAL
 SPR .MV     05 010 01 00:   SPONTANEOUS POTENTIAL FROM RES.
 CALD.IN     45 280 60 00:   CALIPER FROM DENSITY LOG
 CORR.G/C3   45 356 01 00:   DENSITY CORRECTION
 DPHI.DEC    45 890 12 00:   DENSITY POROSITY SANDSTONE
 GRD .GAPI   45 310 01 00:   GAMMA RAY FROM DENSITY LOG
 RHOB.G/C3   45 350 01 00:   BULK DENSITY
~PARAMETER INFORMATION
#MNEM.UNIT          VALUE    DESCRIPTION
#----------   ------------   ------------------------------
 PD  .                 GL:   PERMANENT DATUM
 EPD .F              5143:   ELEVATION PERMANENT DATUM
 LMF .                 KB:   LOG MEASURED FROM
 DAPD.F                 4:   FEET ABOVE PERMANENT DATUM
 DMF .                 KB:   DRILLING MEASURED FROM
 EKB .F              5147:   KELLING BUSHING
 EGL .F              5143:   GROUND LEVEL
 DATE.        29-NOV-1978:   RUN DATE
 RUN .                  1:   RUN NUMBER
 DD  .F               562:   DEPTH DRILLER
 DL  .F               564:   DEPTH LOGGER
 BLI .F               564:   BOTTOM LOG INTERVAL
 TLI .F                30:   TOP LOG INTERVAL
 CS  .IN            8.625:   CASING SIZE
 CBL .F                48:   CASING BOTTOM LOGGER
 BS  .IN            7.875:   BIT SIZE
 BSD .F               562:   BIT SIZE AT DEPTH
 DFT .                KCL:   DRILLING FLUID TYPE
 DFD .                8.7:   DRILLING FLUID DENSITY
 DFV .                 36:   DRILLING FLUID VISCOSITY
 DFPH.               10.9:   DRILLING FLUID PH
 DFL .                 12:   DRILLING FLUID LOSS
 MSS .           FLOWLINE:   MUD SAMPLE SOURCE
 RMS .OHMM           0.34:   RESISTIVITY MUD SAMPLE
 MST .F                56:   MUD SAMPLE TEMPERATURE
 RMF .OHMM           0.32:   RESISTIVITY MUD FILTRATE SAMPLE
 MFST.F                59:   MUD FILTRATE SAMPLE TEMPERATURE
 RMC .OHMM            0.4:   RESISTIVITY MUD CAKE
 MCST.F                59:   MUD CAKE SAMPLE TEMPERATURE
 MFSS.               MEAS:   MUD FILTRATE SAMPLE SOURCE
 MCSS.               MEAS:   MUD CAKE SAMPLE SOURCE
 RMB .OHMM           0.33:   RESISTIVITY MUD AT BHT
 BHT .F                59:   BOTTOM HOLE TEMPERATURE
 TCS .HRS               1:   TIME CURCULATED STOPPED
 MRT .F                59:   MAXIMUM RECORDED TEMPERATURE
 LUN .               2958:   LOGGING UNIT NUMBER
 LUL .               CASP:   LOGGING UNIT LOCATION
 ENGI.             MILLER:   RECORDING ENGINEER
 WITN.           DINSMORE:   WITNESSED BY
 CLNT.            A2DTECH:   CLIENT CODE
 ORIG.           5" PRINT:   ORIGIN OF DATA
 UWI .       490251075500:   UNIQUE WELL ID
 DICO. A2D Technologies, Inc.:   DIGITIZING COMPANY
~OTHER INFORMATION
~A   DEPT      ILD         SN        SPR       CALD       CORR       DPHI         GRD      RHOB   
# ...
  103.0000     8.7903     8.9932   -17.7697     8.2771     0.0300     0.1417   112.9089     2.4490
  103.5000     8.8503     8.9907   -17.6259     8.1867     0.0255     0.1387   110.9882     2.4588
  104.0000     8.9106     9.0509   -17.7739     8.0813     0.0195     0.1345   112.1272     2.4655
  104.5000     8.9714     9.0484   -18.0726     8.0964     0.0150     0.1363   113.5474     2.4633
  105.0000     9.0325     9.0459   -18.3705     8.2018     0.0105     0.1405   113.6211     2.4610
  105.5000     9.0271     9.0434   -18.5184     8.2771     0.0075     0.1448   114.0156     2.4535
  106.0000     8.9676     9.1039   -18.8171     8.2771     0.0060     0.1492   114.6046     2.4415
  106.5000     8.9042     9.1008   -19.1158     8.2771     0.0075     0.1495   115.2478     2.4393
  107.0000     8.8415     9.0354   -19.4152     8.2771     0.0075     0.1483   115.7744     2.4417
  107.5000     8.7793     9.0964   -19.5631     8.2922     0.0060     0.1468   115.7489     2.4453
  108.0000     8.6572     9.0933   -19.5594     8.2922     0.0045     0.1452   108.8965     2.4483
  108.5000     8.5963     9.0909   -19.5564     8.2620     0.0030     0.1440   107.8451     2.4498
  109.0000     8.4182     9.1522   -19.7044     8.2620     0.0015     0.1428   108.0644     2.4506
  109.5000     8.3012     9.0859   -19.8522     8.2470     0.0015     0.1446   108.5651     2.4491
  110.0000     8.1859     9.0206   -20.0000     8.2470     0.0015     0.1482   109.2992     2.4476
  110.5000     8.0721     8.9558   -20.1579     8.2620     0.0015     0.1524   109.9565     2.4416
  111.0000     7.9049     8.8301   -20.4666     8.2620     0.0000     0.1551   110.9985     2.4356
  111.5000     7.7950     8.6459   -20.7452     8.2620     0.0015     0.1539   113.9427     2.4347
  112.0000     7.6867     8.4655   -21.0439     8.2470     0.0015     0.1506   115.5537     2.4371
  112.5000     7.6326     8.4047   -21.3419     8.2470     0.0015     0.1515   115.9774     2.4364
  113.0000     7.5265     8.3443   -21.6406     8.2620     0.0015     0.1521   115.8286     2.4356
  113.5000     7.5324     8.2844   -21.7892     8.2620     0.0030     0.1517   115.4734     2.4356
  114.0000     7.6294     8.2816   -21.9370     8.2620     0.0015     0.1503   115.2908     2.4371
  114.5000     7.7349     8.2221   -21.9333     8.2620     0.0015     0.1494   115.6828     2.4402
  115.0000     7.8418     8.2199   -21.9304     8.2771     0.0015     0.1482   117.7893     2.4432
  115.5000     7.9499     8.2754   -21.9274     8.2595     0.0045     0.1467   115.0415     2.4462
  116.0000     8.0597     8.3301   -21.9244     8.2169     0.0075     0.1452   115.7558     2.4484
  116.5000     8.1714     8.5030   -21.9215     8.1867     0.0105     0.1421   115.3882     2.4522
  117.0000     8.2840     8.8618   -21.9185     8.1566     0.0225     0.1367   113.0870     2.4582
  117.5000     8.2257     8.9838   -21.7647     8.1867     0.0345     0.1289   106.5563     2.4627
  118.0000     8.2820     9.1068   -21.6109     8.2470     0.0315     0.1241   100.6436     2.4838
  118.5000     8.2806     9.1037   -21.6078     8.2771     0.0195     0.1313   101.2078     2.4748
  119.0000     8.2795     9.1012   -21.4534     8.2771     0.0135     0.1358   103.6664     2.4649
  119.5000     8.2784     9.0987   -21.2996     8.2771     0.0135     0.1394   106.2239     2.4551
  120.0000     8.2772     9.0962   -21.2966     8.2620     0.0150     0.1427   104.7880     2.4523
  120.5000     8.2761     9.0895   -21.2937     8.2620     0.0165     0.1427   103.1584     2.4530
  121.0000     8.3325     9.0283   -21.4423     8.2620     0.0165     0.1383   102.2729     2.4568
  121.5000     8.3311     9.0888   -21.2877     8.2620     0.0165     0.1337   105.1777     2.4635
  122.0000     8.3882     9.0857   -21.2848     8.2620     0.0135     0.1403   111.1940     2.4613
  122.5000     8.5041     9.0832   -21.2818     8.2620     0.0135     0.1487   110.5923     2.4433
  123.0000     8.6213     9.0807   -20.9772     8.2620     0.0165     0.1478   108.1896     2.4440
  123.5000     8.7407     9.0783   -20.6726     8.2620     0.0255     0.1439   106.0859     2.4463
  124.0000     8.8612     9.0756   -20.5188     8.2470     0.0345     0.1394   104.7337     2.4493
  124.5000     8.9219     9.0731   -20.3650     8.2470     0.0435     0.1342   106.6905     2.4576
  125.0000     8.9828     9.1344   -20.5128     8.2620     0.0405     0.1279   108.1955     2.4718
  125.5000     9.0440     9.1313   -20.5098     8.3072     0.0390     0.1240   109.8974     2.4794
  126.0000     9.1057     9.1288   -20.5068     8.0361     0.0390     0.1261   111.0557     2.4741
  126.5000     9.1041     9.1263   -20.5032     8.0964     0.0390     0.1309   111.8090     2.4674
  127.0000     9.2299     9.1238   -20.5002     8.1717     0.0360     0.1363   108.8030     2.4659
  127.5000     9.2287     9.1213   -20.4972     8.2018     0.0300     0.1387   107.9639     2.4599
  128.0000     9.1636     9.1823   -20.4943     8.2169     0.0225     0.1402   111.8138     2.4524
  128.5000     9.1539     9.1163   -20.4913     8.2169     0.0165     0.1393   112.2663     2.4546
  129.0000     9.0976     9.0508   -20.6399     8.2319     0.0165     0.1372   109.7726     2.4569
  129.5000     9.0963     9.0484   -20.7878     8.2470     0.0165     0.1378   105.8032     2.4599
  130.0000     9.0951     9.0459   -20.9356     8.2470     0.0165     0.1423   102.8772     2.4494
  130.5000     9.0939     9.0434   -21.0835     8.2470     0.0150     0.1504   105.9566     2.4419
  131.0000     9.0926     9.1039   -21.0798     8.2470     0.0165     0.1537   107.6120     2.4359
  131.5000     9.0286     9.1008   -21.2278     8.2470     0.0195     0.1501   107.4629     2.4359
  132.0000     9.0274     9.0983   -21.2247     8.2018     0.0285     0.1432   108.0373     2.4453
  132.5000     9.0261     9.0958   -21.2217     8.0964     0.0330     0.1368   108.7312     2.4615
  133.0000     9.0249     9.0933   -21.2187     8.1416     0.0315     0.1380   104.6107     2.4615
  133.5000     8.9614     9.0280   -21.2157     8.2169     0.0210     0.1413   102.9578     2.4555
  134.0000     8.8368     9.0256   -21.2121     8.2169     0.0105     0.1440   103.2601     2.4487
  134.5000     8.7746     8.8988   -21.2091     8.2169     0.0015     0.1473   103.1802     2.4442
  135.0000     8.7128     8.8964   -21.2061     8.2319     0.0015     0.1476   102.3612     2.4420
  135.5000     8.7116     8.8325   -21.2032     8.2470     0.0030     0.1455   101.7609     2.4420
  136.0000     8.7104     8.7690   -21.3518     8.2470     0.0090     0.1420   102.4229     2.4487
  136.5000     8.7698     8.7666   -21.3481     8.2470     0.0135     0.1359   102.1681     2.4638
  137.0000     8.7683     8.8252   -21.1943     8.2169     0.0075     0.1308   100.8944     2.4675
  137.5000     8.7671     8.8228   -21.1916     8.2018     0.0015     0.1308   101.1656     2.4683
  138.0000     8.7659     8.8818   -21.1883     8.2018    -0.0015     0.1317   102.8211     2.4690
  138.5000     8.8260     8.8876   -21.1854     8.2169    -0.0030     0.1342   104.5439     2.4659
  139.0000     8.9476     9.0010   -21.1824     8.2169    -0.0045     0.1401   106.0069     2.4555
  139.5000     8.9464     8.9979   -21.0286     8.2169    -0.0015     0.1431   107.8042     2.4495
  140.0000     9.0077     9.0587   -20.5732     8.2169     0.0030     0.1407   110.3459     2.4496
  140.5000     9.0691     9.1192   -20.4193     8.2169     0.0105     0.1355   111.8513     2.4511
  141.0000     9.1309     9.1161   -20.2655     8.2169     0.0195     0.1301   113.4544     2.4571
  141.5000     9.1929     9.1777   -20.2619     8.2319     0.0436     0.1202   114.8617     2.4811
  142.0000     9.2556     9.2390   -20.2589     8.2319     0.0450     0.1160   114.1115     2.4939
  142.5000     9.1904     9.2359   -20.5583     8.0211     0.0403     0.1196   112.9097     2.4969
  143.0000     9.1891     9.3623   -21.0071     7.9006     0.0270     0.1280   112.9113     2.4796
