~VERSION INFORMATION
 VERS.                2.0:   CWLS LOG ASCII STANDARD - VERSION 2.0
 WRAP.                 NO:   ONE LINE PER DEPTH STEP
~WELL INFORMATION
#MNEM.UNIT      DATA TYPE    INFORMATION
#----------   ------------   ------------------------------
 STRT.F           24.0000:   START DEPTH
 STOP.F          487.5000:   STOP DEPTH
 STEP.F            0.5000:   STEP LENGTH
 NULL.          -999.2500:   NO VALUE
 COMP. FENIX & SCISSON INC:   COMPANY
 WELL.       NPR #35-SX-3:   WELL
 FLD .        TEAPOT DOME:   FIELD
 LOC .       S3 T38N R78W:   LOCATION
 CNTY.            NATRONA:   COUNTY
 STAT.            WYOMING:   STATE
 CTRY. UNITED STATES OF AMERICA:   COUNTRY
 SRVC.       Schlumberger:   SERVICE COMPANY
 DATE.        26-MAR-1977:   LOGDATE
 API .       490251030700:   API NUMBER
~CURVE INFORMATION
#MNEM.UNIT       API CODE    CURVE DESCRIPTION
#----------   ------------   ------------------------------
 DEPT.F                  :   
 SPR .MV     07 010 01 00:   SPONTANEOUS POTENTIAL
 LL8 .OHMM   07 220 08 00:   LATEROLOG-8 RES.
 ILD .OHMM   07 120 46 00:   INDUCTION LOG DEEP
 ILM .OHMM   07 120 44 00:   INDUCTION LOG MEDIUM
 CALD.IN     45 280 60 00:   CALIPER FROM DENSITY LOG
 RHOB.G/C3   45 350 01 00:   BULK DENSITY
 DPOR.DEC    45 890 12 00:   DENSITY POROSITY SANDSTONE
 CORR.G/C3   45 356 01 00:   DENSITY CORRECTION
 GRD .GAPI   45 310 01 00:   GAMMA RAY FROM DENSITY LOG
~PARAMETER INFORMATION
#MNEM.UNIT          VALUE    DESCRIPTION
#----------   ------------   ------------------------------
 PD  .                 GL:   PERMANENT DATUM
 EPD .F          EST 5200:   ELEVATION PERMANENT DATUM
 LMF .                 GL:   LOG MEASURED FROM
 DMF .                 KB:   DRILLING MEASURED FROM
 EKB .F              5205:   KELLING BUSHING
 EGL .F          EST 5200:   GROUND LEVEL
 DATE.            3-26-77:   RUN DATE
 RUN .                  1:   RUN NUMBER
 DD  .F               524:   DEPTH DRILLER
 DL  .F               489:   DEPTH LOGGER
 BLI .F               483:   BOTTOM LOG INTERVAL
 TLI .F                39:   TOP LOG INTERVAL
 CS  .IN            8.625:   CASING SIZE
 CBD .F                40:   CASING BOTTOM DRILLER
 CBL .F                39:   CASING BOTTOM LOGGER
 BS  .IN            7.875:   BIT SIZE
 BSD .F               524:   BIT SIZE AT DEPTH
 DFT .                KCL:   DRILLING FLUID TYPE
 DFD .                8.8:   DRILLING FLUID DENSITY
 DFV .                 31:   DRILLING FLUID VISCOSITY
 DFPH.                  8:   DRILLING FLUID PH
 DFL .                9.1:   DRILLING FLUID LOSS
 MSS .          FLOW LINE:   MUD SAMPLE SOURCE
 RMS .OHMM            .18:   RESISTIVITY MUD SAMPLE
 MST .F                76:   MUD SAMPLE TEMPERATURE
 RMF .OHMM            .15:   RESISTIVITY MUD FILTRATE SAMPLE
 MFST.F                76:   MUD FILTRATE SAMPLE TEMPERATURE
 RMC .OHMM             .1:   RESISTIVITY MUD CAKE
 MCST.F                76:   MUD CAKE SAMPLE TEMPERATURE
 MFSS.                  M:   MUD FILTRATE SAMPLE SOURCE
 MCSS.                  C:   MUD CAKE SAMPLE SOURCE
 RMB .OHMM            .25:   RESISTIVITY MUD AT BHT
 BHT .F                55:   BOTTOM HOLE TEMPERATURE
 TCS .HRS               6:   TIME CURCULATED STOPPED
 MRT .F            EST 55:   MAXIMUM RECORDED TEMPERATURE
 LUN .               5642:   LOGGING UNIT NUMBER
 LUL .               CSPR:   LOGGING UNIT LOCATION
 ENGI.     LOHBECK/MARTIN:   RECORDING ENGINEER
 WITN.         STUEBINGER:   WITNESSED BY
 CLNT.            A2DTECH:   CLIENT CODE
 ORIG.       2", 5" PRINT:   ORIGIN OF DATA
 UWI .       490251030700:   UNIQUE WELL ID
 DICO. A2D Technologies, Inc.:   DIGITIZING COMPANY
~OTHER INFORMATION
~A   DEPT      SPR        LL8        ILD        ILM       CALD       RHOB       DPOR       CORR        GRD   
# ...
  133.5000   -63.3192    17.6572    11.4492    12.2108     8.5499     2.4702     0.1110     0.0245   104.0878
  134.0000   -63.1610    15.5670    11.7581    12.3376     8.5495     2.4630     0.1183     0.0300   103.5265
  134.5000   -63.0031    14.0128    11.9958    12.4658     8.5496     2.4728     0.1041     0.0348   102.2161
  135.0000   -62.8431    14.1125    12.0623    12.5953     8.5496     2.4708     0.1096     0.0193   101.3764
  135.5000   -62.6221    15.0238    12.1290    12.7262     8.5496     2.4624     0.1132     0.0253   101.8277
  136.0000   -62.1743    16.7042    12.1962    12.8584     8.5496     2.4609     0.1136     0.0349   102.4091
  136.5000   -61.7314    16.4419    12.2638    12.9122     8.5496     2.4595     0.1140     0.0446   101.4430
  137.0000   -61.2864    15.9624    12.3320    12.9373     8.5496     2.4567     0.1153     0.0476   100.2778
  137.5000   -60.9859    15.6573    12.4003    12.9623     8.5496     2.4401     0.1239     0.0233    99.8782
  138.0000   -60.7566    15.8027    12.4689    12.9875     8.5488     2.4386     0.1199     0.0213   101.5697
  138.5000   -60.5284    15.4552    12.5406    13.0136     8.5412     2.4551     0.1133     0.0361   102.8911
  139.0000   -60.3003    15.0999    12.4321    13.1437     8.5336     2.4650     0.1098     0.0250   101.7626
  139.5000   -60.0721    14.9498    12.3205    13.2803     8.5259     2.4620     0.1136     0.0325   100.7739
  140.0000   -59.8438    14.9498    12.2096    13.4878     8.5182     2.4660     0.1118     0.0451   100.8099
  140.5000   -59.6155    14.9498    12.0997    13.3490     8.5108     2.4690     0.1090     0.0499   103.7760
  141.0000   -59.3863    14.9543    11.9907    12.9532     8.5342     2.4634     0.1121     0.0376   105.7926
  141.5000   -59.1553    14.7790    11.8826    12.5692     8.5613     2.4743     0.1002     0.0605   106.1427
  142.0000   -58.9621    14.2589    11.7755    12.1980     8.5884     2.4595     0.1182     0.0221   105.6355
  142.5000   -59.2959    13.3906    11.7365    12.1980     8.6155     2.4450     0.1277     0.0213   104.8249
  143.0000   -59.5843    13.5738    11.7139    12.3131     8.6166     2.4540     0.1220     0.0267   102.6940
  143.5000   -59.7237    13.8356    11.6912    12.4281     8.5917     2.4532     0.1212     0.0254   102.1949
  144.0000   -59.7420    14.1011    11.6684    12.5438     8.5670     2.4368     0.1291     0.0172   100.6752
  144.5000   -59.7430    14.4000    11.6465    12.6568     8.5507     2.4300     0.1354     0.0087    98.9229
  145.0000   -59.7410    13.6294    11.5470    12.5365     8.5646     2.4469     0.1254     0.0184   100.3923
  145.5000   -59.5229    13.6728    11.4518    12.4204     8.5783     2.4610     0.1128     0.0329   103.7329
  146.0000   -59.2738    13.7709    11.3570    12.3054     8.5921     2.4622     0.1127     0.0291   107.4390
  146.5000   -59.0241    13.8698    11.2631    12.1914     8.6058     2.4758     0.1022     0.0527   107.8104
  147.0000   -58.7750    13.5467    11.1699    12.0786     8.6192     2.4757     0.1105     0.0431   107.0302
  147.5000   -58.5484    13.1645    11.0465    11.9667     8.6149     2.4330     0.1224     0.0272   106.8738
  148.0000   -58.4879    12.8939    10.8896    11.8559     8.5647     2.4182     0.1343     0.0181   108.2449
  148.5000   -58.4331    13.1345    10.7348    11.7550     8.5306     2.4302     0.1397     0.0139   109.4971
  149.0000   -58.3780    12.8589    10.5823    11.5602     8.5365     2.4297     0.1351     0.0181   106.7539
  149.5000   -58.3227    12.4663    10.4319    11.3429     8.5417     2.4450     0.1232     0.0287   103.8857
  150.0000   -58.2674    12.1980    10.3277    11.1301     8.5470     2.4487     0.1098     0.0495   103.1668
  150.5000   -58.2113    12.3292    10.3453    10.9213     8.5599     2.4412     0.1185     0.0596   102.5554
  151.0000   -58.1581    12.5969    10.3590    10.8151     8.5807     2.4354     0.1370     0.0202   101.5842
  151.5000   -58.3063    13.0118    10.3726    10.8169     8.6014     2.4459     0.1254     0.0280   100.5466
  152.0000   -58.4811    12.8815    10.3865    10.8166     8.6222     2.4482     0.1294     0.0391   100.3003
  152.5000   -58.6562    12.6182    10.4009    10.8169     8.6444     2.4478     0.1234     0.0429   100.2945
  153.0000   -58.8311    12.3602    10.4157    10.8171     8.6132     2.4481     0.1227     0.0483   100.2967
  153.5000   -59.0068    12.1067    10.4236    10.6653     8.5611     2.4524     0.1177     0.0618   100.2923
  154.0000   -59.1848    11.9745    10.0045    10.4439     8.5854     2.4531     0.1109     0.0606   100.5602
  154.5000   -59.3265    12.2100     9.6872    10.2271     8.6346     2.4325     0.1324     0.0415   100.9223
  155.0000   -58.9155    12.4257     9.3799    10.0156     8.6845     2.4144     0.1426     0.0214   101.2802
  155.5000   -58.5038    11.8616     9.1579     9.8594     8.7363     2.4441     0.1323     0.0377   101.6971
  156.0000   -58.0788    11.4326     9.2289     9.8531     8.7421     2.4718     0.1181     0.0514   104.8381
  156.5000   -57.9202    11.1206     9.2857     9.8468     8.7345     2.4608     0.1146     0.0504   106.1278
  157.0000   -57.8625    11.2692     9.3288     9.8405     8.7264     2.4543     0.1234     0.0468   104.1461
  157.5000   -57.8099    11.4199     9.3201     9.8342     8.7184     2.4517     0.1206     0.0479   101.6582
  158.0000   -57.7569    11.3378     9.3131     9.8279     8.7102     2.4495     0.1273     0.0273    99.6284
  158.5000   -57.7033    11.2239     9.3060     9.8217     8.7084     2.4277     0.1230     0.0329   101.4845
  159.0000   -57.6495    11.6369     9.2990     9.8154     8.7083     2.4211     0.1449     0.0097   103.9821
  159.5000   -57.5967    11.9745     9.2920     9.8091     8.7083     2.4195     0.1398     0.0054   105.7368
  160.0000   -57.5666    10.9169     9.2850     9.8028     8.7083     2.4128     0.1486     0.0132   107.3797
  160.5000   -57.6344    11.1099     9.2780     9.7966     8.7083     2.4199     0.1435     0.0251   107.2327
  161.0000   -57.7016    11.4292     9.2710     9.7902     8.7083     2.4310     0.1340     0.0337   105.8497
  161.5000   -57.8194    11.7550     9.2638     9.7839     8.7083     2.4384     0.1274     0.0400   104.5126
  162.0000   -58.1519    11.5150     9.2561     9.7764     8.7084     2.4202     0.1427     0.0098   103.7015
  162.5000   -58.4824    11.3282     9.2432     9.7702     8.7032     2.4113     0.1518     0.0115   105.3547
  163.0000   -58.8124    11.2809     9.2448     9.5997     8.6939     2.4169     0.1425     0.0164   106.2009
  163.5000   -59.1426    11.2338     8.9451     9.3879     8.6846     2.4211     0.1414     0.0203   104.8744
  164.0000   -59.4729    10.9325     8.6557     9.1809     8.6753     2.4433     0.1309     0.0258   102.4375
  164.5000   -59.8028    10.2168     8.4087     8.9790     8.6659     2.4639     0.1166     0.0314   100.1353
  165.0000   -60.1312     9.5468     8.3125     8.7816     8.6566     2.4586     0.1214     0.0293   100.6881
  165.5000   -60.3243     9.0783     8.2173     8.5839     8.6486     2.4648     0.1165     0.0345   102.1284
  166.0000   -60.2759     9.0657     8.1233     8.5504     8.6488     2.4724     0.1147     0.0468   104.5779
  166.5000   -60.2314    10.4236     8.0303     8.5163     8.6488     2.4407     0.1292     0.0491   105.8335
  167.0000   -60.1873    10.7168     7.8992     8.4822     8.6488     2.4331     0.1381     0.0244   108.0755
  167.5000   -60.1361    10.5001     7.9712     8.4314     8.6488     2.4363     0.1270     0.0367   108.5267
  168.0000   -59.8900    10.3175     8.1003     8.4779     8.6488     2.4174     0.1421     0.0256   106.7905
  168.5000   -59.6282    10.1381     8.2314     8.6229     8.6488     2.4206     0.1438     0.0142   107.2594
  169.0000   -59.3676     9.9527     8.4266     8.7705     8.6488     2.4282     0.1357     0.0192   108.9221
  169.5000   -59.1449    10.1253     8.4200     8.9901     8.6488     2.4285     0.1360     0.0141   110.5882
