~VERSION INFORMATION
 VERS.                2.0:   CWLS LOG ASCII STANDARD - VERSION 2.0
 WRAP.                 NO:   ONE LINE PER DEPTH STEP
~WELL INFORMATION
#MNEM.UNIT      DATA TYPE    INFORMATION
#----------   ------------   ------------------------------
 STRT.F           70.0000:   START DEPTH
 STOP.F          990.0000:   STOP DEPTH
 STEP.F            0.5000:   STEP LENGTH
 NULL.          -999.2500:   NO VALUE
 COMP. U S NAVY/INTEX OIL CO:   COMPANY
 WELL.      NPR 3 #55 S-2:   WELL
 FLD .            WILDCAT:   FIELD
 LOC .       S2 T38N R78W:   LOCATION
 CNTY.            NATRONA:   COUNTY
 STAT.            WYOMING:   STATE
 CTRY. UNITED STATES OF AMERICA:   COUNTRY
 SRVC.         Lane Wells:   SERVICE COMPANY
 DATE.        23-MAR-1960:   LOGDATE
 API .       490250968000:   API NUMBER
~CURVE INFORMATION
#MNEM.UNIT       API CODE    CURVE DESCRIPTION
#----------   ------------   ------------------------------
 DEPT.F                  :   
 SPR .MV     05 010 01 00:   SPONTANEOUS POTENTIAL FROM RES.
 ASN .OHMM   05 041 16 00:   AMPLIFIED SHORT NORMAL 16"
 ILD .OHMM   05 120 46 00:   INDUCTION LOG DEEP
 CILD.MMHO   05 110 46 00:   CONDUCTIVITY INDUCTION LOG DEEP
~PARAMETER INFORMATION
#MNEM.UNIT          VALUE    DESCRIPTION
#----------   ------------   ------------------------------
 PD  .                 GL:   PERMANENT DATUM
 EPD .F              5163:   ELEVATION PERMANENT DATUM
 LMF .                 KB:   LOG MEASURED FROM
 DAPD.F                 5:   FEET ABOVE PERMANENT DATUM
 DMF .                 KB:   DRILLING MEASURED FROM
 EKB .F              5168:   KELLING BUSHING
 EGL .F              5163:   GROUND LEVEL
 DATE.        23-MAR-1960:   RUN DATE
 RUN .                  1:   RUN NUMBER
 DD  .F              1010:   DEPTH DRILLER
 DL  .F               992:   DEPTH LOGGER
 BLI .F               990:   BOTTOM LOG INTERVAL
 TLI .F                70:   TOP LOG INTERVAL
 CS  .IN            8.625:   CASING SIZE
 CBD .F                12:   CASING BOTTOM DRILLER
 BS  .IN            7.875:   BIT SIZE
 BSD .F              1010:   BIT SIZE AT DEPTH
 DFT .   GEL-OIL EMULSION:   DRILLING FLUID TYPE
 DFD .                9.5:   DRILLING FLUID DENSITY
 DFV .                 40:   DRILLING FLUID VISCOSITY
 MSS .           FLOWLINE:   MUD SAMPLE SOURCE
 RMS .OHMM            2.8:   RESISTIVITY MUD SAMPLE
 MST .F                74:   MUD SAMPLE TEMPERATURE
 RMF .OHMM            2.0:   RESISTIVITY MUD FILTRATE SAMPLE
 MFST.F                74:   MUD FILTRATE SAMPLE TEMPERATURE
 RMC .OHMM            3.9:   RESISTIVITY MUD CAKE
 MCST.F                74:   MUD CAKE SAMPLE TEMPERATURE
 MFSS.          MUD PRESS:   MUD FILTRATE SAMPLE SOURCE
 MCSS.          MUD PRESS:   MUD CAKE SAMPLE SOURCE
 RMB .OHMM            2.8:   RESISTIVITY MUD AT BHT
 BHT .F                74:   BOTTOM HOLE TEMPERATURE
 MRT .F                74:   MAXIMUM RECORDED TEMPERATURE
 LUN .             L-4474:   LOGGING UNIT NUMBER
 LUL .             CASPER:   LOGGING UNIT LOCATION
 ENGI.             NELSON:   RECORDING ENGINEER
 WITN.          JORGENSEN:   WITNESSED BY
 CLNT.            A2DTECH:   CLIENT CODE
 ORIG.       2", 5" PRINT:   ORIGIN OF DATA
 UWI .       490250968000:   UNIQUE WELL ID
 DICO. A2D Technologies, Inc.:   DIGITIZING COMPANY
~OTHER INFORMATION
~A   DEPT      SPR          ASN        ILD      CILD  
# ...
  946.0000   -41.9441     9.9774     8.3436   144.0984
  946.5000   -41.5446     9.8158     8.2738   144.1118
  947.0000   -41.4115     9.6810     8.1369   144.1250
  947.5000   -41.2783     9.5597     8.0672   145.4860
  948.0000   -41.4115     9.4249     7.9893   146.8470
  948.5000   -41.4115     9.3170     7.8604   146.8604
  949.0000   -41.2783     9.1957     7.7901   148.2214
  949.5000   -41.0120     9.1146     7.6532   149.5824
  950.0000   -40.7457     8.9932     7.5125   150.9434
  950.5000   -40.4448     8.8924     7.4497   154.9866
  951.0000   -40.0799     8.7506     7.3154   159.0296
  951.5000   -40.2131     8.6024     7.2483   161.7250
  952.0000   -40.4794     8.4677     6.9799   164.4204
  952.5000   -40.4794     8.3330     6.7785   165.7682
  953.0000   -40.3462     8.1714     6.6443   168.4636
  953.5000   -40.0799     7.9830     6.5101   171.1590
  954.0000   -39.9467     7.7409     6.3087   175.2022
  954.5000   -39.9467     7.5256     6.1745   179.2452
  955.0000   -39.9467     7.2835     5.9060   187.3316
  955.5000   -39.9467     7.0414     5.7047   195.4178
  956.0000   -39.8136     6.7992     5.3691   207.5472
  956.5000   -39.5473     6.4632     5.1007   219.6766
  957.0000   -39.1478     6.0734     4.8322   234.5014
  957.5000   -38.6152     5.6568     4.5638   250.6738
  958.0000   -38.0826     5.1059     4.4295   269.5418
  958.5000   -37.8162     4.8504     4.2953   277.6280
  959.0000   -37.8162     4.6754     4.3624   278.9758
  959.5000   -37.8162     4.7018     4.6309   274.8921
  960.0000   -38.0826     4.9966     4.8993   269.4528
  960.5000   -38.2157     5.4793     5.2349   261.3162
  961.0000   -38.2157     6.1042     5.6376   250.1096
  961.5000   -38.2090     6.8205     5.9060   230.8526
  962.0000   -37.8162     7.1153     6.1137   208.8948
  962.5000   -37.8162     7.3833     6.3171   196.7656
  963.0000   -37.9628     7.6244     6.4535   187.3316
  963.5000   -38.2157     7.7850     6.6570   181.9408
  964.0000   -38.3489     7.9455     6.8456   177.8976
  964.5000   -38.3489     8.0927     6.9799   172.5068
  965.0000   -38.3489     8.2130     7.1812   168.4636
  965.5000   -38.3489     8.3199     7.3154   165.7682
  966.0000   -38.2157     8.4376     7.5168   161.7250
  966.5000   -38.3489     8.6248     7.7181   159.0296
  967.0000   -38.7483     8.8120     7.9195   156.3342
  967.5000   -38.8815     9.0125     8.0537   152.2912
  968.0000   -38.8815     9.2400     8.2550   148.2480
  968.5000   -38.4820     9.5223     8.3893   145.5526
  969.0000   -38.6152     9.9674     8.5906   142.8572
  969.5000   -38.8815    10.5953     8.8591   140.1618
  970.0000   -39.2810    10.9866     8.9933   138.8140
  970.5000   -39.4141    11.2545     9.1275   136.1186
  971.0000   -39.4141    11.4553     9.1946   133.4232
  971.5000   -39.2810    11.5891     9.2617   132.0754
  972.0000   -39.2810    11.7228     9.3289   130.7278
  972.5000   -39.4141    11.7223     9.3960   130.7278
  973.0000   -39.8136    11.8560     9.3960   129.3800
  973.5000   -40.3462    11.8555     9.4631   128.0324
  974.0000   -41.0120    11.9221     9.5302   128.0324
  974.5000   -41.6778    11.9216     9.5973   128.0324
  975.0000   -42.0772    11.9211     9.5973   126.6846
  975.5000   -41.5446    11.9206     9.5973   125.3370
  976.0000   -40.7457    11.9201     9.5973   125.3370
  976.5000   -40.4794    11.9196     9.5302   125.3370
  977.0000   -41.0120    11.9191     9.5302   125.3370
  977.5000   -41.2783    11.9186     9.5302   125.3370
  978.0000   -41.0120    11.8510     9.4631   125.3370
  978.5000   -40.4794    11.7162     9.4538   125.3370
  979.0000   -39.9467    11.5815     9.3960   125.3370
  979.5000   -39.5473    11.5810     9.3960   125.3370
  980.0000   -39.4141    11.5805     9.3289   125.3370
  980.5000   -39.6804    11.6472     9.2617   126.6846
  981.0000   -40.3462    11.6466     9.2617   128.0324
  981.5000   -41.1451    11.5790     9.1946   129.3800
  982.0000   -41.5446    11.5114     9.1275   130.7278
  982.5000   -40.4794    11.3766     9.0604   133.4232
  983.0000   -40.4794    11.2419     8.9262   134.7708
  983.5000   -40.4794    11.1743     8.7919   137.4664
  984.0000   -40.6125    10.9724     8.6577   138.8140
  984.5000   -40.4794    10.9048     8.5235   141.5094
  985.0000   -40.3462    10.7701     8.3221   142.8572
  985.5000   -40.6125    10.6354     8.2550   144.2048
  986.0000   -40.6125    10.0174     8.1879   144.2048
  986.5000   -40.2131     9.2921     8.1208   144.2048
  987.0000   -39.6804     8.9963     8.0537   145.5526
  987.5000   -39.2810     8.8213     8.0537   145.5526
  988.0000   -38.8815     8.7671     8.1208   145.5526
  988.5000   -38.6152     8.7129     8.1208   145.5526
  989.0000   -38.2157     8.5781     8.1208   145.5526
  989.5000   -37.8162     8.4568     8.1208   145.5526
  990.0000   -37.1505     8.3758     8.1208   145.5526
