~VERSION INFORMATION
 VERS.                2.0:   CWLS LOG ASCII STANDARD - VERSION 2.0
 WRAP.                 NO:   ONE LINE PER DEPTH STEP
~WELL INFORMATION
#MNEM.UNIT      DATA TYPE    INFORMATION
#----------   ------------   ------------------------------
 STRT.F            4.0000:   START DEPTH
 STOP.F         1997.5000:   STOP DEPTH
 STEP.F            0.5000:   STEP LENGTH
 NULL.          -999.2500:   NO VALUE
 COMP. LAWRENCE/ALLISON INC:   COMPANY
 WELL. NPR 3 66 SX #32-11:   WELL
 FLD .             TEAPOT:   FIELD
 LOC .      S11 T38N R78W:   LOCATION
 CNTY.            NATRONA:   COUNTY
 STAT.            WYOMING:   STATE
 CTRY. UNITED STATES OF AMERICA:   COUNTRY
 SRVC.      NL McCullough:   SERVICE COMPANY
 DATE.        16-SEP-1988:   LOGDATE
 API .       490251108600:   API NUMBER
~CURVE INFORMATION
#MNEM.UNIT       API CODE    CURVE DESCRIPTION
#----------   ------------   ------------------------------
 DEPT.F                  :   
 ROP .MIN/FT 91 810 01 00:   RATE OF DRILLING PENETRATION
 GR  .GAPI   81 310 01 00:   GAMMA RAY FROM CEMENT BOND LOG
 TGAS.UNITS  91 830 01 00:   TOTAL GAS FROM HOTWIRE
~PARAMETER INFORMATION
#MNEM.UNIT          VALUE    DESCRIPTION
#----------   ------------   ------------------------------
 PD  .                 GL:   PERMANENT DATUM
 EPD .F              5170:   ELEVATION PERMANENT DATUM
 LMF .                 KB:   LOG MEASURED FROM
 DMF .                 KB:   DRILLING MEASURED FROM
 EKB .F              5170:   KELLING BUSHING
 EGL .F              5170:   GROUND LEVEL
 DATE.        16-SEP-1988:   RUN DATE
 RUN .                  1:   RUN NUMBER
 DD  .F               837:   DEPTH DRILLER
 DL  .F               737:   DEPTH LOGGER
 BLI .F               733:   BOTTOM LOG INTERVAL
 CS  .IN              5.5:   CASING SIZE
 CBD .F               836:   CASING BOTTOM DRILLER
 BSD .F               837:   BIT SIZE AT DEPTH
 DFT .              WATER:   DRILLING FLUID TYPE
 TCS .HRS             1.5:   TIME CURCULATED STOPPED
 ENGI.          BANGERTER:   RECORDING ENGINEER
 WITN.               LOWE:   WITNESSED BY
 CLNT.            A2DTECH:   CLIENT CODE
 ORIG.           5" PRINT:   ORIGIN OF DATA
 UWI .       490251108600:   UNIQUE WELL ID
 DICO. A2D Technologies, Inc.:   DIGITIZING COMPANY
~OTHER INFORMATION
~A    DEPT     ROP          GR      TGAS   
# ...
  914.0000     0.3008  -999.2500     2.6544
  914.5000     0.3007  -999.2500     2.6751
  915.0000     0.3006  -999.2500     2.6959
  915.5000     0.3005  -999.2500     2.7166
  916.0000     0.3004  -999.2500     2.7373
  916.5000     0.3003  -999.2500     2.7581
  917.0000     0.3002  -999.2500     2.7788
  917.5000     0.3001  -999.2500     2.7995
  918.0000     0.3000  -999.2500     2.8203
  918.5000     0.2999  -999.2500     2.8410
  919.0000     0.2998  -999.2500     2.8618
  919.5000     0.2997  -999.2500     2.8825
  920.0000     0.2996  -999.2500     2.9032
  920.5000     0.2995  -999.2500     2.9240
  921.0000     0.2994  -999.2500     2.9447
  921.5000     0.2993  -999.2500     2.9654
  922.0000     0.2992  -999.2500     2.9862
  922.5000     0.2991  -999.2500     3.0069
  923.0000     0.2990  -999.2500     3.0276
  923.5000     0.2989  -999.2500     3.0484
  924.0000     0.2988  -999.2500     3.0691
  924.5000     0.2987  -999.2500     3.0899
  925.0000     0.2986  -999.2500     3.1106
  925.5000     0.2985  -999.2500     3.1313
  926.0000     0.2984  -999.2500     3.1521
  926.5000     0.2983  -999.2500     3.1728
  927.0000     0.2982  -999.2500     3.1935
  927.5000     0.2981  -999.2500     3.2143
  928.0000     0.2980  -999.2500     3.2350
  928.5000     0.2979  -999.2500     3.2558
  929.0000     0.2978  -999.2500     3.2765
  929.5000     0.2977  -999.2500     3.2972
  930.0000     0.2976  -999.2500     3.3180
  930.5000     0.2975  -999.2500     3.3387
  931.0000     0.2974  -999.2500     3.3594
  931.5000     0.2973  -999.2500     3.3802
  932.0000     0.2972  -999.2500     3.4009
  932.5000     0.2971  -999.2500     3.4217
  933.0000     0.2970  -999.2500     3.4424
  933.5000     0.2969  -999.2500     3.4631
  934.0000     0.2968  -999.2500     3.4839
  934.5000     0.2967  -999.2500     3.5046
  935.0000     0.2966  -999.2500     3.5253
  935.5000     0.2965  -999.2500     3.5461
  936.0000     0.2964  -999.2500     3.5668
  936.5000     0.2963  -999.2500     3.5876
  937.0000     0.2962  -999.2500     3.6083
  937.5000     0.2961  -999.2500     3.6290
  938.0000     0.2960  -999.2500     3.6498
  938.5000     0.2959  -999.2500     3.6705
  939.0000     0.2957  -999.2500     3.6912
  939.5000     0.2956  -999.2500     3.7120
  940.0000     0.2955  -999.2500     3.7327
  940.5000     0.2954  -999.2500     3.7535
  941.0000     0.2953  -999.2500     3.7742
  941.5000     0.2952  -999.2500     3.7949
  942.0000     0.2951  -999.2500     3.8157
  942.5000     0.2950  -999.2500     3.8364
  943.0000     0.2949  -999.2500     3.8571
  943.5000     0.2948  -999.2500     3.8779
  944.0000     0.2947  -999.2500     3.8986
  944.5000     0.2946  -999.2500     3.9194
  945.0000     0.2945  -999.2500     3.9401
  945.5000     0.2944  -999.2500     3.9608
  946.0000     0.2943  -999.2500     3.9816
  946.5000     0.2942  -999.2500     4.0023
  947.0000     0.2941  -999.2500     4.0230
  947.5000     0.2940  -999.2500     4.0438
  948.0000     0.2939  -999.2500     4.0645
  948.5000     0.2938  -999.2500     4.0853
  949.0000     0.2937  -999.2500     4.1060
  949.5000     0.2936  -999.2500     4.1267
  950.0000     0.2935  -999.2500     4.1475
  950.5000     0.2934  -999.2500     4.1475
  951.0000     0.2933  -999.2500     4.1475
  951.5000     0.2932  -999.2500     4.1475
  952.0000     0.2931  -999.2500     4.1475
  952.5000     0.2930  -999.2500     4.1475
  953.0000     0.2929  -999.2500     4.1475
  953.5000     0.2928  -999.2500     4.1475
  954.0000     0.2927  -999.2500     4.1475
  954.5000     0.2926  -999.2500     4.1475
  955.0000     0.2925  -999.2500     4.1475
  955.5000     0.2924  -999.2500     4.1475
  956.0000     0.2923  -999.2500     4.1475
  956.5000     0.2922  -999.2500     4.1475
  957.0000     0.2921  -999.2500     4.1475
  957.5000     0.2920  -999.2500     4.1475
  958.0000     0.2919  -999.2500     4.1475
  958.5000     0.2918  -999.2500     4.1475
  959.0000     0.2917  -999.2500     4.1475
  959.5000     0.2916  -999.2500     4.1475
  960.0000     0.2915  -999.2500     4.1475
  960.5000     0.2914  -999.2500     4.1475
  961.0000     0.2913  -999.2500     4.1475
  961.5000     0.2912  -999.2500     4.1475
  962.0000     0.2911  -999.2500     4.1475
  962.5000     0.2910  -999.2500     4.1475
  963.0000     0.2909  -999.2500     4.1475
  963.5000     0.2908  -999.2500     4.1475
  964.0000     0.2907  -999.2500     4.1475
  964.5000     0.2906  -999.2500     4.1475
  965.0000     0.2905  -999.2500     4.1475
  965.5000     0.2904  -999.2500     4.1475
  966.0000     0.2903  -999.2500     4.1475
  966.5000     0.2902  -999.2500     4.1475
  967.0000     0.2901  -999.2500     4.1475
  967.5000     0.2900  -999.2500     4.1475
  968.0000     0.2899  -999.2500     4.1475
  968.5000     0.2898  -999.2500     4.1475
  969.0000     0.2897  -999.2500     4.1475
  969.5000     0.2896  -999.2500     4.1475
  970.0000     0.2895  -999.2500     4.1475
  970.5000     0.2894  -999.2500     4.1475
  971.0000     0.2893  -999.2500     4.1475
  971.5000     0.2892  -999.2500     4.1475
  972.0000     0.2891  -999.2500     4.1475
  972.5000     0.2890  -999.2500     4.1475
  973.0000     0.2889  -999.2500     4.1475
  973.5000     0.2888  -999.2500     4.1475
  974.0000     0.2887  -999.2500     4.1475
  974.5000     0.2886  -999.2500     4.1475
  975.0000     0.2885  -999.2500     4.1475
  975.5000     0.2884  -999.2500     4.1475
  976.0000     0.2883  -999.2500     4.1475
  976.5000     0.2882  -999.2500     4.1475
  977.0000     0.2881  -999.2500     4.1475
  977.5000     0.2880  -999.2500     4.1475
  978.0000     0.2879  -999.2500     4.1475
  978.5000     0.2878  -999.2500     4.1475
  979.0000     0.2877  -999.2500     4.1475
  979.5000     0.2876  -999.2500     4.1475
  980.0000     0.2874  -999.2500     4.1475
  980.5000     0.2873  -999.2500     4.1475
  981.0000     0.2872  -999.2500     4.1475
  981.5000     0.2871  -999.2500     4.1475
  982.0000     0.2870  -999.2500     4.1475
  982.5000     0.2869  -999.2500     4.1475
  983.0000     0.2868  -999.2500     4.1475
  983.5000     0.2867  -999.2500     4.1475
  984.0000     0.2866  -999.2500     4.1475
  984.5000     0.2865  -999.2500     4.1475
  985.0000     0.2864  -999.2500     4.1475
  985.5000     0.2863  -999.2500     4.1475
  986.0000     0.2862  -999.2500     4.1475
  986.5000     0.2861  -999.2500     4.1475
  987.0000     0.2860  -999.2500     4.1475
  987.5000     0.2859  -999.2500     4.1475
  988.0000     0.2858  -999.2500     4.1475
  988.5000     0.2857  -999.2500     4.1475
  989.0000     0.2856  -999.2500     4.1475
  989.5000     0.2855  -999.2500     4.1475
  990.0000     0.2854  -999.2500     4.1475
  990.5000     0.2853  -999.2500     4.1475
  991.0000     0.2852  -999.2500     4.1475
  991.5000     0.2851  -999.2500     4.1475
  992.0000     0.2850  -999.2500     4.1475
  992.5000     0.2849  -999.2500     4.1475
  993.0000     0.2848  -999.2500     4.1475
  993.5000     0.2847  -999.2500     4.1475
  994.0000     0.2846  -999.2500     4.1475
  994.5000     0.2845  -999.2500     4.1475
  995.0000     0.2844  -999.2500     4.1475
  995.5000     0.2843  -999.2500     4.1475
  996.0000     0.2842  -999.2500     4.1475
  996.5000     0.2841  -999.2500     4.1475
  997.0000     0.2840  -999.2500     4.1475
  997.5000     0.2839  -999.2500     4.1475
  998.0000     0.2838  -999.2500     4.1475
  998.5000     0.2837  -999.2500     4.1475
  999.0000     0.2836  -999.2500     4.1475
  999.5000     0.2835  -999.2500     4.1475
 1000.0000     0.2834  -999.2500     4.1608
 1000.5000     0.2835  -999.2500     4.2022
 1001.0000     0.2836  -999.2500     4.2435
 1001.5000     0.2837  -999.2500     4.2849
 1002.0000     0.2838  -999.2500     4.3262
 1002.5000     0.2839  -999.2500     4.3675
 1003.0000     0.2840  -999.2500     4.4089
 1003.5000     0.2841  -999.2500     4.4502
 1004.0000     0.2842  -999.2500     4.4916
 1004.5000     0.2843  -999.2500     4.5329
