~VERSION INFORMATION
 VERS.                2.0:   CWLS LOG ASCII STANDARD - VERSION 2.0
 WRAP.                 NO:   ONE LINE PER DEPTH STEP
~WELL INFORMATION
#MNEM.UNIT      DATA TYPE    INFORMATION
#----------   ------------   ------------------------------
 STRT.F           89.0000:   START DEPTH
 STOP.F         2840.5000:   STOP DEPTH
 STEP.F            0.5000:   STEP LENGTH
 NULL.          -999.2500:   NO VALUE
 COMP. U S NAVY/INTEX OIL CO:   COMPANY
 WELL. RES3 TEAPO DOME AX #41-29:   WELL
 FLD .             TEAPOT:   FIELD
 LOC .      S29 T39N R78W:   LOCATION
 CNTY.            NATRONA:   COUNTY
 STAT.            WYOMING:   STATE
 CTRY. UNITED STATES OF AMERICA:   COUNTRY
 SRVC.       Schlumberger:   SERVICE COMPANY
 DATE.        02-JUN-1966:   LOGDATE
 API .       490250945000:   API NUMBER
~CURVE INFORMATION
#MNEM.UNIT       API CODE    CURVE DESCRIPTION
#----------   ------------   ------------------------------
 DEPT.F                  :   
 GRD .GAPI   45 310 01 00:   GAMMA RAY FROM DENSITY LOG
 CALD.IN     45 280 60 00:   CALIPER FROM DENSITY LOG
 DPHI.DEC    45 890 12 00:   DENSITY POROSITY SANDSTONE
 RHOB.G/C3   45 350 01 00:   BULK DENSITY
 CORR.G/C3   45 356 01 00:   DENSITY CORRECTION
 SPR .MV     05 010 01 00:   SPONTANEOUS POTENTIAL FROM RES.
 ASN .OHMM   05 041 16 00:   AMPLIFIED SHORT NORMAL 16"
 ILD .OHMM   05 120 46 00:   INDUCTION LOG DEEP
 CILD.MMHO   05 110 46 00:   CONDUCTIVITY INDUCTION LOG DEEP
~PARAMETER INFORMATION
#MNEM.UNIT          VALUE    DESCRIPTION
#----------   ------------   ------------------------------
 PD  .                 GL:   PERMANENT DATUM
 EPD .F              5007:   ELEVATION PERMANENT DATUM
 LMF .                 KB:   LOG MEASURED FROM
 DAPD.F              10.3:   FEET ABOVE PERMANENT DATUM
 DMF .                 KB:   DRILLING MEASURED FROM
 EKB .F            5017.3:   KELLING BUSHING
 EGL .F              5007:   GROUND LEVEL
 DATE.             6-2-66:   RUN DATE
 RUN .                  1:   RUN NUMBER
 DD  .F              2840:   DEPTH DRILLER
 DL  .F              2838:   DEPTH LOGGER
 BLI .F              2837:   BOTTOM LOG INTERVAL
 TLI .F                88:   TOP LOG INTERVAL
 CS  .IN            10.75:   CASING SIZE
 CBD .F                30:   CASING BOTTOM DRILLER
 BS  .IN            7.875:   BIT SIZE
 BSD .F              2840:   BIT SIZE AT DEPTH
 DFT .  LIGNO-SULFATE LCM:   DRILLING FLUID TYPE
 DFD .                9.9:   DRILLING FLUID DENSITY
 DFV .                 48:   DRILLING FLUID VISCOSITY
 DFPH.                7.6:   DRILLING FLUID PH
 DFL .                8.1:   DRILLING FLUID LOSS
 MSS .         CIRCULATED:   MUD SAMPLE SOURCE
 RMS .OHMM           1.62:   RESISTIVITY MUD SAMPLE
 MST .F                73:   MUD SAMPLE TEMPERATURE
 RMF .OHMM           1.06:   RESISTIVITY MUD FILTRATE SAMPLE
 MFST.F                72:   MUD FILTRATE SAMPLE TEMPERATURE
 MFSS.                 FP:   MUD FILTRATE SAMPLE SOURCE
 RMB .OHMM           1.13:   RESISTIVITY MUD AT BHT
 BHT .F               105:   BOTTOM HOLE TEMPERATURE
 TCS .HRS               2:   TIME CURCULATED STOPPED
 MRT .F               105:   MAXIMUM RECORDED TEMPERATURE
 LUN .               4507:   LOGGING UNIT NUMBER
 LUL .               CSPR:   LOGGING UNIT LOCATION
 ENGI.               HAUG:   RECORDING ENGINEER
 WITN.             TUTTLE:   WITNESSED BY
 CLNT.            A2DTECH:   CLIENT CODE
 ORIG.        2" 5" PRINT:   ORIGIN OF DATA
 UWI .       490250945000:   UNIQUE WELL ID
 DICO. A2D Technologies, Inc.:   DIGITIZING COMPANY
~OTHER INFORMATION
~A   DEPT      GRD       CALD       DPHI       RHOB       CORR        SPR          ASN      ILD        CILD  
# ...
 2607.5000  -999.2500  -999.2500  -999.2500  -999.2500  -999.2500   -33.9677     6.2737     4.5678   231.7711
 2608.0000  -999.2500  -999.2500  -999.2500  -999.2500  -999.2500   -33.7425     6.4897     4.6209   230.2113
 2608.5000  -999.2500  -999.2500  -999.2500  -999.2500  -999.2500   -33.5087     6.6138     4.6659   228.6529
 2609.0000  -999.2500  -999.2500  -999.2500  -999.2500  -999.2500   -33.6243     6.4863     4.7147   227.0795
 2609.5000  -999.2500  -999.2500  -999.2500  -999.2500  -999.2500   -33.9724     6.4721     4.7611   223.4924
 2610.0000   120.3908  -999.2500  -999.2500  -999.2500  -999.2500   -33.5933     6.5641     4.8091   218.2433
 2610.5000   120.3908  -999.2500  -999.2500  -999.2500  -999.2500   -33.3968     6.6496     4.8561   212.9826
 2611.0000   120.3908  -999.2500  -999.2500  -999.2500  -999.2500   -33.2410     6.7366     4.9030   207.7243
 2611.5000   120.3936  -999.2500  -999.2500  -999.2500  -999.2500   -33.2815     6.7780     4.9526   203.8776
 2612.0000   120.4309  -999.2500  -999.2500  -999.2500  -999.2500   -33.3252     6.8059     5.0514   201.2746
 2612.5000   118.9533  -999.2500  -999.2500  -999.2500  -999.2500   -33.3584     6.8867     5.1603   196.0350
 2613.0000   117.1208  -999.2500  -999.2500  -999.2500  -999.2500   -33.4283     6.9598     5.4249   190.3007
 2613.5000   114.3593  -999.2500  -999.2500  -999.2500  -999.2500   -33.2633     7.0546     5.6933   181.5755
 2614.0000   110.2422  -999.2500  -999.2500  -999.2500  -999.2500   -32.8770     7.2342     5.9638   173.9219
 2614.5000   110.6554  -999.2500  -999.2500  -999.2500  -999.2500   -33.1026     7.6537     6.2311   167.8721
 2615.0000   113.4500  -999.2500  -999.2500  -999.2500  -999.2500   -33.3578     8.1935     6.5010   161.8224
 2615.5000   116.8539  -999.2500  -999.2500  -999.2500  -999.2500   -33.2888     8.6937     6.7715   155.3447
 2616.0000   119.6464  -999.2500  -999.2500  -999.2500  -999.2500   -33.0525     8.9386     7.0183   153.3466
 2616.5000   118.1734  -999.2500  -999.2500  -999.2500  -999.2500   -33.0234     8.9524     6.9744   154.6467
 2617.0000   122.3639  -999.2500  -999.2500  -999.2500  -999.2500   -33.1241     8.8417     6.8942   156.3091
 2617.5000   121.0230  -999.2500  -999.2500  -999.2500  -999.2500   -33.3616     8.7524     6.8180   157.9716
 2618.0000   121.2136  -999.2500  -999.2500  -999.2500  -999.2500   -33.5464     8.5408     6.7419   159.6340
 2618.5000   117.4859  -999.2500  -999.2500  -999.2500  -999.2500   -33.7951     8.3295     6.6649   160.5710
 2619.0000   113.7844  -999.2500  -999.2500  -999.2500  -999.2500   -33.6245     8.1989     6.5888   160.9729
 2619.5000   112.0227  -999.2500  -999.2500  -999.2500  -999.2500   -33.2665     8.2624     6.5119   161.3748
 2620.0000   113.9663  -999.2500  -999.2500  -999.2500  -999.2500   -33.3800     8.4924     6.4358   161.7767
 2620.5000   115.8053  -999.2500  -999.2500  -999.2500  -999.2500   -33.5812     8.7322     6.3506   162.1786
 2621.0000   119.3670  -999.2500  -999.2500  -999.2500  -999.2500   -33.4042     8.7334     6.2617   163.7407
 2621.5000   121.8850  -999.2500  -999.2500  -999.2500  -999.2500   -32.8737     8.5648     6.1557   166.3337
 2622.0000   120.2486  -999.2500  -999.2500  -999.2500  -999.2500   -33.0372     8.2303     6.0520   170.0606
 2622.5000   120.3542  -999.2500  -999.2500  -999.2500  -999.2500   -33.2163     7.8829     5.9470   174.3513
 2623.0000   120.7061  -999.2500  -999.2500  -999.2500  -999.2500   -33.2376     7.6964     5.8428   178.6380
 2623.5000   122.5459  -999.2500  -999.2500  -999.2500  -999.2500   -33.2250     7.5155     5.7381   182.9187
 2624.0000   124.4880  -999.2500  -999.2500  -999.2500  -999.2500   -33.1213     7.3486     5.6334   187.1943
 2624.5000   127.5918  -999.2500  -999.2500  -999.2500  -999.2500   -32.9225     7.3206     5.5290   191.4733
 2625.0000   130.8862  -999.2500  -999.2500  -999.2500  -999.2500   -32.8504     7.3724     5.4239   195.2082
 2625.5000   132.0557  -999.2500  -999.2500  -999.2500  -999.2500   -32.9109     7.3912     5.3202   198.5500
 2626.0000   128.2376  -999.2500  -999.2500  -999.2500  -999.2500   -33.0214     7.2320     5.2136   201.8636
 2626.5000   126.5162  -999.2500  -999.2500  -999.2500  -999.2500   -32.8426     7.0705     5.1125   205.1884
 2627.0000   127.9890  -999.2500  -999.2500  -999.2500  -999.2500   -32.6527     6.9072     4.9991   208.5133
 2627.5000   129.4314  -999.2500  -999.2500  -999.2500  -999.2500   -32.8162     6.7423     4.9374   211.8382
 2628.0000   128.5465  -999.2500  -999.2500  -999.2500  -999.2500   -32.9148     6.5838     4.9485   214.2857
 2628.5000   126.1028  -999.2500  -999.2500  -999.2500  -999.2500   -33.0330     6.5127     4.9385   214.2857
 2629.0000   123.6487    10.0615  -999.2500  -999.2500     0.0005   -33.1741     6.5225     4.9878   214.2857
 2629.5000   120.6520    10.0691     0.1004     2.4945     0.0021   -33.1304     6.6196     5.0805   209.4346
 2630.0000   124.1571    10.0767     0.0970     2.5069     0.0041   -32.7624     6.7206     5.1657   205.2547
 2630.5000   129.1221    10.0828     0.0856     2.5218     0.0091   -32.4647     6.8203     5.2549   201.0749
 2631.0000   130.5480    10.0905     0.0726     2.5282     0.0153   -32.5858     6.9195     5.3354   196.8951
 2631.5000   131.6306    10.0977     0.0734     2.5217     0.0212   -32.6225     7.0195     5.3168   194.3057
 2632.0000   130.1944    10.0892     0.0797     2.5153     0.0156   -32.6579     7.1177     5.2837   194.3057
 2632.5000   128.7275    10.0798     0.0842     2.5090     0.0094   -32.3786     7.2203     5.2526   194.3057
 2633.0000   125.4937    10.0704     0.0887     2.5026     0.0033   -32.0637     7.2948     5.2212   195.9483
 2633.5000   122.5685    10.0611     0.0918     2.4960     0.0020   -32.2496     7.2440     5.1893   197.4607
 2634.0000   121.1390    10.0517     0.0880     2.4971     0.0137   -32.3895     7.1127     5.1583   198.9731
 2634.5000   120.6489    10.0424     0.0839     2.5097     0.0039   -32.5847     6.9363     5.1258   200.4856
 2635.0000   121.5353    10.0331     0.0798     2.5227     0.0152   -32.5545     6.8446     5.0961   201.9980
 2635.5000   121.0183    10.0237     0.0805     2.5164     0.0180   -32.3993     6.7428     5.0606   203.5104
 2636.0000   122.4773    10.0120     0.0822     2.5121     0.0074   -32.2527     6.7427     5.0508   205.2947
 2636.5000   124.9879     9.9964     0.0792     2.5180     0.0137   -32.4038     6.8564     5.0752   204.7465
 2637.0000   126.8810     9.9809     0.0754     2.5230     0.0254   -32.6033     6.9789     5.0948   204.0782
 2637.5000   127.5432     9.9653     0.0754     2.5255     0.0339   -32.4492     6.9788     5.1169   203.4100
 2638.0000   127.3601     9.9497     0.0766     2.5222     0.0326   -32.2539     6.8929     5.1377   202.7417
 2638.5000   126.4045     9.9342     0.0814     2.5151     0.0275   -32.2531     6.9651     5.1592   202.0734
 2639.0000   127.5226     9.9186     0.0877     2.5075     0.0223   -32.2954     7.0226     5.1803   201.4051
 2639.5000   125.7950     9.9030     0.0942     2.4999     0.0172   -32.3357     7.1097     5.2016   200.7368
 2640.0000   123.8252     9.8875     0.0962     2.4924     0.0118   -32.3644     7.1078     5.2228   200.0685
 2640.5000   124.4771     9.8719     0.0979     2.4848     0.0074   -32.4236     7.0194     5.2441   199.4003
 2641.0000   126.6730     9.8564     0.0996     2.4771     0.0032   -32.3131     7.0086     5.2652   198.7320
 2641.5000   128.9034     9.8408     0.1010     2.4796     0.0013   -31.9993     6.9841     5.2867   198.0637
 2642.0000   130.9765     9.8253     0.0972     2.4884     0.0066   -31.7166     7.0229     5.3073   197.3954
 2642.5000   131.2138     9.7914     0.0934     2.4974     0.0105   -31.7237     7.1123     5.3299   196.7271
 2643.0000   131.0641     9.7400     0.0914     2.4912     0.0034   -31.9379     7.1909     5.3408   196.0588
 2643.5000   130.5905     9.6887     0.0977     2.4795    -0.0054   -31.9581     7.2828     5.3261   195.3905
