~VERSION INFORMATION
 VERS.                2.0:   CWLS LOG ASCII STANDARD - VERSION 2.0
 WRAP.                 NO:   ONE LINE PER DEPTH STEP
~WELL INFORMATION
#MNEM.UNIT      DATA TYPE    INFORMATION
#----------   ------------   ------------------------------
 STRT.F           68.0000:   START DEPTH
 STOP.F          560.0000:   STOP DEPTH
 STEP.F            0.5000:   STEP LENGTH
 NULL.          -999.2500:   NO VALUE
 COMP.               NAVY:   COMPANY
 WELL. RES 3 TEAPOT DOM #24S-11:   WELL
 FLD .             TEAPOT:   FIELD
 LOC .      S11 T38N R78W:   LOCATION
 CNTY.            NATRONA:   COUNTY
 STAT.            WYOMING:   STATE
 CTRY. UNITED STATES OF AMERICA:   COUNTRY
 SRVC.       Schlumberger:   SERVICE COMPANY
 DATE.        16-JUL-1963:   LOGDATE
 API .       490250634300:   API NUMBER
~CURVE INFORMATION
#MNEM.UNIT       API CODE    CURVE DESCRIPTION
#----------   ------------   ------------------------------
 DEPT.F                  :   
 GR  .GAPI   30 310 01 00:   GAMMA RAY
 CALS.IN     60 280 50 00:   CALIPER FROM SONIC LOG
 DT  .US/F   60 520 00 00:   INTERVAL TRANSIT TIME
 SPR .MV     05 010 01 00:   SPONTANEOUS POTENTIAL FROM RES.
 CILD.MMHO   05 110 00 00:   CONDUCTIVITY INDUCTION LOG
 ASN .OHMM   05 041 16 00:   AMPLIFIED SHORT NORMAL 16"
 ILD .OHMM   05 120 46 00:   INDUCTION LOG DEEP
~PARAMETER INFORMATION
#MNEM.UNIT          VALUE    DESCRIPTION
#----------   ------------   ------------------------------
 PD  .                 GL:   PERMANENT DATUM
 EPD .F              5168:   ELEVATION PERMANENT DATUM
 LMF .                 KB:   LOG MEASURED FROM
 DAPD.F                 5:   FEET ABOVE PERMANENT DATUM
 DMF .                 KB:   DRILLING MEASURED FROM
 EKB .F              5173:   KELLING BUSHING
 EGL .F              5168:   GROUND LEVEL
 DATE.            7-16-63:   RUN DATE
 RUN .                  1:   RUN NUMBER
 DD  .F               562:   DEPTH DRILLER
 DL  .F               561:   DEPTH LOGGER
 BLI .F               560:   BOTTOM LOG INTERVAL
 TLI .F                94:   TOP LOG INTERVAL
 CS  .IN            8.625:   CASING SIZE
 CBD .F                10:   CASING BOTTOM DRILLER
 BS  .IN            6.875:   BIT SIZE
 BSD .F               562:   BIT SIZE AT DEPTH
 DFT .            NATURAL:   DRILLING FLUID TYPE
 DFD .                 10:   DRILLING FLUID DENSITY
 DFV .                 65:   DRILLING FLUID VISCOSITY
 MSS .           FLOWLINE:   MUD SAMPLE SOURCE
 RMS .OHMM            3.4:   RESISTIVITY MUD SAMPLE
 MST .F                76:   MUD SAMPLE TEMPERATURE
 RMF .OHMM            1.8:   RESISTIVITY MUD FILTRATE SAMPLE
 MFST.F                75:   MUD FILTRATE SAMPLE TEMPERATURE
 RMC .OHMM            3.4:   RESISTIVITY MUD CAKE
 MCST.F                75:   MUD CAKE SAMPLE TEMPERATURE
 MFSS.                 FP:   MUD FILTRATE SAMPLE SOURCE
 MCSS.                 FP:   MUD CAKE SAMPLE SOURCE
 TCS .HRS               1:   TIME CURCULATED STOPPED
 MRT .F                80:   MAXIMUM RECORDED TEMPERATURE
 LUN .               4507:   LOGGING UNIT NUMBER
 LUL .               CSPR:   LOGGING UNIT LOCATION
 ENGI.            GIFFORD:   RECORDING ENGINEER
 WITN.          JORGENSON:   WITNESSED BY
 CLNT.            A2DTECH:   CLIENT CODE
 ORIG.       2", 5" PRINT:   ORIGIN OF DATA
 UWI .       490250634300:   UNIQUE WELL ID
 DICO. A2D Technologies, Inc.:   DIGITIZING COMPANY
~OTHER INFORMATION
~A   DEPT       GR         CALS       DT        SPR       CILD        ASN        ILD   
# ...
  477.5000    42.6320     6.8175    98.7915   -46.1755    42.8641    26.8405    24.5220
  478.0000    39.9125     6.8188    97.4824   -46.0549    43.9194    25.7334    23.5832
  478.5000    43.1366     6.8499    95.7448   -46.0490    44.9746    24.5951    22.6454
  479.0000    39.9014     6.8476    94.2195   -45.7988    46.0295    23.7264    21.9328
  479.5000    37.6683     6.8307    93.7057   -45.0136    47.0853    23.2251    21.5461
  480.0000    34.1376     6.8135    93.1017   -44.2549    48.0199    22.6864    21.1532
  480.5000    31.8209     6.7964    92.6063   -44.4410    48.7155    22.0080    20.7663
  481.0000    33.0145     6.7790    93.8874   -44.8072    49.4110    21.5165    20.3852
  481.5000    36.0487     6.7762    94.7633   -45.1712    50.1065    21.3607    20.3335
  482.0000    35.3286     6.7762    94.7050   -45.4718    50.8048    21.1986    20.3024
  482.5000    38.1828     6.7809    94.7003   -45.5627    50.5060    21.0372    20.3490
  483.0000    38.3013     6.7913    95.4905   -45.6559    50.2059    20.9259    20.4509
  483.5000    42.0512     6.8014    96.6878   -45.7499    49.9059    20.8439    20.5265
  484.0000    42.9659     6.8118    97.6677   -45.8400    49.6059    20.7624    20.6028
  484.5000    43.8071     6.8050    97.9859   -46.1203    49.3058    20.6805    20.6727
  485.0000    45.5245     6.7838    97.9859   -46.4883    49.0058    20.6003    20.6772
  485.5000    45.7588     6.7624    97.9859   -46.8509    48.8592    20.4549    20.7291
  486.0000    42.4281     6.7410    97.5198   -46.7382    49.0885    20.2792    20.7795
  486.5000    40.0327     6.7192    96.7774   -46.5227    49.3177    20.0757    20.6049
  487.0000    44.7744     6.7243    97.1283   -46.3075    49.5469    19.8605    20.3674
  487.5000    42.9653     6.7377    97.7920   -46.0923    49.7762    19.6464    20.1230
  488.0000    42.1075     6.7523    98.0866   -45.8743    50.0054    19.5078    20.0098
  488.5000    47.1840     6.7207    97.0314   -45.7622    50.2347    19.5314    19.9286
  489.0000    49.0013     6.6958    96.3376   -45.4364    50.4639    19.4736    19.8482
  489.5000    44.9313     6.7209    94.9832   -45.0131    50.6931    19.4133    19.7714
  490.0000    46.7624     6.7498    92.9919   -44.4237    50.9224    19.3720    19.7464
  490.5000    48.5432     6.7523    92.0443   -44.0260    51.1516    19.4103    19.7205
  491.0000    48.3038     6.7264    92.0443   -44.2028    51.3809    19.4469    19.6957
  491.5000    43.3414     6.6993    92.3543   -44.3834    51.6101    19.4835    19.6476
  492.0000    35.7540     6.7334    92.5478   -44.5707    51.8394    19.5196    19.4285
  492.5000    36.2675     6.7805    92.2443   -44.4104    52.0686    19.5587    19.2605
  493.0000    43.6507     6.8177    91.5139   -44.0561    52.2975    19.4613    19.0961
  493.5000    43.3661     6.8050    90.7459   -43.6970    52.5262    19.3138    18.9317
  494.0000    44.3046     6.7911    89.8670   -43.3389    52.7556    19.1652    18.7671
  494.5000    43.3291     6.7769    89.3864   -43.0159    53.3515    19.0377    18.5999
  495.0000    44.5048     6.7759    88.9059   -42.7055    54.0816    18.8558    18.4397
  495.5000    48.1309     6.7856    88.4253   -42.3626    54.8290    18.6718    18.2773
  496.0000    48.4618     6.7968    87.9575   -42.0180    55.5390    18.4887    18.1156
  496.5000    52.2370     6.7973    87.4934   -41.6750    56.2676    18.3056    17.9538
  497.0000    49.2966     6.7563    87.3112   -41.3894    56.9964    18.1225    17.8148
  497.5000    45.5553     6.7055    87.2371   -41.3957    57.7255    17.9394    17.5926
  498.0000    44.7468     6.6830    87.1641   -41.3961    58.4536    17.7556    17.3734
  498.5000    45.6616     6.7242    87.1206   -41.4000    59.0723    17.5824    17.1549
  499.0000    42.5974     6.7641    87.1631   -41.4795    59.5575    17.4197    16.9362
  499.5000    41.6117     6.8046    87.2057   -41.5613    60.0427    17.2573    16.7174
  500.0000    44.1310     6.8165    86.8577   -41.5835    60.5279    17.0947    16.5020
  500.5000    46.6493     6.8166    86.5055   -41.2791    61.0131    16.9322    16.3473
  501.0000    39.7591     6.8167    87.0175   -40.9856    61.4983    16.7696    16.2532
  501.5000    42.3298     6.7903    87.5756   -40.7901    61.9836    16.6070    16.1204
  502.0000    41.5590     6.7419    87.8889   -41.0303    62.4688    16.4443    15.9873
  502.5000    44.1632     6.6932    88.1214   -41.2892    62.9667    16.2818    15.8551
  503.0000    49.4894     6.6438    88.1168   -41.3992    63.5323    16.1212    15.7392
  503.5000    46.6558     6.6353    87.7616   -41.2364    64.4352    15.9825    15.6457
  504.0000    42.7417     6.6502    87.4130   -41.0383    65.8954    15.8422    15.5438
  504.5000    41.8194     6.6871    87.4542   -40.5741    65.8954    15.7018    15.4419
  505.0000    42.6230     6.7239    87.4970   -40.0616    65.8954    15.5613    15.3400
  505.5000    43.2911     6.7414    87.4476   -39.5412    65.8954    15.4202    15.2384
  506.0000    42.5880     6.7498    87.8807   -39.4234    65.8954    15.2716    15.1375
  506.5000    39.7380     6.7580    88.6489   -39.4933    69.1952    15.1104    15.0331
  507.0000    39.1013     6.7663    89.0440   -39.5642    71.2406    14.9485    14.8265
  507.5000    39.8869     6.7746    89.2145   -39.7568    71.7211    14.7998    14.6218
  508.0000    42.7383     6.7829    89.3850   -39.9919    72.1965    14.4857    14.4175
  508.5000    45.8731     6.7912    89.5440   -39.7126    72.6725    14.3335    14.2139
  509.0000    50.1630     6.7987    89.6463   -39.3439    73.1495    14.1727    14.0249
  509.5000    50.1307     6.8126    89.7486   -38.9835    73.6268    14.0300    13.9956
  510.0000    47.3131     6.8264    89.8288   -39.1215    73.7833    14.0609    13.9623
  510.5000    40.3167     6.8391    90.4602   -39.5550    73.3061    14.1122    13.9322
  511.0000    38.7655     6.7561    91.2276   -39.9812    72.8288    14.1631    13.9600
  511.5000    38.8580     6.6644    91.9436   -40.4284    72.3516    14.2140    13.9951
  512.0000    43.6721     6.6699    92.2457   -40.6825    71.8744    14.2651    14.0303
  512.5000    46.1233     6.7965    92.1954   -40.9197    71.3971    14.3151    14.0654
  513.0000    48.1046     6.7964    91.7547   -40.9729    70.9256    14.4393    14.1003
  513.5000    45.3636     6.7555    91.3219   -40.5651    71.3432    14.6061    14.1360
  514.0000    42.9001     6.6789    90.9497   -40.1492    71.7559    14.7665    14.1927
  514.5000    45.0672     6.7110    90.6939   -39.7884    72.1687    14.8221    14.2494
  515.0000    49.2737     6.7623    90.4381   -39.7797    72.5814    14.8035    14.3042
  515.5000    45.6071     6.7754    90.0656   -39.7699    72.9942    14.7807    14.2410
  516.0000    44.1476     6.7877    89.6108   -39.2603    73.4069    14.7584    14.0336
  516.5000    48.4935     6.7997    89.0456   -38.6250    73.8197    14.7384    13.8143
  517.0000    48.5516     6.8136    88.4553   -38.2354    73.9437    14.7376    13.7714
  517.5000    46.8926     6.7920    88.0161   -38.2390    73.9437    14.7394    13.7309
  518.0000    44.6714     6.7867    88.1815   -38.4561    73.9441    14.8549    13.8037
  518.5000    46.4595     6.7796    88.3182   -38.6732    73.7839    15.0298    13.9392
  519.0000    46.9341     6.7842    88.1105   -38.8883    72.6098    15.3026    14.0738
  519.5000    48.3828     6.8002    88.2043   -39.1660    71.4268    15.5767    14.2561
  520.0000    48.5183     6.8162    88.8161   -39.4701    68.3322    16.0160    14.5452
  520.5000    42.2455     6.8322    88.5811   -39.8701    63.8073    16.7367    15.1853
  521.0000    40.5325     6.8483    88.3182   -40.3097    59.2824    17.4737    16.7266
  521.5000    42.4811     6.8643    90.0621   -40.7438    54.8290    19.0652    18.4613
  522.0000    34.8928     6.8735    92.9437   -41.7606    49.0834    20.6561    20.2266
  522.5000    29.8402     6.8512    97.4910   -43.1317    43.7338    22.7095    22.9314
