~VERSION INFORMATION
 VERS.                2.0:   CWLS LOG ASCII STANDARD - VERSION 2.0
 WRAP.                 NO:   ONE LINE PER DEPTH STEP
~WELL INFORMATION
#MNEM.UNIT      DATA TYPE    INFORMATION
#----------   ------------   ------------------------------
 STRT.F           22.0000:   START DEPTH
 STOP.F          630.5000:   STOP DEPTH
 STEP.F            0.5000:   STEP LENGTH
 NULL.          -999.2500:   NO VALUE
 COMP. LAWRENCE/ALLISON INC:   COMPANY
 WELL.   16-61 SHX #11-11:   WELL
 FLD .             TEAPOT:   FIELD
 LOC .      S11 T38N R78W:   LOCATION
 CNTY.            NATRONA:   COUNTY
 STAT.            WYOMING:   STATE
 CTRY. UNITED STATES OF AMERICA:   COUNTRY
 SRVC.           Gearhart:   SERVICE COMPANY
 DATE.        13-JUN-1986:   LOGDATE
 API .       490251108900:   API NUMBER
~CURVE INFORMATION
#MNEM.UNIT       API CODE    CURVE DESCRIPTION
#----------   ------------   ------------------------------
 DEPT.F                  :   
 GRR .GAPI   07 310 01 00:   GAMMA RAY FROM RES. LOG.
 RILD.OHMM   07 120 46 00:   INDUCTION LOG DEEP RESISTIVITY
 RILM.OHMM   07 120 44 00:   INDUCTION LOG MEDIUM RESISTIVITY
~PARAMETER INFORMATION
#MNEM.UNIT          VALUE    DESCRIPTION
#----------   ------------   ------------------------------
 PD  .                 GL:   PERMANENT DATUM
 EPD .F              5185:   ELEVATION PERMANENT DATUM
 LMF .                 KB:   LOG MEASURED FROM
 DAPD.F                 5:   FEET ABOVE PERMANENT DATUM
 DMF .                 KB:   DRILLING MEASURED FROM
 EKB .F              5190:   KELLING BUSHING
 EGL .F              5185:   GROUND LEVEL
 DATE.            6-13-86:   RUN DATE
 RUN .                  1:   RUN NUMBER
 DD  .F               648:   DEPTH DRILLER
 DL  .F               640:   DEPTH LOGGER
 BLI .F               631:   BOTTOM LOG INTERVAL
 TLI .F                22:   TOP LOG INTERVAL
 CS  .IN            8.625:   CASING SIZE
 CBD .F                42:   CASING BOTTOM DRILLER
 CBL .F                47:   CASING BOTTOM LOGGER
 BS  .IN            7.875:   BIT SIZE
 BSD .F               648:   BIT SIZE AT DEPTH
 DFT .               FOAM:   DRILLING FLUID TYPE
 MSS .               TANK:   MUD SAMPLE SOURCE
 RMS .OHMM           1.85:   RESISTIVITY MUD SAMPLE
 MST .F                70:   MUD SAMPLE TEMPERATURE
 RMB .OHMM           1.55:   RESISTIVITY MUD AT BHT
 BHT .F                85:   BOTTOM HOLE TEMPERATURE
 TCS .HRS            1330:   TIME CURCULATED STOPPED
 TLAB.HRS            1600:   TIME LOGGER AT BOTTOM
 MRT .F                85:   MAXIMUM RECORDED TEMPERATURE
 LUN .               7609:   LOGGING UNIT NUMBER
 LUL .           GILLETTE:   LOGGING UNIT LOCATION
 ENGI.              BAUER:   RECORDING ENGINEER
 WITN.           JENNINGS:   WITNESSED BY
 CLNT.            A2DTECH:   CLIENT CODE
 ORIG.       2", 5" PRINT:   ORIGIN OF DATA
 UWI .       490251108900:   UNIQUE WELL ID
 DICO. A2D Technologies, Inc.:   DIGITIZING COMPANY
~OTHER INFORMATION
~A   DEPT       GRR      RILD       RILM   
   22.0000    79.5547  -999.2500  -999.2500
   22.5000    74.6964  -999.2500  -999.2500
   23.0000    76.9111  -999.2500  -999.2500
   23.5000    75.5287  -999.2500  -999.2500
   24.0000    76.0989  -999.2500  -999.2500
   24.5000    78.6313  -999.2500  -999.2500
   25.0000    80.6165  -999.2500  -999.2500
   25.5000    79.2111  -999.2500  -999.2500
   26.0000    78.6650  -999.2500  -999.2500
   26.5000    79.5402  -999.2500  -999.2500
   27.0000    79.1122  -999.2500  -999.2500
   27.5000    78.5624  -999.2500  -999.2500
   28.0000    79.2014  -999.2500  -999.2500
   28.5000    81.2538  -999.2500  -999.2500
   29.0000    83.3246  -999.2500  -999.2500
   29.5000    83.5495  -999.2500  -999.2500
   30.0000    83.3253  -999.2500  -999.2500
   30.5000    83.8842  -999.2500  -999.2500
   31.0000    84.4214  -999.2500  -999.2500
   31.5000    84.9536  -999.2500  -999.2500
   32.0000    84.6844  -999.2500  -999.2500
   32.5000    82.8721  -999.2500  -999.2500
   33.0000    81.0829  -999.2500  -999.2500
   33.5000    79.4202  -999.2500  -999.2500
   34.0000    79.5568  -999.2500  -999.2500
   34.5000    80.7116  -999.2500  -999.2500
   35.0000    80.7658  -999.2500  -999.2500
   35.5000    83.2437  -999.2500  -999.2500
   36.0000    85.3193  -999.2500  -999.2500
   36.5000    85.5827  -999.2500  -999.2500
   37.0000    84.3317  -999.2500  -999.2500
   37.5000    82.5403  -999.2500  -999.2500
   38.0000    80.0037  -999.2500  -999.2500
   38.5000    79.1797  -999.2500  -999.2500
   39.0000    80.2358  -999.2500  -999.2500
   39.5000    82.6384  -999.2500  -999.2500
   40.0000    85.0381  -999.2500  -999.2500
   40.5000    87.4454  -999.2500  -999.2500
   41.0000    85.9780  -999.2500  -999.2500
   41.5000    82.2170  -999.2500  -999.2500
   42.0000    79.8845  -999.2500  -999.2500
   42.5000    82.7929  -999.2500  -999.2500
   43.0000    84.8670  -999.2500  -999.2500
   43.5000    81.7966  -999.2500  -999.2500
   44.0000    78.6922  -999.2500  -999.2500
   44.5000    82.7307  -999.2500  -999.2500
   45.0000    91.3529  -999.2500  -999.2500
   45.5000    98.9799  -999.2500  -999.2500
   46.0000   104.0132     4.6634  -999.2500
   46.5000   106.1525     4.3534  -999.2500
   47.0000   104.8722     4.2098    11.9053
   47.5000   104.4207     4.3889     7.0004
   48.0000   102.0182     4.7510     6.0076
   48.5000    97.0282     6.3099     5.7035
   49.0000    92.5275     7.9949     5.5136
   49.5000    93.4932     9.0401     5.8171
   50.0000    96.3985     8.7014     6.2840
   50.5000   100.6791     8.0819     6.7935
   51.0000   102.3671     7.5065     7.1509
   51.5000   101.6613     7.2475     7.0202
   52.0000   100.9193     7.0455     6.9204
   52.5000   101.0352     6.9553     6.8219
   53.0000   101.7674     7.1451     6.7032
   53.5000   102.5509     7.2886     6.7198
   54.0000   100.9546     7.2289     6.7486
   54.5000    98.9043     7.0880     6.8068
   55.0000    97.3064     7.1108     6.9096
   55.5000    98.3291     7.1481     7.0138
   56.0000    99.4543     7.1856     7.1197
   56.5000   100.5763     7.2211     7.2211
   57.0000   101.6992     7.2117     7.1929
   57.5000   102.0562     7.2028     7.1662
   58.0000   102.0883     7.1939     7.1396
   58.5000   103.9883     7.1849     7.1131
   59.0000   105.8408     7.1761     7.0867
   59.5000   106.0153     7.1672     7.0605
   60.0000   102.1775     7.1546     7.0224
   60.5000    98.6592     7.1758     7.0436
   61.0000    98.8464     7.2157     7.0827
   61.5000    99.7164     7.2557     7.1221
   62.0000   100.3958     7.2884     7.1543
   62.5000   104.6694     7.2549     7.1211
   63.0000   109.2551     7.2264     7.0932
   63.5000   113.8874     7.2002     7.0675
   64.0000   115.3444     7.1664     7.0343
   64.5000   114.2875     7.0925     6.9631
   65.0000   114.3117     6.9957     6.8715
   65.5000   116.4128     6.9007     6.7811
   66.0000   118.6102     6.8070     6.6919
   66.5000   113.9106     6.7146     6.6039
   67.0000   107.8803     6.6235     6.5164
   67.5000   101.7384     6.5525     6.4425
   68.0000    99.7165     6.5020     6.3899
   68.5000   103.4311     6.4511     6.3387
   69.0000   105.4056     6.4007     6.2878
   69.5000   106.4898     6.3507     6.2373
   70.0000   107.5893     6.3011     6.1871
   70.5000   108.5449     6.2518     6.1374
   71.0000   107.0994     6.2224     6.1077
   71.5000   105.6399     6.2552     6.1316
   72.0000   105.3110     6.2880     6.1558
   72.5000   105.9211     6.3210     6.1800
   73.0000   106.1708     6.3672     6.2044
   73.5000   105.7595     6.4303     6.2410
   74.0000   103.0690     6.4940     6.3129
   74.5000   100.6331     6.5583     6.3856
   75.0000   100.6040     6.6232     6.4591
   75.5000   100.5865     6.6888     6.5335
   76.0000    98.7233     6.7550     6.6088
   76.5000    96.6702     6.8219     6.6849
   77.0000    95.3764     6.8929     6.7659
   77.5000    97.7748     6.9418     6.8139
   78.0000   100.3043     7.0224     6.8934
   78.5000   102.0235     6.9970     6.8681
   79.0000   104.2346     6.9532     6.8252
   79.5000   107.4166     6.9097     6.7823
   80.0000   108.2357     6.8665     6.7399
   80.5000   105.5295     6.8235     6.6977
   81.0000   101.4279     6.7808     6.6558
   81.5000    99.9184     6.7384     6.6142
   82.0000   100.4543     6.6962     6.5728
   82.5000   102.5031     6.6411     6.5315
   83.0000   104.6262     6.6530     6.5083
   83.5000   105.0565     6.6704     6.4928
   84.0000   105.0881     6.6879     6.4777
   84.5000   106.2718     6.7197     6.4583
   85.0000   109.3493     6.8517     6.5479
   85.5000   110.3236     6.9862     6.6723
   86.0000   108.3605     7.1233     6.7992
   86.5000   106.4477     7.2632     6.9578
   87.0000   104.5792     7.4058     7.1293
   87.5000   102.6310     7.5512     7.3050
   88.0000   100.6985     7.6995     7.4851
   88.5000   100.5921     7.8507     7.6696
   89.0000   100.6067     7.9993     7.8518
   89.5000   100.6294     7.9993     7.8518
   90.0000    99.6051     7.8706     7.7255
   90.5000    98.2732     7.7218     7.5795
   91.0000    99.0389     7.5758     7.4362
   91.5000   101.0917     7.4326     7.2956
   92.0000   102.9021     7.2921     7.1576
   92.5000   100.6747     7.1543     7.0220
   93.0000    98.8735     7.0190     6.8903
   93.5000   101.8707     6.9573     6.8158
   94.0000   104.6814     6.9573     6.7912
   94.5000   106.0437     6.9573     6.7659
   95.0000   107.4362     6.9573     6.7962
   95.5000   107.4229     7.0056     6.8292
   96.0000   106.3650     7.1319     6.9599
   96.5000   102.9230     7.2604     7.0950
   97.0000   100.0451     7.3912     7.2325
   97.5000    98.6913     7.5243     7.3727
   98.0000    97.4348     7.6599     7.5153
   98.5000    97.7227     7.7130     7.5708
   99.0000    99.4249     7.7356     7.5930
   99.5000   101.1554     7.7583     7.6153
  100.0000   104.6456     7.7811     7.6376
  100.5000   104.3773     7.8039     7.6600
  101.0000   102.1910     7.8268     7.6826
  101.5000   100.5693     7.8514     7.7069
  102.0000   100.4847     7.8823     7.7370
  102.5000   100.3681     7.9158     7.7699
  103.0000   100.2513     7.9252     7.7791
  103.5000   101.2741     7.9108     7.7649
  104.0000   103.3058     7.8835     7.7381
  104.5000   105.4077     7.8562     7.7114
  105.0000   106.2736     7.8291     7.6848
  105.5000   105.4510     7.8021     7.6582
  106.0000   100.5666     7.7638     7.6207
  106.5000    95.2050     7.6610     7.5197
  107.0000    94.7420     7.5593     7.4200
  107.5000   103.1876     7.4586     7.3211
  108.0000   109.7269     7.3559     7.2203
  108.5000   108.1902     7.3571     7.2333
  109.0000   103.8833     7.3567     7.2502
  109.5000    99.1260     7.3568     7.2668
  110.0000    98.9353     7.3568     7.2833
  110.5000   104.2848     7.3566     7.3000
  111.0000   108.4054     7.3568     7.3166
  111.5000   110.2741     7.3568     7.3333
  112.0000   111.1447     7.5133     7.3500
  112.5000   112.4060     7.6745     7.3997
