~VERSION INFORMATION
 VERS.                2.0:   CWLS LOG ASCII STANDARD - VERSION 2.0
 WRAP.                 NO:   ONE LINE PER DEPTH STEP
~WELL INFORMATION
#MNEM.UNIT      DATA TYPE    INFORMATION
#----------   ------------   ------------------------------
 STRT.F           33.0000:   START DEPTH
 STOP.F          957.0000:   STOP DEPTH
 STEP.F            0.5000:   STEP LENGTH
 NULL.          -999.2500:   NO VALUE
 COMP. TESORO PETROLEUM CORP:   COMPANY
 WELL.  NPR #3 46-S-14 #3:   WELL
 FLD .             TEAPOT:   FIELD
 LOC .      S14 T38N R78W:   LOCATION
 CNTY.            NATRONA:   COUNTY
 STAT.            WYOMING:   STATE
 CTRY. UNITED STATES OF AMERICA:   COUNTRY
 SRVC.       Schlumberger:   SERVICE COMPANY
 DATE.        25-JUN-1970:   LOGDATE
 API .       490251023100:   API NUMBER
~CURVE INFORMATION
#MNEM.UNIT       API CODE    CURVE DESCRIPTION
#----------   ------------   ------------------------------
 DEPT.F                  :   
 SPR .MV     05 010 01 00:   SPONTANEOUS POTENTIAL FROM RES.
 ILD .OHMM   05 120 46 00:   INDUCTION LOG DEEP
 CILD.MMHO   05 110 46 00:   CONDUCTIVITY INDUCTION LOG DEEP
 ASN .OHMM   05 041 16 00:   AMPLIFIED SHORT NORMAL 16"
 GR  .GAPI   30 310 01 00:   GAMMA RAY
 CALD.IN     45 280 60 00:   CALIPER FROM DENSITY LOG
 CORR.G/C3   45 356 01 00:   DENSITY CORRECTION
 DPHI.DEC    45 890 12 00:   DENSITY POROSITY SANDSTONE
 RHOB.G/C3   45 350 01 00:   BULK DENSITY
~PARAMETER INFORMATION
#MNEM.UNIT          VALUE    DESCRIPTION
#----------   ------------   ------------------------------
 PD  .                 GL:   PERMANENT DATUM
 EPD .F              5271:   ELEVATION PERMANENT DATUM
 LMF .                 KB:   LOG MEASURED FROM
 DAPD.F                10:   FEET ABOVE PERMANENT DATUM
 DMF .                 KB:   DRILLING MEASURED FROM
 EKB .F              5281:   KELLING BUSHING
 EDF .F              5280:   DRILLING FLOOR
 EGL .F              5271:   GROUND LEVEL
 DATE.        25-JUN-1970:   RUN DATE
 RUN .                  1:   RUN NUMBER
 DD  .F               950:   DEPTH DRILLER
 DL  .F               958:   DEPTH LOGGER
 BLI .F               957:   BOTTOM LOG INTERVAL
 TLI .F                33:   TOP LOG INTERVAL
 CS  .IN            10.75:   CASING SIZE
 CBD .F                30:   CASING BOTTOM DRILLER
 CBL .F                33:   CASING BOTTOM LOGGER
 BS  .IN                9:   BIT SIZE
 BSD .F               950:   BIT SIZE AT DEPTH
 DFT .         MO-MAR MUD:   DRILLING FLUID TYPE
 DFD .                9.7:   DRILLING FLUID DENSITY
 DFV .                 62:   DRILLING FLUID VISCOSITY
 DFPH.                7.4:   DRILLING FLUID PH
 DFL .                5.6:   DRILLING FLUID LOSS
 MSS .           FLOWLINE:   MUD SAMPLE SOURCE
 RMS .OHMM           1.40:   RESISTIVITY MUD SAMPLE
 MST .F                85:   MUD SAMPLE TEMPERATURE
 RMF .OHMM           0.85:   RESISTIVITY MUD FILTRATE SAMPLE
 MFST.F                87:   MUD FILTRATE SAMPLE TEMPERATURE
 MFSS.               MEAS:   MUD FILTRATE SAMPLE SOURCE
 RMB .OHMM           1.06:   RESISTIVITY MUD AT BHT
 BHT .F               112:   BOTTOM HOLE TEMPERATURE
 TCS .HRS               1:   TIME CURCULATED STOPPED
 MRT .F               112:   MAXIMUM RECORDED TEMPERATURE
 LUN .               7037:   LOGGING UNIT NUMBER
 LUL .                GLT:   LOGGING UNIT LOCATION
 ENGI.           KNOSTMAN:   RECORDING ENGINEER
 WITN.                MAY:   WITNESSED BY
 CLNT.            A2DTECH:   CLIENT CODE
 ORIG.         2.5" PRINT:   ORIGIN OF DATA
 UWI .       490251023100:   UNIQUE WELL ID
 DICO. A2D Technologies, Inc.:   DIGITIZING COMPANY
~OTHER INFORMATION
~A   DEPT       SPR        ILD       CILD       ASN         GR       CALD       CORR       DPHI       RHOB   
# ...
  653.5000   -32.3389     7.4455   142.7507     7.8915  -999.2500     9.3661     0.0282     0.1164     2.4509
  654.0000   -32.3343     7.4485   142.7355     7.8008  -999.2500     9.3635     0.0113     0.1134     2.4661
  654.5000   -32.3298     7.4515   142.7204     7.7658  -999.2500     9.3348     0.0082     0.1167     2.4631
  655.0000   -32.3100     7.4545   142.7042     7.7405  -999.2500     9.3342     0.0097     0.1237     2.4521
  655.5000   -32.0159     7.4576   141.1702     7.7407  -999.2500     9.3337     0.0097     0.1243     2.4389
  656.0000   -32.0117     7.4606   141.1550     7.8015  -999.2500     9.3332     0.0108     0.1231     2.4586
  656.5000   -32.0074     7.4636   141.1398     7.8926  -999.2500     9.3326     0.0234     0.1219     2.4601
  657.0000   -32.0030     7.4667   141.1246     7.9837  -999.2500     9.3319     0.0126     0.1226     2.4353
  657.5000   -31.9985     7.6217   139.5871     8.0445  -999.2500     9.3314     0.0064     0.1260     2.4465
  658.0000   -31.6636     7.6242   139.5730     8.0379  -999.2500     9.3611     0.0034     0.1292     2.4602
  658.5000   -31.4960     7.6274   139.5589     8.0032  -999.2500     9.3606     0.0018     0.1330     2.4363
  659.0000   -31.3769     7.6303   139.5441     7.9845  -999.2500     9.3601     0.0018     0.1382     2.4269
  659.5000   -31.3719     7.6333   139.5289     7.9241  -999.2500     9.3595     0.0033     0.1407     2.4269
  660.0000   -31.3678     7.6364   139.5137     7.9243  -999.2500     9.3590     0.0041     0.1382     2.4291
  660.5000   -31.3632     7.6394   141.0182     7.8638  -999.2500     9.3584     0.0063     0.1348     2.4300
  661.0000   -31.3587     7.6067   141.0010     7.8557  -999.2500     9.3579     0.0080     0.1316     2.4330
  661.5000   -31.3541     7.4941   140.9869     7.7948  -999.2500     9.3271     0.0124     0.1278     2.4353
  662.0000   -31.3495     7.4970   140.9727     7.7298  -999.2500     9.3266     0.0123     0.1205     2.4421
  662.5000   -31.0403     7.3483   142.4784     7.6525  -999.2500     9.3260     0.0123     0.1117     2.4580
  663.0000   -31.0365     7.3515   142.4620     7.5618  -999.2500     9.3557     0.0147     0.1085     2.4785
  663.5000   -31.0319     7.2429   143.9666     7.5316  -999.2500     9.3551     0.0245     0.1074     2.4785
  664.0000   -31.0274     7.0551   143.9487     7.4985  -999.2500     9.3421     0.0253     0.1087     2.4791
  664.5000   -31.0228     6.9677   146.9741     7.4350  -999.2500     9.3238     0.0230     0.1119     2.4769
  665.0000   -31.0182     6.9091   148.4798     7.4002  -999.2500     9.3233     0.0318     0.1162     2.4619
  665.5000   -31.0137     6.7606   150.2485     7.3352  -999.2500     9.3227     0.0429     0.1123     2.4732
  666.0000   -31.0085     6.6384   153.7386     7.2296  -999.2500     9.2920     0.0364     0.1066     2.4907
  666.5000   -31.0042     6.4040   157.2293     7.1388  -999.2500     9.2914     0.0192     0.1044     2.4967
  667.0000   -31.0000     6.1636   165.4204     6.9572  -999.2500     9.2909     0.0130     0.1135     2.4890
  667.5000   -30.9954     6.0156   177.2775     6.7617  -999.2500     9.2903     0.0182     0.1193     2.4665
  668.0000   -30.9909     5.8667   183.3424     6.4707  -999.2500     9.2898     0.0181     0.1243     2.4574
  668.5000   -30.9863     5.8697   186.3878     6.2657  -999.2500     9.2891     0.0220     0.1259     2.4559
  669.0000   -30.9818     5.8727   189.6354     6.1701  -999.2500     9.2886     0.0334     0.1216     2.4590
  669.5000   -30.9772     5.8758   192.4186     6.0188  -999.2500     9.2881     0.0331     0.1249     2.4544
  670.0000   -30.9726     5.8788   191.6919     5.8977  -999.2500     9.2875     0.0272     0.1330     2.4476
  670.5000   -30.9681     5.8824   186.3043     5.8676  -999.2500     9.2870     0.0333     0.1349     2.4409
  671.0000   -30.9635     5.9434   180.2112     6.1016  -999.2500     9.2865     0.0256     0.1357     2.4363
  671.5000   -30.9590     6.1096   168.0390     6.3627  -999.2500     9.2859     0.0201     0.1366     2.4333
  672.0000   -30.9544     6.2758   158.6629     6.6237  -999.2500     9.2923     0.0179     0.1365     2.4349
  672.5000   -30.9490     6.3750   152.8116     6.8684  -999.2500     9.3151     0.0148     0.1327     2.4470
  673.0000   -30.7178     6.5030   152.7964     6.9595  -999.2500     9.3145     0.0188     0.1288     2.4366
  673.5000   -30.6368     6.5470   152.7812     7.0506  -999.2500     9.3441     0.0336     0.1254     2.4283
  674.0000   -30.6322     6.8126   152.7638     7.1417  -999.2500     9.3436     0.0485     0.1203     2.4455
  674.5000   -30.6277     6.8152   152.7497     7.1795  -999.2500     9.3430     0.0468     0.1185     2.4556
  675.0000   -30.6231     6.8182   152.7356     7.2027  -999.2500     9.3424     0.0392     0.1173     2.4592
  675.5000   -30.6185     6.8212   152.7204     7.2194  -999.2500     9.3419     0.0330     0.1179     2.4546
  676.0000   -30.6132     6.8242   152.7052     7.2334  -999.2500     9.3414     0.0238     0.1209     2.4486
  676.5000   -30.6094     6.7576   152.6900     7.2032  -999.2500     9.3408     0.0451     0.1221     2.4501
  677.0000   -30.6049     6.5278   152.6720     7.2034  -999.2500     9.3101     0.0561     0.1042     2.4671
  677.5000   -30.6003     6.5306   152.6579     7.1686  -999.2500     9.3095     0.0591     0.0955     2.4872
  678.0000   -30.5955     6.3818   154.1636     7.1338  -999.2500     9.3090     0.0509     0.0919     2.5001
  678.5000   -30.5912     6.2222   155.6692     7.0828  -999.2500     9.3084     0.0397     0.0965     2.5077
  679.0000   -30.5866     5.9330   155.6535     7.0224  -999.2500     9.3079     0.0251     0.1100     2.4894
  679.5000   -30.5821     5.7273   157.7357     6.9316  -999.2500     9.3073     0.0159     0.1168     2.4532
  680.0000   -30.5775     5.5556   159.4732     6.8409  -999.2500     9.3067     0.0232     0.1234     2.4427
  680.5000   -30.5729     5.2323   164.7242     6.6509  -999.2500     9.3062     0.0204     0.1210     2.4660
  681.0000   -30.5684     5.0364   172.3089     6.4273  -999.2500     9.3056     0.0096     0.1198     2.4457
  681.5000   -30.5638     4.8126   178.3738     6.2318  -999.2500     9.3051     0.0048     0.1234     2.4302
  682.0000   -30.5593     4.5657   189.8884     6.0364  -999.2500     9.3046     0.0034     0.1331     2.4239
  682.5000   -30.5547     4.3939   211.7773     5.6904  -999.2500     9.3017     0.0111     0.1416     2.4227
  683.0000   -30.5495     4.1394   236.4842     5.4481  -999.2500     9.2733     0.0157     0.1331     2.4326
  683.5000   -30.5456     3.9909   249.7389     5.1453  -999.2500     9.2727     0.0172     0.1325     2.4441
  684.0000   -30.5410     3.9943   251.2462     4.8909  -999.2500     9.2722     0.0171     0.1317     2.4473
  684.5000   -30.5365     3.9971   251.2304     4.7128  -999.2500     9.2716     0.0186     0.1259     2.4489
  685.0000   -30.5319     4.0000   251.2158     4.6477  -999.2500     9.2555     0.0205     0.1235     2.4503
  685.5000   -30.5274     4.0030   251.2006     4.6309  -999.2500     9.2100     0.0232     0.1221     2.4580
  686.0000   -30.5228     4.0061   251.1854     4.6232  -999.2500     9.2095     0.0278     0.1247     2.4580
  686.5000   -30.5182     4.0889   248.0496     4.6919  -999.2500     9.1787     0.0151     0.1307     2.4505
  687.0000   -30.5137     4.3156   237.4749     4.9153  -999.2500     9.1782     0.0108     0.1391     2.4247
  687.5000   -30.5091     4.5328   222.2633     5.5704  -999.2500     9.1777     0.0308     0.1629     2.3990
  688.0000   -30.5046     4.6243   204.0121     6.0379  -999.2500     9.2086     0.0261     0.1708     2.3786
  688.5000   -30.5000     4.9515   187.7350     6.2534  -999.2500     9.2673     0.0026     0.1732     2.3729
  689.0000   -30.4954     5.2808   173.7692     6.4201  -999.2500     9.2667    -0.0005     0.1514     2.4100
  689.5000   -30.4900     5.5263   165.2939     6.5415  -999.2500     9.2661     0.0199     0.1405     2.4371
