~VERSION INFORMATION
 VERS.                2.0:   CWLS LOG ASCII STANDARD - VERSION 2.0
 WRAP.                 NO:   ONE LINE PER DEPTH STEP
~WELL INFORMATION
#MNEM.UNIT      DATA TYPE    INFORMATION
#----------   ------------   ------------------------------
 STRT.F           36.0000:   START DEPTH
 STOP.F         2324.5000:   STOP DEPTH
 STEP.F            0.5000:   STEP LENGTH
 NULL.          -999.2500:   NO VALUE
 COMP. FENIX & SCISSON INC:   COMPANY
 WELL.           SX #57-3:   WELL
 FLD .             TEAPOT:   FIELD
 LOC .       S3 T38N R78W:   LOCATION
 CNTY.            NATRONA:   COUNTY
 STAT.            WYOMING:   STATE
 CTRY. UNITED STATES OF AMERICA:   COUNTRY
 SRVC.           BIRDWELL:   SERVICE COMPANY
 DATE.        15-JUN-1978:   LOGDATE
 API .       490251028800:   API NUMBER
~CURVE INFORMATION
#MNEM.UNIT       API CODE    CURVE DESCRIPTION
#----------   ------------   ------------------------------
 DEPT.F                  :   
 CALD.IN     45 280 60 00:   CALIPER FROM DENSITY LOG
 GRD .GAPI   45 310 01 00:   GAMMA RAY FROM DENSITY LOG
 CORR.G/C3   45 356 01 00:   DENSITY CORRECTION
 RHOB.G/C3   45 350 01 00:   BULK DENSITY
 DPHI.DEC    45 890 12 00:   DENSITY POROSITY SANDSTONE
 SPR .MV     07 010 01 00:   SPONTANEOUS POTENTIAL
 ILD .OHMM   07 120 46 00:   INDUCTION LOG DEEP
 ILM .OHMM   07 120 44 00:   INDUCTION LOG MEDIUM
 SGRD.OHMM   07 220 05 00:   SHALLOW GUARD RESISTIVITY
~PARAMETER INFORMATION
#MNEM.UNIT          VALUE    DESCRIPTION
#----------   ------------   ------------------------------
 PD  .                 GL:   PERMANENT DATUM
 EPD .F              5184:   ELEVATION PERMANENT DATUM
 LMF .                 KB:   LOG MEASURED FROM
 DAPD.F                10:   FEET ABOVE PERMANENT DATUM
 DMF .                 KB:   DRILLING MEASURED FROM
 EKB .F              5184:   KELLING BUSHING
 EGL .F              5184:   GROUND LEVEL
 DATE.            6-15-78:   RUN DATE
 RUN .                  1:   RUN NUMBER
 DD  .F              2340:   DEPTH DRILLER
 DL  .F              2324:   DEPTH LOGGER
 BLI .F              2324:   BOTTOM LOG INTERVAL
 TLI .F                50:   TOP LOG INTERVAL
 CS  .IN            9.625:   CASING SIZE
 CBD .F               600:   CASING BOTTOM DRILLER
 CBL .F               601:   CASING BOTTOM LOGGER
 BS  .IN             8.75:   BIT SIZE
 BSD .F              2340:   BIT SIZE AT DEPTH
 DFT .           AIR MIST:   DRILLING FLUID TYPE
 BHT .F                68:   BOTTOM HOLE TEMPERATURE
 MRT .F                68:   MAXIMUM RECORDED TEMPERATURE
 LUN .               2958:   LOGGING UNIT NUMBER
 LUL .               CASP:   LOGGING UNIT LOCATION
 ENGI.           REYNOLDS:   RECORDING ENGINEER
 WITN.           MCGINLEY:   WITNESSED BY
 CLNT.            A2DTECH:   CLIENT CODE
 ORIG.   2" 2.5" 5" PRINT:   ORIGIN OF DATA
 UWI .       490251028800:   UNIQUE WELL ID
 DICO. A2D Technologies, Inc.:   DIGITIZING COMPANY
~OTHER INFORMATION
~A   DEPT       CALD      GRD        CORR      RHOB         DPHI      SPR        ILD        ILM       SGRD   
# ...
  328.0000     7.8279    87.3143     0.0376     2.4170     0.1300   -40.3025    11.5968    15.8422    18.9237
  328.5000     7.8285    88.3755     0.0364     2.4240     0.1275   -40.2697    11.6977    15.0772    18.0208
  329.0000     7.8292    86.8433     0.0382     2.4314     0.1250   -40.2376    11.7165    14.3492    17.4169
  329.5000     7.8298    84.4330     0.0402     2.4389     0.1223   -40.2053    11.5764    14.2194    17.5464
  330.0000     7.8304    85.5542     0.0422     2.4464     0.1188   -40.1729    11.4624    16.1729    17.6748
  330.5000     7.8311    86.9494     0.0442     2.4541     0.1142   -40.1402    11.2918    16.8060    17.8042
  331.0000     7.8317    88.3443     0.0471     2.4621     0.1091   -40.1046    11.0461    15.1529    17.9053
  331.5000     7.8323    88.7486     0.0510     2.4721     0.1034   -40.2077    10.8058    13.9316    17.0692
  332.0000     7.8330    89.1211     0.0549     2.4822     0.0977   -40.3506    10.5705    12.8515    16.4149
  332.5000     7.8336    93.4970     0.0588     2.4925     0.0920   -40.4941    10.3907    13.4240    16.1785
  333.0000     7.8342    96.3709     0.0633     2.5009     0.0868   -40.6391    10.2930    14.0225    16.6322
  333.5000     7.8348    94.0780     0.0643     2.4977     0.0887   -40.6993    10.2940    14.6182    15.8829
  334.0000     7.8349    92.4573     0.0636     2.4941     0.0916   -40.6490    10.2633    14.6182    16.0300
  334.5000     7.8331    93.8707     0.0627     2.4858     0.0971   -40.3231    10.2354    14.0482    16.1757
  335.0000     7.8313    92.4445     0.0618     2.4765     0.1033   -39.9994    10.2077    13.8315    16.4101
  335.5000     7.8296    91.2692     0.0609     2.4649     0.1095   -39.6766    10.2032    13.8315    16.6147
  336.0000     7.8278    93.8210     0.0594     2.4455     0.1159   -39.3539    10.3931    14.7226    18.6080
  336.5000     7.8260    95.0484     0.0564     2.4264     0.1223   -39.0310    10.8534    15.7371    20.5609
  337.0000     7.8243    93.3002     0.0605     2.4358     0.1255   -38.7231    11.4249    15.5927    19.1078
  337.5000     7.8225    94.2809     0.0652     2.4494     0.1168   -38.4243    12.0266    16.2283    17.7585
  338.0000     7.8207    91.1268     0.0701     2.4344     0.1186   -38.1258    12.7333    17.8690    17.0986
  338.5000     7.8189    86.2347     0.0670     2.4030     0.1421   -37.8274    13.7155    20.5249    21.5236
  339.0000     7.8171    81.3171     0.0603     2.3718     0.1637   -37.5287    14.7735    23.5755    28.1961
  339.5000     7.8155    74.8995     0.0536     2.3432     0.1817   -37.2297    15.9126    26.2550    35.1808
  340.0000     7.8155    76.2421     0.0466     2.3315     0.1893   -36.9321    17.1455    26.7446    37.4414
  340.5000     7.8155    78.4576     0.0453     2.3314     0.1906   -36.6986    18.1684    27.4573    38.9857
  341.0000     7.8155    80.7433     0.0444     2.3291     0.1909   -36.7254    19.1078    28.8186    39.2033
  341.5000     7.8155    80.5737     0.0433     2.3330     0.1901   -36.7474    20.0904    30.2474    36.9809
  342.0000     7.8155    79.8627     0.0419     2.3438     0.1821   -36.7688    21.1248    31.7470    36.4158
  342.5000     7.8155    79.8393     0.0405     2.3521     0.1770   -36.7902    22.1347    33.2086    39.7693
  343.0000     7.8155    80.6190     0.0391     2.3446     0.1838   -36.8116    22.1347    33.2246    41.4330
  343.5000     7.8155    81.3991     0.0408     2.3396     0.1815   -36.8329    21.8950    33.2837    41.4330
  344.0000     7.8155    82.2449     0.0455     2.3503     0.1766   -36.8543    21.6234    33.3428    39.6902
  344.5000     7.8155    80.9162     0.0502     2.3665     0.1646   -36.8756    21.3552    33.4033    38.5491
  345.0000     7.8155    79.0215     0.0551     2.3843     0.1559   -36.8960    21.0902    33.4944    37.0935
  345.5000     7.8130    77.2183     0.0574     2.3931     0.1519   -36.9417    20.8285    33.5204    37.9786
  346.0000     7.8077    75.5159     0.0597     2.3906     0.1535   -36.9902    20.5701    32.4612    39.2033
  346.5000     7.8025    73.7967     0.0619     2.3881     0.1550   -37.0388    20.3149    31.5038    51.6943
  347.0000     7.7973    73.3978     0.0642     2.3856     0.1566   -37.0873    19.9692    30.8368    41.5171
  347.5000     7.7858    76.3986     0.0624     2.3831     0.1582   -37.1358    19.5329    30.8474    35.4224
  348.0000     7.7716    77.9939     0.0603     2.3806     0.1597   -37.1844    19.1062    32.9360    36.1838
  348.5000     7.7575    74.8554     0.0582     2.3781     0.1613   -37.2329    18.6887    34.1399    37.3153
  349.0000     7.7434    72.6428     0.0561     2.3756     0.1629   -37.2814    18.2804    33.8672    38.1110
  349.5000     7.7466    71.3192     0.0540     2.3730     0.1646   -37.3299    18.0261    33.4783    38.1600
  350.0000     7.7674    70.4882     0.0519     2.3761     0.1617   -37.3784    17.8755    33.2086    34.4493
  350.5000     7.7882    72.6013     0.0498     2.3809     0.1584   -37.4263    17.7410    33.5193    40.3027
  351.0000     7.8098    74.3007     0.0483     2.3859     0.1551   -37.4762    17.7410    33.1624    37.6649
  351.5000     7.8123    76.4134     0.0492     2.3908     0.1519   -37.5596    17.7410    32.6552    34.9359
  352.0000     7.8065    77.8366     0.0500     2.3985     0.1471   -37.8074    17.5456    32.1541    32.4047
  352.5000     7.8004    76.1021     0.0508     2.4089     0.1408   -38.0459    17.1705    31.5957    30.0059
  353.0000     7.7943    76.2049     0.0515     2.4199     0.1351   -38.2837    16.7996    31.0185    31.1844
  353.5000     7.7882    76.5642     0.0527     2.4418     0.1265   -38.4965    16.4356    30.8474    32.5137
  354.0000     7.7822    76.8753     0.0623     2.4656     0.1195   -38.4172    16.3283    30.1445    33.8494
  354.5000     7.7761    75.5785     0.0719     2.4871     0.0948   -38.2420    16.3521    29.4576    40.0220
  355.0000     7.7701    74.2501     0.0762     2.4766     0.1048   -38.0687    16.4317    30.7055    35.5861
  355.5000     7.7640    73.3413     0.0693     2.4618     0.1183   -37.8937    16.5116    32.1541    31.7125
  356.0000     7.7573    72.4317     0.0626     2.4543     0.1122   -37.7163    16.5919    33.6710    29.7109
  356.5000     7.7739    71.5280     0.0628     2.4731     0.1034   -37.8739    16.6322    35.4224    29.1873
  357.0000     7.8001    70.6275     0.0652     2.4859     0.0968   -38.0736    16.7863    35.4224    34.6381
  357.5000     7.8277    70.5567     0.0663     2.4814     0.0960   -38.2748    16.9287    34.9538    39.5143
  358.0000     7.8250    71.4282     0.0641     2.4632     0.1082   -38.4753    17.1000    33.4361    42.5950
  358.5000     7.8104    73.7959     0.0609     2.4456     0.1176   -38.4644    17.0991    31.9853    37.6109
  359.0000     7.7920    76.8931     0.0577     2.4281     0.1269   -38.4229    17.0509    30.5944    33.2446
  359.5000     7.7773    80.0949     0.0546     2.4134     0.1363   -38.3806    16.9578    29.2579    32.8219
  360.0000     7.7965    82.5282     0.0523     2.4018     0.1456   -38.3390    16.8638    27.8724    32.9038
  360.5000     7.8166    84.3838     0.0523     2.3902     0.1550   -38.3017    16.7708    27.8724    26.8632
  361.0000     7.8350    84.7811     0.0517     2.3822     0.1598   -38.3619    16.6783    28.1305    29.8679
  361.5000     7.8316    85.4934     0.0504     2.3764     0.1638   -38.4998    16.4416    28.3307    33.2289
  362.0000     7.8270    86.7389     0.0491     2.3740     0.1621   -38.6365    16.0670    28.3911    33.2226
  362.5000     7.8225    88.1231     0.0479     2.3808     0.1587   -38.7735    15.7371    27.2015    29.9458
  363.0000     7.8180    88.7507     0.0466     2.3873     0.1553   -38.9105    15.5908    26.3278    27.9367
  363.5000     7.8135    86.6288     0.0452     2.3940     0.1522   -39.0475    15.5928    25.6482    26.3724
  364.0000     7.8090    84.5888     0.0429     2.3886     0.1541   -39.1845    15.5954    25.4095    28.3127
