~VERSION INFORMATION
 VERS.                2.0:   CWLS LOG ASCII STANDARD - VERSION 2.0
 WRAP.                 NO:   ONE LINE PER DEPTH STEP
~WELL INFORMATION
#MNEM.UNIT      DATA TYPE    INFORMATION
#----------   ------------   ------------------------------
 STRT.F           34.0000:   START DEPTH
 STOP.F          604.0000:   STOP DEPTH
 STEP.F            0.5000:   STEP LENGTH
 NULL.          -999.2500:   NO VALUE
 COMP. FENIX & SCISSON INC:   COMPANY
 WELL.       NPR #17 SX-2:   WELL
 FLD .             TEAPOT:   FIELD
 LOC .       S2 T38N R78W:   LOCATION
 CNTY.            NATRONA:   COUNTY
 STAT.            WYOMING:   STATE
 CTRY. UNITED STATES OF AMERICA:   COUNTRY
 SRVC.       Schlumberger:   SERVICE COMPANY
 DATE.        18-MAR-1977:   LOGDATE
 API .       490251032700:   API NUMBER
~CURVE INFORMATION
#MNEM.UNIT       API CODE    CURVE DESCRIPTION
#----------   ------------   ------------------------------
 DEPT.F                  :   
 SPR .MV     07 010 01 00:   SPONTANEOUS POTENTIAL
 ILD .OHMM   07 120 46 00:   INDUCTION LOG DEEP
 ILM .OHMM   07 120 44 00:   INDUCTION LOG MEDIUM
 LL8 .OHMM   07 220 08 00:   LATEROLOG-8 RES.
 CALD.IN     45 280 60 00:   CALIPER FROM DENSITY LOG
 GRD .GAPI   45 310 01 00:   GAMMA RAY FROM DENSITY LOG
 CORR.G/C3   45 356 01 00:   DENSITY CORRECTION
 DPHI.DEC    45 890 12 00:   DENSITY POROSITY SANDSTONE
 RHOB.G/C3   45 350 01 00:   BULK DENSITY
~PARAMETER INFORMATION
#MNEM.UNIT          VALUE    DESCRIPTION
#----------   ------------   ------------------------------
 PD  .                 GL:   PERMANENT DATUM
 EPD .F              5122:   ELEVATION PERMANENT DATUM
 LMF .                 KB:   LOG MEASURED FROM
 DAPD.F                 4:   FEET ABOVE PERMANENT DATUM
 DMF .                 KB:   DRILLING MEASURED FROM
 EKB .F              5126:   KELLING BUSHING
 EGL .F              5122:   GROUND LEVEL
 DATE.        18-MAR-1977:   RUN DATE
 RUN .                  1:   RUN NUMBER
 DD  .F               600:   DEPTH DRILLER
 DL  .F               605:   DEPTH LOGGER
 BLI .F               604:   BOTTOM LOG INTERVAL
 TLI .F                44:   TOP LOG INTERVAL
 CS  .IN            8.625:   CASING SIZE
 CBD .F                40:   CASING BOTTOM DRILLER
 CBL .F                44:   CASING BOTTOM LOGGER
 BS  .IN            7.875:   BIT SIZE
 BSD .F               600:   BIT SIZE AT DEPTH
 DFT .            KCL MUD:   DRILLING FLUID TYPE
 DFD .                8.9:   DRILLING FLUID DENSITY
 DFV .                 39:   DRILLING FLUID VISCOSITY
 DFPH.                8.5:   DRILLING FLUID PH
 DFL .                6.1:   DRILLING FLUID LOSS
 MSS .                PIT:   MUD SAMPLE SOURCE
 RMS .OHMM           0.26:   RESISTIVITY MUD SAMPLE
 MST .F                52:   MUD SAMPLE TEMPERATURE
 RMF .OHMM           0.24:   RESISTIVITY MUD FILTRATE SAMPLE
 MFST.F                52:   MUD FILTRATE SAMPLE TEMPERATURE
 MFSS.               MEAS:   MUD FILTRATE SAMPLE SOURCE
 TCS .HRS            0230:   TIME CURCULATED STOPPED
 LUN .               7711:   LOGGING UNIT NUMBER
 LUL .               CSPR:   LOGGING UNIT LOCATION
 ENGI.             SAYLER:   RECORDING ENGINEER
 WITN.         STUEBINGER:   WITNESSED BY
 CLNT.            A2DTECH:   CLIENT CODE
 ORIG.           5" PRINT:   ORIGIN OF DATA
 UWI .       490251032700:   UNIQUE WELL ID
 DICO. A2D Technologies, Inc.:   DIGITIZING COMPANY
~OTHER INFORMATION
~A   DEPT      SPR        ILD        ILM        LL8       CALD        GRD       CORR       DPHI       RHOB   
# ...
  180.0000   -39.8227     8.3821     8.2214     8.4989     8.2078   130.6187     0.0152     0.1133     2.4648
  180.5000   -39.8330     8.4445     8.3422     8.6212     8.2090   127.8259     0.0055     0.1130     2.4605
  181.0000   -39.8433     8.5667     8.4061     9.0538     8.2102   123.1028     0.0040     0.1187     2.4523
  181.5000   -39.8536     8.8121     8.6489     9.3771     8.2113   120.7501     0.0108     0.1139     2.4607
  182.0000   -39.8639     9.1912     9.0861     9.7796     8.2125   120.3230     0.0154     0.1088     2.4735
  182.5000   -39.7251     9.4545     9.2195    10.1289     8.1988   121.0817     0.0094     0.1037     2.4788
  183.0000   -39.7354     9.5913     9.3549    10.2746     8.2149   122.4327     0.0050     0.1093     2.4774
  183.5000   -39.5941     9.7989     9.5585     9.7917     8.2161   122.7481     0.0065     0.1144     2.4663
  184.0000   -39.4575     9.9396     9.7665     9.6251     8.2172   123.0607     0.0088     0.1132     2.4612
  184.5000   -39.1701     9.9444     9.9100     9.8001     8.2184   120.9525     0.0164     0.1057     2.4822
  185.0000   -38.8824     9.8802     9.9168     9.9411     8.2196   115.3037     0.0104     0.1098     2.4696
  185.5000   -38.5946     9.8166     9.6517    10.0134     8.2208   110.2963     0.0045     0.1137     2.4637
  186.0000   -38.6051     9.8225     9.7257     9.5438     8.2220   104.9867     0.0113     0.1107     2.4676
  186.5000   -38.7645     9.8272     9.7324     9.5477     8.2231   104.3340     0.0143     0.1032     2.4856
  187.0000   -38.9235     9.8319     9.6715     9.6181     8.2243   105.9857     0.0197     0.0939     2.5006
  187.5000   -38.6383     9.7674     9.6112     9.5556     8.2255   110.5959     0.0242     0.0861     2.5090
  188.0000   -38.6486     9.6374     9.4852     9.5595     8.2269   114.4654     0.0226     0.0840     2.5121
  188.5000   -38.6589     9.4445     9.4261     9.5635     8.2281   115.5201     0.0191     0.0831     2.5144
  189.0000   -38.6692     9.3825     9.3674     9.5674     8.2293   116.5748     0.0221     0.0765     2.5212
  189.5000   -38.8285     9.3881     9.3739     9.6380     8.2305   118.6665     0.0184     0.0788     2.5191
  190.0000   -38.8388     9.5239     9.4458     9.7091     8.2317   120.9063     0.0177     0.0920     2.4990
  190.5000   -38.5510     9.5949     9.5182     9.8487     8.2177   120.7758     0.0155     0.0955     2.4961
  191.0000   -38.5613     9.7337     9.6581     9.9909     8.2040   119.3120     0.0163     0.0928     2.4963
  191.5000   -38.8696     9.8745     9.7428    10.2047     8.2055   118.1445     0.0179     0.0934     2.4949
  192.0000   -38.7283     9.9480     9.8068    10.3516     8.1770   117.2732     0.0127     0.0946     2.4897
  192.5000   -38.4431     9.9528     9.9522    10.4279     7.8518   116.4020     0.0202     0.0918     2.4966
  193.0000   -38.3040     9.8886     9.8200    10.4323     7.7636   115.5307     0.0263     0.0864     2.5101
  193.5000   -38.1654     9.8935     9.7588    10.4366     7.7500   114.9514     0.0256     0.0831     2.5117
  194.0000   -38.1759     9.8983     9.6979    10.3696     7.7960   115.5660     0.0241     0.0861     2.5079
  194.5000   -38.3353     9.9031     9.5724    10.3011     8.1236   117.3615     0.0159     0.0906     2.4998
  195.0000   -38.5097     9.8392     9.5110    10.2342     8.2137   117.6754     0.0122     0.0974     2.4910
  195.5000   -38.6542     9.8451     9.3229    10.1676     8.2149   116.6560     0.0123     0.0929     2.4905
  196.0000   -38.6667     9.8498     9.2006     9.9624     8.2161   115.4885     0.0138     0.0936     2.4936
  196.5000   -38.5280     9.7175     9.0784     9.7613     8.2173   115.8024     0.0154     0.0964     2.4944
  197.0000   -38.2402     9.7233     9.0862     9.8343     8.2185   116.4126     0.0170     0.0978     2.4905
  197.5000   -37.8034     9.7280     9.1543     9.9757     8.2196   118.9488     0.0185     0.0988     2.4849
  198.0000   -37.3666     9.7327     9.1622     9.8424     8.2208   121.7813     0.0201     0.0952     2.4895
  198.5000   -37.2253     9.8734     9.2324     9.6437     8.2220   120.6137     0.0209     0.0936     2.4941
  199.0000   -37.2381    10.0163     9.3032     9.7148     8.2232   119.1499     0.0210     0.0924     2.4972
  199.5000   -37.2484    10.1612     9.3745     9.9231     8.2243   116.7972     0.0180     0.0957     2.4943
  200.0000   -37.2180    10.1084     9.4456    10.1486     8.2107   112.5185     0.0158     0.0963     2.4914
  200.5000   -36.9476     9.7655     9.4510    10.1403     8.2046   111.9392     0.0154     0.0909     2.4967
  201.0000   -36.6391     9.6280     9.4563     9.7315     8.1980   114.2163     0.0219     0.0951     2.4900
  201.5000   -36.6287     9.6355     9.4615     9.4067     8.1990   118.2148     0.0235     0.0965     2.4908
  202.0000   -36.6183     9.5733     9.4668     9.3469     8.2001   120.1393     0.0153     0.0956     2.4909
  202.5000   -36.4589     9.5808     9.4032     9.4216     8.1714   119.7852     0.0093     0.0966     2.4835
  203.0000   -36.0014     9.5204     9.1538     9.6259     8.1725   118.1926     0.0034     0.1077     2.4701
  203.5000   -35.6929     9.5263     9.2228     9.7603     8.1735   118.0929     0.0087     0.1123     2.4709
  204.0000   -35.3844     9.5322     9.4275     9.6981     8.1745   118.8711     0.0245     0.1092     2.4888
  204.5000   -35.2249     9.5382     9.4930     9.6364     8.1162   119.0089     0.0561     0.0955     2.5053
  205.0000   -35.0655     9.5441     9.3673     9.6419     7.9689   118.1360     0.0794     0.0895     2.5128
  205.5000   -34.9061     9.6166     9.4452     9.6472     7.8957   117.8496     0.0802     0.0811     2.5189
  206.0000   -35.1937     9.5545     9.6420     9.7198     7.8671   117.8662     0.0765     0.0778     2.5197
  206.5000   -35.3349     9.5619     9.6472     9.6577     7.8830   118.1758     0.0796     0.0802     2.5167
  207.0000   -35.4735     9.5679     9.4535     9.6633     7.9285   118.9298     0.0699     0.0846     2.5108
  207.5000   -35.6122     9.5738     9.3837     9.6698     7.9444   121.4616     0.0565     0.0927     2.4952
  208.0000   -35.5991     9.5120     9.2688     9.6069     7.9306   122.8082     0.0400     0.0968     2.4922
  208.5000   -35.5887     9.3867     9.2097     9.4798     7.9168   123.4140     0.0348     0.1058     2.4916
  209.0000   -35.5783     9.3276     9.2151     9.3544     7.8733   122.6866     0.0326     0.0947     2.4924
  209.5000   -35.7195     9.3349     9.2202     9.2949     7.8743   120.4776     0.0252     0.0938     2.4947
  210.0000   -35.7065     9.3407     9.2263     9.2357     7.9496   119.4538     0.0260     0.0926     2.4984
  210.5000   -35.8451     9.3465     9.2315     9.2421     8.0404   119.7634     0.0185     0.1018     2.4984
  211.0000   -36.1354     9.3523     9.2366     9.2472     8.1747   119.7767     0.0058     0.1066     2.4773
  211.5000   -36.1224     9.4233     9.2417     9.2524     8.1752   117.4196     0.0089     0.1074     2.4724
  212.0000   -35.8139     9.4948     9.2468     9.3219     8.1911   117.1332     0.0135     0.1035     2.4779
  212.5000   -35.5054     9.6335     9.1866     9.5894     8.1761   117.1498     0.0203     0.1008     2.4823
  213.0000   -35.1969     9.9109     9.1930    10.0024     8.1323   115.0890     0.0271     0.0996     2.4823
  213.5000   -35.3355    10.2672     9.2622    10.6526     8.1052   112.1393     0.0317     0.1023     2.4816
  214.0000   -35.1761    10.4172     9.4625    11.5835     8.0914   111.5567     0.0355     0.1094     2.4742
  214.5000   -34.8676    10.4237     9.7345    11.9159     8.0924   111.8695     0.0378     0.1013     2.4959
  215.0000   -34.4101    10.4302    10.0143    11.8401     8.0935   111.1421     0.0348     0.0897     2.5020
  215.5000   -33.6545    10.3645     9.8816    11.4429     8.0945   111.0039     0.0372     0.0884     2.5072
  216.0000   -33.3461    10.2991     9.6818     9.8961     8.0512   113.2427     0.0627     0.0851     2.5237
