~VERSION INFORMATION
 VERS.                2.0:   CWLS LOG ASCII STANDARD - VERSION 2.0
 WRAP.                 NO:   ONE LINE PER DEPTH STEP
~WELL INFORMATION
#MNEM.UNIT      DATA TYPE    INFORMATION
#----------   ------------   ------------------------------
 STRT.F           28.0000:   START DEPTH
 STOP.F          693.0000:   STOP DEPTH
 STEP.F            0.5000:   STEP LENGTH
 NULL.          -999.2500:   NO VALUE
 COMP. FENIX & SCISSON INC:   COMPANY
 WELL.       NPR-3 #63-15:   WELL
 FLD .             TEAPOT:   FIELD
 LOC .      S15 T38N R78W:   LOCATION
 CNTY.            NATRONA:   COUNTY
 STAT.            WYOMING:   STATE
 CTRY. UNITED STATES OF AMERICA:   COUNTRY
 SRVC.            Unknown:   SERVICE COMPANY
 DATE.        10-JUN-1978:   LOGDATE
 API .       490251063800:   API NUMBER
~CURVE INFORMATION
#MNEM.UNIT       API CODE    CURVE DESCRIPTION
#----------   ------------   ------------------------------
 DEPT.F                  :   
 SPR .MV     05 010 01 00:   SPONTANEOUS POTENTIAL FROM RES.
 SN  .OHMM   05 040 16 00:   SHORT NORMAL 16"
 ILD .OHMM   05 120 46 00:   INDUCTION LOG DEEP
 CALD.IN     45 280 60 00:   CALIPER FROM DENSITY LOG
 GRD .GAPI   45 310 01 00:   GAMMA RAY FROM DENSITY LOG
 CORR.G/C3   45 356 01 00:   DENSITY CORRECTION
 DPHI.DEC    45 890 12 00:   DENSITY POROSITY SANDSTONE
 DEN .G/C3   45 350 01 00:   DENSITY
~PARAMETER INFORMATION
#MNEM.UNIT          VALUE    DESCRIPTION
#----------   ------------   ------------------------------
 PD  .                 GL:   PERMANENT DATUM
 EPD .F              5265:   ELEVATION PERMANENT DATUM
 LMF .                 KB:   LOG MEASURED FROM
 DAPD.F                 4:   FEET ABOVE PERMANENT DATUM
 DMF .                 KB:   DRILLING MEASURED FROM
 EKB .F              5269:   KELLING BUSHING
 EGL .F              5265:   GROUND LEVEL
 DATE.        10-JUN-1978:   RUN DATE
 RUN .                  1:   RUN NUMBER
 DD  .F               690:   DEPTH DRILLER
 DL  .F               697:   DEPTH LOGGER
 BLI .F               690:   BOTTOM LOG INTERVAL
 TLI .F                35:   TOP LOG INTERVAL
 CS  .IN            8.625:   CASING SIZE
 CBD .F                40:   CASING BOTTOM DRILLER
 CBL .F                35:   CASING BOTTOM LOGGER
 BS  .IN            7.875:   BIT SIZE
 BSD .F               690:   BIT SIZE AT DEPTH
 DFT .                KCL:   DRILLING FLUID TYPE
 DFD .                8.7:   DRILLING FLUID DENSITY
 DFV .                 34:   DRILLING FLUID VISCOSITY
 DFPH.                 10:   DRILLING FLUID PH
 DFL .               11.6:   DRILLING FLUID LOSS
 MSS .            MUD PIT:   MUD SAMPLE SOURCE
 RMS .OHMM            .32:   RESISTIVITY MUD SAMPLE
 MST .F                74:   MUD SAMPLE TEMPERATURE
 RMF .OHMM            .28:   RESISTIVITY MUD FILTRATE SAMPLE
 MFST.F                78:   MUD FILTRATE SAMPLE TEMPERATURE
 RMC .OHMM            .36:   RESISTIVITY MUD CAKE
 MCST.F                78:   MUD CAKE SAMPLE TEMPERATURE
 MFSS.               MEAS:   MUD FILTRATE SAMPLE SOURCE
 MCSS.               MEAS:   MUD CAKE SAMPLE SOURCE
 BHT .F                80:   BOTTOM HOLE TEMPERATURE
 TCS .HRS            0100:   TIME CURCULATED STOPPED
 MRT .F                80:   MAXIMUM RECORDED TEMPERATURE
 LUN .               2958:   LOGGING UNIT NUMBER
 LUL .               CASP:   LOGGING UNIT LOCATION
 ENGI.             MILLER:   RECORDING ENGINEER
 WITN.           MCGINLEY:   WITNESSED BY
 CLNT.            A2DTECH:   CLIENT CODE
 ORIG.           5" PRINT:   ORIGIN OF DATA
 UWI .       490251063800:   UNIQUE WELL ID
 DICO. A2D Technologies, Inc.:   DIGITIZING COMPANY
~OTHER INFORMATION
~A   DEPT      SPR         SN        ILD       CALD        GRD       CORR       DPHI        DEN   
# ...
   68.5000    -8.8772     3.4869     3.4438     7.9183    85.0496     0.1196     0.1668     2.4184
   69.0000    -8.8594     3.5595     3.4696     7.8309    86.5612     0.0936     0.1724     2.3897
   69.5000    -8.9981     3.5861     3.4001     7.7733    88.2220     0.0542     0.1832     2.3762
   70.0000    -8.9798     3.6130     3.2635     7.7158    87.0470     0.0274     0.1949     2.3598
   70.5000    -9.1186     3.6149     3.0680     7.6727    85.7227     0.0155     0.1994     2.3501
   71.0000    -9.2536     3.5625     3.0274     7.6157    85.2892     0.0127     0.2051     2.3351
   71.5000    -9.2354     3.3603     2.9668     7.5581    86.6563     0.0129     0.2138     2.3232
   72.0000    -9.2207     3.1747     2.8476     7.5605    90.4067     0.0146     0.2204     2.3067
   72.5000    -9.2061     3.1328     2.6192     7.5779    94.1570     0.0148     0.2268     2.2940
   73.0000    -9.1915     3.0701     2.4749     7.5641    97.9234     0.0165     0.2305     2.2911
   73.5000    -9.0190     2.9254     2.3658     7.5061   102.7627     0.0242     0.2281     2.2934
   74.0000    -8.6906     2.8878     2.4508     7.4502   106.3045     0.0364     0.2206     2.2972
   74.5000    -7.4972     2.9098     2.5739     7.3783   102.8946     0.0471     0.1881     2.3129
   75.0000    -7.1832     2.9520     2.6477     7.2758    93.0629     0.0578     0.1661     2.3661
   75.5000    -7.1686     2.9947     2.7047     7.1884    82.3356     0.0346     0.1568     2.3995
   76.0000    -7.1539     3.0592     2.8015     7.1153    81.0066     0.0039     0.1549     2.4070
   76.5000    -7.2890     3.2128     2.9423     7.1182    86.4035     0.0028     0.1540     2.4131
   77.0000    -7.2744     3.5909     3.1990     7.0607    88.3628     0.0076     0.1444     2.4207
   77.5000    -7.2597     4.2714     3.5265     7.1379    87.0386     0.0123     0.1416     2.4327
   78.0000    -7.2451     4.6760     4.2037     7.2600    84.5203     0.0140     0.1410     2.4381
   78.5000    -7.2305     4.9791     4.7924     7.3522    83.1960     0.0142     0.1410     2.4381
   79.0000    -7.2156     5.1246     4.9600     7.4294    83.9613     0.0143     0.1385     2.4389
   79.5000    -7.2006     5.1960     5.0319     7.5365    88.7110     0.0175     0.1328     2.4435
   80.0000    -7.1829     5.1994     5.1403     7.6617    92.0597     0.0222     0.1277     2.4511
   80.5000    -7.1683     5.2383     5.2148     7.8449    90.8888     0.0254     0.1234     2.4571
   81.0000    -7.1537     5.3511     5.4070     8.0232    88.5198     0.0271     0.1222     2.4611
   81.5000    -7.1391     5.4663     5.6729     8.1304    87.6385     0.0318     0.1231     2.4664
   82.0000    -7.2741     5.7011     5.7551     8.1477    89.0008     0.0320     0.1273     2.4633
   82.5000    -7.8620     5.8643     5.8385     8.1500    86.7858     0.0322     0.1314     2.4574
   83.0000    -7.8437     6.0321     6.0058     8.1524    85.3123     0.0309     0.1341     2.4544
   83.5000    -7.6793     6.2048     6.1365     8.1547    85.3313     0.0296     0.1338     2.4515
   84.0000    -7.6647     6.2946     6.1812     8.1421    85.0471     0.0328     0.1332     2.4485
   84.5000    -7.6497     6.2981     6.1853     8.0990    84.9209     0.0345     0.1343     2.4463
   85.0000    -7.6318     6.2157     6.1887     8.0420    88.2242     0.0347     0.1392     2.4434
   85.5000    -7.6172     6.1753     6.1485     7.9995    91.2284     0.0334     0.1412     2.4397
   86.0000    -7.6025     6.1795     6.1102     7.9569    89.6438     0.0291     0.1394     2.4398
   86.5000    -7.7376     6.1394     6.0713     7.8692    87.6842     0.0233     0.1348     2.4398
   87.0000    -7.7230     6.1435     6.0746     7.7792    89.6483     0.0250     0.1330     2.4406
   87.5000    -7.7096     6.1045     6.0779     7.6746    90.7121     0.0282     0.1366     2.4430
   88.0000    -7.6946     6.1078     6.0391     7.5178    89.8356     0.0269     0.1342     2.4460
   88.5000    -7.6767     6.0688     6.0430     7.3405    86.1233     0.0225     0.1308     2.4491
   89.0000    -7.6620     6.0722     6.0463     7.1932    84.2020     0.0196     0.1302     2.4499
   89.5000    -7.6474     6.0755     6.0070     7.0907    84.6688     0.0169     0.1371     2.4507
   90.0000    -7.7861     6.0369     5.9688     7.0482    87.9714     0.0142     0.1458     2.4402
   90.5000    -7.9212     6.0410     5.9308     7.0655    92.3188     0.0083     0.1467     2.4328
   91.0000    -7.9029     6.0017     5.8931     7.1128    93.6811     0.0055     0.1463     2.4321
   91.5000    -8.0417     6.0058     5.8556     7.1451    91.9091     0.0057     0.1451     2.4329
   92.0000    -8.0234     6.0090     5.8595     7.1474    82.6744     0.0059     0.1426     2.4345
   92.5000    -8.0087     6.0123     5.8627     7.1498    83.1816     0.0091     0.1416     2.4360
   93.0000    -7.9940     6.0155     5.9067     7.1671    84.6575     0.0138     0.1354     2.4399
   93.5000    -7.8293     6.0188     5.9511     7.2158    85.7213     0.0185     0.1342     2.4444
   94.0000    -7.9649     6.0639     5.9963     7.3419    85.4418     0.0187     0.1353     2.4483
   94.5000    -7.9466     6.1093     6.0833     7.5041    83.9683     0.0189     0.1293     2.4514
   95.0000    -7.9319     6.1551     6.1714     7.6112    83.0870     0.0191     0.1245     2.4544
   95.5000    -8.0707     6.2513     6.2609     7.6884    83.4093     0.0193     0.1196     2.4687
   96.0000    -8.9506     6.4684     6.4850     7.7207    82.5328     0.0195     0.1172     2.4778
   96.5000    -9.0893     6.6535     6.6247     7.7530    78.6712     0.0197     0.1163     2.4786
   97.0000    -9.0710     6.7034     6.6744     7.8003    76.4289     0.0183     0.1135     2.4801
   97.5000    -9.0564     6.7070     6.6780     7.8625    78.7093     0.0156     0.1141     2.4817
   98.0000    -9.0418     6.7106     6.6816     7.9696    86.8000     0.0142     0.1229     2.4772
   98.5000    -9.1768     6.7142     6.6852     8.0618    91.0144     0.0160     0.1267     2.4593
   99.0000    -9.0120     6.6706     6.5969     8.1240    91.6030     0.0177     0.1283     2.4555
   99.5000    -8.9942     6.5380     6.5549     8.1414    90.4319     0.0178     0.1347     2.4541
  100.0000    -8.9796     6.4516     6.5135     8.1287    87.3987     0.0129     0.1417     2.4520
  100.5000    -8.9686     6.4171     6.5171     8.1155    85.3433     0.0061     0.1486     2.4279
  101.0000    -9.1013     6.4444     6.5207     8.0580    82.9433     0.0062     0.1560     2.4257
  101.5000    -9.3860     6.3739     6.3464     7.9402    79.4239     0.0019     0.1779     2.4062
  102.0000    -9.5270     6.2032     6.1337     7.6427    75.4356    -0.0115     0.1965     2.3739
  102.5000    -9.6562     5.9955     6.0109     7.7494    76.6444    -0.0234     0.2163     2.3536
  103.0000    -9.6379     5.8350     5.8498     7.7813    78.0023    -0.0368     0.2370     2.3131
  103.5000    -9.6233     5.5237     5.4614     7.7083    78.7633    -0.0412     0.2692     2.2700
  104.0000    -9.6086     5.0166     4.9885     7.6353    83.8527    -0.0411     0.3000     2.2190
  104.5000    -9.4443     4.3106     4.4465     7.6822    93.2703    -0.0349     0.3000     2.1455
  105.0000    -9.4297     3.7815     3.4639     7.6522   104.3298    -0.0288     0.3000     2.0834
  105.5000    -9.1156     3.3618     2.7011     7.5363   105.9863    -0.0152     0.3000     2.0331
  106.0000    -8.0531     2.9981     2.2262     7.5709   103.9115    -0.0016     0.3000     1.9730
  106.5000    -7.2900     2.5535     1.9528     7.7951    99.0008     0.0061     0.3000     1.9138
  107.0000    -7.1257     2.3351     1.7011     9.1975    91.7021     0.0411     0.3000     1.8868
  107.5000    -7.1108     2.2722     1.6556     7.6193    90.6716     0.1551     0.2699     2.0153
  108.0000    -7.2461     2.3215     1.6565     7.7859    91.1345     0.0816     0.2092     2.1948
  108.5000    -7.2278     2.3714     1.7518     7.9076    90.5283     0.0831     0.1437     2.4156
