~VERSION INFORMATION
 VERS.                2.0:   CWLS LOG ASCII STANDARD - VERSION 2.0
 WRAP.                 NO:   ONE LINE PER DEPTH STEP
~WELL INFORMATION
#MNEM.UNIT      DATA TYPE    INFORMATION
#----------   ------------   ------------------------------
 STRT.F           48.0000:   START DEPTH
 STOP.F          539.0000:   STOP DEPTH
 STEP.F            0.5000:   STEP LENGTH
 NULL.          -999.2500:   NO VALUE
 COMP. LAWRENCE/ALLISON INC:   COMPANY
 WELL.   57-21 SHX #10-10:   WELL
 FLD .             TEAPOT:   FIELD
 LOC .      S10 T38N R78W:   LOCATION
 CNTY.            NATRONA:   COUNTY
 STAT.            WYOMING:   STATE
 CTRY. UNITED STATES OF AMERICA:   COUNTRY
 SRVC.           Gearhart:   SERVICE COMPANY
 DATE.        12-JUN-1986:   LOGDATE
 API .       490251108700:   API NUMBER
~CURVE INFORMATION
#MNEM.UNIT       API CODE    CURVE DESCRIPTION
#----------   ------------   ------------------------------
 DEPT.F                  :   
 GRR .GAPI   11 310 01 00:   GAMMA RAY FROM RES.
 LLA .OHMM   11 220 00 00:   LATEROLOG AVERAGE RES.
 RILD.OHMM   07 120 46 00:   INDUCTION LOG DEEP RESISTIVITY
 RILM.OHMM   07 120 44 00:   INDUCTION LOG MEDIUM RESISTIVITY
~PARAMETER INFORMATION
#MNEM.UNIT          VALUE    DESCRIPTION
#----------   ------------   ------------------------------
 PD  .                 GL:   PERMANENT DATUM
 EPD .F              5196:   ELEVATION PERMANENT DATUM
 LMF .                 KB:   LOG MEASURED FROM
 DAPD.F                 5:   FEET ABOVE PERMANENT DATUM
 DMF .                 KB:   DRILLING MEASURED FROM
 EKB .F              5201:   KELLING BUSHING
 EGL .F              5196:   GROUND LEVEL
 DATE.           61-12-86:   RUN DATE
 RUN .                  1:   RUN NUMBER
 DD  .F               545:   DEPTH DRILLER
 DL  .F             543.5:   DEPTH LOGGER
 BLI .F             539.5:   BOTTOM LOG INTERVAL
 TLI .F                48:   TOP LOG INTERVAL
 CS  .IN            8.625:   CASING SIZE
 CBD .F                47:   CASING BOTTOM DRILLER
 BS  .IN            7.875:   BIT SIZE
 BSD .F               545:   BIT SIZE AT DEPTH
 DFT .          FRESH-MUD:   DRILLING FLUID TYPE
 DFD .                9.3:   DRILLING FLUID DENSITY
 DFV .                 38:   DRILLING FLUID VISCOSITY
 MSS .           FLOWLINE:   MUD SAMPLE SOURCE
 RMS .OHMM            .51:   RESISTIVITY MUD SAMPLE
 MST .F                82:   MUD SAMPLE TEMPERATURE
 RMF .OHMM            .38:   RESISTIVITY MUD FILTRATE SAMPLE
 MFST.F                78:   MUD FILTRATE SAMPLE TEMPERATURE
 RMC .OHMM            .65:   RESISTIVITY MUD CAKE
 MCST.F                79:   MUD CAKE SAMPLE TEMPERATURE
 MFSS.                  M:   MUD FILTRATE SAMPLE SOURCE
 MCSS.                  M:   MUD CAKE SAMPLE SOURCE
 RMB .OHMM            .49:   RESISTIVITY MUD AT BHT
 BHT .F                85:   BOTTOM HOLE TEMPERATURE
 TCS .HRS            1800:   TIME CURCULATED STOPPED
 TLAB.HRS            2000:   TIME LOGGER AT BOTTOM
 MRT .F                85:   MAXIMUM RECORDED TEMPERATURE
 LUN .               7609:   LOGGING UNIT NUMBER
 LUL .           GILLETTE:   LOGGING UNIT LOCATION
 ENGI.              BAUER:   RECORDING ENGINEER
 WITN.              FIVAS:   WITNESSED BY
 CLNT.            A2DTECH:   CLIENT CODE
 ORIG.       2", 5" PRINT:   ORIGIN OF DATA
 UWI .       490251108700:   UNIQUE WELL ID
 DICO. A2D Technologies, Inc.:   DIGITIZING COMPANY
~OTHER INFORMATION
~A   DEPT       GRR       LLA       RILD       RILM   
# ...
  340.0000    73.1314    13.5942    21.2469    19.1800
  340.5000    72.3922    13.6801    21.1702    19.2798
  341.0000    71.6214    13.7283    21.0510    19.3864
  341.5000    70.9299    13.7485    21.1771    19.5002
  342.0000    70.8602    13.7687    21.2875    19.7540
  342.5000    74.0999    13.7888    21.3988    19.8655
  343.0000    74.9236    13.8091    21.5106    19.9678
  343.5000    71.0706    13.8293    21.6230    20.0721
  344.0000    68.3668    13.8475    21.7360    20.1769
  344.5000    69.2349    13.6722    21.8495    20.2826
  345.0000    72.8043    13.4964    21.9636    20.1919
  345.5000    75.7736    13.3233    22.0523    19.9809
  346.0000    73.3709    13.1526    21.7339    19.7705
  346.5000    70.9924    12.9841    21.4473    19.5630
  347.0000    71.1399    12.8174    21.1732    19.3577
  347.5000    70.9332    12.6535    20.9022    19.1546
  348.0000    69.9664    12.5023    20.6344    18.9536
  348.5000    71.4426    12.6192    20.3700    18.7546
  349.0000    74.7344    12.5306    20.1088    18.6169
  349.5000    78.0177    12.4304    19.8512    18.4928
  350.0000    80.8886    12.3310    19.7227    18.3694
  350.5000    80.6180    12.2324    19.5920    18.2469
  351.0000    80.2111    12.1346    19.4478    18.1387
  351.5000    81.0467    12.0375    19.3046    18.0528
  352.0000    81.6932    11.9340    19.1717    17.9693
  352.5000    80.6077    12.0783    19.1173    18.0523
  353.0000    78.7594    12.2364    19.0609    18.1649
  353.5000    76.8573    12.3978    19.0012    18.3099
  354.0000    75.3047    12.5039    19.0023    18.3071
  354.5000    75.9138    12.5031    19.0037    18.3082
  355.0000    76.5078    12.4235    18.9598    18.3083
  355.5000    75.1637    12.3654    18.8418    18.3081
  356.0000    72.8828    12.3077    18.7244    18.3081
  356.5000    71.2569    12.2503    18.6513    18.3084
  357.0000    72.1061    12.1931    19.0851    18.3491
  357.5000    73.2069    12.1582    19.4608    18.4568
  358.0000    75.4306    12.5509    20.0585    18.9404
  358.5000    77.0808    14.0866    20.6381    19.7449
  359.0000    73.0622    15.8102    21.2344    20.7516
  359.5000    67.8459    17.6273    21.8479    21.8531
  360.0000    62.5456    18.9553    22.4665    23.0132
  360.5000    60.7999    19.5402    22.1119    24.2024
  361.0000    61.3817    18.9247    21.6514    24.4286
  361.5000    61.2333    17.0258    20.8190    23.0647
  362.0000    60.5772    15.0902    20.0185    21.5515
  362.5000    63.2624    13.3747    19.2488    20.1377
  363.0000    67.6133    11.9340    18.5087    18.8166
  363.5000    71.9508    11.2789    17.7971    17.8043
  364.0000    74.0788    10.9412    17.1128    17.3192
  364.5000    75.0164    10.8738    16.4548    16.7734
  365.0000    75.1315    10.8738    16.2226    16.2449
  365.5000    75.2667    10.8738    16.2226    15.7761
  366.0000    76.1006    10.8752    16.2226    15.6271
  366.5000    81.1659    10.8168    16.0980    15.4914
  367.0000    84.2025    10.7187    15.9847    15.3571
  367.5000    85.2622    10.6122    15.8722    15.2237
  368.0000    84.3512    10.5063    15.7605    15.0914
  368.5000    80.4512    10.3188    15.6496    14.9603
  369.0000    79.0735     9.9975    15.5394    14.8304
  369.5000    78.6087    10.0203    15.4300    14.7015
  370.0000    79.4157    10.0512    15.3215    14.5738
  370.5000    80.3797    10.0939    15.2136    14.4472
  371.0000    81.3550    10.0352    15.1065    14.3217
  371.5000    82.8851     9.9290    14.9196    14.2109
  372.0000    85.0488     9.8240    14.8667    14.1254
  372.5000    87.2122     9.7201    14.7973    14.0403
  373.0000    89.4354     9.6351    14.7282    13.9558
  373.5000    89.1446     9.6351    14.6446    13.8718
  374.0000    83.9998     9.6351    14.6859    13.7884
  374.5000    78.8835     9.7209    14.7389    13.7198
  375.0000    74.9166     9.8307    14.7920    13.8183
  375.5000    73.6560     9.9418    14.8454    13.9411
  376.0000    72.8075    10.0542    14.8989    14.0650
  376.5000    72.9751    10.1883    15.0056    14.1901
  377.0000    73.9150    10.1637    15.1467    14.3163
  377.5000    75.2249    10.1241    15.2892    14.4436
  378.0000    74.2864    10.0939    15.4329    14.5721
  378.5000    73.0471    10.0936    15.4852    14.7200
  379.0000    71.7477    10.0945    15.2275    14.7814
  379.5000    73.3685    10.0055    15.0587    14.5999
  380.0000    75.2534     9.9445    14.9453    14.3892
  380.5000    76.1168     9.8836    14.8397    14.1810
  381.0000    76.9958     9.8249    14.6676    13.9759
  381.5000    78.3653     9.7022    14.4322    13.7739
  382.0000    80.0894     9.5734    14.1992    13.5749
  382.5000    81.8249     9.4575    13.9699    13.3785
  383.0000    83.6075     9.4375    13.7444    13.1840
  383.5000    82.1447     9.4156    13.7212    12.9735
  384.0000    80.1094     9.3932    13.9819    12.9771
  384.5000    78.5328     9.3686    14.4042    12.9753
  385.0000    80.0663     9.4555    14.9381    13.3982
  385.5000    82.7119     9.9167    15.6911    13.8761
  386.0000    82.6220    10.4766    16.6752    14.3739
  386.5000    75.4667    11.6205    17.8845    15.3915
  387.0000    69.2778    12.5533    19.3353    16.6815
  387.5000    66.8733    13.5610    20.9036    18.0797
  388.0000    68.1673    14.6496    22.5993    19.5951
  388.5000    69.0185    15.6536    24.4324    21.2375
  389.0000    67.1270    15.8750    25.4721    22.2907
  389.5000    65.4737    16.4092    26.2610    23.4804
  390.0000    65.2969    16.6125    27.0700    23.9881
  390.5000    67.6614    16.8183    27.9118    24.3956
  391.0000    68.7443    17.0267    28.1651    24.8101
  391.5000    68.3284    17.3134    28.2694    25.2316
  392.0000    65.8996    17.8733    28.3976    25.6603
  392.5000    64.0512    19.6056    28.6411    26.4241
  393.0000    64.2001    21.6448    28.8858    27.4321
  393.5000    64.5016    22.6763    29.1326    28.0707
  394.0000    66.1536    22.4567    29.3816    28.6606
  394.5000    67.9343    22.1553    29.6326    28.9793
  395.0000    69.7272    20.5473    29.9770    29.1519
  395.5000    69.3617    18.8952    29.7354    28.8078
  396.0000    67.2980    17.9751    29.3631    28.2697
  396.5000    65.3193    18.2993    28.9955    27.7453
  397.0000    63.7541    18.1820    28.6326    27.2307
  397.5000    63.6407    18.0822    28.2783    26.7257
  398.0000    67.8504    17.9829    28.0785    26.2301
  398.5000    71.7723    17.6556    27.5544    25.7437
  399.0000    74.2707    17.3070    27.2470    25.3351
  399.5000    72.6513    16.9942    26.9429    24.9644
  400.0000    70.4630    16.9518    26.6423    24.5990
  400.5000    68.1939    16.9123    26.3161    24.2392
  401.0000    67.4222    16.8729    25.8829    23.8845
  401.5000    67.7725    16.7886    25.4112    23.5351
  402.0000    69.3859    16.3252    24.9479    23.1928
  402.5000    72.9465    15.8772    24.4930    22.8365
  403.0000    77.1574    15.4805    24.0465    22.3965
  403.5000    80.0181    15.4853    23.6082    21.9602
  404.0000    80.6798    15.4058    23.1741    21.5293
  404.5000    79.4510    15.2527    22.8426    21.2420
  405.0000    79.5807    15.1011    22.6885    21.2482
  405.5000    79.8018    15.0132    22.5380    21.2461
  406.0000    80.0206    14.9196    22.4665    21.3040
  406.5000    80.1955    14.9759    22.5570    21.3836
  407.0000    79.3728    15.0836    22.6257    21.4635
  407.5000    78.5321    15.1998    22.6946    21.5437
  408.0000    78.2938    15.2544    22.7637    21.6242
  408.5000    75.8898    15.3294    22.8330    21.7050
  409.0000    72.7580    15.4048    22.9025    21.7861
  409.5000    71.5411    15.4853    22.9725    21.8675
  410.0000    73.6696    15.4402    23.0426    21.9496
  410.5000    76.4094    15.3923    23.1032    22.0578
  411.0000    75.4526    15.3445    22.8868    22.0523
  411.5000    73.3992    15.2969    22.6596    21.7312
  412.0000    73.8406    15.2495    22.3917    21.3962
  412.5000    76.5725    15.1998    21.8902    21.0663
