~VERSION INFORMATION
 VERS.                2.0:   CWLS LOG ASCII STANDARD - VERSION 2.0
 WRAP.                 NO:   ONE LINE PER DEPTH STEP
~WELL INFORMATION
#MNEM.UNIT      DATA TYPE    INFORMATION
#----------   ------------   ------------------------------
 STRT.F           34.5000:   START DEPTH
 STOP.F          880.5000:   STOP DEPTH
 STEP.F            0.5000:   STEP LENGTH
 NULL.          -999.2500:   NO VALUE
 COMP. FENIX & SCISSON INC:   COMPANY
 WELL. NAVAL PETROLEUM RESERVE 3 S-14 #35-14:   WELL
 FLD .             TEAPOT:   FIELD
 LOC .      S14 T38N R78W:   LOCATION
 CNTY.            NATRONA:   COUNTY
 STAT.            WYOMING:   STATE
 CTRY. UNITED STATES OF AMERICA:   COUNTRY
 SRVC.            Unknown:   SERVICE COMPANY
 DATE.        24-APR-1978:   LOGDATE
 API .       490251062000:   API NUMBER
~CURVE INFORMATION
#MNEM.UNIT       API CODE    CURVE DESCRIPTION
#----------   ------------   ------------------------------
 DEPT.F                  :   
 RHOB.G/C3   45 350 01 00:   BULK DENSITY
 DPHI.DEC    45 890 12 00:   DENSITY POROSITY SANDSTONE
 CORR.G/C3   45 356 01 00:   DENSITY CORRECTION
 GRD .GAPI   45 310 01 00:   GAMMA RAY FROM DENSITY LOG
 CALD.IN     45 280 60 00:   CALIPER FROM DENSITY LOG
 SPR .MV     05 010 01 00:   SPONTANEOUS POTENTIAL FROM RES.
 SN  .OHMM   05 040 16 00:   SHORT NORMAL 16"
 ILD .OHMM   05 120 46 00:   INDUCTION LOG DEEP
~PARAMETER INFORMATION
#MNEM.UNIT          VALUE    DESCRIPTION
#----------   ------------   ------------------------------
 PD  .                 GL:   PERMANENT DATUM
 EPD .F              5246:   ELEVATION PERMANENT DATUM
 LMF .                 KB:   LOG MEASURED FROM
 DMF .                 KB:   DRILLING MEASURED FROM
 EKB .F              5250:   KELLING BUSHING
 EGL .F              5246:   GROUND LEVEL
 DATE.          4-24-1978:   RUN DATE
 RUN .                  1:   RUN NUMBER
 DD  .F               880:   DEPTH DRILLER
 DL  .F               880:   DEPTH LOGGER
 BLI .F               884:   BOTTOM LOG INTERVAL
 TLI .F                50:   TOP LOG INTERVAL
 CS  .IN            8.625:   CASING SIZE
 CBD .F                40:   CASING BOTTOM DRILLER
 CBL .F                50:   CASING BOTTOM LOGGER
 BS  .IN            7.875:   BIT SIZE
 BSD .F               880:   BIT SIZE AT DEPTH
 DFT .                KCL:   DRILLING FLUID TYPE
 DFD .                8.6:   DRILLING FLUID DENSITY
 DFV .                 32:   DRILLING FLUID VISCOSITY
 DFPH.                 10:   DRILLING FLUID PH
 DFL .               12.8:   DRILLING FLUID LOSS
 MSS .            MUD PIT:   MUD SAMPLE SOURCE
 RMS .OHMM            .34:   RESISTIVITY MUD SAMPLE
 MST .F                62:   MUD SAMPLE TEMPERATURE
 RMF .OHMM             .3:   RESISTIVITY MUD FILTRATE SAMPLE
 MFST.F                70:   MUD FILTRATE SAMPLE TEMPERATURE
 RMC .OHMM            .58:   RESISTIVITY MUD CAKE
 MCST.F                70:   MUD CAKE SAMPLE TEMPERATURE
 MFSS.           MEASURED:   MUD FILTRATE SAMPLE SOURCE
 RMB .OHMM            .28:   RESISTIVITY MUD AT BHT
 BHT .F                74:   BOTTOM HOLE TEMPERATURE
 TCS .HRS               4:   TIME CURCULATED STOPPED
 MRT .F                74:   MAXIMUM RECORDED TEMPERATURE
 LUN .               2958:   LOGGING UNIT NUMBER
 LUL .              CASP.:   LOGGING UNIT LOCATION
 ENGI.             MILLER:   RECORDING ENGINEER
 WITN.           MCGINLEY:   WITNESSED BY
 CLNT.            A2DTECH:   CLIENT CODE
 ORIG.       2", 5" PRINT:   ORIGIN OF DATA
 UWI .       490251062000:   UNIQUE WELL ID
 DICO. A2D Technologies, Inc.:   DIGITIZING COMPANY
~OTHER INFORMATION
~A   DEPT     RHOB       DPHI       CORR         GRD      CALD        SPR         SN        ILD   
# ...
  723.0000     2.4455     0.1110     0.0598    76.7304     8.4401   -24.1877    10.0120    11.9729
  723.5000     2.4461     0.1142     0.0520    77.1795     8.4205   -24.2588    10.0571    12.1508
  724.0000     2.4432     0.1180     0.0414    77.5400     8.4009   -24.3305    10.1024    12.1508
  724.5000     2.4403     0.1218     0.0306    77.3111     8.3813   -24.3987    10.1479    12.1508
  725.0000     2.4402     0.1142     0.0224    76.9389     8.3617   -24.3449    10.2025    12.0395
  725.5000     2.4615     0.0898     0.0358    74.7030     8.3414   -24.2833    10.0225    11.7431
  726.0000     2.4925     0.0654     0.0494    71.8294     8.3332   -24.2269     9.8032    11.3851
  726.5000     2.5228     0.0550     0.0617    69.5453     8.3283   -23.9463     9.5888    11.0379
  727.0000     2.5406     0.0691     0.0640    71.3500     8.3235   -23.5681     9.3790    10.7014
  727.5000     2.5144     0.0789     0.0665    73.7003     8.3190   -23.1828     9.1734    10.3751
  728.0000     2.4935     0.0888     0.0688    74.9967     8.2911   -23.0109     8.9739    10.0587
  728.5000     2.4725     0.0967     0.0657    73.9391     8.2483   -23.0075     8.8618     9.9193
  729.0000     2.4512     0.1018     0.0634    72.8441     8.2074   -23.0076     8.8194     9.9097
  729.5000     2.4511     0.1041     0.0658    75.8713     8.0667   -23.0080     8.7762     9.9000
  730.0000     2.4549     0.1059     0.0670    79.6032     7.9132   -23.0080     8.7332     9.8903
  730.5000     2.4588     0.1077     0.0670    82.3856     7.8173   -23.0080     8.6904     9.8806
  731.0000     2.4555     0.1113     0.0658    81.5039     8.2417   -23.0080     8.6478     9.8710
  731.5000     2.4460     0.1169     0.0604    77.9630     8.3584   -23.0080     8.6054     9.8613
  732.0000     2.4365     0.1222     0.0554    74.5411     8.2403   -23.0080     8.5632     9.8517
  732.5000     2.4360     0.1206     0.0509    71.1148     8.3441   -23.0080     8.5212     9.8420
  733.0000     2.4392     0.1189     0.0510    70.9367     8.4901   -23.0080     8.4882     9.8324
  733.5000     2.4438     0.1183     0.0510    71.3695     8.5091   -23.0080     8.5147     9.8228
  734.0000     2.4413     0.1198     0.0510    74.5787     8.5210   -23.0080     8.5365     9.8132
  734.5000     2.4393     0.1160     0.0511    76.3214     8.5338   -23.0080     8.5585     9.8036
  735.0000     2.4461     0.1121     0.0553    76.3571     8.5319   -23.0080     8.5805     9.7940
  735.5000     2.4532     0.1088     0.0597    76.4271     8.5269   -23.0080     8.6026     9.7845
  736.0000     2.4602     0.1045     0.0638    76.8318     8.5218   -23.0080     8.6247     9.7749
  736.5000     2.4654     0.1006     0.0672    78.5543     8.5168   -23.0080     8.6468     9.7654
  737.0000     2.4671     0.1049     0.0681    80.1359     8.5118   -23.0080     8.6691     9.7558
  737.5000     2.4626     0.1097     0.0663    80.4181     8.5068   -23.0080     8.6914     9.7463
  738.0000     2.4565     0.1068     0.0645    80.2869     8.5018   -23.0080     8.7137     9.7367
  738.5000     2.4673     0.1020     0.0627    80.0954     8.4968   -23.0080     8.7361     9.7272
  739.0000     2.4690     0.0980     0.0608    80.6363     8.4918   -23.0080     8.7586     9.7177
  739.5000     2.4690     0.0993     0.0590    80.4129     8.4868   -23.0080     8.7811     9.7082
  740.0000     2.4675     0.1020     0.0572    80.1053     8.4819   -23.0080     8.8037     9.6987
  740.5000     2.4634     0.1067     0.0553    80.0103     8.4769   -23.0080     8.8263     9.6893
  741.0000     2.4594     0.1114     0.0549    80.0148     8.4719   -23.0080     8.8490     9.6798
  741.5000     2.4595     0.1039     0.0600    81.6890     8.4669   -23.0080     8.8718     9.6703
  742.0000     2.4655     0.1037     0.0662    82.9945     8.4618   -23.0080     8.8946     9.6609
  742.5000     2.4686     0.1054     0.0653    80.4060     8.4567   -23.0080     8.9174     9.6514
  743.0000     2.4618     0.1066     0.0632    77.9417     8.4605   -23.0080     8.9404     9.6420
  743.5000     2.4599     0.1022     0.0642    77.1354     8.4656   -23.0080     8.9634     9.6326
  744.0000     2.4730     0.0982     0.0656    76.3853     8.4707   -23.0080     8.9864     9.6232
  744.5000     2.4760     0.0970     0.0670    77.1567     8.4758   -23.0080     9.0095     9.6137
  745.0000     2.4774     0.0953     0.0685    81.7923     8.4721   -23.0080     9.0327     9.6043
  745.5000     2.4799     0.0928     0.0698    82.9098     8.4676   -23.0081     9.0559     9.5950
  746.0000     2.4835     0.0901     0.0701    83.5881     8.4632   -23.0080     9.0792     9.5858
  746.5000     2.4806     0.0939     0.0644    81.3081     8.4588   -23.0085     9.1024     9.5762
  747.0000     2.4756     0.0978     0.0605    79.6216     8.4544   -22.8915     9.1254     9.5663
  747.5000     2.4748     0.0983     0.0591    80.5014     8.4500   -22.6727     9.1647     9.7623
  748.0000     2.4739     0.0985     0.0621    81.7210     8.4456   -22.4511     9.2436     9.9717
  748.5000     2.4729     0.0990     0.0651    82.9628     8.4414   -22.3494     9.3619    10.4140
  749.0000     2.4698     0.1020     0.0650    82.9152     8.4383   -22.2735     9.6247    10.9309
  749.5000     2.4671     0.1046     0.0649    82.6675     8.3850   -22.1979     9.8949    11.4747
  750.0000     2.4678     0.1146     0.0676    82.7499     8.3259   -22.1224    10.1726    12.0452
  750.5000     2.4686     0.1207     0.0727    83.2244     8.2666   -22.0461    10.4582    12.6440
  751.0000     2.4679     0.1198     0.0866    82.2299     8.2074   -22.0453    10.7518    13.2725
  751.5000     2.4490     0.1198     0.0953    80.3617     8.1483   -22.1034    11.0536    13.9376
  752.0000     2.4285     0.1252     0.1000    77.9661     8.0892   -22.1652    11.3639    14.4440
  752.5000     2.4186     0.1306     0.1075    74.6783     8.0300   -22.3366    11.6046    15.1521
  753.0000     2.4157     0.1360     0.1159    72.1106     7.9709   -22.9379    11.6046    14.9907
  753.5000     2.4129     0.1404     0.1244    69.9469     7.9120   -23.5266    11.4815    14.7495
  754.0000     2.4060     0.1413     0.1328    66.9926     7.8743   -23.7999    11.3437    14.5122
  754.5000     2.3997     0.1479     0.1391    63.3158     7.8655   -23.8054    11.2076    14.2787
  755.0000     2.3719     0.1613     0.1353    63.7989     7.8565   -23.8053    11.0731    14.0489
  755.5000     2.3493     0.1734     0.1268    69.3469     7.8475   -23.8048    10.9402    13.8228
  756.0000     2.3474     0.1719     0.1322    72.7744     7.8385   -23.8048    10.8089    13.6004
  756.5000     2.3454     0.1765     0.1423    70.3248     7.8295   -23.8048    10.6791    13.3816
  757.0000     2.3433     0.1764     0.1526    69.5149     7.8204   -23.8048    10.5510    13.1662
  757.5000     2.3409     0.1816     0.1632    68.8323     7.8115   -23.8048    10.4243    12.9544
  758.0000     2.3278     0.1954     0.1534    68.1388     7.8019   -23.8048    10.2968    12.7459
  758.5000     2.3151     0.1877     0.1399    67.5454     7.8487   -23.8048    10.2670    12.5407
  759.0000     2.3342     0.1745     0.1531    68.7048     7.9310   -23.8048    10.2291    12.3387
  759.5000     2.3667     0.1615     0.1676    70.0885     8.0001   -23.8048    10.1914    12.1401
  760.0000     2.3965     0.1466     0.1708    71.4745     8.0514   -23.8048    10.1539    12.0328
  760.5000     2.3747     0.1659     0.1172    72.8559     8.1153   -23.8048    10.1165    12.0189
  761.0000     2.3487     0.1862     0.0685    73.5386     8.1954   -23.8048    10.0792    12.0050
  761.5000     2.3297     0.1800     0.0535    73.4772     8.2757   -23.8048    10.0421    11.9912
  762.0000     2.3330     0.1748     0.0520    73.4185     8.3597   -23.8048    10.0051    11.9773
  762.5000     2.3472     0.1732     0.0541    73.3577     8.3586   -23.8043     9.9682    11.9635
  763.0000     2.3572     0.1702     0.0561    73.2979     8.3609   -23.8012     9.9315    11.9499
