~VERSION INFORMATION
 VERS.                2.0:   CWLS LOG ASCII STANDARD - VERSION 2.0
 WRAP.                 NO:   ONE LINE PER DEPTH STEP
~WELL INFORMATION
#MNEM.UNIT      DATA TYPE    INFORMATION
#----------   ------------   ------------------------------
 STRT.F           15.0000:   START DEPTH
 STOP.F          692.0000:   STOP DEPTH
 STEP.F            0.5000:   STEP LENGTH
 NULL.          -999.2500:   NO VALUE
 COMP.    FENIX & SCISSON:   COMPANY
 WELL. S 15 NPR #3 #73-15:   WELL
 FLD .             TEAPOT:   FIELD
 LOC .      S15 T38N R78W:   LOCATION
 CNTY.            NATRONA:   COUNTY
 STAT.            WYOMING:   STATE
 CTRY. UNITED STATES OF AMERICA:   COUNTRY
 SRVC.              Welex:   SERVICE COMPANY
 DATE.        23-FEB-1977:   LOGDATE
 API .       490251057900:   API NUMBER
~CURVE INFORMATION
#MNEM.UNIT       API CODE    CURVE DESCRIPTION
#----------   ------------   ------------------------------
 DEPT.F                  :   
 SPR .MV     07 010 01 00:   SPONTANEOUS POTENTIAL
 SGRD.OHMM   07 220 05 00:   SHALLOW GUARD RESISTIVITY
 ILD .OHMM   07 120 46 00:   INDUCTION LOG DEEP
 ILM .OHMM   07 120 44 00:   INDUCTION LOG MEDIUM
 CALD.IN     45 280 60 00:   CALIPER
 GRD .GAPI   45 310 01 00:   GAMMA RAY FROM DENSITY LOG
 CORR.G/C3   45 356 01 00:   DENSITY CORRECTION
 DPHI.DEC    45 890 10 00:   DENSITY POROSITY SANDSTONE
 RHOB.G/C3   45 350 01 00:   BULK DENSITY
~PARAMETER INFORMATION
#MNEM.UNIT          VALUE    DESCRIPTION
#----------   ------------   ------------------------------
 PD  .                 GL:   PERMANENT DATUM
 EPD .F              5251:   ELEVATION PERMANENT DATUM
 LMF .                 GL:   LOG MEASURED FROM
 DMF .                 GL:   DRILLING MEASURED FROM
 EGL .F              5251:   GROUND LEVEL
 DATE.            2-23-77:   RUN DATE
 RUN .                  1:   RUN NUMBER
 DD  .F               686:   DEPTH DRILLER
 DL  .F               695:   DEPTH LOGGER
 BLI .F               693:   BOTTOM LOG INTERVAL
 TLI .F                42:   TOP LOG INTERVAL
 CS  .IN            8.625:   CASING SIZE
 CBD .F                42:   CASING BOTTOM DRILLER
 CBL .F                42:   CASING BOTTOM LOGGER
 BS  .IN            7.875:   BIT SIZE
 BSD .F               686:   BIT SIZE AT DEPTH
 DFT .           CHEM GEL:   DRILLING FLUID TYPE
 DFD .                8.8:   DRILLING FLUID DENSITY
 DFV .                 33:   DRILLING FLUID VISCOSITY
 DFPH.                  7:   DRILLING FLUID PH
 DFL .               11.2:   DRILLING FLUID LOSS
 MSS .          FLOW LINE:   MUD SAMPLE SOURCE
 RMS .OHMM            .32:   RESISTIVITY MUD SAMPLE
 MST .F                68:   MUD SAMPLE TEMPERATURE
 RMF .OHMM            .28:   RESISTIVITY MUD FILTRATE SAMPLE
 MFST.F                68:   MUD FILTRATE SAMPLE TEMPERATURE
 RMC .OHMM            .61:   RESISTIVITY MUD CAKE
 MCST.F                68:   MUD CAKE SAMPLE TEMPERATURE
 MFSS.           MEASURED:   MUD FILTRATE SAMPLE SOURCE
 MCSS.           MEASURED:   MUD CAKE SAMPLE SOURCE
 RMB .OHMM           .410:   RESISTIVITY MUD AT BHT
 BHT .F                53:   BOTTOM HOLE TEMPERATURE
 TCS .HRS               2:   TIME CURCULATED STOPPED
 MRT .F                53:   MAXIMUM RECORDED TEMPERATURE
 LUN .               8611:   LOGGING UNIT NUMBER
 LUL .           GILLETTE:   LOGGING UNIT LOCATION
 ENGI.            C. DOAK:   RECORDING ENGINEER
 WITN.         STUEBINGER:   WITNESSED BY
 CLNT.            A2DTECH:   CLIENT CODE
 ORIG. 1", 2.5", 5" PRINT:   ORIGIN OF DATA
 UWI .       490251057900:   UNIQUE WELL ID
 DICO. A2D Technologies, Inc.:   DIGITIZING COMPANY
~OTHER INFORMATION
~A   DEPT      SPR       SGRD        ILD        ILM       CALD         GRD      CORR       DPHI       RHOB   
# ...
  489.5000   -54.4393    15.7334    14.6024    12.8539     8.7188    80.4160     0.0948     0.1437     2.4024
  490.0000   -54.4205    15.8617    14.5540    11.6796     8.7444    83.0181     0.0919     0.1526     2.3872
  490.5000   -54.4016    16.1595    14.5057     9.7840     8.8012    82.2100     0.0889     0.1614     2.3749
  491.0000   -54.3828    16.4630    14.4576     8.4001     8.8566    80.5603     0.0858     0.1676     2.3677
  491.5000   -54.3639    16.7722    14.4098     8.2463     8.9132    81.9393     0.0847     0.1627     2.3692
  492.0000   -54.3450    16.9389    14.3619     8.6763     8.9696    84.4992     0.0854     0.1533     2.3832
  492.5000   -54.3261    17.2545    14.3141     9.2013     9.0251    87.0845     0.0860     0.1405     2.3962
  493.0000   -54.3073    17.2545    14.2664     9.7581     9.0833    85.9394     0.0866     0.1422     2.4068
  493.5000   -54.2883    17.2545    14.2189    10.3486     9.1303    83.1898     0.0873     0.1466     2.4040
  494.0000   -54.2693    17.2545    14.1716    10.9749     9.1798    81.6543     0.0879     0.1493     2.4002
  494.5000   -54.2506    17.2545    14.1244    11.6390     9.2243    81.8428     0.0885     0.1428     2.4032
  495.0000   -54.2311    17.2545    14.0836    12.8424     9.2521    81.8087     0.0891     0.1364     2.4158
  495.5000   -54.2128    17.2545    14.1497    12.6768     9.2563    81.7915     0.0897     0.1357     2.4202
  496.0000   -54.1946    17.2545    14.3552    12.1814     9.2629    81.8082     0.0903     0.1418     2.4146
  496.5000   -54.1710    17.9033    14.5643    11.7053     9.2698    81.7676     0.0909     0.1461     2.4100
  497.0000   -54.2018    18.4993    14.7768    11.4961     9.2760    81.8330     0.0916     0.1384     2.4131
  497.5000   -54.2780    19.6394    14.9922    12.1596     9.2826    81.7811     0.0922     0.1298     2.4205
  498.0000   -54.3485    21.1387    15.3753    13.0990     9.2891    81.4727     0.0924     0.1211     2.4362
  498.5000   -54.4224    20.8473    15.2800    14.1110     9.2956    77.2883     0.0911     0.1125     2.4535
  499.0000   -54.4900    20.0858    15.0445    15.1861     9.3021    76.0737     0.0899     0.1038     2.4725
  499.5000   -54.5547    19.6342    14.8225    15.8815     9.3087    79.9350     0.0887     0.0984     2.4829
  500.0000   -54.4422    19.6342    14.6038    16.5980     9.3150    83.8386     0.0875     0.1024     2.4815
  500.5000   -54.3259    19.6342    14.3883    17.0774     9.3220    84.5549     0.0863     0.1065     2.4741
  501.0000   -54.2014    19.6342    14.1760    18.3211     9.3272    85.4812     0.0850     0.1067     2.4722
  501.5000   -54.0813    19.1095    13.9668    19.5959     9.3463    87.1037     0.0852     0.1056     2.4711
  502.0000   -53.9594    18.4992    13.7607    16.7532     9.3694    88.7501     0.0872     0.1146     2.4623
  502.5000   -53.8379    17.9084    13.5736    14.5980     9.3926    90.1001     0.0890     0.1230     2.4402
  503.0000   -53.7195    17.3349    13.5784    14.7875     9.4155    88.7468     0.0909     0.1318     2.4269
  503.5000   -53.5911    16.6292    12.8041    15.0452     9.4386    87.8205     0.0926     0.1326     2.4279
  504.0000   -53.4801    16.6628    11.9171    15.3073     9.4617    88.2701     0.0949     0.1326     2.4212
  504.5000   -53.3956    16.7746    11.9384    15.5740     9.4847    86.1060     0.0968     0.1362     2.4155
  505.0000   -53.6958    16.8872    11.9166    15.8453     9.5078    82.1709     0.0989     0.1398     2.4106
  505.5000   -53.9612    17.0007    12.3016    16.1214     9.5308    80.2305     0.1010     0.1398     2.4107
  506.0000   -54.2294    17.1152    12.8351    16.4023     9.5539    79.3094     0.1029     0.1348     2.4247
  506.5000   -54.5529    17.2524    12.7677    16.5912     9.5769    79.0915     0.1050     0.1259     2.4419
  507.0000   -54.4288    17.1563    12.6269    16.4071     9.6000    81.9044     0.1072     0.1171     2.4602
  507.5000   -54.0918    17.0361    12.4939    16.2249     9.6230    84.8575     0.1083     0.1072     2.4707
  508.0000   -53.7489    16.9167    12.3624    16.0450     9.6461    87.8720     0.1046     0.1100     2.4620
  508.5000   -53.4181    16.7982    12.2322    15.8673     9.6694    90.9520     0.1009     0.1150     2.4541
  509.0000   -53.0819    16.6805    12.1034    15.6917     9.6878    93.0775     0.0971     0.1200     2.4460
  509.5000   -52.7296    16.5636    11.9759    15.5180     9.6958    92.1791     0.0932     0.1250     2.4385
  510.0000   -52.5653    16.4475    11.8498    15.3460     9.7042    92.0432     0.0895     0.1286     2.4382
  510.5000   -52.5636    16.3250    11.7250    15.1651     9.7123    94.1876     0.0856     0.1294     2.4377
  511.0000   -52.5386    16.2948    11.6015    15.1464     9.7205    96.1587     0.0844     0.1294     2.4342
  511.5000   -52.5129    16.2358    11.4794    15.1155     9.7287    95.8153     0.0845     0.1294     2.4345
  512.0000   -52.4920    16.1769    11.3585    15.0848     9.7368    95.2110     0.0845     0.1283     2.4385
  512.5000   -52.4679    16.1182    11.2858    15.0540     9.7450    95.5638     0.0845     0.1267     2.4423
  513.0000   -52.4448    16.0595    11.5288    15.0234     9.7532    97.6199     0.0845     0.1252     2.4463
  513.5000   -52.4218    16.0008    11.6843    14.9928     9.7614   100.2722     0.0846     0.1248     2.4482
  514.0000   -52.3983    15.9410    11.8419    14.9623     9.7696    98.6748     0.0838     0.1256     2.4449
  514.5000   -52.3749    15.8869    11.9980    14.9318     9.7778    94.3975     0.0823     0.1263     2.4413
  515.0000   -52.3515    15.8297    12.1618    14.9014     9.7860    92.9344     0.0808     0.1270     2.4375
  515.5000   -52.3280    15.7727    12.3272    14.8858     9.7942    94.9782     0.0793     0.1278     2.4335
  516.0000   -52.3047    15.7334    12.4943    15.1631     9.8023    96.9758     0.0778     0.1286     2.4342
  516.5000   -52.2812    16.1214    12.6634    15.4899     9.8105    96.3543     0.0762     0.1268     2.4430
  517.0000   -52.2579    16.8952    12.8427    16.1385     9.8187    95.0087     0.0747     0.1221     2.4501
  517.5000   -52.2349    18.8878    12.7187    16.8143     9.8269    93.6615     0.0732     0.1174     2.4574
  518.0000   -52.2104    22.7584    12.4945    17.2545     9.8350    92.3650     0.0716     0.1120     2.4623
  518.5000   -52.1868    20.8047    12.2728    17.2545     9.8443    91.0145     0.0703     0.1103     2.4658
  519.0000   -52.1107    17.8345    12.0564    16.2365     9.8584    89.8070     0.0688     0.1082     2.4690
  519.5000   -52.0186    14.8858    11.8439    15.4270     9.8754    89.4668     0.0728     0.1065     2.4720
  520.0000   -51.9264    14.6947    11.6352    14.6578     9.8921    92.5480     0.0774     0.1148     2.4581
  520.5000   -51.8352    14.4669    11.4301    13.8264     9.9088    95.9056     0.0820     0.1222     2.4393
  521.0000   -51.7432    14.2426    11.2286    13.8264     9.9255    99.4156     0.0868     0.1294     2.4199
  521.5000   -51.6514    14.0217    11.0307    13.7276     9.9422    98.0982     0.0892     0.1281     2.4253
  522.0000   -51.5605    13.8264    10.8363    13.6360     9.9590    94.5423     0.0918     0.1259     2.4339
  522.5000   -51.4670    13.8264    10.6453    13.5449     9.9757    95.5733     0.0945     0.1237     2.4440
  523.0000   -51.3855    13.8264    10.4826    13.4545     9.9924    98.2969     0.0972     0.1215     2.4460
  523.5000   -51.3021    13.8264    10.4826    13.3647    10.0091    94.7892     0.1000     0.1191     2.4462
  524.0000   -51.2281    13.8264    10.4826    13.2755    10.0258    90.4360     0.1028     0.1191     2.4467
  524.5000   -51.1517    13.8264    10.4826    13.1869    10.0426    88.5475     0.1045     0.1142     2.4559
  525.0000   -51.0763    13.8264    10.4826    13.0816    10.0593    90.3632     0.1044     0.1099     2.4638
  525.5000   -51.0008    13.7676    10.4826    13.0438    10.0760    90.8402     0.1044     0.1057     2.4723
