~VERSION INFORMATION
 VERS.                2.0:   CWLS LOG ASCII STANDARD - VERSION 2.0
 WRAP.                 NO:   ONE LINE PER DEPTH STEP
~WELL INFORMATION
#MNEM.UNIT      DATA TYPE    INFORMATION
#----------   ------------   ------------------------------
 STRT.F         1500.0000:   START DEPTH
 STOP.F         3480.0000:   STOP DEPTH
 STEP.F            0.5000:   STEP LENGTH
 NULL.          -999.2500:   NO VALUE
 COMP. FLUOR DANIEL (NOPSR). INC.:   COMPANY
 WELL.   22-STX-26 #22-26:   WELL
 FLD .             NPR #3:   FIELD
 LOC .      S26 T38N R78W:   LOCATION
 CNTY.            NATRONA:   COUNTY
 STAT.            WYOMING:   STATE
 CTRY. UNITED STATES OF AMERICA:   COUNTRY
 SRVC.            Unknown:   SERVICE COMPANY
 DATE.        14-JUN-1995:   LOGDATE
 API .       490252272400:   API NUMBER
~CURVE INFORMATION
#MNEM.UNIT       API CODE    CURVE DESCRIPTION
#----------   ------------   ------------------------------
 DEPT.F                  :   
 ROP .MIN/FT 91 810 01 00:   RATE OF DRILLING PENETRATION
 TGAS.UNITS  91 830 01 00:   TOTAL GAS FROM HOTWIRE
~PARAMETER INFORMATION
#MNEM.UNIT          VALUE    DESCRIPTION
#----------   ------------   ------------------------------
 EKB .F              5348:   KELLING BUSHING
 EGL .F              5338:   GROUND LEVEL
 DATE.            6-14-95:   RUN DATE
 DD  .F              3480:   DEPTH DRILLER
 BLI .F              3480:   BOTTOM LOG INTERVAL
 TLI .F              1500:   TOP LOG INTERVAL
 CS  .IN            9.625:   CASING SIZE
 CBD .F                87:   CASING BOTTOM DRILLER
 ENGI.               HUSK:   RECORDING ENGINEER
 WITN.              TOWER:   WITNESSED BY
 CLNT.            A2DTECH:   CLIENT CODE
 ORIG.           5" PRINT:   ORIGIN OF DATA
 UWI .       490252272400:   UNIQUE WELL ID
 DICO. A2D Technologies, Inc.:   DIGITIZING COMPANY
~OTHER INFORMATION
~A  DEPT         ROP       TGAS 
# ...
 2593.5000     0.8878    14.4284
 2594.0000     0.6338    14.4295
 2594.5000     0.6344    14.4305
 2595.0000     0.6350    14.4315
 2595.5000     0.6357    14.4326
 2596.0000     0.6364    14.4336
 2596.5000     0.6370    14.4346
 2597.0000     0.6377    14.4357
 2597.5000     0.6383    14.4367
 2598.0000     0.6390    14.4377
 2598.5000     0.6396    14.4388
 2599.0000     0.6403    14.4398
 2599.5000     0.6410    14.4408
 2600.0000     0.6416    14.4419
 2600.5000     0.6423    14.4398
 2601.0000     0.6429    14.4377
 2601.5000     0.6436    14.4356
 2602.0000     0.6443    14.4335
 2602.5000     0.6449    14.4314
 2603.0000     0.6456    14.4293
 2603.5000     0.6462    14.4272
 2604.0000     0.6469    14.4251
 2604.5000     0.6476    14.4230
 2605.0000     0.6482    14.4210
 2605.5000     0.6489    14.4189
 2606.0000     0.6495    14.4168
 2606.5000     0.6502    14.4147
 2607.0000     0.6509    14.4126
 2607.5000     0.6515    14.4105
 2608.0000     0.6522    14.4084
 2608.5000     0.6528    14.4063
 2609.0000     0.6535    14.4042
 2609.5000     0.6542    14.4021
 2610.0000     0.6548    14.4000
 2610.5000     0.6555    14.3980
 2611.0000     0.6561    14.3959
 2611.5000     0.6568    14.3938
 2612.0000     0.6575    14.3917
 2612.5000     0.6581    14.3896
 2613.0000     0.6588    14.3875
 2613.5000     0.6594    14.3854
 2614.0000     0.6601    14.3833
 2614.5000     0.6607    14.3812
 2615.0000     0.6614    14.3791
 2615.5000     0.6621    14.3771
 2616.0000     0.6627    14.3750
 2616.5000     0.6634    14.3729
 2617.0000     0.6640    14.3708
 2617.5000     0.6647    14.3687
 2618.0000     0.6654    14.3666
 2618.5000     0.6660    14.3645
 2619.0000     0.6667    14.3624
 2619.5000     0.6673    14.3603
 2620.0000     0.6680    14.3582
 2620.5000     0.6687    14.3561
 2621.0000     0.6693    14.3541
 2621.5000     0.6700    14.3520
 2622.0000     0.7849    14.3499
 2622.5000     0.7853    14.3478
 2623.0000     0.7849    14.3457
 2623.5000     0.7845    14.3436
 2624.0000     0.7841    14.3415
 2624.5000     0.7836    14.3394
 2625.0000     0.7832    14.3373
 2625.5000     0.7827    14.3352
 2626.0000     0.7823    14.3332
 2626.5000     0.7819    14.3311
 2627.0000     0.7814    14.3290
 2627.5000     0.7810    14.3269
 2628.0000     0.7806    14.3248
 2628.5000     0.7801    14.3227
 2629.0000     0.7797    14.3206
 2629.5000     0.7792    14.3185
 2630.0000     0.7788    14.3164
 2630.5000     0.7784    14.3143
 2631.0000     0.7779    14.3122
 2631.5000     0.7775    14.3102
 2632.0000     0.7771    14.3081
 2632.5000     0.7766    14.3060
 2633.0000     0.7762    14.3039
 2633.5000     0.7757    14.3018
 2634.0000     0.7753    14.2997
 2634.5000     0.7749    14.2976
 2635.0000     0.7744    14.2955
 2635.5000     0.7740    14.2934
 2636.0000     0.7736    14.2913
 2636.5000     0.7731    14.2893
 2637.0000     0.7727    14.2872
 2637.5000     0.7722    14.2851
 2638.0000     0.7718    14.2830
 2638.5000     0.7714    14.2809
 2639.0000     0.7709    14.2788
 2639.5000     0.7705    14.2767
 2640.0000     0.7700    14.2746
 2640.5000     0.7696    14.2725
 2641.0000     0.7692    14.2704
 2641.5000     0.7687    14.2683
 2642.0000     0.7683    14.2663
 2642.5000     0.7679    14.2642
 2643.0000     0.7674    14.2621
 2643.5000     0.7670    14.2600
 2644.0000     0.7665    14.2579
 2644.5000     0.7661    14.2558
 2645.0000     0.7657    14.2537
 2645.5000     0.7652    14.2516
 2646.0000     0.7648    14.2495
 2646.5000     0.7644    14.2474
 2647.0000     0.7639    14.2454
 2647.5000     0.7635    14.2433
 2648.0000     0.7630    14.2412
 2648.5000     0.7626    14.2391
 2649.0000     0.7622    14.2370
 2649.5000     0.7617    14.2349
 2650.0000     0.7613    14.2328
 2650.5000     0.7609    14.2307
 2651.0000     0.7604    14.2286
 2651.5000     0.7600    14.2265
 2652.0000     0.7595    14.2244
 2652.5000     0.6442    14.2224
 2653.0000     0.6448    14.2203
 2653.5000     0.6452    14.2182
 2654.0000     0.6457    14.2161
 2654.5000     0.6461    14.2140
 2655.0000     0.6465    14.2119
 2655.5000     0.6470    14.2098
 2656.0000     0.6474    14.2077
 2656.5000     0.6479    14.2056
 2657.0000     0.6483    14.2035
 2657.5000     0.6488    14.2015
 2658.0000     0.6492    14.1994
 2658.5000     0.6496    14.1973
 2659.0000     0.6396    14.1952
 2659.5000     0.6401    14.1931
 2660.0000     0.7663    14.1910
 2660.5000     0.7668    14.1889
 2661.0000     0.7672    14.1868
 2661.5000     0.7677    14.1847
 2662.0000     0.7681    14.1826
 2662.5000     0.7579    14.1805
 2663.0000     0.7585    14.1785
 2663.5000     0.7589    14.1764
 2664.0000     0.7594    14.1743
 2664.5000     0.7598    14.1722
 2665.0000     0.7603    14.1701
 2665.5000     0.7501    14.1680
 2666.0000     0.7506    14.1659
 2666.5000     0.7406    14.1638
 2667.0000     0.7411    14.1617
 2667.5000     0.7415    14.1596
 2668.0000     0.7419    14.1576
 2668.5000     0.7424    14.1555
 2669.0000     0.7429    14.1534
 2669.5000     0.7433    14.1513
 2670.0000     0.7438    14.1492
 2670.5000     0.7442    14.1471
 2671.0000     0.7447    14.1450
 2671.5000     0.7451    14.1429
 2672.0000     0.7455    14.1408
 2672.5000     0.7460    14.1387
 2673.0000     0.7465    14.1366
 2673.5000     0.7469    14.1346
 2674.0000     0.7473    14.1325
 2674.5000     0.7478    14.1304
 2675.0000     0.7482    14.1283
 2675.5000     0.7486    14.1262
 2676.0000     0.7491    14.1241
 2676.5000     0.7496    14.1220
 2677.0000     0.7500    14.1199
 2677.5000     0.7505    14.1178
 2678.0000     0.7509    14.1157
 2678.5000     0.7514    14.1137
 2679.0000     0.7518    14.1116
 2679.5000     0.7522    14.1095
 2680.0000     0.7527    14.1074
 2680.5000     0.7531    14.1053
 2681.0000     0.7535    14.1032
 2681.5000     0.7540    14.1011
 2682.0000     0.7545    14.0990
 2682.5000     0.7549    14.0969
 2683.0000     0.7554    14.0948
 2683.5000     0.7558    14.0927
 2684.0000     0.7563    14.0907
 2684.5000     0.9034    14.0886
 2685.0000     0.9039    14.0865
 2685.5000     0.9043    14.0844
 2686.0000     0.9048    14.0823
 2686.5000     0.9052    14.0802
 2687.0000     0.9057    14.0781
 2687.5000     0.9061    14.0760
 2688.0000     0.9066    14.0739
 2688.5000     0.9070    14.0718
 2689.0000     0.9074    14.0698
 2689.5000     0.9079    14.0677
 2690.0000     0.9084    14.0656
 2690.5000     0.9088    14.0635
 2691.0000     0.9093    14.0614
 2691.5000     0.9097    14.0593
 2692.0000     0.9102    14.0572
 2692.5000     0.9106    14.0551
 2693.0000     0.9110    14.0530
 2693.5000     0.9115    14.0509
 2694.0000     0.9119    14.0488
 2694.5000     1.1325    14.0468
 2695.0000     1.1329    14.0447
 2695.5000     1.1334    14.0426
 2696.0000     1.1338    14.0405
 2696.5000     0.9980    14.0384
 2697.0000     0.9985    14.0363
 2697.5000     0.9989    14.0342
 2698.0000     0.9993    14.0321
 2698.5000     0.8529    14.0300
 2699.0000     0.8535    14.0279
 2699.5000     0.8539    14.0259
 2700.0000     0.8544    14.0234
 2700.5000     0.8548    14.0315
 2701.0000     0.8553    14.0411
 2701.5000     0.8557    14.0507
 2702.0000     0.8562    14.0603
 2702.5000     0.8566    14.0699
 2703.0000     0.8570    14.0796
 2703.5000     0.8575    14.0906
 2704.0000     0.8579    14.9377
 2704.5000     0.8584    16.6212
 2705.0000     0.8588    18.0954
 2705.5000     0.8592    19.1517
 2706.0000     0.8596    19.9950
 2706.5000     0.8601    18.7007
 2707.0000     0.8606    17.6112
 2707.5000     0.8610    16.5217
 2708.0000     0.8615    15.4323
 2708.5000     0.8619    14.3920
 2709.0000     0.8624    14.3877
 2709.5000     0.8628    14.3833
 2710.0000     0.8632    14.3790
 2710.5000     0.8637    14.3746
 2711.0000     0.8642    14.3702
 2711.5000     0.8646    14.3659
 2712.0000     0.8651    14.3615
 2712.5000     0.8655    14.3571
 2713.0000     0.8660    14.3528
 2713.5000     0.8664    14.3484
 2714.0000     0.8668    14.3441
 2714.5000     0.7414    14.3397
