~VERSION INFORMATION
 VERS.                2.0:   CWLS LOG ASCII STANDARD - VERSION 2.0
 WRAP.                 NO:   ONE LINE PER DEPTH STEP
~WELL INFORMATION
#MNEM.UNIT      DATA TYPE    INFORMATION
#----------   ------------   ------------------------------
 STRT.F           35.0000:   START DEPTH
 STOP.F          601.0000:   STOP DEPTH
 STEP.F            0.5000:   STEP LENGTH
 NULL.          -999.2500:   NO VALUE
 COMP. FENIX & SCISSON INC:   COMPANY
 WELL. NPR #3 71SX #71-15:   WELL
 FLD .             TEAPOT:   FIELD
 LOC .      S15 T38N R78W:   LOCATION
 CNTY.            NATRONA:   COUNTY
 STAT.            WYOMING:   STATE
 CTRY. UNITED STATES OF AMERICA:   COUNTRY
 SRVC.              Welex:   SERVICE COMPANY
 DATE.        10-MAR-1977:   LOGDATE
 API .       490251031200:   API NUMBER
~CURVE INFORMATION
#MNEM.UNIT       API CODE    CURVE DESCRIPTION
#----------   ------------   ------------------------------
 DEPT.F                  :   
 SPR .MV     07 010 01 00:   SPONTANEOUS POTENTIAL
 SGRD.OHMM   07 220 05 00:   SHALLOW RESISTIVITY
 DRES.OHMM   07 120 46 00:   INDUCTION LOG DEEP
 MRES.OHMM   07 120 44 00:   INDUCTION LOG MEDIUM
 GRD .GAPI   45 310 01 00:   GAMMA RAY FROM DENSITY LOG
 CALD.IN     45 280 60 00:   CALIPER
 RHOB.G/C3   45 350 01 00:   BULK DENSITY
 DPHI.DEC    45 890 12 00:   DENSITY POROSITY
 CORR.G/C3   45 356 01 00:   DENSITY CORRECTION
~PARAMETER INFORMATION
#MNEM.UNIT          VALUE    DESCRIPTION
#----------   ------------   ------------------------------
 PD  .                 GL:   PERMANENT DATUM
 EPD .F              5241:   ELEVATION PERMANENT DATUM
 LMF .                 GL:   LOG MEASURED FROM
 DMF .                 GL:   DRILLING MEASURED FROM
 EGL .F              5241:   GROUND LEVEL
 DATE.            3-10-77:   RUN DATE
 RUN .                  1:   RUN NUMBER
 DD  .F               600:   DEPTH DRILLER
 DL  .F               603:   DEPTH LOGGER
 BLI .F               601:   BOTTOM LOG INTERVAL
 TLI .F                35:   TOP LOG INTERVAL
 CS  .IN            8.625:   CASING SIZE
 CBD .F                40:   CASING BOTTOM DRILLER
 CBL .F                40:   CASING BOTTOM LOGGER
 BS  .IN            7.875:   BIT SIZE
 BSD .F               600:   BIT SIZE AT DEPTH
 DFT .            KCL MUD:   DRILLING FLUID TYPE
 DFD .                8.6:   DRILLING FLUID DENSITY
 DFV .                 10:   DRILLING FLUID VISCOSITY
 DFPH.                7.2:   DRILLING FLUID PH
 DFL .                  8:   DRILLING FLUID LOSS
 MSS .            MUD PIT:   MUD SAMPLE SOURCE
 RMS .OHMM            .36:   RESISTIVITY MUD SAMPLE
 MST .F                47:   MUD SAMPLE TEMPERATURE
 RMF .OHMM            .35:   RESISTIVITY MUD FILTRATE SAMPLE
 MFST.F                47:   MUD FILTRATE SAMPLE TEMPERATURE
 RMC .OHMM            .40:   RESISTIVITY MUD CAKE
 MCST.F                47:   MUD CAKE SAMPLE TEMPERATURE
 MFSS.           FANN KIT:   MUD FILTRATE SAMPLE SOURCE
 MCSS.           FANN KIT:   MUD CAKE SAMPLE SOURCE
 RMB .OHMM            .31:   RESISTIVITY MUD AT BHT
 BHT .F                53:   BOTTOM HOLE TEMPERATURE
 TCS .HRS             1.5:   TIME CURCULATED STOPPED
 MRT .F                53:   MAXIMUM RECORDED TEMPERATURE
 LUN .               8611:   LOGGING UNIT NUMBER
 LUL .           GILLETTE:   LOGGING UNIT LOCATION
 ENGI.               DOAK:   RECORDING ENGINEER
 WITN.         STUEBINGER:   WITNESSED BY
 CLNT.            A2DTECH:   CLIENT CODE
 ORIG.       2", 5" PRINT:   ORIGIN OF DATA
 UWI .       490251031200:   UNIQUE WELL ID
 DICO. A2D Technologies, Inc.:   DIGITIZING COMPANY
~OTHER INFORMATION
~A   DEPT      SPR       SGRD       DRES       MRES         GRD      CALD       RHOB       DPHI       CORR   
# ...
  400.0000   -20.6667    35.0593    21.1470    23.4466    67.1278     7.8203     2.3616     0.1731     0.0703
  400.5000   -20.5836    32.1744    21.6523    24.2567    69.0387     7.8145     2.3443     0.1836     0.0656
  401.0000   -20.5008    26.9320    22.1696    24.5073    69.7916     7.8087     2.3346     0.1872     0.0636
  401.5000   -20.4183    28.4506    22.9726    24.5073    70.5606     7.8029     2.3565     0.1679     0.0625
  402.0000   -20.3372    30.8721    22.6101    24.5073    71.3587     7.7971     2.3721     0.1646     0.0654
  402.5000   -20.2486    29.9630    21.8921    24.7929    71.5846     7.7913     2.3725     0.1656     0.0698
  403.0000   -19.9625    28.6856    21.1970    25.2120    70.7647     7.7855     2.3691     0.1623     0.0712
  403.5000   -19.6853    27.4574    20.1856    25.4298    69.6021     7.7797     2.3601     0.1690     0.0691
  404.0000   -19.4100    26.6449    20.6882    24.3475    68.4330     7.7739     2.3429     0.1904     0.0668
  404.5000   -19.1348    28.9829    22.3447    23.5382    67.2642     7.7681     2.3303     0.1861     0.0645
  405.0000   -18.8621    32.0364    21.5023    22.9726    66.0953     7.7623     2.3437     0.1759     0.0691
  405.5000   -18.6716    30.7882    19.8510    23.2604    64.9234     7.7565     2.3500     0.1785     0.0740
  406.0000   -18.7347    28.3366    17.5736    23.5300    63.7663     7.7508     2.3388     0.1837     0.0683
  406.5000   -18.7913    27.1286    17.9626    23.8027    64.2262     7.7492     2.3307     0.1890     0.0624
  407.0000   -18.8474    31.1607    18.8101    24.0786    66.0842     7.7608     2.3274     0.1902     0.0565
  407.5000   -18.9039    30.1078    19.6975    24.3577    67.8403     7.7721     2.3112     0.2035     0.0505
  408.0000   -18.9603    27.9886    20.7529    24.5073    69.5946     7.7833     2.3292     0.1937     0.0492
  408.5000   -19.0166    26.1444    20.7251    24.0064    71.3365     7.7946     2.3646     0.1697     0.0516
  409.0000   -19.0731    30.1122    20.6836    23.5468    71.4917     7.8058     2.3874     0.1551     0.0589
  409.5000   -19.1293    32.3337    20.6422    23.0960    71.3986     7.8171     2.3782     0.1592     0.0592
  410.0000   -19.1857    30.9065    20.6012    22.6538    71.3005     7.8283     2.3767     0.1647     0.0597
  410.5000   -19.2447    29.8792    20.5627    22.2201    71.2013     7.8396     2.3795     0.1591     0.0635
  411.0000   -19.2420    28.9409    20.5833    21.7946    71.1739     7.8508     2.3763     0.1610     0.0672
  411.5000   -19.2139    29.0821    20.6028    21.5341    71.1557     7.8621     2.3733     0.1631     0.0704
  412.0000   -19.1849    29.2095    20.6225    22.5378    72.1480     7.8733     2.3460     0.1763     0.0661
  412.5000   -19.1559    27.2402    20.6423    23.5331    73.6329     7.8846     2.3296     0.1880     0.0541
  413.0000   -19.1270    25.1960    20.6622    24.7347    74.9021     7.8831     2.3356     0.1847     0.0465
  413.5000   -19.0982    28.3545    20.6820    23.9111    74.1679     7.8783     2.3450     0.1807     0.0481
  414.0000   -19.0693    30.7962    20.7016    22.9746    73.8044     7.8734     2.3250     0.1924     0.0494
  414.5000   -19.0404    22.7183    20.7216    21.9356    77.2072     7.8685     2.3291     0.1898     0.0507
  415.0000   -19.0115    24.7750    20.7550    22.3465    78.7625     7.8636     2.3361     0.1849     0.0520
  415.5000   -18.9827    30.8930    20.7052    22.8446    79.8125     7.8588     2.3433     0.1796     0.0534
  416.0000   -18.9537    29.9371    20.4944    23.3574    78.6090     7.8539     2.3499     0.1767     0.0547
  416.5000   -18.9252    28.1132    20.2881    23.8838    77.0572     7.8491     2.3555     0.1735     0.0560
  417.0000   -18.8956    26.4004    20.0838    24.2759    75.8302     7.8469     2.3610     0.1703     0.0574
  417.5000   -18.8583    24.7919    19.8816    22.7048    76.8666     7.8497     2.3669     0.1671     0.0598
  418.0000   -19.1016    23.6182    19.6814    21.4886    78.9632     7.8525     2.3740     0.1616     0.0656
  418.5000   -19.3866    24.7128    19.4833    20.3730    81.0704     7.8552     2.3885     0.1537     0.0713
  419.0000   -19.6750    25.6412    19.2871    21.2967    83.0486     7.8580     2.3919     0.1527     0.0770
  419.5000   -19.9626    26.6044    19.0972    22.2452    82.7789     7.8608     2.3869     0.1563     0.0826
  420.0000   -20.2499    27.3804    19.2100    23.3943    82.4348     7.8638     2.3814     0.1605     0.0882
  420.5000   -20.5372    24.2819    19.3210    22.6246    82.1012     7.8654     2.3836     0.1584     0.0918
  421.0000   -20.8246    25.2146    19.4533    21.6950    81.7633     7.8394     2.3863     0.1535     0.0881
  421.5000   -21.1121    26.1444    17.9301    20.8047    82.0347     7.8125     2.3821     0.1573     0.0779
  422.0000   -21.3985    25.5875    15.7296    19.9548    82.5584     7.7862     2.3701     0.1671     0.0623
  422.5000   -21.6833    25.1378    16.2379    19.6208    83.0918     7.8102     2.3716     0.1599     0.0433
  423.0000   -21.9134    24.6961    16.8867    19.5891    83.6729     7.8397     2.3922     0.1512     0.0424
  423.5000   -22.0517    24.2621    17.5615    19.5572    83.5125     7.8684     2.4076     0.1425     0.0433
  424.0000   -22.0572    23.8374    18.4044    19.5258    82.5037     7.9068     2.4257     0.1338     0.0442
  424.5000   -22.0558    25.5511    18.0664    19.4943    81.5086     7.8977     2.4373     0.1282     0.0451
  425.0000   -22.0554    27.3804    17.5196    19.4628    80.5160     7.8904     2.4118     0.1403     0.0460
  425.5000   -21.9880    28.9336    16.9894    19.4313    79.5275     7.8834     2.3882     0.1502     0.0468
  426.0000   -21.8787    27.6434    16.4752    19.3999    78.8619     7.8763     2.3754     0.1591     0.0477
  426.5000   -21.7682    28.1623    15.8756    19.3687    78.2828     7.8692     2.3655     0.1677     0.0469
  427.0000   -21.6569    27.3284    16.6322    19.3378    77.7048     7.8621     2.3541     0.1763     0.0432
  427.5000   -21.5474    25.3609    18.0592    19.3060    77.1206     7.8549     2.3456     0.1799     0.0406
  428.0000   -21.4737    24.3658    17.8102    19.2744    76.5241     7.8477     2.3527     0.1774     0.0439
  428.5000   -21.5882    23.9254    17.5993    19.0112    77.5006     7.8474     2.3663     0.1642     0.0470
  429.0000   -21.6994    23.7002    17.3897    18.7485    78.7154     7.8488     2.3889     0.1531     0.0502
  429.5000   -21.8099    23.4772    17.1803    18.4894    80.1824     7.8503     2.3988     0.1491     0.0533
  430.0000   -21.9206    23.2562    16.9732    18.2339    82.6210     7.8517     2.4053     0.1441     0.0564
  430.5000   -22.0313    23.0374    16.7685    17.9819    85.0149     7.8531     2.4130     0.1341     0.0596
  431.0000   -22.1419    22.8205    16.5663    17.7334    84.6582     7.8545     2.4214     0.1277     0.0624
  431.5000   -22.2526    22.6058    16.3666    17.4883    81.3585     7.8560     2.4214     0.1302     0.0636
  432.0000   -22.3634    22.3930    16.1693    17.2466    82.6590     7.8574     2.4295     0.1282     0.0648
  432.5000   -22.4741    22.1823    15.9743    17.0083    84.9314     7.8588     2.4377     0.1260     0.0660
  433.0000   -22.5841    21.9735    15.7817    16.7732    87.2392     7.8602     2.4457     0.1238     0.0672
  433.5000   -22.6488    21.7667    15.5914    16.6261    87.6952     7.8617     2.4512     0.1217     0.0683
  434.0000   -22.6279    21.5618    15.4034    17.2980    86.9394     7.8631     2.4404     0.1255     0.0683
  434.5000   -22.6085    21.3589    15.2177    17.8956    84.8216     7.8645     2.4247     0.1313     0.0683
  435.0000   -22.5890    21.1579    15.0324    18.5139    83.1343     7.8660     2.4165     0.1372     0.0683
  435.5000   -22.5694    20.9588    14.8793    18.8962    83.9031     7.8666     2.4168     0.1377     0.0683
  436.0000   -22.5499    20.7529    14.9274    18.6063    83.7222     7.8676     2.4171     0.1374     0.0683
