~VERSION INFORMATION
 VERS.                2.0:   CWLS LOG ASCII STANDARD - VERSION 2.0
 WRAP.                 NO:   ONE LINE PER DEPTH STEP
~WELL INFORMATION
#MNEM.UNIT      DATA TYPE    INFORMATION
#----------   ------------   ------------------------------
 STRT.F           29.0000:   START DEPTH
 STOP.F          882.0000:   STOP DEPTH
 STEP.F            0.5000:   STEP LENGTH
 NULL.          -999.2500:   NO VALUE
 COMP. FENIX & SCISSON INC:   COMPANY
 WELL. NAVAL PETROLEUM RESERVE 3 S-14 #42-14:   WELL
 FLD .             TEAPOT:   FIELD
 LOC .      S14 T38N R78W:   LOCATION
 CNTY.            NATRONA:   COUNTY
 STAT.            WYOMING:   STATE
 CTRY. UNITED STATES OF AMERICA:   COUNTRY
 SRVC.              Welex:   SERVICE COMPANY
 DATE.        03-MAY-1977:   LOGDATE
 API .       490251035400:   API NUMBER
~CURVE INFORMATION
#MNEM.UNIT       API CODE    CURVE DESCRIPTION
#----------   ------------   ------------------------------
 DEPT.F                  :   
 CALD.IN     45 280 60 00:   CALIPER FROM DENSITY LOG
 GRD .GAPI   45 310 01 00:   GAMMA RAY FROM DENSITY LOG
 CORR.G/C3   45 356 01 00:   DENSITY CORRECTION
 DPHI.DEC    45 890 12 00:   DENSITY POROSITY SANDSTONE
 RHOB.G/C3   45 350 01 00:   BULK DENSITY
 SPR .MV     07 010 01 00:   SPONTANEOUS POTENTIAL
 ILD .OHMM   07 120 46 00:   INDUCTION LOG DEEP
 ILM .OHMM   07 120 44 00:   INDUCTION LOG MEDIUM
 SGRD.OHMM   07 221 05 00:   SHALLOW SHORT GUARD RESISTIVITY
~PARAMETER INFORMATION
#MNEM.UNIT          VALUE    DESCRIPTION
#----------   ------------   ------------------------------
 PD  .                 GL:   PERMANENT DATUM
 EPD .F              5206:   ELEVATION PERMANENT DATUM
 LMF .                 GL:   LOG MEASURED FROM
 DMF .                 GL:   DRILLING MEASURED FROM
 EGL .F              5206:   GROUND LEVEL
 DATE.        03-MAY-1977:   RUN DATE
 RUN .                  1:   RUN NUMBER
 DD  .F               855:   DEPTH DRILLER
 DL  .F               884:   DEPTH LOGGER
 BLI .F               882:   BOTTOM LOG INTERVAL
 TLI .F                28:   TOP LOG INTERVAL
 CS  .IN            8.625:   CASING SIZE
 BS  .IN               12:   BIT SIZE
 BSD .F               855:   BIT SIZE AT DEPTH
 DFT .            KCL MUD:   DRILLING FLUID TYPE
 DFD .                8.7:   DRILLING FLUID DENSITY
 BHT .F                75:   BOTTOM HOLE TEMPERATURE
 TCS .HRS            0130:   TIME CURCULATED STOPPED
 MRT .F                75:   MAXIMUM RECORDED TEMPERATURE
 ENGI.            C. DOAK:   RECORDING ENGINEER
 WITN.            R. LYON:   WITNESSED BY
 CLNT.            A2DTECH:   CLIENT CODE
 ORIG.           5" PRINT:   ORIGIN OF DATA
 UWI .       490251035400:   UNIQUE WELL ID
 DICO. A2D Technologies, Inc.:   DIGITIZING COMPANY
~OTHER INFORMATION
~A   DEPT       CALD      GRD       CORR       DPHI         RHOB      SPR        ILD        ILM       SGRD   
# ...
  175.0000     7.9955   113.6225     0.0322     0.1708     2.3793   -51.3415     4.0909     4.1337     5.9223
  175.5000     7.9954   112.1227     0.0323     0.1767     2.3703   -51.1967     4.1473     4.2491     5.4117
  176.0000     7.9952   108.9755     0.0366     0.1812     2.3658   -50.5574     4.1752     4.1613     4.3664
  176.5000     7.9950   107.1762     0.0411     0.1833     2.3635   -48.3748     4.1454     4.1319     5.3004
  177.0000     7.9949   105.9758     0.0426     0.1833     2.3665   -47.1858     4.1160     4.1314     5.7945
  177.5000     7.9948   105.8233     0.0441     0.1837     2.3627   -47.1911     4.0869     4.1309     5.7926
  178.0000     8.0096   103.4246     0.0411     0.1887     2.3552   -47.1954     4.0859     4.1303     5.7911
  178.5000     8.0094   102.0752     0.0366     0.1908     2.3507   -47.1997     4.1136     4.1584     5.7100
  179.0000     8.0093   104.0178     0.0336     0.1923     2.3462   -47.2042     4.1126     4.1578     5.4388
  179.5000     8.0091   104.6137     0.0335     0.1855     2.3641   -47.2094     4.0834     4.1572     5.2525
  180.0000     8.0239   105.8078     0.0380     0.1675     2.3798   -47.3627     4.0826     4.1280     5.1787
  180.5000     8.0237   108.0505     0.0410     0.1568     2.4067   -47.8141     4.0537     4.0990     5.0710
  181.0000     8.0386   109.6944     0.0440     0.1478     2.4262   -48.4145     3.9970     4.0143     4.9656
  181.5000     8.0384   110.4401     0.0440     0.1469     2.4291   -49.1640     3.8872     3.8241     4.8289
  182.0000     8.0532   112.0833     0.0439     0.1457     2.4313   -49.7824     3.7804     3.6172     4.6635
  182.5000     8.0530   113.1284     0.0424     0.1448     2.4313   -50.0678     3.6260     3.3756     4.5023
  183.0000     8.0529   112.8261     0.0409     0.1508     2.4185   -49.6250     3.3831     3.0426     4.2016
  183.5000     8.0677   110.8772     0.0379     0.1557     2.4140   -49.1822     3.0015     2.6862     3.6833
  184.0000     8.0676   109.9755     0.0364     0.1616     2.4028   -48.5904     2.7103     2.7421     3.1193
  184.5000     8.0524   108.9248     0.0439     0.1628     2.3990   -47.9986     2.9853     2.9750     2.8703
  185.0000     8.0523   107.7244     0.0454     0.1601     2.4036   -47.5410     3.2429     3.2887     3.1392
  185.5000     8.0522   108.3204     0.0438     0.1598     2.3997   -46.9640     3.5227     3.6024     5.7049
  186.0000     8.0520   109.3647     0.0393     0.1670     2.3877   -46.5222     3.8004     3.9264     6.2646
  186.5000     8.0518   111.4577     0.0363     0.1775     2.3735   -46.5265     4.0479     4.1491     6.3064
  187.0000     8.0517   112.8022     0.0318     0.1820     2.3711   -46.5308     4.3022     4.3846     6.1323
  187.5000     8.0366   110.7036     0.0288     0.1948     2.3518   -46.5351     4.4526     4.5697     6.1307
  188.0000     8.0365   106.9576     0.0273     0.2044     2.3331   -46.6885     4.5768     4.6649     6.0032
  188.5000     8.0363   105.4584     0.0258     0.2068     2.3189   -46.6938     4.7040     4.7312     5.5237
  189.0000     8.0362   111.8920     0.0093     0.2107     2.3173   -46.8471     4.7357     4.7613     5.9172
  189.5000     8.0360   114.1347     0.0168     0.2092     2.3159   -47.0005     4.7021     4.6628     6.2955
  190.0000     8.0209   111.1372     0.0166     0.1991     2.3338   -47.1538     4.6364     4.5982     6.5157
  190.5000     8.0208   109.3380     0.0197     0.1805     2.3577   -47.9032     4.5090     4.5032     6.2488
  191.0000     8.0206   106.9400     0.0302     0.1644     2.3911   -48.2146     4.3851     4.3496     6.1614
  191.5000     8.0205   105.5898     0.0317     0.1587     2.4070   -48.3600     4.1483     4.1433     6.0751
  192.0000     8.0203   110.2270     0.0315     0.1587     2.4077   -48.3643     3.7131     3.8802     5.7862
  192.5000     8.0202   113.0685     0.0302     0.1584     2.4069   -48.3686     3.3851     3.4607     5.2147
  193.0000     8.0200   113.0657     0.0301     0.1578     2.4093   -48.3729     3.1007     3.0978     4.2661
  193.5000     8.0199   113.6796     0.0301     0.1572     2.4121   -47.7811     2.8533     2.8311     3.7658
  194.0000     8.0197   115.7540     0.0286     0.1572     2.4091   -46.5753     2.7943     2.7919     3.3013
  194.5000     8.0345   116.2010     0.0286     0.1587     2.4023   -44.5120     2.9119     2.9299     2.8467
  195.0000     8.0344   115.1496     0.0271     0.1624     2.3985   -43.1750     3.0557     3.0791     3.0789
  195.5000     8.0342   112.7114     0.0271     0.1650     2.3948   -42.5821     3.2606     3.2944     5.2786
  196.0000     8.0191   110.9523     0.0256     0.1626     2.3993   -42.1393     3.5317     3.4813     5.5777
  196.5000     8.0339   113.4944     0.0241     0.1653     2.4002   -42.2937     3.7061     3.6788     5.1318
  197.0000     8.0338   112.1436     0.0225     0.1683     2.3908   -42.7481     3.8357     3.8875     4.8544
  197.5000     8.0187   111.8414     0.0270     0.1647     2.3955   -43.0486     3.9698     4.0238     4.8918
  198.0000     8.0185   111.5384     0.0345     0.1576     2.4037   -43.2019     4.0523     4.1372     4.9879
  198.5000     8.0184   110.1883     0.0435     0.1576     2.4111   -43.2062     4.1364     4.2222     5.1262
  199.0000     8.0182   107.7903     0.0449     0.1542     2.4156   -43.2105     4.1931     4.2803     5.4163
  199.5000     8.0181   105.9910     0.0464     0.1579     2.4141   -43.2148     4.2800     4.3393     5.6898
  200.0000     8.0180   108.8107     0.0494     0.1610     2.4050   -43.2191     4.3090     4.3366     5.8047
  200.5000     8.0180   111.6674     0.0509     0.1618     2.4043   -43.5929     4.2556     4.3228     5.8516
  201.0000     8.0180   109.6527     0.0553     0.1618     2.4036   -43.9667     4.2198     4.3076     5.8801
  201.5000     8.0180   108.0575     0.0553     0.1648     2.3953   -44.3404     4.1905     4.2774     5.7188
  202.0000     8.0180   108.7975     0.0493     0.1758     2.3796   -44.8772     4.1041     4.2473     5.4856
  202.5000     8.0180   108.1880     0.0418     0.1794     2.3729   -45.1796     4.0196     4.1596     5.0481
  203.0000     8.0179   106.0836     0.0372     0.1803     2.3706   -45.6310     3.9096     4.0699     4.6135
  203.5000     8.0179   105.1769     0.0327     0.1815     2.3660   -45.7844     3.7765     3.9618     5.1169
  204.0000     8.0179   107.2642     0.0357     0.1857     2.3526   -46.0868     3.6480     3.8532     5.1162
  204.5000     8.0179   106.8044     0.0357     0.1932     2.3481   -46.2401     3.4995     3.6962     4.5798
  205.0000     8.0179   106.9455     0.0281     0.1986     2.3324   -46.3935     3.3339     3.4968     3.6198
  205.5000     8.0179   108.7334     0.0296     0.2035     2.3287   -46.6960     3.1703     3.3775     3.0447
  206.0000     8.0179   109.0243     0.0206     0.2093     2.3249   -46.8503     3.0680     3.1953     3.6439
  206.5000     8.0179   107.8181     0.0176     0.2120     2.3167   -47.1527     3.0678     3.1077     4.6732
  207.0000     8.0179   108.5581     0.0145     0.2126     2.3144   -47.4551     3.0676     3.0858     4.6404
  207.5000     8.0179   108.2480     0.0070     0.2034     2.3226   -47.6085     3.0252     3.0430     4.4204
  208.0000     8.0179   103.7484     0.0175     0.1923     2.3376   -47.9109     2.9021     3.0008     4.0679
  208.5000     8.0179    99.3965     0.0219     0.1720     2.3668   -48.0642     2.7840     2.9592     3.7435
  209.0000     8.0179   103.2801     0.0294     0.1600     2.4048   -48.0686     2.6694     2.8386     3.2822
  209.5000     8.0179   105.0701     0.0369     0.1546     2.4175   -47.9036     2.5619     2.6854     3.1052
  210.0000     8.0179   105.3589     0.0383     0.1546     2.4145   -47.6312     2.4747     2.5406     3.3733
  210.5000     8.0179   107.5998     0.0338     0.1652     2.3965   -47.4854     2.3576     2.4348     3.1652
  211.0000     8.0179   111.3277     0.0293     0.1684     2.3906   -47.1928     2.2931     2.3538     2.7787
