~VERSION INFORMATION
 VERS.                2.0:   CWLS LOG ASCII STANDARD - VERSION 2.0
 WRAP.                 NO:   ONE LINE PER DEPTH STEP
~WELL INFORMATION
#MNEM.UNIT      DATA TYPE    INFORMATION
#----------   ------------   ------------------------------
 STRT.F            8.0000:   START DEPTH
 STOP.F         2320.0000:   STOP DEPTH
 STEP.F            0.5000:   STEP LENGTH
 NULL.          -999.2500:   NO VALUE
 COMP.    FENIX & SCISSON:   COMPANY
 WELL. N.P.R #3 #77-SHX-10:   WELL
 FLD .             TEAPOT:   FIELD
 LOC .      S10 T38N R78W:   LOCATION
 CNTY.            NATRONA:   COUNTY
 STAT.            WYOMING:   STATE
 CTRY. UNITED STATES OF AMERICA:   COUNTRY
 SRVC.              Welex:   SERVICE COMPANY
 DATE.        05-JUN-1980:   LOGDATE
 API .       490251064900:   API NUMBER
~CURVE INFORMATION
#MNEM.UNIT       API CODE    CURVE DESCRIPTION
#----------   ------------   ------------------------------
 DEPT.F                  :   
 GRD .GAPI   45 310 01 00:   GAMMA RAY FROM DENSITY LOG
 CALD.IN     45 280 60 00:   CALIPER FROM DENSITY LOG
 RHOB.G/C3   45 350 01 00:   BULK DENSITY
 DPHI.DEC    45 890 12 00:   DENSITY POROSITY SANDSTONE
 ILD .OHMM   05 120 46 00:   INDUCTION LOG DEEP
 CORR.G/C3   45 356 01 00:   DENSITY CORRECTION
~PARAMETER INFORMATION
#MNEM.UNIT          VALUE    DESCRIPTION
#----------   ------------   ------------------------------
 PD  .                 GL:   PERMANENT DATUM
 EPD .F              5210:   ELEVATION PERMANENT DATUM
 LMF .                 KB:   LOG MEASURED FROM
 DAPD.F                10:   FEET ABOVE PERMANENT DATUM
 DMF .                 KB:   DRILLING MEASURED FROM
 EKB .F              5220:   KELLING BUSHING
 EGL .F              5210:   GROUND LEVEL
 DATE.        05-JUN-1980:   RUN DATE
 RUN .                  1:   RUN NUMBER
 DD  .F              2358:   DEPTH DRILLER
 DL  .F              2322:   DEPTH LOGGER
 BLI .F              2320:   BOTTOM LOG INTERVAL
 TLI .F               900:   TOP LOG INTERVAL
 CS  .IN                7:   CASING SIZE
 BS  .IN             6.25:   BIT SIZE
 BSD .F              2358:   BIT SIZE AT DEPTH
 DFT .        AIR DRILLED:   DRILLING FLUID TYPE
 MRT .F               107:   MAXIMUM RECORDED TEMPERATURE
 ENGI.               REIN:   RECORDING ENGINEER
 WITN.              AMEND:   WITNESSED BY
 CLNT.            A2DTECH:   CLIENT CODE
 ORIG.           5" PRINT:   ORIGIN OF DATA
 UWI .       490251064900:   UNIQUE WELL ID
 DICO. A2D Technologies, Inc.:   DIGITIZING COMPANY
~OTHER INFORMATION
~A    DEPT      GRD      CALD       RHOB       DPHI        ILD       CORR   
# ...
 2244.0000   101.0046     7.0246     2.4598     0.0554  -999.2500     0.1170
 2244.5000   101.4418     7.0531     2.4771     0.0464  -999.2500     0.1230
 2245.0000   101.2819     7.0596     2.4954     0.0398  -999.2500     0.1260
 2245.5000    98.8853     7.0810     2.4815     0.0411  -999.2500     0.1214
 2246.0000    98.1305     7.0951     2.4792     0.0440  -999.2500     0.1168
 2246.5000    97.8235     7.1240     2.4874     0.0398  -999.2500     0.1137
 2247.0000    97.8149     7.1230     2.4919     0.0368  -999.2500     0.1136
 2247.5000    97.8044     7.1221     2.4874     0.0396  -999.2500     0.1136
 2248.0000    97.9452     7.1364     2.4821     0.0436  -999.2500     0.1135
 2248.5000    98.0880     7.1353     2.4776     0.0471  -999.2500     0.1074
 2249.0000    98.0774     7.1343     2.4640     0.0519  -999.2500     0.1013
 2249.5000    98.0689     7.1334     2.4432     0.0730  -999.2500     0.0846
 2250.0000    98.3706     7.1326     2.4069     0.0862  -999.2500     0.0604
 2250.5000    98.4997     7.1466     2.4159     0.0865  -999.2500     0.0558
 2251.0000    98.6383     7.1756     2.4249     0.0802  -999.2500     0.0618
 2251.5000    98.6298     7.1745     2.4324     0.0709  -999.2500     0.0678
 2252.0000    98.7705     7.1886     2.4458     0.0721  -999.2500     0.0647
 2252.5000    98.6107     7.1856     2.4375     0.0751  -999.2500     0.0586
 2253.0000    98.0051     7.1815     2.4330     0.0731  -999.2500     0.0616
 2253.5000    97.1011     7.1773     2.4367     0.0719  -999.2500     0.0842
 2254.0000    97.3894     7.1731     2.4577     0.0575  -999.2500     0.1098
 2254.5000    98.4255     7.1689     2.4740     0.0458  -999.2500     0.1282
 2255.0000    99.0182     7.1648     2.4877     0.0422  -999.2500     0.1399
 2255.5000    99.6023     7.1606     2.5004     0.0374  -999.2500     0.1443
 2256.0000    99.7433     7.1564     2.4861     0.0491  -999.2500     0.1382
 2256.5000   100.1821     7.1522     2.4486     0.0646  -999.2500     0.1276
 2257.0000   100.4936     7.1481     2.4343     0.0731  -999.2500     0.1155
 2257.5000   100.9089     7.1439     2.4242     0.0813  -999.2500     0.1290
 2258.0000   101.4168     7.1397     2.4139     0.0864  -999.2500     0.1335
 2258.5000   102.0857     7.1356     2.3936     0.0924  -999.2500     0.1198
 2259.0000   102.3778     7.1314     2.3838     0.1008  -999.2500     0.1273
 2259.5000   102.6657     7.1272     2.3996     0.0990  -999.2500     0.1439
 2260.0000   102.9652     7.1230     2.4123     0.0933  -999.2500     0.1619
 2260.5000   103.3923     7.1189     2.4261     0.0828  -999.2500     0.1755
 2261.0000   103.5622     7.1162     2.4378     0.0744  -999.2500     0.1922
 2261.5000   103.8250     7.1155     2.3957     0.0817  -999.2500     0.0817
 2262.0000   103.2172     7.1146     2.4152     0.0991  -999.2500     0.0711
 2262.5000   101.7161     7.1140     2.4392     0.0892  -999.2500     0.0937
 2263.0000   101.1104     7.1133     2.4271     0.0786  -999.2500     0.1059
 2263.5000   101.2716     7.1125     2.4453     0.0808  -999.2500     0.1177
 2264.0000   102.2850     7.1117     2.4481     0.0718  -999.2500     0.1252
 2264.5000   102.5771     7.1110     2.4391     0.0733  -999.2500     0.1267
 2265.0000   101.8200     7.1103     2.4255     0.0817  -999.2500     0.1130
 2265.5000   100.7666     7.1095     2.4082     0.0884  -999.2500     0.0918
 2266.0000   100.4595     7.1236     2.4034     0.0932  -999.2500     0.0978
 2266.5000   100.4509     7.1267     2.4144     0.0848  -999.2500     0.1158
 2267.0000   101.0371     7.1371     2.4314     0.0830  -999.2500     0.1369
 2267.5000   101.6255     7.1514     2.4449     0.0725  -999.2500     0.1504
 2268.0000   102.2160     7.1505     2.4554     0.0641  -999.2500     0.1549
 2268.5000   102.5059     7.1498     2.4418     0.0545  -999.2500     0.1564
 2269.0000   102.4955     7.1489     2.4621     0.0668  -999.2500     0.1503
 2269.5000   102.4865     7.1483     2.4748     0.0602  -999.2500     0.1442
 2270.0000   101.5229     7.1475     2.4507     0.0620  -999.2500     0.1456
 2270.5000   100.2283     7.1467     2.4432     0.0657  -999.2500     0.1531
 2271.0000   100.0726     7.1460     2.4665     0.0573  -999.2500     0.1440
 2271.5000   101.4051     7.1453     2.4454     0.0675  -999.2500     0.1302
 2272.0000   102.4412     7.1446     2.4596     0.0588  -999.2500     0.1182
 2272.5000   103.0299     7.1438     2.4445     0.0684  -999.2500     0.1121
 2273.0000   103.1703     7.1430     2.4333     0.0684  -999.2500     0.1075
 2273.5000   102.8610     7.1423     2.4280     0.0747  -999.2500     0.1014
 2274.0000   102.1061     7.1415     2.4235     0.0799  -999.2500     0.0923
 2274.5000   100.9034     7.1407     2.4220     0.0820  -999.2500     0.0877
 2275.0000    99.7008     7.1401     2.4204     0.0853  -999.2500     0.0861
 2275.5000    99.8414     7.1393     2.3994     0.0952  -999.2500     0.0830
 2276.0000   100.4259     7.1385     2.3978     0.0940  -999.2500     0.0920
 2276.5000   101.2419     7.1379     2.4143     0.0880  -999.2500     0.1131
 2277.0000   102.3507     7.1371     2.4113     0.0853  -999.2500     0.1256
 2277.5000   103.2376     7.1363     2.4270     0.0832  -999.2500     0.1372
 2278.0000   102.9305     7.1356     2.4037     0.0935  -999.2500     0.1069
 2278.5000   101.1308     7.1348     2.3842     0.1128  -999.2500     0.0827
 2279.0000   101.8684     7.1341     2.3717     0.1139  -999.2500     0.0886
 2279.5000   102.9254     7.1333     2.3894     0.1121  -999.2500     0.1007
 2280.0000   104.2371     7.1326     2.4164     0.1025  -999.2500     0.1195
 2280.5000   104.3799     7.1349     2.4426     0.0725  -999.2500     0.1534
 2281.0000   104.0706     7.1461     2.4381     0.0688  -999.2500     0.1579
 2281.5000   103.1664     7.1453     2.4561     0.0707  -999.2500     0.1427
 2282.0000   101.6653     7.1446     2.4798     0.0470  -999.2500     0.1668
 2282.5000   102.2537     7.1438     2.4875     0.0389  -999.2500     0.1607
 2283.0000   102.2448     7.1430     2.4515     0.0645  -999.2500     0.1301
 2283.5000   101.4880     7.1422     2.4695     0.0561  -999.2500     0.1183
 2284.0000   100.4346     7.1416     2.4687     0.0550  -999.2500     0.1152
 2284.5000    99.6797     7.1408     2.4566     0.0606  -999.2500     0.1061
 2285.0000    98.6263     7.1401     2.4617     0.0594  -999.2500     0.0970
 2285.5000    97.5729     7.1393     2.4836     0.0498  -999.2500     0.1135
 2286.0000    96.6505     7.1386     2.4798     0.0444  -999.2500     0.1319
 2286.5000    96.7178     7.1378     2.4655     0.0483  -999.2500     0.1436
 2287.0000    97.9926     7.1370     2.4512     0.0579  -999.2500     0.1360
 2287.5000    98.8795     7.1364     2.4414     0.0646  -999.2500     0.1359
 2288.0000    99.1694     7.1356     2.4620     0.0601  -999.2500     0.1419
 2288.5000    99.0115     7.1349     2.4804     0.0445  -999.2500     0.1600
 2289.0000    98.7044     7.1341     2.4901     0.0403  -999.2500     0.1598
 2289.5000    98.0816     7.1332     2.4886     0.0394  -999.2500     0.1417
 2290.0000    96.8939     7.1326     2.4751     0.0439  -999.2500     0.1236
 2290.5000    95.9898     7.1318     2.4856     0.0418  -999.2500     0.1280
 2291.0000    95.5334     7.1311     2.4960     0.0371  -999.2500     0.1355
 2291.5000    95.8233     7.1304     2.4660     0.0490  -999.2500     0.1143
 2292.0000    96.7102     7.1297     2.4554     0.0560  -999.2500     0.0975
 2292.5000    97.3036     7.1289     2.4494     0.0584  -999.2500     0.0915
 2293.0000    97.9005     7.1280     2.4674     0.0563  -999.2500     0.0930
 2293.5000    98.3240     7.1274     2.4899     0.0506  -999.2500     0.1050
 2294.0000    98.4667     7.1266     2.5125     0.0340  -999.2500     0.1276
 2294.5000    98.6074     7.1259     2.5003     0.0368  -999.2500     0.1502
 2295.0000    98.4473     7.1252     2.4733     0.0350  -999.2500     0.1272
 2295.5000    98.4387     7.1244     2.4552     0.0573  -999.2500     0.0851
