~VERSION INFORMATION
 VERS.                2.0:   CWLS LOG ASCII STANDARD - VERSION 2.0
 WRAP.                 NO:   ONE LINE PER DEPTH STEP
~WELL INFORMATION
#MNEM.UNIT      DATA TYPE    INFORMATION
#----------   ------------   ------------------------------
 STRT.F            2.0000:   START DEPTH
 STOP.F          595.0000:   STOP DEPTH
 STEP.F            0.5000:   STEP LENGTH
 NULL.          -999.2500:   NO VALUE
 COMP.       F D SERV INC:   COMPANY
 WELL.    73-5 SX-3 #73-3:   WELL
 FLD .             TEAPOT:   FIELD
 LOC .       S3 T38N R78W:   LOCATION
 CNTY.            NATRONA:   COUNTY
 STAT.            WYOMING:   STATE
 CTRY. UNITED STATES OF AMERICA:   COUNTRY
 SRVC.     Atlas Wireline:   SERVICE COMPANY
 DATE.        01-MAY-1992:   LOGDATE
 API .       490252252200:   API NUMBER
~CURVE INFORMATION
#MNEM.UNIT       API CODE    CURVE DESCRIPTION
#----------   ------------   ------------------------------
 DEPT.F                  :   
 CALD.IN     45 280 60 00:   CALIPER FROM DENSITY
 CORR.G/C3   45 356 01 00:   DENSITY CORRECTION
 DEN .G/C3   45 350 01 00:   COMPENSATED BULK DENSTIY
 GRD .GAPI   45 310 01 00:   GAMMA RAY FROM DENSITY LOG
 RILD.OHMM   07 120 46 00:   INDUCTION LOG DEEP RESISTIVITY
 RILM.OHMM   07 120 44 00:   INDUCTION LOG MEDIUM RESISTIVITY
 PORD.DEC    45 890 12 00:   POROSITY DENSITY SANDSTONE
~PARAMETER INFORMATION
#MNEM.UNIT          VALUE    DESCRIPTION
#----------   ------------   ------------------------------
 PD  .                 GL:   PERMANENT DATUM
 EPD .F              5147:   ELEVATION PERMANENT DATUM
 LMF .                 KB:   LOG MEASURED FROM
 DAPD.F                 5:   FEET ABOVE PERMANENT DATUM
 DMF .                 KB:   DRILLING MEASURED FROM
 EKB .F              5152:   KELLING BUSHING
 EGL .F              5147:   GROUND LEVEL
 DATE.        01-MAY-1992:   RUN DATE
 RUN .                  1:   RUN NUMBER
 DD  .F               600:   DEPTH DRILLER
 DL  .F               603:   DEPTH LOGGER
 BLI .F               601:   BOTTOM LOG INTERVAL
 TLI .F                 2:   TOP LOG INTERVAL
 CS  .IN            8.625:   CASING SIZE
 CBD .F                46:   CASING BOTTOM DRILLER
 CBL .F                53:   CASING BOTTOM LOGGER
 BS  .IN            7.875:   BIT SIZE
 BSD .F               600:   BIT SIZE AT DEPTH
 DFT .                AIR:   DRILLING FLUID TYPE
 TCS .HRS               1:   TIME CURCULATED STOPPED
 LUN .            HL-6274:   LOGGING UNIT NUMBER
 LUL .             CASPER:   LOGGING UNIT LOCATION
 ENGI.             ZIEGER:   RECORDING ENGINEER
 WITN.             STRONG:   WITNESSED BY
 CLNT.            A2DTECH:   CLIENT CODE
 ORIG.           5" PRINT:   ORIGIN OF DATA
 UWI .       490252252200:   UNIQUE WELL ID
 DICO. A2D Technologies, Inc.:   DIGITIZING COMPANY
~OTHER INFORMATION
~A    DEPT    CALD       CORR        DEN         GRD      RILD       RILM       PORD   
# ...
  138.5000     8.2302    -0.0092     2.5124   156.3910     8.4192     8.6161     0.0813
  139.0000     8.2156    -0.0124     2.5260   157.5940     8.4782     8.7389     0.0789
  139.5000     8.2012    -0.0185     2.5260   157.8947     8.5973     8.8020     0.0770
  140.0000     8.2019    -0.0216     2.5260   155.4887     8.6615     8.9275     0.0761
  140.5000     8.1873    -0.0157     2.5258   153.0827     8.8477     9.0548     0.0758
  141.0000     8.1880    -0.0097     2.5214   151.5789     9.0277     9.1840     0.0755
  141.5000     8.1886    -0.0101     2.5184   149.7744     9.1545     9.3802     0.0758
  142.0000     8.2043    -0.0159     2.5169   147.9699     9.2832     9.5158     0.0804
  142.5000     8.2049    -0.0191     2.5244   145.5639     9.4136     9.7219     0.0810
  143.0000     8.2206    -0.0192     2.5380   145.5639     9.6128     9.9250     0.0749
  143.5000     8.2362    -0.0162     2.5440   146.7669     9.7478    10.0768     0.0692
  144.0000     8.2368    -0.0133     2.5470   147.3684     9.9540    10.2234     0.0665
  144.5000     8.2374    -0.0164     2.5379   147.9699     9.9540    10.2842     0.0662
  145.0000     8.2380    -0.0195     2.5273   149.1729     9.9540    10.2863     0.0689
  145.5000     8.2386    -0.0196     2.5198   149.1729     9.9540    10.2884     0.0731
  146.0000     8.2240    -0.0137     2.5137   148.5513     9.9540    10.2906     0.0764
  146.5000     8.2248    -0.0107     2.5107   147.3684     9.9540    10.2206     0.0804
  147.0000     8.2102    -0.0078     2.5076   146.6068     9.9540    10.2232     0.0846
  147.5000     8.1957    -0.0079     2.5076   140.3507     9.9540    10.0836     0.0870
  148.0000     8.1812    -0.0141     2.5106   144.0602     9.8161    10.0857     0.0870
  148.5000     8.1668    -0.0201     2.5136   149.1729     9.7478    10.0172     0.0844
  149.0000     8.1675    -0.0172     2.5197   151.5789     9.6801     9.9496     0.0801
  149.5000     8.1681    -0.0143     2.5257   150.9774     9.5459     9.8830     0.0782
  150.0000     8.1696    -0.0147     2.5272   148.8722     9.4795     9.6894     0.0773
  150.5000     8.1755    -0.0187     2.5241   150.6857     9.3484     9.2839     0.0777
  151.0000     8.1814    -0.0226     2.5239   149.7603     9.2153     9.2198     0.0774
  151.5000     8.1837    -0.0265     2.5226   149.1996     9.0946     9.2852     0.0775
  152.0000     8.1988    -0.0265     2.5210   151.0153     9.0960     9.2858     0.0789
  152.5000     8.1988    -0.0265     2.5195   154.0317     9.1612     9.4170     0.0795
  153.0000     8.1988    -0.0265     2.5179   155.5444     9.2912     9.6168     0.0801
  153.5000     8.1988    -0.0234     2.5149   150.7413     9.4231     9.7527     0.0801
  154.0000     8.1837    -0.0144     2.5194   144.4344     9.6237     9.8904     0.0795
  154.5000     8.1687    -0.0083     2.5269   142.0372     9.7603    10.1003     0.0765
  155.0000     8.1687    -0.0144     2.5329   143.8507     9.8300    10.3147     0.0729
  155.5000     8.1837    -0.0204     2.5359   149.2731     9.8998    10.1017     0.0705
  156.0000     8.1837    -0.0206     2.5344   156.5000     9.7643     9.8931     0.0693
  156.5000     8.1837    -0.0113     2.5359   160.1180     9.6978     9.7567     0.0696
  157.0000     8.1837    -0.0115     2.5358   160.7284     9.6313     9.6221     0.0693
  157.5000     8.1837    -0.0204     2.5373   157.1283     9.5657     9.4895     0.0678
  158.0000     8.1837    -0.0204     2.5388   154.4301     9.5005     9.4241     0.0666
  158.5000     8.1837    -0.0144     2.5388   154.1383     9.3053     9.2942     0.0663
  159.0000     8.1837    -0.0053     2.5383   155.0497     9.1138     9.1024     0.0676
  159.5000     8.1837    -0.0023     2.5251   156.5663     8.9262     8.9145     0.0732
  160.0000     8.1837    -0.0083     2.5115   158.1351     8.7425     8.7303     0.0811
  160.5000     8.1837    -0.0144     2.5024   159.8885     8.7437     8.6099     0.0887
  161.0000     8.1988    -0.0144     2.5008   155.8316     8.8062     8.6709     0.0899
  161.5000     8.1988    -0.0144     2.5023   153.2897     8.7461     8.6715     0.0884
  162.0000     8.1988    -0.0144     2.5068   157.2106     8.6793     8.4924     0.0869
  162.5000     8.1988    -0.0144     2.5083   160.2271     8.3802     8.3171     0.0857
  163.0000     8.1837    -0.0113     2.5083   161.4389     8.0473     8.0887     0.0854
  163.5000     8.1837    -0.0144     2.5067   158.4404     7.8816     7.8119     0.0863
  164.0000     8.1837    -0.0174     2.4992   162.0583     7.7194     7.5974     0.0891
  164.5000     8.1837    -0.0204     2.4931   167.7815     7.5080     7.4406     0.0915
  165.0000     8.1837    -0.0234     2.4900   172.9031     7.4050     7.2869     0.0930
  165.5000     8.1837    -0.0234     2.4915   173.2106     7.3034     7.1865     0.0936
  166.0000     8.1837    -0.0234     2.4930   169.9134     7.2536     7.1870     0.0936
  166.5000     8.1837    -0.0204     2.4960   169.6194     7.2039     7.1375     0.0940
  167.0000     8.1837    -0.0174     2.4962   169.9312     7.2051     7.1879     0.0937
  167.5000     8.1837    -0.0144     2.4989   167.8349     7.1558     7.1886     0.0923
  168.0000     8.1687    -0.0174     2.5019   163.9340     7.2071     7.2901     0.0907
  168.5000     8.1687    -0.0174     2.5049   161.2361     7.3094     7.3930     0.0886
  169.0000     8.1687    -0.0204     2.5049   162.1474     7.4651     7.4974     0.0871
  169.5000     8.1536    -0.0204     2.5064   161.4583     7.6240     7.7102     0.0886
  170.0000     8.1687    -0.0204     2.5079   157.5341     7.7864     7.9290     0.0904
  170.5000     8.1536    -0.0204     2.5048   153.6412     7.9522     8.0972     0.0895
  171.0000     8.1536    -0.0174     2.5017   154.0648     8.0090     8.2116     0.0901
  171.5000     8.1536    -0.0174     2.5002   155.8783     8.0661     8.2122     0.0916
  172.0000     8.1536    -0.0144     2.4987   156.1857     8.0673     8.1555     0.0922
  172.5000     8.1386    -0.0144     2.4984   152.8885     8.0123     8.0430     0.0904
  173.0000     8.1386    -0.0144     2.5016   150.4915     7.9577     7.9876     0.0895
  173.5000     8.1235    -0.0144     2.5031   153.8086     7.9034     7.9328     0.0905
  174.0000     8.1235    -0.0144     2.4969   160.4341     7.8495     7.8782     0.0917
  174.5000     8.1235    -0.0113     2.4925   162.8490     7.7960     7.8239     0.0956
  175.0000     8.1235    -0.0113     2.4894   157.4444     7.7429     7.8245     0.0971
  175.5000     8.1235    -0.0110     2.4909   156.5488     7.7442     7.8798     0.0940
  176.0000     8.1386    -0.0144     2.4939   158.0637     7.7995     7.8803     0.0910
  176.5000     8.1235    -0.0204     2.4969   160.7793     7.8552     7.9361     0.0895
  177.0000     8.1235    -0.0204     2.5014   159.8860     7.9667     7.9923     0.0896
  177.5000     8.1235    -0.0204     2.5029   158.0904     8.0236     8.0488     0.0893
  178.0000     8.1235    -0.0204     2.5044   157.4978     8.0247     8.0494     0.0884
  178.5000     8.1084    -0.0204     2.5028   162.6554     8.0258     8.0499     0.0881
  179.0000     8.1084    -0.0234     2.4998   169.8826     7.9708     8.0505     0.0893
  179.5000     8.1084    -0.0204     2.4967   178.6656     7.9168     8.0510     0.0927
  180.0000     8.1084    -0.0144     2.4906   182.1973     7.9179     7.9400     0.0969
  180.5000     8.1084    -0.0083     2.4800   183.4092     7.8639     7.9406     0.1027
  181.0000     8.1084    -0.0083     2.4724   183.4181     7.8650     7.8858     0.1066
  181.5000     8.1235    -0.0144     2.4664   183.4270     7.9212     7.8865     0.1081
  182.0000     8.1235    -0.0204     2.4648   180.4284     8.0336     7.8320     0.1075
  182.5000     8.1235    -0.0204     2.4741   172.9185     7.8682     7.8327     0.1051
  183.0000     8.1235    -0.0204     2.4769   160.8973     7.8146     7.8881     0.1048
  183.5000     8.1235    -0.0204     2.4723   159.0995     7.8157     7.8886     0.1054
