~VERSION INFORMATION
 VERS.                2.0:   CWLS LOG ASCII STANDARD - VERSION 2.0
 WRAP.                 NO:   ONE LINE PER DEPTH STEP
~WELL INFORMATION
#MNEM.UNIT      DATA TYPE    INFORMATION
#----------   ------------   ------------------------------
 STRT.F           86.0000:   START DEPTH
 STOP.F         1134.0000:   STOP DEPTH
 STEP.F            0.5000:   STEP LENGTH
 NULL.          -999.2500:   NO VALUE
 COMP.          U.S. NAVY:   COMPANY
 WELL. RES 3 TEAPOT DOM #64-S-2:   WELL
 FLD .             TEAPOT:   FIELD
 LOC .       S2 T38N R78W:   LOCATION
 CNTY.            NATRONA:   COUNTY
 STAT.            WYOMING:   STATE
 CTRY. UNITED STATES OF AMERICA:   COUNTRY
 SRVC. Schlumberger Well Surveying Corp:   SERVICE COMPANY
 DATE.        28-JUL-1964:   LOGDATE
 API .       490250644400:   API NUMBER
~CURVE INFORMATION
#MNEM.UNIT       API CODE    CURVE DESCRIPTION
#----------   ------------   ------------------------------
 DEPT.F                  :   
 ASN .OHMM   05 041 16 00:   AMPLIFIED SHORT NORMAL 16"
 CILD.MMHO   05 110 46 00:   CONDUCTIVITY INDUCTION LOG DEEP
 ILD .OHMM   05 120 46 00:   INDUCTION LOG DEEP
 SPR .MV     05 010 01 00:   SPONTANEOUS POTENTIAL FROM RES.
 DT  .US/F   60 520 33 00:   INTERVAL TRANSIT TIME
 GR  .GAPI   30 310 01 00:   GAMMA RAY
~PARAMETER INFORMATION
#MNEM.UNIT          VALUE    DESCRIPTION
#----------   ------------   ------------------------------
 PD  .                 GL:   PERMANENT DATUM
 EPD .F              5204:   ELEVATION PERMANENT DATUM
 LMF .                 KB:   LOG MEASURED FROM
 DAPD.F                 5:   FEET ABOVE PERMANENT DATUM
 DMF .                 KB:   DRILLING MEASURED FROM
 EKB .F              5209:   KELLING BUSHING
 EGL .F              5204:   GROUND LEVEL
 DATE.        28-JUL-1964:   RUN DATE
 RUN .                  1:   RUN NUMBER
 DD  .F              1135:   DEPTH DRILLER
 DL  .F              1135:   DEPTH LOGGER
 BLI .F              1134:   BOTTOM LOG INTERVAL
 TLI .F                86:   TOP LOG INTERVAL
 CS  .IN            10.75:   CASING SIZE
 CBD .F                11:   CASING BOTTOM DRILLER
 BS  .IN            7.875:   BIT SIZE
 BSD .F              1135:   BIT SIZE AT DEPTH
 DFT .            GEL-OIL:   DRILLING FLUID TYPE
 DFD .                9.5:   DRILLING FLUID DENSITY
 DFV .                 49:   DRILLING FLUID VISCOSITY
 DFL .                 10:   DRILLING FLUID LOSS
 MSS .           FLOWLINE:   MUD SAMPLE SOURCE
 RMS .OHMM           2.35:   RESISTIVITY MUD SAMPLE
 MST .F                89:   MUD SAMPLE TEMPERATURE
 RMF .OHMM           1.71:   RESISTIVITY MUD FILTRATE SAMPLE
 MFST.F                89:   MUD FILTRATE SAMPLE TEMPERATURE
 RMC .OHMM           3.01:   RESISTIVITY MUD CAKE
 MCST.F                89:   MUD CAKE SAMPLE TEMPERATURE
 MFSS.                 FP:   MUD FILTRATE SAMPLE SOURCE
 MCSS.                 FP:   MUD CAKE SAMPLE SOURCE
 TCS .HRS               1:   TIME CURCULATED STOPPED
 LUN .               3527:   LOGGING UNIT NUMBER
 LUL .               CSPR:   LOGGING UNIT LOCATION
 ENGI.             KNOBEL:   RECORDING ENGINEER
 WITN.          JORGENSEN:   WITNESSED BY
 CLNT.            A2DTECH:   CLIENT CODE
 ORIG.        2" 5" PRINT:   ORIGIN OF DATA
 UWI .       490250644400:   UNIQUE WELL ID
 DICO. A2D Technologies, Inc.:   DIGITIZING COMPANY
~OTHER INFORMATION
~A   DEPT        ASN      CILD        ILD       SPR         DT         GR   
# ...
  606.0000    10.8298    94.1265    10.7337   -29.9250    93.4252    41.2353
  606.5000    10.8300    95.1531    10.8059   -30.1699    94.0279    42.5593
  607.0000    10.8302    95.6375    10.9044   -30.2744    94.7811    35.2111
  607.5000    10.7552    96.8750    10.9553   -30.4235    95.4666    32.8109
  608.0000    10.7555    97.8916    11.0000   -30.6047    96.3096    36.8574
  608.5000    10.6805    97.8916    11.1048   -30.7219    96.9655    40.7540
  609.0000    10.6808    97.8916    11.1794   -30.7946    97.4177    40.3027
  609.5000    10.7562    96.9704    11.2185   -30.8704    97.4184    37.9024
  610.0000    10.8316    95.6325    11.2663   -30.8695    97.5697    39.1004
  610.5000    10.9125    93.7424    11.3285   -30.8688    97.7961    44.9460
  611.0000    11.1328    91.6366    11.4032   -30.8681    97.9474    46.1470
  611.5000    11.3067    89.6084    11.4847   -30.8672    97.7976    45.5322
  612.0000    11.5092    87.7711    11.6276   -30.8666    97.1091    44.9175
  612.5000    11.6723    86.4710    11.7305   -30.8658    95.7173    45.3895
  613.0000    11.9021    84.3373    11.8521   -30.8651    94.4892    48.3866
  613.5000    12.0362    83.3057    11.9012   -30.8643    93.8880    50.0346
  614.0000    12.2239    82.8313    12.0240   -30.8635    93.5125    48.8334
  614.5000    12.3471    82.8313    12.1513   -30.9395    93.2873    48.2322
  615.0000    12.4880    81.9451    12.3874   -31.0345    93.6645    49.4302
  615.5000    12.5634    81.4420    12.3874   -31.3110    94.1167    49.8788
  616.0000    12.6418    82.1985    12.4625   -31.5242    93.8164    47.6281
  616.5000    12.7143    81.4496    12.5375   -31.9288    93.5914    50.6252
  617.0000    12.7896    81.4533    12.6446   -32.5081    94.0438    50.6417
  617.5000    12.7899    80.6539    12.7678   -32.7598    94.6465    51.6717
  618.0000    12.7901    78.4495    12.9129   -33.2564    95.3244    50.7703
  618.5000    12.8071    77.1773    13.0140   -33.8908    96.6043    53.1677
  619.0000    12.9409    74.6913    13.1381   -34.7581    97.0563    55.7153
  619.5000    13.1657    69.7956    13.3543   -35.8028    95.6276    50.9159
  620.0000    13.8386    64.6586    13.6486   -35.4123    94.1987    47.6160
  620.5000    14.8965    58.8895    14.0390   -34.7004    93.0707    44.0164
  621.0000    15.8626    54.2345    14.7768   -34.1513    92.2227    37.8680
  621.5000    17.0250    48.4050    16.0830   -33.3493    90.3636    36.2173
  622.0000    18.4310    40.8287    20.8709   -32.5987    83.6675    35.1664
  622.5000    21.3097    36.0130    24.2191   -31.3005    78.2507    33.8156
  623.0000    28.7322    34.0585    25.1662   -30.5367    75.8436    37.2624
  623.5000    31.5745    35.5691    25.3754   -29.9495    70.7277    35.3116
  624.0000    32.6765    38.2431    24.9469   -29.8951    65.9880    28.5635
  624.5000    32.9434    42.4133    23.7608   -30.2652    66.2897    30.8109
  625.0000    30.5376    47.1260    21.7718   -31.4467    69.9774    39.9548
  625.5000    26.3230    52.0896    19.6537   -32.6784    74.2285    44.6011
  626.0000    21.8915    56.6718    18.0180   -34.1970    80.8143    45.9489
  626.5000    19.0270    60.7016    16.4825   -36.6918    88.8662    47.8965
  627.0000    17.9645    64.7213    15.2713   -40.1214    94.2093    50.2938
  627.5000    17.3809    67.9785    14.6396   -40.6047    97.5960    50.4572
  628.0000    17.0592    70.2509    14.2633   -40.7376    99.1016    48.3239
  628.5000    16.7046    72.5038    14.1141   -40.5637    99.5538    47.1409
  629.0000    16.5098    72.5080    14.1141   -39.6586    99.1783    46.8393
  629.5000    16.4043    71.8686    14.2212   -38.0897    98.7276    47.5875
  630.0000    16.3293    69.4026    14.3493   -38.1709    99.2751    51.4840
  630.5000    16.2165    66.4954    14.5646   -39.2346    99.9332    52.0826
  631.0000    16.0080    64.9925    14.6396   -40.2658   100.3854    49.2322
  631.5000    15.8037    64.9963    14.6396   -40.8824    99.4832    49.8305
  632.0000    15.5603    66.6968    14.5926   -40.2818   100.3868    49.9789
  632.5000    15.2741    71.2789    14.4494   -39.6839   100.6131    57.9235
  633.0000    14.9021    76.3029    14.1141   -39.1919    99.4101    59.1305
  633.5000    14.3054    82.1999    13.4515   -38.4804    99.2603    58.5202
  634.0000    13.3236    89.8146    12.4584   -37.8471    99.4146    64.7198
  634.5000    12.4835    97.3987    11.2613   -36.9460    99.7364    68.4120
  635.0000    11.5696   106.6396    10.4504   -35.3297   100.6171    70.3596
  635.5000    10.3168   117.1952     9.2773   -31.8537   101.3703    72.4574
  636.0000    10.2119   133.5548     8.3333   -29.4812   101.4463    68.7075
  636.5000    10.0981   147.1827     7.4084   -27.2930   101.1460    67.6565
  637.0000     9.2489   154.7463     6.7468   -26.2249   100.8458    68.8548
  637.5000     8.3929   160.4229     6.1812   -25.4310   100.9970    66.7544
  638.0000     8.0943   166.3506     5.8849   -25.0535   101.4492    67.8261
  638.5000     7.8023   171.9768     5.7808   -24.8071   102.0654    67.4798
  639.0000     7.4826   175.8759     5.7057   -24.6791   103.1322    74.4257
  639.5000     7.2347   178.1790     5.7057   -24.6784   103.8594    76.9431
  640.0000     6.9353   178.7654     5.7808   -24.8276   104.3116    68.3955
  640.5000     6.6736   176.8714     5.8188   -24.8267   103.7856    72.8918
  641.0000     6.6895   174.7866     5.8669   -24.8261   103.1092    73.0406
  641.5000     6.7857   171.9997     5.9309   -24.8253   102.4327    72.7389
  642.0000     7.0156   170.1757     5.9630   -24.8246   101.8315    69.7390
  642.5000     7.2796   169.6975     6.0060   -24.8238   101.3807    67.7885
  643.0000     7.4029   168.9985     6.0811   -24.8230   101.1557    66.5876
  643.5000     7.3345   169.0023     6.0811   -24.9723   101.5329    65.9864
  644.0000     7.0685   169.7591     6.1562   -24.9715   102.4365    66.2848
  644.5000     6.8924   170.5158     6.2032   -24.9707   102.6630    67.7901
  645.0000     6.8473   171.2726     6.2312   -24.9700   103.2657    69.2804
  645.5000     6.8476   172.0296     6.2312   -24.9560   104.5456    69.4289
  646.0000     6.8478   172.0331     6.2312   -24.8185   103.7186    66.4285
  646.5000     6.8876   171.8964     6.2312   -24.8178   103.1926    65.2280
  647.0000     7.0438   170.5350     6.2312   -24.8171   102.8924    71.3731
  647.5000     7.2598   169.0826     6.2312   -24.8163   102.7351    70.9219
  648.0000     7.4388   165.7032     6.1562   -24.8156   102.1416    63.4242
  648.5000     7.4806   160.7574     6.1562   -24.8148   100.7879    68.3702
  649.0000     7.4748   159.0837     6.0811   -24.8141   100.0360    72.1439
  649.5000     7.4350   162.3505     6.0791   -24.8133   100.5637    69.8665
  650.0000     7.3659   167.2942     5.9560   -24.8125   101.0159    67.3163
  650.5000     7.2527   172.0069     5.9079   -24.6619   101.3928    65.4753
  651.0000     7.1508   175.0829     5.8559   -24.6612   101.9203    63.8681
  651.5000     7.0475   176.2814     5.8118   -24.6603   102.4477    63.3942
  652.0000     6.9247   176.5959     5.7808   -24.6597   101.5455    66.8666
  652.5000     6.8057   175.0944     5.7808   -24.6589   102.2236    65.3673
  653.0000     6.7758   173.2103     5.7808   -24.6582   102.8263    67.9160
  653.5000     6.7779   171.8689     5.7808   -24.6574   103.2033    69.1154
  654.0000     6.8214   169.8348     5.7808   -24.5067   102.8278    71.0645
  654.5000     6.9115   168.0108     5.8559   -24.5060   101.3236    66.7166
  655.0000     7.0343   165.9764     5.8559   -24.5052   100.5795    69.2654
  655.5000     7.1431   163.8222     5.9309   -24.5044    98.0979    68.8156
  656.0000     7.2802   162.5501     6.0060   -24.5037    97.1964    75.2624
  656.5000     7.4992   160.8170     6.0811   -24.5030    96.8969    73.9130
  657.0000     7.4281   158.3708     6.2032   -24.5021    97.9151    70.3148
  657.5000     7.3545   156.6579     6.3263   -24.5015    99.1911    68.3658
