~VERSION INFORMATION
 VERS.                2.0:   CWLS LOG ASCII STANDARD - VERSION 2.0
 WRAP.                 NO:   ONE LINE PER DEPTH STEP
~WELL INFORMATION
#MNEM.UNIT      DATA TYPE    INFORMATION
#----------   ------------   ------------------------------
 STRT.F           30.0000:   START DEPTH
 STOP.F          526.0000:   STOP DEPTH
 STEP.F            0.5000:   STEP LENGTH
 NULL.          -999.2500:   NO VALUE
 COMP. FENIX & SCISSON INC:   COMPANY
 WELL.       NPR #37-SX-3:   WELL
 FLD .             TEAPOT:   FIELD
 LOC .       S3 T38N R78W:   LOCATION
 CNTY.            NATRONA:   COUNTY
 STAT.            WYOMING:   STATE
 CTRY. UNITED STATES OF AMERICA:   COUNTRY
 SRVC.              Welex:   SERVICE COMPANY
 DATE.        10-MAR-1977:   LOGDATE
 API .       490251028600:   API NUMBER
~CURVE INFORMATION
#MNEM.UNIT       API CODE    CURVE DESCRIPTION
#----------   ------------   ------------------------------
 DEPT.F                  :   
 ILD .OHMM   07 120 46 00:   INDUCTION LOG DEEP
 ILM .OHMM   07 120 44 00:   INDUCTION LOG MEDIUM
 SPR .MV     07 010 01 00:   SPONTANEOUS POTENTIAL
 SGRD.OHMM   07 220 05 00:   SHALLOW RESISTIVITY
 GRD .GAPI   45 310 01 00:   GAMMA RAY FROM DENSITY LOG
 CALD.IN     45 280 60 00:   CALIPER
 CORR.G/C3   45 356 01 00:   DENSITY CORRECTION
 RHOB.G/C3   45 350 01 00:   BULK DENSITY
 DPOR.DEC    45 890 12 00:   DENSITY POROSITY SANDSTONE
~PARAMETER INFORMATION
#MNEM.UNIT          VALUE    DESCRIPTION
#----------   ------------   ------------------------------
 PD  .                 GL:   PERMANENT DATUM
 EPD .F              5232:   ELEVATION PERMANENT DATUM
 LMF .                 GL:   LOG MEASURED FROM
 DMF .                 GL:   DRILLING MEASURED FROM
 EGL .F              5232:   GROUND LEVEL
 DATE.            3-10-77:   RUN DATE
 RUN .                  1:   RUN NUMBER
 DD  .F               530:   DEPTH DRILLER
 DL  .F               528:   DEPTH LOGGER
 BLI .F               526:   BOTTOM LOG INTERVAL
 TLI .F                35:   TOP LOG INTERVAL
 CS  .IN            8.625:   CASING SIZE
 CBD .F                40:   CASING BOTTOM DRILLER
 CBL .F                42:   CASING BOTTOM LOGGER
 BS  .IN            7.875:   BIT SIZE
 BSD .F               530:   BIT SIZE AT DEPTH
 DFT .            KCL MUD:   DRILLING FLUID TYPE
 DFD .                8.8:   DRILLING FLUID DENSITY
 DFV .                 32:   DRILLING FLUID VISCOSITY
 DFPH.                  8:   DRILLING FLUID PH
 DFL .                7.7:   DRILLING FLUID LOSS
 MSS .            MUD PIT:   MUD SAMPLE SOURCE
 RMS .OHMM            .48:   RESISTIVITY MUD SAMPLE
 MST .F                47:   MUD SAMPLE TEMPERATURE
 RMF .OHMM            .43:   RESISTIVITY MUD FILTRATE SAMPLE
 MFST.F                47:   MUD FILTRATE SAMPLE TEMPERATURE
 RMC .OHMM            .52:   RESISTIVITY MUD CAKE
 MCST.F                47:   MUD CAKE SAMPLE TEMPERATURE
 MFSS.           FANN KIT:   MUD FILTRATE SAMPLE SOURCE
 MCSS.           FANN KIT:   MUD CAKE SAMPLE SOURCE
 RMB .OHMM            .41:   RESISTIVITY MUD AT BHT
 BHT .F                55:   BOTTOM HOLE TEMPERATURE
 TCS .HRS             1.5:   TIME CURCULATED STOPPED
 MRT .F                55:   MAXIMUM RECORDED TEMPERATURE
 LUN .               8611:   LOGGING UNIT NUMBER
 LUL .           GILLETTE:   LOGGING UNIT LOCATION
 ENGI.               DOAK:   RECORDING ENGINEER
 WITN.              BURKE:   WITNESSED BY
 CLNT.            A2DTECH:   CLIENT CODE
 ORIG.       2", 5" PRINT:   ORIGIN OF DATA
 UWI .       490251028600:   UNIQUE WELL ID
 DICO. A2D Technologies, Inc.:   DIGITIZING COMPANY
~OTHER INFORMATION
~A   DEPT      ILD        ILM        SPR       SGRD         GRD        CALD      CORR        RHOB     DPOR   
# ...
  139.5000     7.9353     9.9721   -48.5469    13.1099   127.9427     7.9647     0.0546     2.4723     0.9721
  140.0000     7.9131    10.0626   -48.6236    12.8260   128.7623     7.9652     0.0569     2.4743     0.9744
  140.5000     7.8907    10.1540   -48.7064    12.5756   127.6199     7.9657     0.0592     2.4731     0.9709
  141.0000     7.8676    10.2461   -48.7893    13.0098   125.2918     7.9662     0.0601     2.4699     0.9633
  141.5000     7.9726    10.3391   -48.8698    13.5295   122.9913     7.9667     0.0601     2.4666     0.9598
  142.0000     8.0876    10.4329   -48.7998    13.1677   121.3777     7.9672     0.0601     2.4660     0.9631
  142.5000     8.2042    10.5276   -48.4730    12.7093   123.9294     7.9677     0.0601     2.4694     0.9672
  143.0000     8.3225    10.6232   -48.1500    12.4523   123.5709     7.9682     0.0601     2.4730     0.9747
  143.5000     8.4426    10.8384   -47.8199    13.1675   119.8988     7.9687     0.0594     2.4764     0.9822
  144.0000     8.5643    11.0209   -47.8954    14.0472   116.0324     7.9693     0.0583     2.4787     0.9875
  144.5000     8.6878    11.2058   -48.1402    14.4316   113.6671     7.9697     0.0572     2.4757     0.9817
  145.0000     8.8131    11.3940   -48.0744    14.2372   113.4482     7.9703     0.0562     2.4733     0.9757
  145.5000     8.9399    11.5855   -47.3544    14.0390   113.1836     7.9708     0.0594     2.4793     0.9861
  146.0000     9.0701    11.7802   -46.6343    14.3754   111.8405     7.9713     0.0627     2.4876     1.0014
  146.5000     9.2465    11.9783   -46.7844    15.1103   111.2385     7.9718     0.0659     2.4960     1.0171
  147.0000     9.4555    12.1561   -47.1818    14.9224   115.0720     7.9723     0.0692     2.4994     1.0263
  147.5000     9.6678    12.2815   -47.5836    14.6526   119.7233     7.9728     0.0701     2.5009     1.0330
  148.0000     9.8850    12.4081   -47.8505    14.4316   121.8230     7.9733     0.0702     2.5023     1.0386
  148.5000    10.1071    12.5361   -47.3244    14.8055   120.8166     7.9738     0.0702     2.5035     1.0366
  149.0000    10.3342    12.6654   -46.8078    15.2998   118.3927     7.9743     0.0701     2.5020     1.0318
  149.5000    10.5663    12.7960   -46.2973    15.6762   116.7660     7.9748     0.0701     2.5005     1.0276
  150.0000    10.8037    12.9280   -45.9896    15.6762   119.6396     7.9753     0.0688     2.4990     1.0301
  150.5000    11.0464    13.1101   -46.2692    15.6762   120.2302     7.9758     0.0661     2.4974     1.0304
  151.0000    11.2945    13.6272   -46.5033    16.1703   117.6219     7.9763     0.0634     2.4927     1.0024
  151.5000    11.5483    14.1673   -45.8317    17.4452   115.2790     7.9769     0.0607     2.4785     0.9753
  152.0000    11.8982    14.6981   -45.1641    18.4880   116.1721     7.9774     0.0580     2.4648     0.9475
  152.5000    11.8763    14.4492   -45.4380    16.8761   115.7237     7.9779     0.0566     2.4584     0.9411
  153.0000    11.8431    14.2075   -45.7336    16.1121   114.7443     7.9784     0.0589     2.4622     0.9537
  153.5000    11.8100    13.9726   -45.8536    16.3197   113.7446     7.9789     0.0610     2.4689     0.9663
  154.0000    11.7294    13.7833   -45.2342    16.7191   112.7505     7.9794     0.0631     2.4758     0.9791
  154.5000    11.5709    13.9475   -44.8138    16.4045   112.0491     7.9799     0.0628     2.4753     0.9764
  155.0000    11.4146    14.0895   -45.3039    16.0185   112.3104     7.9804     0.0603     2.4742     0.9726
  155.5000    11.2604    14.2999   -45.7495    15.8038   112.3607     7.9809     0.0583     2.4732     0.9708
  156.0000    11.1082    13.9381   -44.9661    15.7680   110.1420     7.9814     0.0611     2.4722     0.9750
  156.5000    10.9581    13.2521   -44.5551    15.7323   108.9229     7.9819     0.0640     2.4711     0.9763
  157.0000    10.8101    12.6025   -44.7180    15.6967   110.0711     7.9821     0.0641     2.4677     0.9628
  157.5000    10.6638    12.0081   -44.8733    15.5278   110.4028     7.9821     0.0641     2.4639     0.9497
  158.0000    10.5199    11.9095   -45.0265    15.1837   109.9127     7.9821     0.0653     2.4601     0.9433
  158.5000    10.3658    11.7893   -45.0821    14.8473   111.7440     7.9821     0.0670     2.4649     0.9546
  159.0000    10.3916    11.8675   -44.8057    14.5648   113.5823     7.9821     0.0681     2.4706     0.9674
  159.5000    10.4197    11.9767   -44.6177    14.9979   115.0958     7.9821     0.0682     2.4763     0.9802
  160.0000    10.4483    12.0869   -44.4501    15.5328   115.8859     7.9821     0.0704     2.4819     0.9929
  160.5000    10.4769    12.1980   -44.4599    15.1626   114.4117     7.9821     0.0726     2.4876     1.0057
  161.0000    10.5053    12.3103   -44.7463    14.4316   113.2382     7.9821     0.0747     2.4932     1.0184
  161.5000    10.5339    12.4235   -44.9579    14.7009   116.0695     7.9821     0.0763     2.4989     1.0303
  162.0000    10.5581    12.5378   -45.1358    15.2440   119.7960     7.9821     0.0767     2.5046     1.0404
  162.5000    10.3706    12.6531   -45.0520    15.8071   122.6111     7.9821     0.0771     2.5101     1.0507
  163.0000    10.2772    12.7695   -44.9723    16.3911   119.9296     7.9821     0.0775     2.5072     1.0457
  163.5000    10.1847    12.8869   -44.8931    16.7181   116.8839     7.9821     0.0779     2.5033     1.0345
  164.0000    10.0931    13.0426   -44.8131    15.2104   116.0001     7.9821     0.0771     2.4994     1.0245
  164.5000    10.0022    12.5822   -44.7475    14.5648   119.0959     7.9821     0.0749     2.4955     1.0213
  165.0000     9.9122    12.0913   -44.8520    14.9721   116.7270     7.9821     0.0727     2.4936     1.0141
  165.5000     9.8230    11.6175   -44.9557    13.7383   114.1692     7.9821     0.0706     2.4920     1.0051
  166.0000     9.7346    11.3650   -45.0585    13.0347   111.6144     7.9821     0.0684     2.4819     0.9899
  166.5000     9.6470    11.6236   -45.1621    13.4305   109.0612     7.9821     0.0662     2.4722     0.9685
  167.0000     9.5602    11.7878   -45.2635    14.0540   107.0041     7.9821     0.0641     2.4627     0.9471
  167.5000     9.4741    11.5817   -45.2684    14.7053   107.1615     7.9821     0.0621     2.4592     0.9376
  168.0000     9.3889    11.3637   -44.9620    15.1212   109.2593     7.9821     0.0619     2.4617     0.9486
  168.5000     9.3044    11.4923   -44.6690    14.2781   111.3673     7.9821     0.0618     2.4637     0.9516
  169.0000     9.2206    11.6543   -44.3756    13.5317   111.8448     7.9821     0.0616     2.4593     0.9402
  169.5000     9.1376    11.8982   -44.0811    13.4054   112.2350     7.9821     0.0614     2.4549     0.9308
  170.0000     9.0916    11.7402   -43.7808    13.6464   112.6364     7.9821     0.0612     2.4554     0.9359
  170.5000     9.0602    11.4431   -43.9923    13.9106   112.0998     7.9821     0.0611     2.4585     0.9410
  171.0000     9.0291    11.1567   -44.2762    13.7265   109.4853     7.9821     0.0609     2.4617     0.9459
  171.5000     8.9980    11.2919   -44.5607    13.4204   106.3281     7.9821     0.0607     2.4649     0.9510
  172.0000     8.9670    11.4664   -44.8448    13.1210   105.5085     7.9821     0.0606     2.4681     0.9571
  172.5000     8.9361    11.2658   -45.1305    12.8061   106.2946     7.9821     0.0604     2.4718     0.9672
  173.0000     8.9054    10.9756   -45.3217    12.5728   106.4372     7.9821     0.0602     2.4761     0.9753
  173.5000     8.8747    10.8533   -44.8257    12.7947   104.7083     7.9821     0.0610     2.4742     0.9764
  174.0000     8.8441    10.8929   -44.3335    13.1924   103.0301     7.9821     0.0627     2.4742     0.9703
  174.5000     8.8137    10.9218   -43.8409    13.6572   101.5987     7.9821     0.0645     2.4781     0.9790
  175.0000     8.7833    10.9511   -43.3526    12.4578   102.6466     7.9821     0.0662     2.4774     0.9876
  175.5000     8.7531    10.8394   -43.9661    12.6295   105.5798     7.9821     0.0680     2.4711     0.9751
