~VERSION INFORMATION
 VERS.                2.0:   CWLS LOG ASCII STANDARD - VERSION 2.0
 WRAP.                 NO:   ONE LINE PER DEPTH STEP
~WELL INFORMATION
#MNEM.UNIT      DATA TYPE    INFORMATION
#----------   ------------   ------------------------------
 STRT.F            8.0000:   START DEPTH
 STOP.F          551.0000:   STOP DEPTH
 STEP.F            0.5000:   STEP LENGTH
 NULL.          -999.2500:   NO VALUE
 COMP.   FLUOR DANIEL INC:   COMPANY
 WELL. NAVAL PETROLEUM RESERVE 3 S-10 #31-10:   WELL
 FLD .        TEAPOT DOME:   FIELD
 LOC .      S10 T38N R78W:   LOCATION
 CNTY.            NATRONA:   COUNTY
 STAT.            WYOMING:   STATE
 CTRY. UNITED STATES OF AMERICA:   COUNTRY
 SRVC.       Schlumberger:   SERVICE COMPANY
 DATE.        21-JUN-1970:   LOGDATE
 API .       490251039400:   API NUMBER
~CURVE INFORMATION
#MNEM.UNIT       API CODE    CURVE DESCRIPTION
#----------   ------------   ------------------------------
 DEPT.F                  :   
 SPR .MV     05 010 01 00:   SPONTANEOUS POTENTIAL FROM RES.
 ASN .OHMM   05 041 16 00:   AMPLIFIED SHORT NORMAL 16"
 ILD .OHMM   05 120 46 00:   INDUCTION LOG DEEP
 CILD.MMHO   05 110 46 00:   CONDUCTIVITY INDUCTION LOG DEEP
 CALD.IN     45 280 60 00:   CALIPER FROM DENSITY LOG
 CORR.G/C3   45 356 01 00:   DENSITY CORRECTION
 RHOB.G/C3   45 350 01 00:   BULK DENSITY
 DPHI.DEC    45 890 12 00:   DENSITY POROSITY SANDSTONE
~PARAMETER INFORMATION
#MNEM.UNIT          VALUE    DESCRIPTION
#----------   ------------   ------------------------------
 PD  .                 GL:   PERMANENT DATUM
 EPD .F              5256:   ELEVATION PERMANENT DATUM
 LMF .                 KB:   LOG MEASURED FROM
 DAPD.F                10:   FEET ABOVE PERMANENT DATUM
 DMF .                 KB:   DRILLING MEASURED FROM
 EKB .F              5266:   KELLING BUSHING
 EGL .F              5256:   GROUND LEVEL
 DATE.        27-JUN-1970:   RUN DATE
 RUN .                  1:   RUN NUMBER
 DD  .F               553:   DEPTH DRILLER
 DL  .F               552:   DEPTH LOGGER
 BLI .F               551:   BOTTOM LOG INTERVAL
 TLI .F                44:   TOP LOG INTERVAL
 CS  .IN             9.75:   CASING SIZE
 BS  .IN                9:   BIT SIZE
 BSD .F               553:   BIT SIZE AT DEPTH
 DFT .        FRESHGELMUD:   DRILLING FLUID TYPE
 DFD .                9.2:   DRILLING FLUID DENSITY
 BHT .F               100:   BOTTOM HOLE TEMPERATURE
 TCS .HRS               1:   TIME CURCULATED STOPPED
 MRT .F               100:   MAXIMUM RECORDED TEMPERATURE
 ENGI.             TUSNES:   RECORDING ENGINEER
 WITN.                HAZ:   WITNESSED BY
 CLNT.            A2DTECH:   CLIENT CODE
 ORIG.           5" PRINT:   ORIGIN OF DATA
 UWI .       490251039400:   UNIQUE WELL ID
 DICO. A2D Technologies, Inc.:   DIGITIZING COMPANY
~OTHER INFORMATION
~A    DEPT     SPR        ASN        ILD       CILD         CALD     CORR       RHOB       DPHI   
# ...
   48.5000   -21.7577     0.0464     0.0664   135.1351     8.9321     0.0480     2.4846     0.1072
   49.0000   -23.1490     0.0457     0.0652   138.1381     8.9028     0.0262     2.4469     0.1210
   49.5000   -24.2298     0.0450     0.0640   135.1351     8.9034    -0.0113     2.4824     0.0976
   50.0000   -25.4658     0.0443     0.0627   123.8739     8.8888    -0.0150     2.4276     0.1394
   50.5000   -26.5481     0.0436     0.0615   110.2333     8.9021     0.0031     2.3916     0.1511
   51.0000   -27.1646     0.0429     0.0603    86.7483     8.9144     0.0121     2.3925     0.1520
   51.5000   -27.6304     0.0422     0.0591    88.5427     8.9267     0.0092     2.4051     0.1478
   52.0000   -28.2423     0.0415     0.0579   157.8607     8.9390     0.0055     2.4329     0.1339
   52.5000   -28.7033     0.0408     0.0567   193.5818     8.9512     0.0161     2.4442     0.1246
   53.0000   -29.0093     0.0401     0.0555   201.3289     8.9516     0.0169     2.4510     0.1207
   53.5000   -29.1492     0.0394     0.0543   188.4384     8.9522     0.0094     2.4600     0.1183
   54.0000   -29.2983     0.0387     0.0531   150.9009     8.9526     0.0035     2.4735     0.1131
   54.5000   -29.4473     0.0380     0.0519   139.6396     8.9531     0.0306     2.4750     0.1104
   55.0000   -29.6118     0.0373     0.0507   140.3904     8.9535     0.0336     2.4570     0.1134
   55.5000   -29.9008     0.0366     0.0495   145.6456     8.9540     0.0462     2.4503     0.1185
   56.0000   -30.0499     0.0359     0.0483   153.1532     8.9544     0.0787     2.4953     0.1026
   56.5000   -30.0637     0.0352     0.0471   156.1562     8.9548     0.0924     2.5126     0.0963
   57.0000   -30.2144     0.0345     0.0459   156.9069     8.9553     0.0602     2.4698     0.1119
   57.5000   -30.3649     0.0337     0.0447   156.9069     8.9557     0.0445     2.4796     0.1185
   58.0000   -30.5156     0.0330     0.0435   156.9069     8.9712     0.0310     2.4856     0.1066
   58.5000   -30.7953     0.0323     0.0423   156.9069     8.9717     0.0190     2.4554     0.1146
   59.0000   -30.9720     0.0316     0.0411   156.9069     8.9721     0.0093     2.4204     0.1356
   59.5000   -31.2487     0.0309     0.0399   159.9099     8.9725     0.0049     2.4129     0.1250
   60.0000   -31.5531     0.0302     0.0387   163.6637     8.9731     0.0132     2.4504     0.1193
   60.5000   -31.7022     0.0295     0.0375   165.9159     8.9735     0.0290     2.4347     0.1250
   61.0000   -31.3839     0.0288     0.0363   166.6667     8.9739     0.0238     2.4437     0.1220
   61.5000   -31.6882     0.0281     0.0351   166.6667     8.9894     0.0217     2.4062     0.1406
   62.0000   -31.8389     0.0274     0.0338   165.9159     8.9898     0.0195     2.4205     0.1346
   62.5000   -31.9880     0.0267     0.0326   165.1652     9.0053     0.0480     2.4505     0.1262
   63.0000   -31.8249     0.0260     0.0314   162.9129     9.0208     0.0474     2.4625     0.1192
   63.5000   -31.9740     0.0253     0.0302   159.9099     9.0512     0.0482     2.4618     0.1150
   64.0000   -32.2799     0.0246     0.0290   156.1562     9.0817     0.0460     2.4558     0.1138
   64.5000   -32.4290     0.0239     0.0278   153.1532     9.1122     0.0355     2.4512     0.1195
   65.0000   -32.4213     0.0232     0.0266   150.1501     9.1276     0.0153     2.4444     0.1243
   65.5000   -32.2598     0.0225     0.0254   147.1471     9.1281     0.0019     2.4318     0.1282
   66.0000   -32.0983     0.0217     0.0242   144.8949     9.1285    -0.0056     2.4183     0.1314
   66.5000   -32.2490     0.0210     0.0230   144.1441     9.1291    -0.0018     2.4018     0.1402
   67.0000   -32.3980     0.0203     0.0218   142.6426     9.1144     0.0035     2.3929     0.1444
   67.5000   -32.2350     0.0196     0.0206   141.8919     9.1149     0.0006     2.4176     0.1275
   68.0000   -32.0735     0.0189     0.0194   141.8768     9.1003    -0.0031     2.4462     0.1212
   68.5000   -31.7568     0.0182     0.0182   141.1411     9.1008     0.0120     2.4049     0.1329
   69.0000   -31.7506     0.0175     0.0170   141.8919     9.0861     0.0150     2.4259     0.1365
   69.5000   -31.7444     0.0168     0.0158   143.4720     9.0867     0.0129     2.4522     0.1185
   70.0000   -31.7382     0.0161     0.0146   144.8949     9.0720     0.0421     2.4612     0.1143
   70.5000   -31.7320     0.0154     0.0134   147.1471     9.0425     0.0505     2.4425     0.1173
   71.0000   -31.7258     0.0147     0.0122   148.7914     8.9829     0.0356     2.4477     0.1230
   71.5000   -31.7196     0.0140     0.0110   150.9009     8.9383     0.0281     2.4568     0.1184
   72.0000   -31.8687     0.0133     0.0098   153.1532     8.9087     0.0222     2.4538     0.1193
   72.5000   -32.0193     0.0126     0.0086   153.9039     8.9074     0.0155     2.4348     0.1295
   73.0000   -32.1669     0.0119     0.0074   153.9039     8.8946     0.0088     2.4025     0.1365
   73.5000   -32.3175     0.0112     0.0062   153.9039     8.8951     0.0043     2.3788     0.1448
   74.0000   -32.6219     0.0105     0.0049   152.4024     8.8956    -0.0001     2.4493     0.1304
   74.5000   -32.7709     0.0098     0.0037   149.3994     8.8960     0.0210     2.4659     0.1159
   75.0000   -32.7632     0.0090     0.0025   146.7639     8.8813     0.0293     2.4681     0.1123
   75.5000   -32.9123     0.0083     0.0013   142.9042     8.8819     0.0233     2.4559     0.1198
   76.0000   -32.9061     0.0076     0.0004   139.0445     8.8823     0.0151     2.4444     0.1279
   76.5000   -32.8999     0.0069     0.0004   135.1848     8.8828     0.0107     2.4407     0.1204
   77.0000   -33.0490     0.0062     0.0004   132.8659     8.8681     0.0046     2.4607     0.1147
   77.5000   -33.0428     0.0055     0.0004   130.5470     8.8686     0.0018     2.4623     0.1219
   78.0000   -33.0366     0.0049     0.0004   128.9879     8.8691     0.0146     2.4427     0.1243
   78.5000   -32.8751     0.0200     0.1543   127.4499     8.8701     0.0237     2.4938     0.1011
   79.0000   -32.8689     0.8709     3.3179   127.4423     8.8850     0.0260     2.4869     0.1056
   79.5000   -32.8627     2.2018    10.4167   127.5140     8.8855     0.0043     2.4653     0.1203
   80.0000   -32.7012     1.5046     7.6389   129.8406     8.8860     0.0096     2.4495     0.1218
   80.5000   -32.5398     1.4422     7.0216   132.9380     8.9014     0.0224     2.4458     0.1092
   81.0000   -32.3783     1.4263     6.7130   136.9544     8.9019     0.0202     2.4623     0.1117
   81.5000   -32.2168     1.4414     6.5586   142.0401     8.9023     0.0263     2.4668     0.1164
   82.0000   -32.2106     1.4718     6.4815   145.1141     8.9178     0.0128     2.4458     0.1218
   82.5000   -32.2044     1.5023     6.5586   147.4196     8.9182     0.0234     2.4593     0.1152
   83.0000   -32.1982     1.5792     6.5586   148.1824     8.9337     0.0220     2.4669     0.1130
   83.5000   -32.5026     1.6871     6.5593   148.1729     8.9341     0.0047     2.4549     0.1151
   84.0000   -33.1175     1.8260     6.6358   146.6244     8.9345     0.0135     2.4391     0.1253
   84.5000   -33.7324     1.9494     6.7130   144.3055     8.9350     0.0208     2.4346     0.1202
   85.0000   -33.8831     2.1037     6.7130   142.7570     8.9354     0.0237     2.4669     0.1142
   85.5000   -33.2542     2.3200     6.7901   140.4381     8.9359     0.0035     2.4429     0.1241
   86.0000   -32.9375     2.6149     6.8673   138.1192     8.9514     0.0178     2.4338     0.1217
   86.5000   -32.7760     2.9904     7.0216   135.8003     8.9519     0.0209     2.4559     0.1133
   87.0000   -32.6145     3.7576     7.1759   133.4814     8.9673     0.0225     2.4641     0.1175
   87.5000   -32.6083     4.7176     7.3302   131.9329     8.9828     0.0075     2.4570     0.1198
   88.0000   -32.7589     6.1644     7.4074   130.3845     8.9983     0.0038     2.4513     0.1182
   88.5000   -32.9080     7.5446     7.4846   129.6064     9.0137     0.0114     2.4498     0.1132
