~VERSION INFORMATION
 VERS.                2.0:   CWLS LOG ASCII STANDARD - VERSION 2.0
 WRAP.                 NO:   ONE LINE PER DEPTH STEP
~WELL INFORMATION
#MNEM.UNIT      DATA TYPE    INFORMATION
#----------   ------------   ------------------------------
 STRT.F          110.5000:   START DEPTH
 STOP.F         1944.0000:   STOP DEPTH
 STEP.F            0.5000:   STEP LENGTH
 NULL.          -999.2500:   NO VALUE
 COMP.    FENIX & SCISSON:   COMPANY
 WELL.   NPR 3 SHX #34-10:   WELL
 FLD .             TEAPOT:   FIELD
 LOC .      S10 T38N R78W:   LOCATION
 CNTY.            NATRONA:   COUNTY
 STAT.            WYOMING:   STATE
 CTRY. UNITED STATES OF AMERICA:   COUNTRY
 SRVC.            Unknown:   SERVICE COMPANY
 DATE.        14-APR-1978:   LOGDATE
 API .       490251061800:   API NUMBER
~CURVE INFORMATION
#MNEM.UNIT       API CODE    CURVE DESCRIPTION
#----------   ------------   ------------------------------
 DEPT.F                  :   
 ILD .OHMM   05 120 46 00:   INDUCTION LOG DEEP
 CILD.MMHO   05 110 00 00:   CONDUCTIVITY INDUCTION LOG
 NPHI.DEC    42 890 01 00:   NEUTRON POROSITY LIMESTONE
 GRD .GAPI   45 310 01 00:   GAMMA RAY FROM DENSITY LOG
~PARAMETER INFORMATION
#MNEM.UNIT          VALUE    DESCRIPTION
#----------   ------------   ------------------------------
 PD  .                 GL:   PERMANENT DATUM
 EPD .F              5244:   ELEVATION PERMANENT DATUM
 LMF .                 KB:   LOG MEASURED FROM
 DMF .                 KB:   DRILLING MEASURED FROM
 EKB .F              5252:   KELLING BUSHING
 EGL .F              5244:   GROUND LEVEL
 DATE.          4-14-1978:   RUN DATE
 RUN .                  1:   RUN NUMBER
 DD  .F              1953:   DEPTH DRILLER
 DL  .F              1950:   DEPTH LOGGER
 BLI .F              1944:   BOTTOM LOG INTERVAL
 TLI .F               715:   TOP LOG INTERVAL
 CS  .IN            9.625:   CASING SIZE
 CBD .F               708:   CASING BOTTOM DRILLER
 CBL .F               712:   CASING BOTTOM LOGGER
 BS  .IN             8.75:   BIT SIZE
 BSD .F              1953:   BIT SIZE AT DEPTH
 DFT .                OIL:   DRILLING FLUID TYPE
 TCS .HRS               5:   TIME CURCULATED STOPPED
 LUN .               2958:   LOGGING UNIT NUMBER
 LUL .               CASP:   LOGGING UNIT LOCATION
 ENGI.             MILLER:   RECORDING ENGINEER
 CLNT.            A2DTECH:   CLIENT CODE
 ORIG.           5" PRINT:   ORIGIN OF DATA
 UWI .       490251061800:   UNIQUE WELL ID
 DICO. A2D Technologies, Inc.:   DIGITIZING COMPANY
~OTHER INFORMATION
~A   DEPT      ILD       CILD       NPHI        GRD   
# ...
  475.5000  -999.2500  -999.2500     0.2299    44.3655
  476.0000  -999.2500  -999.2500     0.2268    45.8489
  476.5000  -999.2500  -999.2500     0.2189    47.3928
  477.0000  -999.2500  -999.2500     0.2185    47.9612
  477.5000  -999.2500  -999.2500     0.2155    48.3828
  478.0000  -999.2500  -999.2500     0.2053    48.8075
  478.5000  -999.2500  -999.2500     0.2009    48.9012
  479.0000  -999.2500  -999.2500     0.2016    48.1474
  479.5000  -999.2500  -999.2500     0.2029    47.2128
  480.0000  -999.2500  -999.2500     0.2098    45.2953
  480.5000  -999.2500  -999.2500     0.2159    43.5308
  481.0000  -999.2500  -999.2500     0.2173    43.2824
  481.5000  -999.2500  -999.2500     0.2186    43.3245
  482.0000  -999.2500  -999.2500     0.2200    43.9757
  482.5000  -999.2500  -999.2500     0.2210    45.2768
  483.0000  -999.2500  -999.2500     0.2247    46.5633
  483.5000  -999.2500  -999.2500     0.2285    47.8491
  484.0000  -999.2500  -999.2500     0.2315    48.9625
  484.5000  -999.2500  -999.2500     0.2263    48.8990
  485.0000  -999.2500  -999.2500     0.2288    48.8611
  485.5000  -999.2500  -999.2500     0.2219    48.8257
  486.0000  -999.2500  -999.2500     0.2242    48.7904
  486.5000  -999.2500  -999.2500     0.2227    48.7583
  487.0000  -999.2500  -999.2500     0.2132    48.8481
  487.5000  -999.2500  -999.2500     0.2033    49.1320
  488.0000  -999.2500  -999.2500     0.2044    49.1300
  488.5000  -999.2500  -999.2500     0.2072    48.2110
  489.0000  -999.2500  -999.2500     0.2045    47.3266
  489.5000  -999.2500  -999.2500     0.1989    46.4590
  490.0000  -999.2500  -999.2500     0.1973    44.5396
  490.5000  -999.2500  -999.2500     0.1997    42.0304
  491.0000  -999.2500  -999.2500     0.2049    41.8834
  491.5000  -999.2500  -999.2500     0.2117    43.9607
  492.0000  -999.2500  -999.2500     0.2186    47.2520
  492.5000  -999.2500  -999.2500     0.2230    50.5246
  493.0000  -999.2500  -999.2500     0.2120    51.4841
  493.5000  -999.2500  -999.2500     0.2105    51.9120
  494.0000  -999.2500  -999.2500     0.1959    51.6909
  494.5000  -999.2500  -999.2500     0.1898    48.9319
  495.0000  -999.2500  -999.2500     0.1915    48.5307
  495.5000  -999.2500  -999.2500     0.1984    48.5320
  496.0000  -999.2500  -999.2500     0.2023    48.3074
  496.5000  -999.2500  -999.2500     0.2038    46.7009
  497.0000  -999.2500  -999.2500     0.2157    45.8276
  497.5000  -999.2500  -999.2500     0.2304    45.7096
  498.0000  -999.2500  -999.2500     0.2375    45.7219
  498.5000  -999.2500  -999.2500     0.2371    45.8448
  499.0000  -999.2500  -999.2500     0.2129    46.1968
  499.5000  -999.2500  -999.2500     0.2063    46.5482
  500.0000  -999.2500  -999.2500     0.2065    46.9101
  500.5000  -999.2500  -999.2500     0.2067    46.9314
  501.0000  -999.2500  -999.2500     0.2069    46.9279
  501.5000  -999.2500  -999.2500     0.2034    46.9204
  502.0000  -999.2500  -999.2500     0.2026    46.6703
  502.5000  -999.2500  -999.2500     0.2037    46.4694
  503.0000  -999.2500  -999.2500     0.2051    46.2642
  503.5000  -999.2500  -999.2500     0.2096    46.0581
  504.0000  -999.2500  -999.2500     0.2146    45.9303
  504.5000  -999.2500  -999.2500     0.2196    45.9882
  505.0000  -999.2500  -999.2500     0.2246    46.0429
  505.5000  -999.2500  -999.2500     0.2270    46.0907
  506.0000  -999.2500  -999.2500     0.2194    45.7957
  506.5000  -999.2500  -999.2500     0.2208    45.1273
  507.0000  -999.2500  -999.2500     0.2222    44.4437
  507.5000  -999.2500  -999.2500     0.2236    44.5595
  508.0000  -999.2500  -999.2500     0.2251    44.9650
  508.5000  -999.2500  -999.2500     0.2168    45.3760
  509.0000  -999.2500  -999.2500     0.2090    45.7857
  509.5000  -999.2500  -999.2500     0.2046    46.1975
  510.0000  -999.2500  -999.2500     0.2002    46.6055
  510.5000  -999.2500  -999.2500     0.1968    46.7979
  511.0000  -999.2500  -999.2500     0.1937    46.0247
  511.5000  -999.2500  -999.2500     0.1935    45.2734
  512.0000  -999.2500  -999.2500     0.1945    44.4938
  512.5000  -999.2500  -999.2500     0.1989    44.2958
  513.0000  -999.2500  -999.2500     0.2033    44.2271
  513.5000  -999.2500  -999.2500     0.2061    44.1643
  514.0000  -999.2500  -999.2500     0.2061    44.1237
  514.5000  -999.2500  -999.2500     0.2061    44.4502
  515.0000  -999.2500  -999.2500     0.2068    45.6582
  515.5000  -999.2500  -999.2500     0.2089    46.9198
  516.0000  -999.2500  -999.2500     0.2087    47.7246
  516.5000  -999.2500  -999.2500     0.2107    47.6702
  517.0000  -999.2500  -999.2500     0.2139    47.6288
  517.5000  -999.2500  -999.2500     0.2214    47.5840
  518.0000  -999.2500  -999.2500     0.2384    47.5261
  518.5000  -999.2500  -999.2500     0.2516    48.1715
  519.0000  -999.2500  -999.2500     0.2404    49.0443
  519.5000  -999.2500  -999.2500     0.2395    49.9240
  520.0000  -999.2500  -999.2500     0.2237    50.7336
  520.5000  -999.2500  -999.2500     0.2148    50.6732
  521.0000  -999.2500  -999.2500     0.2005    50.5826
  521.5000  -999.2500  -999.2500     0.1981    50.4952
  522.0000  -999.2500  -999.2500     0.1973    50.4086
  522.5000  -999.2500  -999.2500     0.1981    50.3219
  523.0000  -999.2500  -999.2500     0.2062    50.2343
  523.5000  -999.2500  -999.2500     0.2100    50.1506
  524.0000  -999.2500  -999.2500     0.2185    50.3303
  524.5000  -999.2500  -999.2500     0.2276    50.5267
  525.0000  -999.2500  -999.2500     0.2367    50.1636
  525.5000  -999.2500  -999.2500     0.2367    49.7662
  526.0000  -999.2500  -999.2500     0.2273    49.3736
  526.5000  -999.2500  -999.2500     0.2267    48.9472
  527.0000  -999.2500  -999.2500     0.2254    47.2163
  527.5000  -999.2500  -999.2500     0.2315    45.3094
  528.0000  -999.2500  -999.2500     0.2375    43.4149
  528.5000  -999.2500  -999.2500     0.2312    42.3314
  529.0000  -999.2500  -999.2500     0.2262    42.4156
  529.5000  -999.2500  -999.2500     0.2254    42.4874
  530.0000  -999.2500  -999.2500     0.2106    42.5631
  530.5000  -999.2500  -999.2500     0.2060    42.6373
  531.0000  -999.2500  -999.2500     0.2027    42.7116
  531.5000  -999.2500  -999.2500     0.1993    42.7862
  532.0000  -999.2500  -999.2500     0.1961    42.8592
  532.5000  -999.2500  -999.2500     0.1969    42.8532
  533.0000  -999.2500  -999.2500     0.1977    42.6419
  533.5000  -999.2500  -999.2500     0.1958    42.4340
  534.0000  -999.2500  -999.2500     0.1896    42.2260
  534.5000  -999.2500  -999.2500     0.1832    42.0207
  535.0000  -999.2500  -999.2500     0.1809    41.9920
  535.5000  -999.2500  -999.2500     0.1788    42.1761
  536.0000  -999.2500  -999.2500     0.1788    42.3587
  536.5000  -999.2500  -999.2500     0.1790    42.5423
  537.0000  -999.2500  -999.2500     0.1814    42.7257
  537.5000  -999.2500  -999.2500     0.1816    42.9104
  538.0000  -999.2500  -999.2500     0.1788    43.1010
  538.5000  -999.2500  -999.2500     0.1825    42.8200
  539.0000  -999.2500  -999.2500     0.1909    42.4866
  539.5000  -999.2500  -999.2500     0.1985    42.1526
  540.0000  -999.2500  -999.2500     0.1985    41.8188
  540.5000  -999.2500  -999.2500     0.1847    41.5085
  541.0000  -999.2500  -999.2500     0.1745    41.5864
  541.5000  -999.2500  -999.2500     0.1675    41.6842
  542.0000  -999.2500  -999.2500     0.1718    41.7808
  542.5000  -999.2500  -999.2500     0.1801    41.8769
  543.0000  -999.2500  -999.2500     0.1861    41.9731
  543.5000  -999.2500  -999.2500     0.1877    42.0692
  544.0000  -999.2500  -999.2500     0.1892    42.1653
  544.5000  -999.2500  -999.2500     0.1981    42.2618
  545.0000  -999.2500  -999.2500     0.2122    42.3585
  545.5000  -999.2500  -999.2500     0.2088    42.4508
  546.0000  -999.2500  -999.2500     0.2030    42.3444
  546.5000  -999.2500  -999.2500     0.2131    41.9353
  547.0000  -999.2500  -999.2500     0.2190    41.5296
  547.5000  -999.2500  -999.2500     0.2137    41.1199
  548.0000  -999.2500  -999.2500     0.2045    40.7152
