~VERSION INFORMATION
 VERS.                2.0:   CWLS LOG ASCII STANDARD - VERSION 2.0
 WRAP.                 NO:   ONE LINE PER DEPTH STEP
~WELL INFORMATION
#MNEM.UNIT      DATA TYPE    INFORMATION
#----------   ------------   ------------------------------
 STRT.F           84.0000:   START DEPTH
 STOP.F          849.5000:   STOP DEPTH
 STEP.F            0.5000:   STEP LENGTH
 NULL.          -999.2500:   NO VALUE
 COMP. U S NAVY/INTEX OIL CO:   COMPANY
 WELL.     NPR 3 #81-S-34:   WELL
 FLD .        TEAPOT DOME:   FIELD
 LOC .      S34 T39N R78W:   LOCATION
 CNTY.            NATRONA:   COUNTY
 STAT.            WYOMING:   STATE
 CTRY. UNITED STATES OF AMERICA:   COUNTRY
 SRVC.       Schlumberger:   SERVICE COMPANY
 DATE.        29-JUL-1963:   LOGDATE
 API .       490250656700:   API NUMBER
~CURVE INFORMATION
#MNEM.UNIT       API CODE    CURVE DESCRIPTION
#----------   ------------   ------------------------------
 DEPT.F                  :   
 CALS.IN     60 280 50 00:   CALIPER FROM SONIC LOG
 DT  .US/F   60 520 33 00:   INTERVAL TRANSIT TIME
 SPR .MV     05 010 01 00:   SPONTANEOUS POTENTIAL FROM RES.
 ILD .OHMM   05 120 46 00:   INDUCTION LOG DEEP
 ASN .OHMM   05 041 16 00:   AMPLIFIED SHORT NORMAL 16"
 CILD.MMHO   05 110 46 00:   CONDUCTIVITY INDUCTION LOG DEEP
 GR  .GAPI   30 310 01 00:   GAMMA RAY FROM RES.
~PARAMETER INFORMATION
#MNEM.UNIT          VALUE    DESCRIPTION
#----------   ------------   ------------------------------
 PD  .                 GL:   PERMANENT DATUM
 EPD .F              5067:   ELEVATION PERMANENT DATUM
 LMF .                 KB:   LOG MEASURED FROM
 DAPD.F                 5:   FEET ABOVE PERMANENT DATUM
 DMF .                 KB:   DRILLING MEASURED FROM
 EKB .F              5072:   KELLING BUSHING
 EGL .F              5067:   GROUND LEVEL
 DATE.          7-29-1963:   RUN DATE
 RUN .                  1:   RUN NUMBER
 DD  .F               850:   DEPTH DRILLER
 DL  .F               850:   DEPTH LOGGER
 BLI .F               849:   BOTTOM LOG INTERVAL
 TLI .F                90:   TOP LOG INTERVAL
 CS  .IN            8.625:   CASING SIZE
 CBD .F                10:   CASING BOTTOM DRILLER
 BS  .IN            7.875:   BIT SIZE
 BSD .F               850:   BIT SIZE AT DEPTH
 DFT .            GEL-OIL:   DRILLING FLUID TYPE
 DFD .                9.4:   DRILLING FLUID DENSITY
 DFV .                 40:   DRILLING FLUID VISCOSITY
 DFPH.                  9:   DRILLING FLUID PH
 DFL .                8.4:   DRILLING FLUID LOSS
 MSS .           FLOWLINE:   MUD SAMPLE SOURCE
 RMS .OHMM           3.08:   RESISTIVITY MUD SAMPLE
 MST .F                79:   MUD SAMPLE TEMPERATURE
 RMF .OHMM           2.39:   RESISTIVITY MUD FILTRATE SAMPLE
 MFST.F                79:   MUD FILTRATE SAMPLE TEMPERATURE
 RMC .OHMM           3.29:   RESISTIVITY MUD CAKE
 MCST.F                79:   MUD CAKE SAMPLE TEMPERATURE
 MFSS.                 MP:   MUD FILTRATE SAMPLE SOURCE
 MCSS.                 MP:   MUD CAKE SAMPLE SOURCE
 TCS .HRS               1:   TIME CURCULATED STOPPED
 LUN .               4507:   LOGGING UNIT NUMBER
 LUL .              CSPR.:   LOGGING UNIT LOCATION
 ENGI.             KNOBEL:   RECORDING ENGINEER
 WITN.          JORGENSON:   WITNESSED BY
 CLNT.            A2DTECH:   CLIENT CODE
 ORIG.           5" PRINT:   ORIGIN OF DATA
 UWI .       490250656700:   UNIQUE WELL ID
 DICO. A2D Technologies, Inc.:   DIGITIZING COMPANY
~OTHER INFORMATION
~A   DEPT     CALS         DT        SPR        ILD        ASN       CILD         GR   
# ...
  175.0000     7.8470  -999.2500   -41.2808     5.7427     6.7463   179.9391  -999.2500
  175.5000     7.8523  -999.2500   -41.3608     5.8760     6.8230   175.8377  -999.2500
  176.0000     7.8581  -999.2500   -41.4396     5.9949     7.1471   171.7364  -999.2500
  176.5000     7.8658  -999.2500   -41.4337     6.1132     7.4629   167.6351  -999.2500
  177.0000     7.8736  -999.2500   -41.2410     6.2317     8.1438   165.4324  -999.2500
  177.5000     7.8813  -999.2500   -41.0444     6.3504     9.1109   163.7029  -999.2500
  178.0000     7.8892  -999.2500   -40.8489     6.4675     9.2658   161.3505  -999.2500
  178.5000     7.8971  -999.2500   -40.6536     6.5026     8.5137   159.7054  -999.2500
  179.0000     7.8476  -999.2500   -40.4551     6.3090     8.1368   160.5648  -999.2500
  179.5000     7.7813  -999.2500   -40.3916     6.1200     7.7766   164.8431  -999.2500
  180.0000     7.8182  -999.2500   -40.5901     5.9310     7.4165   172.6778  -999.2500
  180.5000     7.8633  -999.2500   -40.8084     5.7432     7.1399   182.1109  -999.2500
  181.0000     7.8967  -999.2500   -41.0273     5.5925     7.0054   188.1838  -999.2500
  181.5000     7.8956  -999.2500   -41.2461     5.5656     6.9556   189.9189  -999.2500
  182.0000     7.8892  -999.2500   -41.4638     5.4110     6.8024   190.8902  -999.2500
  182.5000     7.8829  -999.2500   -41.6550     5.3868     6.6119   189.8222  -999.2500
  183.0000     7.8766  -999.2500   -41.5640     5.3874     6.5063   188.8075  -999.2500
  183.5000     7.8703  -999.2500   -41.4095     5.3938     6.4957   195.1168  -999.2500
  184.0000     7.8641  -999.2500   -41.2552     5.2822     6.4956   196.8584  -999.2500
  184.5000     7.8578  -999.2500   -41.1009     5.2902     6.4957   197.7319  -999.2500
  185.0000     7.8564  -999.2500   -40.9466     5.1774     6.4962   197.8156  -999.2500
  185.5000     7.8494  -999.2500   -40.7923     5.2072     6.4733   196.8908  -999.2500
  186.0000     7.8422  -999.2500   -40.6380     5.2711     6.4384   195.9660  -999.2500
  186.5000     7.8350  -999.2500   -40.4836     5.2953     6.3888   195.0837  -999.2500
  187.0000     7.8278  -999.2500   -40.3533     5.4252     6.2814   193.5421  -999.2500
  187.5000     7.8206  -999.2500   -40.2547     5.4905     6.2035   192.0682  -999.2500
  188.0000     7.8173  -999.2500   -40.1559     5.5537     6.3421   190.5943  -999.2500
  188.5000     7.8169  -999.2500   -40.0571     5.6164     6.4736   189.1157  -999.2500
  189.0000     7.8315  -999.2500   -39.9575     5.6790     6.5529   187.6312  -999.2500
  189.5000     7.8514  -999.2500   -39.8567     5.6461     6.6080   186.1924  -999.2500
  190.0000     7.8558  -999.2500   -39.7874     5.5257     6.6102   188.5122  -999.2500
  190.5000     7.8495  -999.2500   -40.0986     5.4058     6.5961   192.8280  -999.2500
  191.0000     7.8430  -999.2500   -40.3990     5.2856     6.5008   197.1437  -999.2500
  191.5000     7.8370  -999.2500   -40.6093     5.1656     6.4117   201.6677  -999.2500
  192.0000     7.8367  -999.2500   -40.5502     5.0455     6.1598   206.9568  -999.2500
  192.5000     7.8474  -999.2500   -40.4490     4.9254     5.9909   212.1870  -999.2500
  193.0000     7.8543  -999.2500   -40.3469     4.8052     5.8220   217.4324  -999.2500
  193.5000     7.8495  -999.2500   -40.2447     4.6846     5.6648   222.6584  -999.2500
  194.0000     7.8447  -999.2500   -40.1425     4.5644     5.6132   227.5375  -999.2500
  194.5000     7.8398  -999.2500   -40.0414     4.5698     5.5758   227.5659  -999.2500
  195.0000     7.8350  -999.2500   -39.9958     4.5926     5.5813   225.9763  -999.2500
  195.5000     7.8301  -999.2500   -40.0944     4.6157     5.5874   224.2294  -999.2500
  196.0000     7.8253  -999.2500   -40.1821     4.6385     5.5940   222.4826  -999.2500
  196.5000     7.8204  -999.2500   -40.0378     4.6613     5.6283   221.2343  -999.2500
  197.0000     7.8155  -999.2500   -39.9268     4.6841     5.6688   221.2343  -999.2500
  197.5000     7.8107  -999.2500   -39.8651     4.7069     5.7085   221.2343  -999.2500
  198.0000     7.8058  -999.2500   -39.8034     4.7298     5.7485   220.5325  -999.2500
  198.5000     7.8009  -999.2500   -39.7415     4.7519     5.7842   219.1033  -999.2500
  199.0000     7.7970  -999.2500   -39.6790     4.8056     5.7845   217.1287  -999.2500
  199.5000     7.7952  -999.2500   -39.6156     4.8702     5.7847   213.8049  -999.2500
  200.0000     7.7933  -999.2500   -39.5733     4.9359     5.8038   209.4776  -999.2500
  200.5000     7.7915   116.5470   -39.7902     5.0377     5.8856   204.5200  -999.2500
  201.0000     7.7896   116.4672   -40.0023     5.1707     5.9929   199.6128  -999.2500
  201.5000     7.7877   115.8709   -40.2134     5.3085     6.1092   194.7017  -999.2500
  202.0000     7.7859   114.6474   -40.4233     5.4457     6.2830   189.7905  -999.2500
  202.5000     7.7840   113.7298   -40.5929     5.6151     6.4872   184.8793  -999.2500
  203.0000     7.7821   112.4004   -40.4482     5.7402     6.6129   180.7043  -999.2500
  203.5000     7.7803   112.9293   -40.3069     5.8448     6.7391   177.2036  -999.2500
  204.0000     7.7791   112.9339   -40.1855     5.9015     6.8672   175.5657  -999.2500
  204.5000     7.7499   112.3928   -40.2369     5.9568     6.8383   174.6053  -999.2500
  205.0000     7.7238   112.1016   -40.2902     6.0117     6.7899   175.0892  -999.2500
  205.5000     7.7573   112.6932   -40.3436     5.9774     6.7614   176.8549  -999.2500
  206.0000     7.7911   113.0976   -40.3994     5.9359     6.7458   178.6053  -999.2500
  206.5000     7.8247   112.8865   -40.2019     5.8449     6.6548   180.4393  -999.2500
  207.0000     7.8580   112.6385   -39.9504     5.6533     6.5571   184.9220  -999.2500
  207.5000     7.8726   112.5797   -39.6977     5.4632     6.4513   191.1278  -999.2500
  208.0000     7.8578   112.7600   -39.4442     5.2730     6.3077   198.5343  -999.2500
  208.5000     7.8434   113.1625   -39.1826     5.0829     6.1658   208.0518  -999.2500
  209.0000     7.8290   114.2962   -39.3855     4.8928     5.9788   217.5693  -999.2500
  209.5000     7.8169   115.4300   -39.6860     4.7026     5.7083   227.0868  -999.2500
  210.0000     7.8174   116.5638   -39.9683     4.5125     5.4394   236.6043  -999.2500
  210.5000     7.8170   117.6975   -39.8859     4.3224     5.1870   246.1219  -999.2500
  211.0000     7.8014   118.8313   -39.7902     4.1322     5.0286   255.7531  -999.2500
  211.5000     7.7976   119.5889   -39.6960     3.9418     4.8681   267.6862  -999.2500
  212.0000     7.7984   120.1064   -39.6022     3.7492     4.7210   279.8117  -999.2500
  212.5000     7.8135   120.6240   -39.5085     3.6610     4.6262   287.3663  -999.2500
  213.0000     7.8109   121.1416   -39.4147     3.6063     4.5015   292.5209  -999.2500
  213.5000     7.8028   121.6634   -39.3209     3.6111     4.3790   288.1799  -999.2500
  214.0000     7.7949   122.6164   -39.2272     3.7171     4.3648   279.4845  -999.2500
  214.5000     7.7871   123.3566   -39.1334     3.9361     4.7456   270.8577  -999.2500
  215.0000     7.7794   121.1604   -39.0387     4.1577     5.0696   261.4660  -999.2500
  215.5000     7.7717   118.8745   -38.9424     4.3794     5.2411   249.3483  -999.2500
  216.0000     7.7639   116.5925   -39.0591     4.6228     5.3255   237.2305  -999.2500
  216.5000     7.7562   114.3147   -39.2012     4.9702     5.7081   219.9910  -999.2500
  217.0000     7.7485   110.8937   -39.3436     5.3130     6.1049   201.2887  -999.2500
  217.5000     7.7408   107.5598   -39.1350     5.6555     6.4061   187.6360  -999.2500
  218.0000     7.7280   106.5239   -38.8954     5.9998     6.5428   175.1592  -999.2500
  218.5000     7.7136   107.0841   -38.7760     6.2131     6.6692   168.6690  -999.2500
  219.0000     7.6991   106.3175   -38.9517     6.3596     6.8825   163.4165  -999.2500
  219.5000     7.6831   105.6275   -39.1215     6.5053     6.9909   158.1799  -999.2500
  220.0000     7.7255   106.3477   -39.2919     6.6436     7.0350   154.1318  -999.2500
