~VERSION INFORMATION
 VERS.                2.0:   CWLS LOG ASCII STANDARD - VERSION 2.0
 WRAP.                 NO:   ONE LINE PER DEPTH STEP
~WELL INFORMATION
#MNEM.UNIT      DATA TYPE    INFORMATION
#----------   ------------   ------------------------------
 STRT.F           30.0000:   START DEPTH
 STOP.F          570.0000:   STOP DEPTH
 STEP.F            0.5000:   STEP LENGTH
 NULL.          -999.2500:   NO VALUE
 COMP.    FENIX & SCISSON:   COMPANY
 WELL.  NPR #3 #13SX11-11:   WELL
 FLD .             TEAPOT:   FIELD
 LOC .      S11 T38N R78W:   LOCATION
 CNTY.            NATRONA:   COUNTY
 STAT.            WYOMING:   STATE
 CTRY. UNITED STATES OF AMERICA:   COUNTRY
 SRVC.       Schlumberger:   SERVICE COMPANY
 DATE.        27-FEB-1977:   LOGDATE
 API .       490251029400:   API NUMBER
~CURVE INFORMATION
#MNEM.UNIT       API CODE    CURVE DESCRIPTION
#----------   ------------   ------------------------------
 DEPT.F                  :   
 GRD .GAPI   45 310 01 00:   GAMMA RAY FROM DENSITY LOG
 CALD.IN     45 280 60 00:   CALIPER FROM DENSITY LOG
 CORR.G/C3   45 356 01 00:   DENSITY CORRECTION
 DPHI.DEC    45 890 12 00:   DENSITY POROSITY STANDSTONE
 RHOB.G/C3   45 350 01 00:   BULK DENSITY
 SPR .MV     07 010 01 00:   SPONTANEOUS POTENTIAL
 ILD .OHMM   07 120 46 00:   INDUCTION LOG DEEP
 ILM .OHMM   07 120 44 00:   INDUCTION LOG MEDIUM
 LL8 .OHMM   07 220 08 00:   LATEROLOG-8 RES.
~PARAMETER INFORMATION
#MNEM.UNIT          VALUE    DESCRIPTION
#----------   ------------   ------------------------------
 PD  .                 GL:   PERMANENT DATUM
 EPD .F              5180:   ELEVATION PERMANENT DATUM
 LMF .                 GL:   LOG MEASURED FROM
 DAPD.F                 0:   FEET ABOVE PERMANENT DATUM
 DMF .                 GL:   DRILLING MEASURED FROM
 EKB .F              5183:   KELLING BUSHING
 EGL .F              5180:   GROUND LEVEL
 DATE.        27-FEB-1977:   RUN DATE
 RUN .                  1:   RUN NUMBER
 DD  .F               585:   DEPTH DRILLER
 DL  .F               571:   DEPTH LOGGER
 BLI .F               570:   BOTTOM LOG INTERVAL
 TLI .F                44:   TOP LOG INTERVAL
 CS  .IN            8.625:   CASING SIZE
 CBD .F                40:   CASING BOTTOM DRILLER
 CBL .F                44:   CASING BOTTOM LOGGER
 BS  .IN            7.875:   BIT SIZE
 BSD .F               585:   BIT SIZE AT DEPTH
 DFT .                KCL:   DRILLING FLUID TYPE
 DFD .                8.7:   DRILLING FLUID DENSITY
 DFV .                 42:   DRILLING FLUID VISCOSITY
 DFPH.                  8:   DRILLING FLUID PH
 DFL .                9.2:   DRILLING FLUID LOSS
 MSS .                PIT:   MUD SAMPLE SOURCE
 RMS .OHMM           .806:   RESISTIVITY MUD SAMPLE
 MST .F                70:   MUD SAMPLE TEMPERATURE
 RMF .OHMM           .720:   RESISTIVITY MUD FILTRATE SAMPLE
 MFST.F                70:   MUD FILTRATE SAMPLE TEMPERATURE
 MFSS.               MEAS:   MUD FILTRATE SAMPLE SOURCE
 RMB .OHMM           .973:   RESISTIVITY MUD AT BHT
 BHT .F                58:   BOTTOM HOLE TEMPERATURE
 TCS .HRS            0230:   TIME CURCULATED STOPPED
 MRT .F                58:   MAXIMUM RECORDED TEMPERATURE
 LUN .               5642:   LOGGING UNIT NUMBER
 LUL .             CASPER:   LOGGING UNIT LOCATION
 ENGI.         JIM MARTIN:   RECORDING ENGINEER
 WITN.         STUEBINGER:   WITNESSED BY
 CLNT.            A2DTECH:   CLIENT CODE
 ORIG.           5" PRINT:   ORIGIN OF DATA
 UWI .       490251029400:   UNIQUE WELL ID
 DICO. A2D Technologies, Inc.:   DIGITIZING COMPANY
~OTHER INFORMATION
~A   DEPT      GRD       CALD       CORR       DPHI       RHOB        SPR        ILD        ILM        LL8   
   30.0000  -999.2500  -999.2500  -999.2500  -999.2500  -999.2500  -999.2500  -999.2500  -999.2500  -999.2500
   30.5000   101.7068  -999.2500  -999.2500  -999.2500  -999.2500  -999.2500  -999.2500  -999.2500  -999.2500
   31.0000    98.8285  -999.2500  -999.2500  -999.2500  -999.2500  -999.2500  -999.2500  -999.2500  -999.2500
   31.5000    98.3724  -999.2500  -999.2500  -999.2500  -999.2500  -999.2500  -999.2500  -999.2500  -999.2500
   32.0000   101.2431  -999.2500  -999.2500  -999.2500  -999.2500  -999.2500  -999.2500  -999.2500  -999.2500
   32.5000   104.1145  -999.2500  -999.2500  -999.2500  -999.2500  -999.2500  -999.2500  -999.2500  -999.2500
   33.0000   106.5320  -999.2500  -999.2500  -999.2500  -999.2500  -999.2500  -999.2500  -999.2500  -999.2500
   33.5000   108.0426  -999.2500  -999.2500  -999.2500  -999.2500  -999.2500  -999.2500  -999.2500  -999.2500
   34.0000   105.9208  -999.2500  -999.2500  -999.2500  -999.2500  -999.2500  -999.2500  -999.2500  -999.2500
   34.5000   103.9511  -999.2500  -999.2500  -999.2500  -999.2500  -999.2500  -999.2500  -999.2500  -999.2500
   35.0000   101.9813  -999.2500  -999.2500  -999.2500  -999.2500  -999.2500  -999.2500  -999.2500  -999.2500
   35.5000   100.4655  -999.2500  -999.2500  -999.2500  -999.2500  -999.2500  -999.2500  -999.2500  -999.2500
   36.0000   100.1599  -999.2500  -999.2500  -999.2500  -999.2500  -999.2500  -999.2500  -999.2500  -999.2500
   36.5000    99.7030  -999.2500  -999.2500  -999.2500  -999.2500  -999.2500  -999.2500  -999.2500  -999.2500
   37.0000    97.8845  -999.2500  -999.2500  -999.2500  -999.2500  -999.2500  -999.2500  -999.2500  -999.2500
   37.5000    97.4276  -999.2500  -999.2500  -999.2500  -999.2500  -999.2500  -999.2500  -999.2500  -999.2500
   38.0000    97.8785  -999.2500  -999.2500  -999.2500  -999.2500  -999.2500  -999.2500  -999.2500  -999.2500
   38.5000    98.9344  -999.2500  -999.2500  -999.2500  -999.2500  -999.2500  -999.2500  -999.2500  -999.2500
   39.0000   100.2930  -999.2500  -999.2500  -999.2500  -999.2500  -999.2500  -999.2500  -999.2500  -999.2500
   39.5000   101.8028  -999.2500  -999.2500  -999.2500  -999.2500  -999.2500  -999.2500  -999.2500  -999.2500
   40.0000   102.8588  -999.2500  -999.2500  -999.2500  -999.2500  -999.2500  -999.2500  -999.2500  -999.2500
   40.5000   102.0993  -999.2500  -999.2500  -999.2500  -999.2500  -999.2500  -999.2500  -999.2500  -999.2500
   41.0000    98.7680  -999.2500  -999.2500  -999.2500  -999.2500  -999.2500  -999.2500  -999.2500  -999.2500
   41.5000    96.9496  -999.2500  -999.2500  -999.2500  -999.2500  -999.2500  -999.2500  -999.2500  -999.2500
   42.0000    96.1901  -999.2500  -999.2500  -999.2500  -999.2500  -999.2500  -999.2500  -999.2500  -999.2500
   42.5000    97.5487  -999.2500  -999.2500  -999.2500  -999.2500  -999.2500  -999.2500  -999.2500  -999.2500
   43.0000   103.1432  -999.2500  -999.2500  -999.2500  -999.2500  -999.2500  -999.2500  -999.2500  -999.2500
   43.5000   111.3096  -999.2500  -999.2500  -999.2500  -999.2500  -999.2500  -999.2500  -999.2500  -999.2500
   44.0000   121.4428  -999.2500  -999.2500  -999.2500  -999.2500  -181.0413     9.5018     7.1336  1024.3030
   44.5000   129.0040     8.0331     0.0191     0.1503     2.4160  -185.8744    15.1024    14.6715   824.4343
   45.0000   132.1780     8.0330     0.0138     0.1603     2.3886  -187.5155     7.5580     8.7193  1560.2360
   45.5000   133.2347     8.0781     0.0108     0.1664     2.3789  -195.0707     6.4891     7.5884  1506.8521
   46.0000   130.0540     8.0931     0.0138     0.1699     2.3728  -199.7557     6.1807     7.1278  1581.5959
   46.5000   129.4458     8.1231     0.0100     0.1630     2.3827  -199.7579     6.0941     8.0739  1648.6302
   47.0000   130.6531     8.1230     0.0174     0.1510     2.4030  -199.7602     6.6661    10.5063  1454.8969
   47.5000   133.0706     8.1229     0.0227     0.1420     2.4150  -199.1582     8.7129    13.8674  1385.8087
   48.0000   134.5804     8.1379     0.0264     0.1494     2.4021  -195.0819     9.3520    10.7223  1569.8058
   48.5000   134.2748     8.1378     0.0129     0.1536     2.4013  -190.7034     7.8923     8.0693  1580.5239
   49.0000   134.7257     8.1226     0.0181     0.1582     2.3983  -186.9292     7.3362     7.2181  1580.2986
   49.5000   136.0842     8.1225     0.0203     0.1630     2.3884  -173.9406     7.3343     7.1667  1580.0824
   50.0000   134.2658     8.1224     0.0083     0.1664     2.3778  -121.2237     7.2317     7.1653  1547.3345
   50.5000   133.9609     8.1223     0.0007     0.1664     2.3725  -118.8085     7.0813     7.1638  1547.1198
   51.0000   136.8316     8.1222     0.0022     0.1634     2.3808  -119.8682     6.8862     7.0637  1546.9053
   51.5000   137.8883     8.1221     0.0067     0.1631     2.3815  -115.7924     6.7430     6.9649  1546.6907
   52.0000   134.2537     8.0918     0.0119     0.1543     2.3769   -94.6466     6.6486     6.9154  1557.2512
   52.5000   133.3429     8.0744     0.0141     0.1503     2.3776   -82.8664     6.6011     6.8662  1556.9850
   53.0000   134.3989     8.0614     0.0051     0.1556     2.3867   -76.2221     6.5539     6.7702  1524.7157
   53.5000   135.9095     8.0613     0.0028     0.1577     2.3949   -73.5053     6.4621     6.5836  1503.5067
   54.0000   134.6962     8.0913     0.0170     0.1489     2.4032   -72.2991     6.4159     6.4916  1524.2987
   54.5000   137.8694     8.0912     0.0193     0.1459     2.4099   -74.4554     6.3701     6.4454  1534.7498
   55.0000   139.8331     8.1062     0.0125     0.1532     2.4054   -74.7205     6.3684     6.3995  1534.4874
   55.5000   139.5275     8.1212     0.0072     0.1578     2.3940   -72.4993     6.4110     6.3101  1545.0083
   56.0000   136.9526     8.1211     0.0019     0.1626     2.3857   -64.4536     6.4539     6.2652  1544.7441
   56.5000   134.0751     8.1361     0.0094     0.1635     2.3811   -62.9453     6.4522     6.2206  1555.3354
   57.0000   131.3490     8.1511     0.0108     0.1605     2.3841   -65.0623     6.4060     6.2248  1555.0696
   57.5000   130.2869     8.1509     0.0010     0.1615     2.3788   -70.8047     6.3963     6.2613  1544.1105
   58.0000   129.9813     8.1508     0.0093     0.1654     2.3735   -69.9006     6.3583     6.3036  1543.8993
   58.5000   129.5245     8.1507     0.0198     0.1678     2.3749   -67.1838     6.3128     6.3903  1543.6881
   59.0000   128.9163     8.1204     0.0152     0.1567     2.3847   -70.0562     6.2677     6.4783  1543.4760
   59.5000   129.2158     8.1053     0.0032     0.1434     2.4148   -74.4391     6.3538     6.5674  1543.2618
   60.0000   137.0797     8.0901    -0.0028     0.1334     2.4308   -76.7072     6.4407     6.7038  1543.0477
   60.5000   141.7673     8.0900     0.0099     0.1419     2.4095   -78.6732     6.5288     6.7024  1532.1282
   61.0000   139.3429     8.1049     0.0174     0.1561     2.3943   -80.7902     6.6181     6.7480  1531.9186
   61.5000   137.5245     8.1048     0.0143     0.1631     2.3830   -84.2668     6.6159     6.7463  1531.7091
   62.0000   136.0086     8.1047     0.0218     0.1652     2.3777   -90.0092     6.7069     6.7922  1531.4996
   62.5000   133.8875     8.1197     0.0270     0.1556     2.3920   -85.3286     6.7047     6.8380  1531.2902
   63.0000   130.2536     8.1196     0.0165     0.1456     2.3934   -84.9924     6.7030     6.8842  1531.0807
   63.5000   125.4095     8.1346     0.0315     0.1390     2.4055   -87.5990     6.7479     6.9304  1541.5255
   64.0000   119.3550     8.1495     0.0329     0.1338     2.4288   -87.4502     6.8401     6.9289  1552.0417
   64.5000   114.2083     8.1494     0.0209     0.1305     2.4273   -85.3225     6.8383     6.9757  1551.8295
   65.0000   112.8437     8.1644     0.0134     0.1354     2.4189   -80.7176     6.8366     6.9743  1551.6172
   65.5000   115.1099     8.1643     0.0223     0.1414     2.4159   -77.6382     6.8306     6.9246  1551.4050
   66.0000   123.5789     8.1491     0.0298     0.1427     2.4196   -76.7885     6.7323     6.8754  1551.1929
