~VERSION INFORMATION
 VERS.                2.0:   CWLS LOG ASCII STANDARD - VERSION 2.0
 WRAP.                 NO:   ONE LINE PER DEPTH STEP
~WELL INFORMATION
#MNEM.UNIT      DATA TYPE    INFORMATION
#----------   ------------   ------------------------------
 STRT.F           29.0000:   START DEPTH
 STOP.F          642.0000:   STOP DEPTH
 STEP.F            0.5000:   STEP LENGTH
 NULL.          -999.2500:   NO VALUE
 COMP. FENIX & SCISSON INC:   COMPANY
 WELL.    NPR-3 SX #21-10:   WELL
 FLD .  TEAPOT DOME NPR 3:   FIELD
 LOC .      S10 T38N R78W:   LOCATION
 CNTY.            NATRONA:   COUNTY
 STAT.            WYOMING:   STATE
 CTRY. UNITED STATES OF AMERICA:   COUNTRY
 SRVC.            Unknown:   SERVICE COMPANY
 DATE.        03-JUL-1978:   LOGDATE
 API .       490251065400:   API NUMBER
~CURVE INFORMATION
#MNEM.UNIT       API CODE    CURVE DESCRIPTION
#----------   ------------   ------------------------------
 DEPT.F                  :   
 SPR .MV     05 010 01 00:   SPONTANEOUS POTENTIAL FROM RES.
 SN  .OHMM   05 040 16 00:   SHORT NORMAL 16"
 ILD .OHMM   05 120 46 00:   INDUCTION LOG DEEP
 CALD.IN     45 280 60 00:   CALIPER FROM DENSITY
 GRD .GAPI   45 310 01 00:   GAMMA RAY FROM DENSITY LOG
 CORR.G/C3   45 356 01 00:   DENSITY CORRECTION
 DPHI.DEC    45 890 12 00:   DENSITY POROSITY SANDSTONE
 DEN .G/C3   45 350 01 00:   COMPENSATED BULK DENSTIY
~PARAMETER INFORMATION
#MNEM.UNIT          VALUE    DESCRIPTION
#----------   ------------   ------------------------------
 PD  .                 GL:   PERMANENT DATUM
 EPD .F              5253:   ELEVATION PERMANENT DATUM
 LMF .                 KB:   LOG MEASURED FROM
 DAPD.F                 4:   FEET ABOVE PERMANENT DATUM
 DMF .                 KB:   DRILLING MEASURED FROM
 EKB .F              5257:   KELLING BUSHING
 EGL .F              5253:   GROUND LEVEL
 DATE.           7-3-1978:   RUN DATE
 RUN .                  1:   RUN NUMBER
 DD  .F               650:   DEPTH DRILLER
 DL  .F               648:   DEPTH LOGGER
 BLI .F               642:   BOTTOM LOG INTERVAL
 TLI .F                40:   TOP LOG INTERVAL
 CS  .IN            8.625:   CASING SIZE
 CBD .F                40:   CASING BOTTOM DRILLER
 CBL .F                40:   CASING BOTTOM LOGGER
 BS  .IN            7.875:   BIT SIZE
 BSD .F               650:   BIT SIZE AT DEPTH
 DFT .                KCL:   DRILLING FLUID TYPE
 DFD .                8.6:   DRILLING FLUID DENSITY
 DFV .                 32:   DRILLING FLUID VISCOSITY
 DFPH.                  9:   DRILLING FLUID PH
 MSS .           FLOWLINE:   MUD SAMPLE SOURCE
 RMS .OHMM            .24:   RESISTIVITY MUD SAMPLE
 MST .F                88:   MUD SAMPLE TEMPERATURE
 RMF .OHMM            .24:   RESISTIVITY MUD FILTRATE SAMPLE
 MFST.F                94:   MUD FILTRATE SAMPLE TEMPERATURE
 RMC .OHMM            .46:   RESISTIVITY MUD CAKE
 MCST.F                96:   MUD CAKE SAMPLE TEMPERATURE
 MFSS.               MEAS:   MUD FILTRATE SAMPLE SOURCE
 MCSS.               MEAS:   MUD CAKE SAMPLE SOURCE
 TCS .HRS               2:   TIME CURCULATED STOPPED
 LUN .               2958:   LOGGING UNIT NUMBER
 LUL .               CASP:   LOGGING UNIT LOCATION
 CLNT.            A2DTECH:   CLIENT CODE
 ORIG.           5" PRINT:   ORIGIN OF DATA
 UWI .       490251065400:   UNIQUE WELL ID
 DICO. A2D Technologies, Inc.:   DIGITIZING COMPANY
~OTHER INFORMATION
~A   DEPT      SPR         SN        ILD       CALD        GRD       CORR       DPHI        DEN   
# ...
  312.5000   -21.2778     8.0808     8.1507     8.1886   113.2989     0.0030     0.1365     2.4581
  313.0000   -21.2546     8.1427     8.1573     8.1886   112.7011    -0.0030     0.1341     2.4641
  313.5000   -21.2313     8.2629     8.2259     8.1886   112.2817    -0.0030     0.1428     2.4701
  314.0000   -21.0592     8.3836     8.3425     8.1886   112.2753    -0.0016     0.1443     2.4521
  314.5000   -20.8869     8.3898     8.4069     8.1886   111.8294     0.0014     0.1419     2.4551
  315.0000   -20.8631     8.4540     8.5891     8.1737   110.3638     0.0028     0.1416     2.4573
  315.5000   -20.8348     8.5186     8.7151     8.1587   109.6327     0.0028     0.1404     2.4543
  316.0000   -20.8115     8.5249     8.8411     8.1587   111.4140     0.0028     0.1353     2.4603
  316.5000   -20.7883     8.4712     8.6676     8.1587   115.8309     0.0027     0.1320     2.4640
  317.0000   -20.7650     8.4207     8.6168     8.1587   116.5693     0.0027     0.1314     2.4655
  317.5000   -20.8905     8.3693     8.6238     8.1587   115.6858    -0.0003     0.1347     2.4707
  318.0000   -21.0219     8.2612     8.6308     8.1587   114.8024    -0.0033     0.1375     2.4722
  318.5000   -21.1474     8.2106     8.6377     8.1587   114.8038    -0.0033     0.1387     2.4639
  319.0000   -21.1183     8.1604     8.5855     8.1587   114.5103    -0.0034     0.1485     2.4587
  319.5000   -21.0951     8.1680     8.5335     8.1587   112.7419    -0.0034     0.1453     2.4482
  320.0000   -21.2206     8.1165     8.5421     8.1587   114.2183     0.0010     0.1430     2.4452
  320.5000   -21.3462     8.1240     8.5490     8.1587   114.5148    -0.0005     0.1401     2.4519
  321.0000   -21.4659     8.1300     8.4973     8.1587   112.3039    -0.0035     0.1407     2.4728
  321.5000   -21.5914     8.1361     8.5041     8.1587   108.8987    -0.0080     0.1488     2.4698
  322.0000   -21.5682     8.0848     8.5110     8.1587   109.7994     0.0009     0.1400     2.4421
  322.5000   -21.5449     8.0353     8.5179     8.1587   112.0133     0.0084     0.1375     2.4436
  323.0000   -21.5216     8.0428     8.5247     8.1587   111.8673     0.0128     0.1361     2.4615
  323.5000   -21.4984     8.0487     8.7696     8.1587   112.1638     0.0023     0.1286     2.4683
  324.0000   -21.4751     8.0547     9.0215     8.1587   110.5428    -0.0037     0.1343     2.4787
  324.5000   -21.4518     8.0054     8.7146     8.1587   106.1195    -0.0037     0.1379     2.4751
  325.0000   -21.4286     8.0116     8.4165     8.1587   106.5635    -0.0008     0.1424     2.4643
  325.5000   -21.5541     7.9623     8.1585     8.1587   108.6299     0.0022     0.1454     2.4485
  326.0000   -21.5250     7.8594     8.0535     8.1587   111.1387     0.0037     0.1469     2.4457
  326.5000   -21.5018     7.8666     7.8954     8.1587   114.6800     0.0036     0.1388     2.4543
  327.0000   -21.4785     7.8725     7.9018     8.1587   116.8939     0.0051     0.1391     2.4614
  327.5000   -21.4552     7.8229     7.8524     8.1587   115.4204     0.0111     0.1376     2.4517
  328.0000   -21.4320     7.8301     7.8049     8.1587   114.6841     0.0140     0.1328     2.4563
  328.5000   -21.4087     7.8359     7.7576     8.1587   114.8334     0.0140     0.1319     2.4763
  329.0000   -21.3854     7.8417     7.7120     8.1587   114.8349     0.0125     0.1362     2.4688
  329.5000   -21.3622     7.8475     7.7184     8.1587   111.2962     0.0109     0.1365     2.4650
  330.0000   -21.3389     7.7995     7.7248     8.1587   112.9204     0.0109     0.1467     2.4674
  330.5000   -21.3155     7.7475     7.7312     8.1570   112.1841     0.0109     0.1407     2.4471
  331.0000   -21.4583     7.7044     7.6841     8.1437   112.6284     0.0123     0.1371     2.4456
  331.5000   -21.5667     7.5022     7.5333     8.1426   114.5473     0.0123     0.1341     2.4523
  332.0000   -21.6923     7.3545     7.3362     8.1287   116.0237     0.0123     0.1353     2.4695
  332.5000   -21.6632     7.3081     7.2903     8.1287   113.8128     0.0108     0.1383     2.4725
  333.0000   -21.6399     7.2149     7.1486     8.1138   110.2745     0.0076     0.1377     2.4657
  333.5000   -21.6166     7.1203     7.1544     8.0988   109.2435     0.0031     0.1413     2.4620
  334.0000   -21.5934     7.1269     7.0624     8.0838   107.1801    -0.0014     0.1485     2.4605
  334.5000   -21.7247     7.0820     6.9713     8.0539   106.8862    -0.0043     0.1488     2.4417
  335.0000   -21.6957     7.0886     6.9771     8.0389   110.4279    -0.0043     0.1548     2.4432
  335.5000   -21.6724     7.1604     6.9828     8.0389   111.6093    -0.0044     0.1539     2.4470
  336.0000   -21.9467     7.2591     7.0440     8.0389   112.0532    -0.0029     0.1542     2.4290
  336.5000   -22.0723     7.3538     7.1906     8.0389   111.9069     0.0016     0.1605     2.4237
  337.0000   -22.0432     7.4612     7.2961     8.0389   112.2037     0.0060     0.1522     2.4275
  337.5000   -22.0199     7.5702     7.4031     8.0539   113.3851     0.0090     0.1432     2.4417
  338.0000   -21.9967     7.8409     7.6158     8.0838   115.1565     0.0119     0.1414     2.4514
  338.5000   -21.9734     7.7915     7.7809     8.1587   116.6329     0.0089     0.1381     2.4588
  339.0000   -21.9501     7.6394     7.6281     8.1886   116.7815     0.0014     0.1375     2.4641
  339.5000   -21.9269     7.5406     7.5819     8.2186   112.8011    -0.0031     0.1495     2.4670
  340.0000   -21.9036     7.4431     7.4331     8.2186   110.8851    -0.0016     0.1519     2.4363
  340.5000   -22.0298     7.3976     7.4391     8.2036   109.2638     0.0058     0.1444     2.4356
  341.0000   -22.0059     7.4033     7.3941     8.2036   109.2657     0.0117     0.1409     2.4453
  341.5000   -21.9821     7.4099     7.3426     8.1886   110.4471     0.0132     0.1343     2.4610
  342.0000   -21.9593     7.4154     7.2547     8.1587   113.8409     0.0147     0.1427     2.4677
  342.5000   -22.2337     7.3195     7.2108     8.1587   115.9073     0.0117     0.1364     2.4632
  343.0000   -22.3592     7.1753     7.1181     8.1737   115.6138     0.0042     0.1334     2.4669
  343.5000   -22.4848     7.0327     7.0750     8.2036   112.3704    -0.0019     0.1439     2.4707
  344.0000   -22.9079     6.9897     6.9375     8.2186   111.1916     0.0011     0.1511     2.4572
  344.5000   -23.0335     6.8993     6.7546     8.2036   111.3409     0.0011     0.1511     2.4347
  345.0000   -23.1590     6.8581     6.5315     8.2036   109.8675     0.0010     0.1511     2.4369
  345.5000   -23.2798     6.8164     6.3594     8.1886   107.5091     0.0025     0.1496     2.4407
  346.0000   -23.1067     6.3243     6.1918     8.1886   108.1005     0.0070     0.1460     2.4445
  346.5000   -22.9345     6.1538     6.1107     8.2036   112.8218     0.0069     0.1500     2.4459
  347.0000   -22.9107     6.0776     6.0335     8.2036   116.9530     0.0039     0.1502     2.4447
  347.5000   -22.7334     6.1253     5.9970     8.2186   119.1669     0.0069     0.1513     2.4360
  348.0000   -22.7102     6.1721     6.0445     8.2186   119.3159     0.0113     0.1560     2.4330
  348.5000   -22.3893     6.2193     6.1755     8.2036   118.7270     0.0098     0.1400     2.4342
  349.0000   -22.2172     6.3976     6.3529     8.1886   118.1385     0.0068     0.1362     2.4519
  349.5000   -22.4916     6.6721     6.5805     8.1886   117.2554     0.0053     0.1353     2.4578
  350.0000   -22.6171     6.9589     6.8380     8.2036   112.3897     0.0050     0.1353     2.4672
  350.5000   -22.7428     7.2574     7.2574     8.1739   113.5741     0.0037     0.1356     2.4689
  351.0000   -22.7173     7.5684     7.3635     8.1743   114.6109     0.0007     0.1356     2.4636
  351.5000   -22.6920     7.6790     7.4710     8.1746   114.4667    -0.0023     0.1350     2.4607
  352.0000   -22.6667     7.8450     7.5282     8.1748   114.0297    -0.0039     0.1406     2.4650
  352.5000   -22.6366     7.9050     7.6382     8.1751   115.3615    -0.0009     0.1407     2.4689
