~VERSION INFORMATION
 VERS.                2.0:   CWLS LOG ASCII STANDARD - VERSION 2.0
 WRAP.                 NO:   ONE LINE PER DEPTH STEP
~WELL INFORMATION
#MNEM.UNIT      DATA TYPE    INFORMATION
#----------   ------------   ------------------------------
 STRT.F           75.0000:   START DEPTH
 STOP.F          859.0000:   STOP DEPTH
 STEP.F            0.5000:   STEP LENGTH
 NULL.          -999.2500:   NO VALUE
 COMP. U S NAVY/INTEX OIL CO:   COMPANY
 WELL.     NPR ##3 14S-35:   WELL
 FLD .             TEAPOT:   FIELD
 LOC .      S35 T39N R78W:   LOCATION
 CNTY.            NATRONA:   COUNTY
 STAT.            WYOMING:   STATE
 CTRY. UNITED STATES OF AMERICA:   COUNTRY
 SRVC. Schlumberger Well Surveying Corp:   SERVICE COMPANY
 DATE.        27-FEB-1961:   LOGDATE
 API .       490251023000:   API NUMBER
~CURVE INFORMATION
#MNEM.UNIT       API CODE    CURVE DESCRIPTION
#----------   ------------   ------------------------------
 DEPT.F                  :   
 GRN .CPS    35 310 30 00:   GAMMA RAY
 SPR .MV     05 010 01 00:   SPONTANEOUS POTENTIAL FROM RES.
 ILD .OHMM   05 120 46 00:   INDUCTION LOG DEEP
 ASN .OHMM   05 041 16 00:   AMPLIFIED SHORT NORMAL 16"
 CILD.MMHO   05 110 46 00:   CONDUCTIVITY INDUCTION LOG DEEP
~PARAMETER INFORMATION
#MNEM.UNIT          VALUE    DESCRIPTION
#----------   ------------   ------------------------------
 PD  .                 GL:   PERMANENT DATUM
 EPD .F              5110:   ELEVATION PERMANENT DATUM
 LMF .                 KB:   LOG MEASURED FROM
 DAPD.F                 4:   FEET ABOVE PERMANENT DATUM
 DMF .                 KB:   DRILLING MEASURED FROM
 EKB .F              5114:   KELLING BUSHING
 EGL .F              5110:   GROUND LEVEL
 DATE.            2-27-61:   RUN DATE
 RUN .                  1:   RUN NUMBER
 DD  .F               862:   DEPTH DRILLER
 DL  .F               860:   DEPTH LOGGER
 BLI .F               859:   BOTTOM LOG INTERVAL
 TLI .F                84:   TOP LOG INTERVAL
 CBD .F                12:   CASING BOTTOM DRILLER
 BS  .IN            7.875:   BIT SIZE
 BSD .F               862:   BIT SIZE AT DEPTH
 DFT .       GEL-OIL EMUL:   DRILLING FLUID TYPE
 DFD .                9.4:   DRILLING FLUID DENSITY
 DFV .                 33:   DRILLING FLUID VISCOSITY
 DFPH.                  8:   DRILLING FLUID PH
 DFL .               19.4:   DRILLING FLUID LOSS
 MSS .          FLOW LINE:   MUD SAMPLE SOURCE
 RMS .OHMM            .76:   RESISTIVITY MUD SAMPLE
 MST .F                73:   MUD SAMPLE TEMPERATURE
 RMF .OHMM            .52:   RESISTIVITY MUD FILTRATE SAMPLE
 MFST.F                73:   MUD FILTRATE SAMPLE TEMPERATURE
 RMC .OHMM            1.7:   RESISTIVITY MUD CAKE
 MCST.F                73:   MUD CAKE SAMPLE TEMPERATURE
 MFSS.                  M:   MUD FILTRATE SAMPLE SOURCE
 MCSS.                  M:   MUD CAKE SAMPLE SOURCE
 RMB .OHMM            .73:   RESISTIVITY MUD AT BHT
 BHT .F                77:   BOTTOM HOLE TEMPERATURE
 TCS .HRS               1:   TIME CURCULATED STOPPED
 MRT .F                77:   MAXIMUM RECORDED TEMPERATURE
 LUN .               2523:   LOGGING UNIT NUMBER
 LUL .               CSPR:   LOGGING UNIT LOCATION
 ENGI.             KNOBEL:   RECORDING ENGINEER
 WITN.          JORGENSEN:   WITNESSED BY
 CLNT.            A2DTECH:   CLIENT CODE
 ORIG.       2", 5" PRINT:   ORIGIN OF DATA
 UWI .       490251023000:   UNIQUE WELL ID
 DICO. A2D Technologies, Inc.:   DIGITIZING COMPANY
~OTHER INFORMATION
~A   DEPT      GRN        SPR        ILD        ASN       CILD   
# ...
  746.0000    53.2392   -27.6109    16.1916    17.2790    61.0067
  746.5000    52.1627   -27.6127    16.1254    17.2381    61.1059
  747.0000    50.3036   -27.6114    16.0742    17.1935    61.5196
  747.5000    48.8552   -27.6113    15.9773    17.1479    61.9334
  748.0000    46.9983   -27.6110    15.8127    17.0583    62.3472
  748.5000    44.5347   -27.6107    15.6597    16.9715    62.7610
  749.0000    47.3321   -27.6104    15.5001    16.8829    63.1748
  749.5000    49.5350   -27.6104    15.4105    16.7974    63.5886
  750.0000    47.6367   -27.6104    15.3652    16.7049    64.0093
  750.5000    50.8032   -27.6104    15.3161    16.6083    64.4469
  751.0000    52.9202   -27.6103    15.2692    16.5006    64.8844
  751.5000    52.6334   -27.6104    15.2211    16.3857    65.3220
  752.0000    56.0871   -27.6103    15.1737    16.2730    65.7596
  752.5000    59.3892   -27.6102    15.1260    16.1594    66.0678
  753.0000    60.5493   -27.6117    15.0784    16.0458    66.3179
  753.5000    58.6268   -27.6294    15.0307    15.9330    66.5680
  754.0000    60.1821   -27.6491    14.9829    15.8185    66.8180
  754.5000    59.6351   -27.6686    14.9352    15.7072    67.0681
  755.0000    60.5685   -27.6886    14.8874    15.5904    67.3182
  755.5000    60.7081   -27.7077    14.8399    15.5246    67.5683
  756.0000    58.9415   -27.7290    14.7920    15.5022    67.8183
  756.5000    60.5861   -27.7458    14.7448    15.4732    68.1006
  757.0000    60.7063   -27.7709    14.6961    15.4476    68.4007
  757.5000    59.1878   -27.7810    14.6502    15.4201    68.7008
  758.0000    60.2585   -27.8193    14.5993    15.3936    69.0009
  758.5000    56.6343   -27.6845    14.5591    15.3671    69.3009
  759.0000    55.1956   -27.4403    14.4789    15.3379    69.6010
  759.5000    51.9266   -27.2343    14.3717    15.2764    69.9195
  760.0000    48.3862   -27.0105    14.2756    15.2158    70.1934
  760.5000    48.2275   -26.7989    14.1769    15.1549    70.4851
  761.0000    48.4968   -26.5738    14.0760    15.0943    70.7769
  761.5000    47.7691   -26.4107    13.9834    15.0334    71.2767
  762.0000    48.4752   -26.4053    13.8531    14.9728    71.9929
  762.5000    49.7436   -26.4040    13.7340    14.9117    72.7090
  763.0000    50.2585   -26.4067    13.7318    14.8518    73.4251
  763.5000    49.3997   -26.4047    13.7306    14.7885    73.9437
  764.0000    50.6436   -26.4080    13.7290    14.7467    73.9437
  764.5000    52.2386   -26.4047    13.7480    14.8064    73.9437
  765.0000    52.2299   -26.4028    13.9078    14.8673    73.3839
  765.5000    53.1758   -26.2052    14.0561    14.9292    72.4413
  766.0000    50.8848   -25.9195    14.2085    14.9904    71.4987
  766.5000    48.6291   -25.6421    14.3592    15.0515    70.5562
  767.0000    49.9034   -25.4021    14.5163    15.1139    69.6136
  767.5000    48.4041   -25.2828    14.5785    15.1737    68.6710
  768.0000    48.7108   -25.1771    14.6443    15.2384    67.7284
  768.5000    45.6613   -25.0719    14.7145    15.2406    66.9014
  769.0000    43.9279   -24.9665    14.7258    15.2496    66.9014
  769.5000    45.6850   -24.8604    14.6453    15.1747    66.9014
  770.0000    47.2526   -24.7571    14.4236    15.0306    66.9014
  770.5000    46.4008   -24.6481    14.1600    14.8578    69.0247
  771.0000    46.0399   -24.5494    13.8978    14.6796    71.0327
  771.5000    44.4485   -24.4317    13.6332    14.5056    73.0406
  772.0000    46.4501   -24.4482    13.3727    14.3289    75.0485
  772.5000    51.0334   -24.5724    13.1043    14.1554    77.0565
  773.0000    52.5536   -24.6741    12.8513    13.9752    79.0663
  773.5000    50.7420   -24.7859    12.5638    13.8381    80.9373
  774.0000    53.2401   -24.8923    12.4027    13.8320    82.6908
  774.5000    51.7308   -24.9995    12.4062    13.8315    84.0129
  775.0000    52.6363   -25.1134    12.3804    13.8326    84.0117
  775.5000    53.8657   -25.1708    12.3696    13.8321    84.0106
  776.0000    50.2525   -24.8975    12.3506    13.8327    84.0040
  776.5000    53.6993   -24.6447    12.3359    13.8327    84.0040
  777.0000    51.9036   -24.3930    12.3191    13.8329    84.0040
  777.5000    48.4387   -24.5716    12.3032    13.8330    84.0040
  778.0000    48.3400   -24.8822    12.2868    13.8330    84.0040
  778.5000    49.5213   -25.1740    12.2704    13.8330    84.0040
  779.0000    53.2597   -25.1541    12.2540    13.8330    84.0040
  779.5000    57.0970   -24.5760    12.2375    13.8330    84.0040
  780.0000    54.9141   -24.0433    12.2210    13.8330    83.9586
  780.5000    53.5679   -23.9898    12.2046    13.8330    83.9081
  781.0000    56.4058   -24.0090    12.1881    13.8330    83.8576
  781.5000    54.1194   -24.0157    12.1717    13.8330    83.8071
  782.0000    51.0578   -24.0254    12.1552    13.8330    83.7566
  782.5000    48.0839   -24.0347    12.1383    13.8330    83.7061
  783.0000    45.6710   -24.0443    12.1261    13.8330    83.6556
  783.5000    46.3992   -24.0546    12.1545    13.8330    83.6051
  784.0000    48.6519   -24.0644    12.1872    13.8330    83.5546
  784.5000    53.1869   -24.0739    12.2196    13.8330    83.5041
  785.0000    56.5889   -24.0834    12.2519    13.8330    83.4536
  785.5000    58.8809   -24.0928    12.2843    13.8332    83.4031
  786.0000    62.1591   -24.1023    12.3168    13.8331    83.3526
  786.5000    63.5841   -24.1118    12.3491    13.8337    83.3021
  787.0000    56.5190   -24.1213    12.3820    13.8328    83.2516
  787.5000    51.7658   -24.1307    12.4135    13.8346    83.2011
  788.0000    53.7958   -24.1402    12.4476    13.8315    83.1506
  788.5000    55.9472   -24.1496    12.4770    13.8379    83.1001
  789.0000    57.6245   -24.1590    12.5154    13.7876    83.0496
  789.5000    54.8107   -24.1685    12.4971    13.6796    82.9980
  790.0000    56.2360   -24.1780    12.4293    13.5845    83.8531
  790.5000    57.4219   -24.1870    12.3714    13.4786    84.7284
  791.0000    56.3805   -24.2000    12.3087    13.4050    85.6036
  791.5000    58.3474   -24.2473    12.2486    13.3603    86.4789
  792.0000    56.2136   -24.2969    12.1872    13.3110    87.0221
  792.5000    58.2751   -24.3463    12.1263    13.2638    87.0221
  793.0000    56.2290   -24.3956    12.0653    13.2161    87.0221
  793.5000    53.4127   -24.4450    12.0041    13.1673    87.0221
  794.0000    55.7771   -24.4947    11.9438    13.1300    87.3215
  794.5000    57.2243   -24.5440    11.8817    13.1285    88.1618
  795.0000    55.4383   -24.5940    11.8230    13.1281    89.0020
  795.5000    59.0964   -24.6426    11.7561    13.1284    89.8422
  796.0000    61.7474   -24.6932    11.7092    13.1281    90.6825
  796.5000    57.5425   -24.7416    11.6916    13.1284    91.2448
  797.0000    53.5440   -24.7910    11.6679    13.1276    91.5949
  797.5000    54.4448   -24.7170    11.6454    13.1277    91.9450
  798.0000    56.0424   -24.6069    11.6255    13.1318    92.2344
  798.5000    57.0776   -24.5032    11.6120    13.2156    92.4970
  799.0000    54.0644   -24.3970    11.6221    13.3057    92.7596
  799.5000    55.0638   -24.3076    11.5990    13.4108    93.0583
  800.0000    55.6378   -24.2118    11.7709    13.4958    91.9388
  800.5000    53.9613   -24.1295    12.0824    13.7020    90.6402
  801.0000    51.0574   -24.0218    12.3314    13.9752    86.0161
  801.5000    48.2270   -24.0777    12.8311    14.3280    82.0094
  802.0000    45.2000   -24.2696    13.7663    14.7756    76.7256
  802.5000    45.4262   -24.4337    14.8732    15.9573    71.4417
  803.0000    42.8090   -24.6050    16.2000    17.1394    66.1579
  803.5000    41.2611   -24.7878    17.5063    18.3512    60.8741
  804.0000    41.9127   -24.9653    18.9013    19.5547    55.5902
  804.5000    38.1114   -25.1471    20.5387    20.7590    50.3064
  805.0000    40.2864   -25.3188    21.3850    21.9625    45.0225
  805.5000    42.5592   -25.5131    21.4703    22.8122    42.7565
  806.0000    46.1998   -25.6100    20.9697    22.1609    43.8224
  806.5000    43.9187   -25.5681    20.0688    21.3366    46.4766
