~VERSION INFORMATION
 VERS.                2.0:   CWLS LOG ASCII STANDARD - VERSION 2.0
 WRAP.                 NO:   ONE LINE PER DEPTH STEP
~WELL INFORMATION
#MNEM.UNIT      DATA TYPE    INFORMATION
#----------   ------------   ------------------------------
 STRT.F           90.0000:   START DEPTH
 STOP.F         1312.0000:   STOP DEPTH
 STEP.F            0.5000:   STEP LENGTH
 NULL.          -999.2500:   NO VALUE
 COMP. US NAVY/ INTEX OIL CO:   COMPANY
 WELL. RES 3 TEAPOT DOME NPR "S' #42-2:   WELL
 FLD .             TEAPOT:   FIELD
 LOC .       S2 T38N R78W:   LOCATION
 CNTY.            NATRONA:   COUNTY
 STAT.            WYOMING:   STATE
 CTRY. UNITED STATES OF AMERICA:   COUNTRY
 SRVC. Schlumberger Well Surveying Corp:   SERVICE COMPANY
 DATE.        17-JUL-1964:   LOGDATE
 API .       490250646400:   API NUMBER
~CURVE INFORMATION
#MNEM.UNIT       API CODE    CURVE DESCRIPTION
#----------   ------------   ------------------------------
 DEPT.F                  :   
 GR  .GAPI   30 310 01 00:   GAMMA RAY
 CALS.IN     60 280 50 00:   CALIPER FROM SONIC LOG
 DT  .US/F   60 520 32 00:   INTERVAL TRANSIT TIME
 SPR .MV     05 010 01 00:   SPONTANEOUS POTENTIAL FROM RES.
 CILD.MMHO   05 110 46 00:   CONDUCTIVITY INDUCTION LOG DEEP
 ILD .OHMM   05 120 46 00:   INDUCTION LOG DEEP
 ASN .OHMM   05 040 16 00:   AMPLIFIED SHORT NORMAL 16"
~PARAMETER INFORMATION
#MNEM.UNIT          VALUE    DESCRIPTION
#----------   ------------   ------------------------------
 PD  .                 GL:   PERMANENT DATUM
 EPD .F              5142:   ELEVATION PERMANENT DATUM
 LMF .                 KB:   LOG MEASURED FROM
 DAPD.F                 8:   FEET ABOVE PERMANENT DATUM
 DMF .                 KB:   DRILLING MEASURED FROM
 EKB .F              5150:   KELLING BUSHING
 EGL .F              5142:   GROUND LEVEL
 DATE.          7-17-1964:   RUN DATE
 RUN .                  1:   RUN NUMBER
 DD  .F              1300:   DEPTH DRILLER
 DL  .F              1310:   DEPTH LOGGER
 BLI .F              1309:   BOTTOM LOG INTERVAL
 TLI .F               107:   TOP LOG INTERVAL
 CS  .IN            12.25:   CASING SIZE
 CBD .F                10:   CASING BOTTOM DRILLER
 BS  .IN               11:   BIT SIZE
 BSD .F              1300:   BIT SIZE AT DEPTH
 DFT .            GEL-OIL:   DRILLING FLUID TYPE
 DFD .                9.6:   DRILLING FLUID DENSITY
 DFV .                 63:   DRILLING FLUID VISCOSITY
 DFPH.                  8:   DRILLING FLUID PH
 DFL .                9.6:   DRILLING FLUID LOSS
 MSS .           FLOWLINE:   MUD SAMPLE SOURCE
 RMS .OHMM           2.07:   RESISTIVITY MUD SAMPLE
 MST .F                92:   MUD SAMPLE TEMPERATURE
 RMF .OHMM           1.42:   RESISTIVITY MUD FILTRATE SAMPLE
 MFST.F                92:   MUD FILTRATE SAMPLE TEMPERATURE
 RMC .OHMM           2.33:   RESISTIVITY MUD CAKE
 MCST.F                92:   MUD CAKE SAMPLE TEMPERATURE
 MFSS.                 FP:   MUD FILTRATE SAMPLE SOURCE
 MCSS.                 FP:   MUD CAKE SAMPLE SOURCE
 TCS .HRS               1:   TIME CURCULATED STOPPED
 LUN .               4507:   LOGGING UNIT NUMBER
 LUL .              CSPR.:   LOGGING UNIT LOCATION
 ENGI.             DANNER:   RECORDING ENGINEER
 WITN.          JORGENSEN:   WITNESSED BY
 CLNT.            A2DTECH:   CLIENT CODE
 ORIG.        2" 5" PRINT:   ORIGIN OF DATA
 UWI .       490250646400:   UNIQUE WELL ID
 DICO. A2D Technologies, Inc.:   DIGITIZING COMPANY
~OTHER INFORMATION
~A   DEPT       GR       CALS         DT        SPR        CILD         ILD        ASN 
# ...
  636.0000    61.5613    10.6805    98.7912   -41.7688   156.8296     6.7028     7.3820
  636.5000    64.7564    10.6600    98.9598   -41.5533   163.2633     6.3659     7.2590
  637.0000    68.1737    10.7072    99.2932   -41.3683   169.6970     6.0118     7.1407
  637.5000    68.1771    10.7531    99.9310   -41.1798   176.1307     5.8341     6.9884
  638.0000    66.9213    10.8217   100.6994   -40.9931   182.5644     5.8035     6.7989
  638.5000    67.7566    10.9047   102.0729   -40.8086   185.6857     5.7360     6.6180
  639.0000    68.9684    10.9964   103.4464   -40.6160   186.6867     5.6783     6.4288
  639.5000    67.7746    11.0873   104.3675   -40.4710   187.6877     5.6646     6.2651
  640.0000    67.6037    11.1831   103.8230   -40.4821   187.6877     5.8250     6.2136
  640.5000    69.0618    11.1055   103.2391   -40.5020   186.6867     5.9892     6.2327
  641.0000    69.9255    10.9765   102.5934   -40.5215   180.6887     6.1550     6.4223
  641.5000    70.5636    10.9146   101.5668   -40.5409   175.0270     6.3188     6.6190
  642.0000    66.0825    10.9034    99.5522   -40.5602   169.3654     6.4847     6.8178
  642.5000    63.8247    10.9105    99.6106   -40.5797   163.7037     6.6470     6.9353
  643.0000    66.8002    10.9782   100.0805   -40.5990   158.6587     6.8169     6.9885
  643.5000    67.9620    11.0057   100.5522   -40.6184   157.4356     6.9469     7.0499
  644.0000    68.6648    10.9656   100.4010   -40.6376   156.3224     6.9288     7.1076
  644.5000    68.6536    10.9894   100.2510   -40.6568   155.2198     6.9006     7.1603
  645.0000    67.9802    11.0266   100.7490   -40.6760   154.1255     6.8742     7.2046
  645.5000    68.0187    11.0152   101.0506   -40.6953   153.0292     6.8468     7.2367
  646.0000    70.4208    10.9078   100.5905   -40.7145   152.6638     6.8210     7.2268
  646.5000    72.3919    10.7794   100.1506   -40.7340   155.2283     6.7929     7.2252
  647.0000    70.0326    10.7077   100.1506   -40.7531   157.3939     6.7693     7.1743
  647.5000    67.2455    10.6652   100.4167   -40.7731   159.5172     6.7136     7.0952
  648.0000    63.5635    10.6228   100.6697   -40.7913   161.8473     6.6116     7.0259
  648.5000    63.7481    10.6276   100.9000   -40.8128   164.0531     6.5623     6.8989
  649.0000    62.7132    10.6470   101.0748   -40.8283   169.4144     6.1848     6.7819
  649.5000    61.4402    10.4612   101.2473   -40.8557   175.9860     5.7162     6.6742
  650.0000    61.9713    10.5141   101.4212   -40.8382   188.8555     5.3013     6.5581
  650.5000    62.5836     7.7196   101.5946   -40.6340   203.9084     4.8788     6.3340
  651.0000    61.9819     6.1235   102.1831   -40.4522   218.9612     4.3865     5.9772
  651.5000    60.1923     6.0086   103.5964   -40.2667   234.0140     4.2323     5.5400
  652.0000    61.7684     6.0984   108.3723   -40.0842   245.7457     4.2588     5.2169
  652.5000    63.9945     6.1966   112.9502   -39.8821   246.7467     4.2465     5.0892
  653.0000    62.9621     6.2526   112.4966   -39.8031   246.7467     4.2536     4.8693
  653.5000    60.8998     6.5218   111.9659   -39.7404   244.3363     4.2908     4.9679
  654.0000    58.7828     7.7267   110.9779   -39.6665   239.8879     4.3620     5.2383
  654.5000    57.8269    10.4183   105.1707   -39.6783   234.7347     4.7562     5.4868
  655.0000    60.1549    10.8178   102.6983   -39.7101   220.9320     5.2462     5.7696
  655.5000    62.6893    10.9330   102.3626   -39.7377   204.4117     5.7738     6.0407
  656.0000    63.6915    11.0083   102.3404   -39.7674   187.8986     6.1851     6.3092
  656.5000    63.9061    10.9426   103.2877   -39.7958   171.4143     6.4814     6.5784
  657.0000    66.9055    11.0176   103.4673   -39.8249   160.5467     6.7097     6.8666
  657.5000    67.4699    10.8856   103.2630   -39.8602   158.5780     6.7648     7.0622
  658.0000    67.5531    10.7318   103.6014   -39.9593   156.6378     6.8616     7.1307
  658.5000    67.6202    10.7041   103.3630   -40.0885   154.6927     6.9375     7.2199
  659.0000    67.7065    10.5925   103.1246   -40.2086   152.6401     7.0241     7.3042
  659.5000    70.1255    10.6909   102.8876   -40.3392   150.4825     7.1053     7.3897
  660.0000    70.7166    11.0629   102.6479   -40.4531   148.2583     7.1889     7.4779
  660.5000    66.7373    11.0204   102.1264   -40.6004   146.0340     7.2722     7.5927
  661.0000    65.6593    10.9518   101.2552   -40.6079   143.8098     7.3536     7.7146
  661.5000    65.7909    10.9254    99.9468   -40.4146   142.4825     7.4017     7.8347
  662.0000    65.1311    10.9500    99.2372   -40.2430   142.1455     7.4460     7.9252
  662.5000    65.8410    10.9654    97.9561   -40.0576   141.8085     7.4912     8.0155
  663.0000    67.2710    10.8379    96.4021   -39.8819   141.1311     7.5361     8.0885
  663.5000    70.0927    10.8032    96.1981   -39.8970   140.1201     7.5809     8.1432
  664.0000    69.9676    10.8083    96.4600   -39.9527   139.1091     7.6262     8.1988
  664.5000    73.7560    10.8142    96.6109   -39.9985   138.0981     7.6705     8.2399
  665.0000    76.5120    10.8067    96.5361   -40.0491   137.0871     7.7170     8.2820
  665.5000    70.4963    10.7161    97.1369   -40.0973   136.9169     7.7529     8.3196
  666.0000    67.3687    10.7864    97.1958   -40.1469   137.4224     7.7321     8.3655
  666.5000    66.3966    10.7990    97.2135   -40.1958   137.9279     7.7060     8.3637
  667.0000    71.0558    10.7977    97.0536   -40.2450   138.4334     7.6814     8.3340
  667.5000    75.8084    10.7590    97.0814   -40.2939   138.9389     7.6556     8.2755
  668.0000    79.9845    10.7187    97.1298   -40.3432   139.4444     7.6315     8.1897
  668.5000    76.4383    10.6785    97.4190   -40.3918   138.7087     7.6045     8.1079
  669.0000    77.4252    10.6593    97.7410   -40.4418   137.1922     7.5832     8.0350
  669.5000    77.2748    10.7137    98.1854   -40.4891   135.6757     7.5419     7.9117
  670.0000    73.8423    10.7225    98.6044   -40.5416   134.1592     7.3662     7.7434
  670.5000    72.7442    10.7424    99.0245   -40.5847   136.0561     7.2031     7.5982
  671.0000    72.1190    10.7740    99.4975   -40.6466   139.7631     7.0304     7.4347
  671.5000    72.2018    10.7318   100.1871   -40.6041   143.4701     6.7621     7.3000
  672.0000    70.9895    10.6424   100.9454   -40.4457   149.8939     6.4834     7.0828
  672.5000    68.8894    10.5693   101.9230   -40.3053   157.5776     6.2670     6.8078
  673.0000    68.4229    10.5407   102.9685   -40.1542   163.6637     5.8321     6.5910
  673.5000    66.9599    10.5517   104.3675   -40.0117   181.5749     5.2530     6.2586
  674.0000    65.5959    10.6522   105.7068   -39.8468   209.5562     4.7520     5.8548
  674.5000    68.2016    10.7160   107.1089   -39.5288   234.7347     4.2161     5.4930
  675.0000    71.8139    10.8482   109.5493   -39.1905   281.9248     3.7011     5.1158
  675.5000    75.5022    10.9881   112.5099   -38.8508   320.0544     3.1178     4.7532
  676.0000    79.2582    11.0189   115.9483   -38.5211   366.8669     2.8630     4.3293
  676.5000    79.6839    10.9947   119.3866   -38.1687   391.6566     2.6372     4.0222
  677.0000    78.5263    10.9700   122.2563   -37.8876   423.7563     2.3753     3.6157
  677.5000    78.0798    10.9460   123.2889   -37.7947   455.8559     2.2588     3.3325
  678.0000    80.2702    10.9194   124.0638   -37.6427   493.9940     2.2473     3.2415
  678.5000    80.5987    10.8142   123.5750   -37.7376   493.9940     2.2480     3.1063
  679.0000    82.5638    10.7091   124.0279   -37.8071   485.1318     2.2495     2.9864
  679.5000    84.9376    10.7257   124.7490   -37.9095   459.8913     2.3068     2.9639
  680.0000    85.0047    11.0432   120.4619   -38.0235   406.1633     2.5216     2.9902
  680.5000    86.6893    11.2598   116.3153   -38.1357   352.4353     3.0037     3.3301
  681.0000    92.4842    11.2902   114.4076   -38.2484   291.7918     3.4917     3.7835
