~VERSION INFORMATION
 VERS.                2.0:   CWLS LOG ASCII STANDARD - VERSION 2.0
 WRAP.                 NO:   ONE LINE PER DEPTH STEP
~WELL INFORMATION
#MNEM.UNIT      DATA TYPE    INFORMATION
#----------   ------------   ------------------------------
 STRT.F           28.0000:   START DEPTH
 STOP.F          630.0000:   STOP DEPTH
 STEP.F            0.5000:   STEP LENGTH
 NULL.          -999.2500:   NO VALUE
 COMP. FENIX & SCISSON INC:   COMPANY
 WELL. NAVAL PETROLEUM RESERVE 3 SX-1 #81-15:   WELL
 FLD .             TEAPOT:   FIELD
 LOC .      S15 T38N R78W:   LOCATION
 CNTY.            NATRONA:   COUNTY
 STAT.            WYOMING:   STATE
 CTRY. UNITED STATES OF AMERICA:   COUNTRY
 SRVC.           BIRDWELL:   SERVICE COMPANY
 DATE.        03-JUN-1978:   LOGDATE
 API .       490251063900:   API NUMBER
~CURVE INFORMATION
#MNEM.UNIT       API CODE    CURVE DESCRIPTION
#----------   ------------   ------------------------------
 DEPT.F                  :   
 SPR .MV     05 010 01 00:   SPONTANEOUS POTENTIAL FROM RES.
 SN  .OHMM   05 040 16 00:   SHORT NORMAL 16"
 ILD .OHMM   05 120 46 00:   INDUCTION LOG DEEP
 CALD.IN     45 280 60 00:   CALIPER FROM DENSITY LOG
 GRD .GAPI   45 310 01 00:   GAMMA RAY FROM DENSITY LOG
 CORR.G/C3   45 356 01 00:   DENSITY CORRECTION
 DPHI.DEC    45 890 12 00:   DENSITY POROSITY SANDSTONE
 DEN .G/C3   45 350 01 00:   COMPENSATED BULK DENSITY
~PARAMETER INFORMATION
#MNEM.UNIT          VALUE    DESCRIPTION
#----------   ------------   ------------------------------
 PD  .                 GL:   PERMANENT DATUM
 EPD .F              5263:   ELEVATION PERMANENT DATUM
 LMF .                 KB:   LOG MEASURED FROM
 DAPD.F                 4:   FEET ABOVE PERMANENT DATUM
 DMF .                 KB:   DRILLING MEASURED FROM
 EKB .F              5267:   KELLING BUSHING
 EGL .F              5263:   GROUND LEVEL
 DATE.        03-JUN-1978:   RUN DATE
 RUN .                  1:   RUN NUMBER
 DD  .F               632:   DEPTH DRILLER
 DL  .F               636:   DEPTH LOGGER
 BLI .F               630:   BOTTOM LOG INTERVAL
 TLI .F                40:   TOP LOG INTERVAL
 CS  .IN            8.625:   CASING SIZE
 CBD .F                40:   CASING BOTTOM DRILLER
 CBL .F                40:   CASING BOTTOM LOGGER
 BS  .IN            7.875:   BIT SIZE
 BSD .F               632:   BIT SIZE AT DEPTH
 DFT .                KCL:   DRILLING FLUID TYPE
 DFD .                8.7:   DRILLING FLUID DENSITY
 DFV .                 31:   DRILLING FLUID VISCOSITY
 DFPH.                 10:   DRILLING FLUID PH
 DFL .                9.2:   DRILLING FLUID LOSS
 MSS .           FLOWLINE:   MUD SAMPLE SOURCE
 RMS .OHMM            .26:   RESISTIVITY MUD SAMPLE
 MST .F                66:   MUD SAMPLE TEMPERATURE
 RMF .OHMM            .24:   RESISTIVITY MUD FILTRATE SAMPLE
 MFST.F                74:   MUD FILTRATE SAMPLE TEMPERATURE
 RMC .OHMM            .34:   RESISTIVITY MUD CAKE
 MCST.F                75:   MUD CAKE SAMPLE TEMPERATURE
 MFSS.               MEAS:   MUD FILTRATE SAMPLE SOURCE
 MCSS.               MEAS:   MUD CAKE SAMPLE SOURCE
 RMB .OHMM            .23:   RESISTIVITY MUD AT BHT
 BHT .F                74:   BOTTOM HOLE TEMPERATURE
 TCS .HRS            0100:   TIME CURCULATED STOPPED
 MRT .F                74:   MAXIMUM RECORDED TEMPERATURE
 LUN .               2958:   LOGGING UNIT NUMBER
 LUL .               CASP:   LOGGING UNIT LOCATION
 ENGI.             MILLER:   RECORDING ENGINEER
 WITN.           MCGINLEY:   WITNESSED BY
 CLNT.            A2DTECH:   CLIENT CODE
 ORIG.           5" PRINT:   ORIGIN OF DATA
 UWI .       490251063900:   UNIQUE WELL ID
 DICO. A2D Technologies, Inc.:   DIGITIZING COMPANY
~OTHER INFORMATION
~A   DEPT      SPR         SN        ILD       CALD         GRD      CORR       DPHI        DEN   
# ...
  271.0000   -23.5894    11.8418    10.3816     8.5789    67.7067     0.0371     0.1292     2.4641
  271.5000   -23.5967    11.9209    10.3790     8.5776    68.1557     0.0339     0.1264     2.4694
  272.0000   -23.6039    12.0006    10.3760     8.5762    68.9863     0.0322     0.1247     2.4723
  272.5000   -23.6112    12.0807    10.4456     8.5904    69.1299     0.0320     0.1244     2.4753
  273.0000   -23.6186    12.2451    10.4421     8.5888    67.3641     0.0379     0.1235     2.4729
  273.5000   -23.6275    12.2419    10.4393     8.5874    64.1489     0.0423     0.1227     2.4721
  274.0000   -23.6347    12.3238    10.4365     8.5861    62.1551     0.0436     0.1100     2.4843
  274.5000   -23.7922    12.3204    10.4337     8.5847    62.1461     0.0480     0.1067     2.4968
  275.0000   -23.7994    12.3028    10.4309     8.5833    64.5798     0.0432     0.1040     2.5128
  275.5000   -23.9568    12.2280    10.4280     8.5820    67.6242     0.0339     0.0982     2.5273
  276.0000   -24.1142    12.1404    10.3527     8.5806    68.9892     0.0231     0.0964     2.4998
  276.5000   -24.2718    11.9702    10.3500     8.5792    69.1328     0.0230     0.1138     2.4785
  277.0000   -24.4308    11.7210    10.2049     8.5779    63.3222     0.0243     0.1266     2.4685
  277.5000   -24.4381    11.3191    10.0618     8.5765    57.2063     0.0241     0.1296     2.4601
  278.0000   -24.4453    10.9228     9.9208     8.5752    53.6858     0.0239     0.1327     2.4570
  278.5000   -24.4526    10.7026     9.7124     8.5738    53.5241     0.0238     0.1367     2.4531
  279.0000   -24.4598    10.5526     9.4456     8.5724    54.8891     0.0251     0.1370     2.4538
  279.5000   -24.4671    10.4770     9.3132     8.5711    59.1548     0.0249     0.1334     2.4621
  280.0000   -24.4745    10.4019     9.2465     8.5697    64.6420     0.0232     0.1313     2.4590
  280.5000   -24.4834    10.3274     9.1802     8.5682    71.5032     0.0230     0.1359     2.4475
  281.0000   -24.4907    10.1826     9.1144     8.5669    74.6227     0.0308     0.1408     2.4429
  281.5000   -24.4979    10.1797     9.0491     8.5655    74.9191     0.0417     0.1363     2.4694
  282.0000   -24.5045    10.1765     9.0467     8.5642    73.0779     0.0528     0.1254     2.4685
  282.5000   -24.3605    10.1036     8.9813     8.5628    69.7865     0.0526     0.1263     2.4685
  283.0000   -24.3701    10.1009     8.9789     8.5766    68.7076     0.0464     0.1215     2.4745
  283.5000   -24.3780    10.0982     8.9765     8.5753    68.8512     0.0416     0.1240     2.4805
  284.0000   -24.3844    10.0258     8.9121     8.5588    70.3689     0.0415     0.1213     2.4766
  284.5000   -24.3931    10.0231     8.9098     8.5423    71.8865     0.0459     0.1229     2.4712
  285.0000   -24.4004     9.9507     8.9074     8.4949    71.4195     0.0457     0.1279     2.4658
  285.5000   -24.4076     9.9480     8.8435     8.4486    66.9829     0.0394     0.1324     2.4581
  286.0000   -24.4149     9.9454     8.8406     8.4321    65.1418     0.0332     0.1375     2.4489
  286.5000   -24.4221     9.9427     8.8382     8.3980    64.9801     0.0315     0.1403     2.4435
  287.0000   -24.4294     9.9401     8.8359     8.3231    67.4138     0.0328     0.1388     2.4488
  287.5000   -24.4369     9.9373     8.8335     8.2308    69.8475     0.0417     0.1352     2.4526
  288.0000   -24.4457     9.9341     8.8311     8.2143    69.3804     0.0491     0.1328     2.4557
  288.5000   -24.6031     9.9314     8.8288     8.2130    66.4706     0.0444     0.1304     2.4618
  289.0000   -24.6104     9.9288     8.8878     8.2271    63.2555     0.0366     0.1328     2.4561
  289.5000   -24.6176     9.9262     8.8848     8.2254    63.3991     0.0319     0.1377     2.4499
  290.0000   -24.6249     9.9235     8.8824     8.2396    65.6801     0.0287     0.1378     2.4514
  290.5000   -24.6321     9.8508     8.8800     8.2379    66.4345     0.0255     0.1369     2.4521
  291.0000   -24.7898     9.6466     8.8164     8.2365    66.2716     0.0253     0.1366     2.4543
  291.5000   -24.9487     9.3806     8.7532     8.2352    67.6366     0.0251     0.1388     2.4450
  292.0000   -25.1061     9.1852     8.6305     8.2338    66.9406     0.0249     0.1415     2.4389
  292.5000   -25.4137     8.9319     8.5016     8.2173    64.1070     0.0264     0.1434     2.4366
  293.0000   -25.5711     8.7459     8.3318     8.2008    62.5702     0.0291     0.1440     2.4425
  293.5000   -25.5784     8.6233     8.1583     8.1843    61.9504     0.0304     0.1435     2.4417
  294.0000   -25.5856     8.5024     8.0998     8.1527    61.4834     0.0306     0.1429     2.4394
  294.5000   -25.7432     8.4410     8.0418     8.1362    62.3904     0.0316     0.1411     2.4454
  295.0000   -25.7521     8.4387     8.0956     8.1197    67.2668     0.0329     0.1360     2.4521
  295.5000   -25.7593     8.4365     8.1496     8.1183    69.2425     0.0343     0.1333     2.4589
  296.0000   -25.9167     8.5524     8.2040     8.1170    68.9281     0.0356     0.1345     2.4535
  296.5000   -25.9240     8.7291     8.2588     8.1156    67.3923     0.0354     0.1348     2.4542
  297.0000   -25.9312     8.8484     8.3140     8.1142    67.3833     0.0368     0.1320     2.4625
  297.5000   -25.9385     8.9688     8.4271     8.1129    66.9162     0.0396     0.1264     2.4692
  298.0000   -25.7956     9.0294     8.4840     8.1115    63.0904     0.0394     0.1249     2.4714
  298.5000   -25.8047     9.0897     8.4812     8.1102    61.0966     0.0408     0.1241     2.4721
  299.0000   -25.6600     9.0867     8.4789     8.1088    63.9883     0.0406     0.1238     2.4743
  299.5000   -25.6690     9.1475     8.4761     8.1074    67.9487     0.0404     0.1238     2.4750
  300.0000   -25.5243     9.2085     8.5333     8.1061    69.6191     0.0410     0.1263     2.4719
  300.5000   -25.5297     9.1170     8.6898     8.1343    69.0016     0.0461     0.1254     2.4687
  301.0000   -25.5344     9.0841     8.9519     8.1784    69.7589     0.0474     0.1194     2.4773
  301.5000   -25.5396     9.0857     9.0208     8.1917    70.5162     0.0517     0.1167     2.4830
  302.0000   -25.5440     9.0241     9.0719     8.2652    69.7468     0.0516     0.1173     2.4867
  302.5000   -25.5483     9.0254     9.1326     8.3543    67.9088     0.0514     0.1192     2.4805
  303.0000   -25.5526     8.9643     9.1936     8.3833    66.5287     0.0512     0.1156     2.4888
  303.5000   -25.5571     8.9658     9.2544     8.3962    65.9119     0.0525     0.1147     2.4887
  304.0000   -25.5624     8.9048     9.1881     8.3944    65.6006     0.0568     0.1099     2.4954
  304.5000   -25.5667     8.7838     9.1856     8.4077    66.2045     0.0582     0.1060     2.5097
  305.0000   -25.5711     8.7243     9.0563     8.4044    67.4961     0.0487     0.1036     2.5066
  305.5000   -25.5754     8.6653     8.9914     8.4002    73.3680     0.0316     0.1124     2.4738
  306.0000   -25.5798     8.6665     8.8041     8.3959    78.2475     0.0196     0.1255     2.4707
  306.5000   -25.4339     8.6679     8.7411     8.3917    78.2406     0.0255     0.1280     2.4676
  307.0000   -25.4384     8.6690     8.6784     8.3874    72.5857     0.0287     0.1317     2.4644
  307.5000   -25.4437     8.6702     8.6162     8.3831    70.2896     0.0342     0.1329     2.4575
  308.0000   -25.4480     8.6713     8.5544     8.3799    69.5202     0.0416     0.1305     2.4673
  308.5000   -25.6025     8.6725     8.5516     8.4084    69.0562     0.0429     0.1256     2.4725
  309.0000   -25.6069     8.7339     8.5492     8.5127    69.5082     0.0473     0.1224     2.4754
  309.5000   -25.6112     8.7354     8.5471     8.6018    71.1815     0.0486     0.1209     2.4730
  310.0000   -25.6156     8.7366     8.5448     8.6303    74.3816     0.0469     0.1198     2.4775
  310.5000   -25.7711     8.7377     8.6019     8.6588    78.6504     0.0421     0.1210     2.4791
  311.0000   -25.7755     8.7996     8.6588     8.6570    78.6443     0.0374     0.1247     2.4727
