~VERSION INFORMATION
 VERS.                2.0:   CWLS LOG ASCII STANDARD - VERSION 2.0
 WRAP.                 NO:   ONE LINE PER DEPTH STEP
~WELL INFORMATION
#MNEM.UNIT      DATA TYPE    INFORMATION
#----------   ------------   ------------------------------
 STRT.F            0.0000:   START DEPTH
 STOP.F          614.0000:   STOP DEPTH
 STEP.F            0.5000:   STEP LENGTH
 NULL.          -999.2500:   NO VALUE
 COMP. BROWN JOHN E&C INC:   COMPANY
 WELL. NAVAL PET  RESERVE 3 SHX-2 #12-15-2:   WELL
 FLD .                NPR:   FIELD
 LOC .       S2 T38N R78W:   LOCATION
 CNTY.            NATRONA:   COUNTY
 STAT.            WYOMING:   STATE
 CTRY. UNITED STATES OF AMERICA:   COUNTRY
 SRVC.           Gearhart:   SERVICE COMPANY
 DATE.        17-AUG-1988:   LOGDATE
 API .       490251124000:   API NUMBER
~CURVE INFORMATION
#MNEM.UNIT       API CODE    CURVE DESCRIPTION
#----------   ------------   ------------------------------
 DEPT.F                  :   
 GRR .GAPI   07 310 01 00:   GAMMA RAY
 RILD.OHMM   07 120 46 00:   INDUCTION LOG DEEP RESISTIVITY
 RILM.OHMM   07 120 44 00:   INDUCTION LOG MEDIUM RESISTIVITY
~PARAMETER INFORMATION
#MNEM.UNIT          VALUE    DESCRIPTION
#----------   ------------   ------------------------------
 PD  .                 GL:   PERMANENT DATUM
 EPD .F              5093:   ELEVATION PERMANENT DATUM
 LMF .                 KB:   LOG MEASURED FROM
 DAPD.F                10:   FEET ABOVE PERMANENT DATUM
 DMF .                 KB:   DRILLING MEASURED FROM
 EKB .F              5103:   KELLING BUSHING
 EDF .F              5101:   DRILLING FLOOR
 EGL .F              5093:   GROUND LEVEL
 DATE.        17-AUG-1988:   RUN DATE
 RUN .                  1:   RUN NUMBER
 DD  .F               620:   DEPTH DRILLER
 DL  .F               623:   DEPTH LOGGER
 BLI .F               614:   BOTTOM LOG INTERVAL
 TLI .F                50:   TOP LOG INTERVAL
 CS  .IN            9.625:   CASING SIZE
 CBD .F                50:   CASING BOTTOM DRILLER
 CBL .F                50:   CASING BOTTOM LOGGER
 BS  .IN             8.75:   BIT SIZE
 BSD .F               620:   BIT SIZE AT DEPTH
 DFT .                AIR:   DRILLING FLUID TYPE
 TCS .HRS            0500:   TIME CURCULATED STOPPED
 TLAB.HRS            0625:   TIME LOGGER AT BOTTOM
 MRT .F                70:   MAXIMUM RECORDED TEMPERATURE
 LUN .               7597:   LOGGING UNIT NUMBER
 LUL .           GILLETTE:   LOGGING UNIT LOCATION
 ENGI.           JOHNSTON:   RECORDING ENGINEER
 WITN.             STRONG:   WITNESSED BY
 CLNT.            A2DTECH:   CLIENT CODE
 ORIG.           5" PRINT:   ORIGIN OF DATA
 UWI .       490251124000:   UNIQUE WELL ID
 DICO. A2D Technologies, Inc.:   DIGITIZING COMPANY
~OTHER INFORMATION
~A    DEPT      GRR      RILD       RILM   
# ...
   91.0000    95.0646    15.3477    15.3285
   91.5000    93.8561    15.4575    15.5477
   92.0000    94.4801    15.5682    15.7700
   92.5000    95.1011    15.6796    15.9954
   93.0000    95.1133    15.9034    16.2241
   93.5000    93.9078    16.1323    16.5716
   94.0000    91.7891    16.5950    16.9265
   94.5000    90.5836    17.0617    17.2889
   95.0000    90.5957    17.4260    17.5361
   95.5000    90.6079    17.6892    17.9117
   96.0000    90.0112    18.0511    18.2953
   96.5000    86.9793    18.4364    18.5568
   97.0000    87.6003    18.5936    18.9542
   97.5000    88.8301    18.9653    19.0912
   98.0000    90.0599    19.1010    19.3642
   98.5000    90.3735    19.2377    19.6410
   99.0000    88.8666    19.1063    19.9219
   99.5000    89.7920    18.7123    19.9260
  100.0000    92.6039    18.1986    18.7146
  100.5000    97.7267    17.5757    18.4557
  101.0000   100.1711    17.0932    18.3283
  101.5000   100.4823    16.9759    18.0753
  102.0000    97.4495    16.8605    17.9503
  102.5000    94.7189    16.7447    17.9518
  103.0000    92.9015    16.6304    17.5804
  103.5000    91.6929    16.2879    17.3374
  104.0000    91.6652    16.0639    16.9783
  104.5000    92.0154    15.7320    16.3963
  105.0000    92.6333    15.5162    15.9451
  105.5000    93.2512    15.3023    15.7247
  106.0000    94.4780    14.9872    15.7258
  106.5000    95.4003    14.6781    15.8373
  107.0000    95.7139    14.2752    15.6181
  107.5000    96.6566    13.7865    15.6195
  108.0000    97.5870    12.6785    15.5114
  108.5000    98.5175    11.6596    15.0849
  109.0000    99.7970    10.4999    14.2651
  109.5000   101.5961     9.7238    12.7558
  110.0000   103.9896     8.9423    10.4150
  110.5000   106.4340     8.3395     9.3131
  111.0000   111.3137     7.8319     8.4451
  111.5000   115.2802     7.3551     7.7658
  112.0000   118.6378     7.0047     7.3438
  112.5000   120.1667     6.9084     7.0425
  113.0000   118.3515     6.8134     6.9452
  113.5000   116.5341     6.8143     6.8972
  114.0000   115.0211     6.8631     6.8977
  114.5000   117.7699     6.8640     6.8982
  115.0000   119.6055     6.8650     6.8987
  115.5000   118.7013     6.8660     6.8992
  116.0000   117.7949     6.8669     6.8996
  116.5000   118.7194     6.8200     6.9002
  117.0000   120.2506     6.8210     6.9007
  117.5000   119.3464     6.8219     6.8530
  118.0000   117.2246     6.8147     6.8057
  118.5000   115.4072     6.7762     6.8541
  119.0000   116.3295     6.7774     6.9026
  119.5000   116.6430     6.8738     6.9516
  120.0000   116.6520     6.9230     6.9520
  120.5000   114.8346     6.9726     6.9040
  121.0000   112.4084     6.9736     6.9530
  121.5000   111.1998     6.9745     6.9535
  122.0000   110.2952     6.9269     6.9540
  122.5000   112.7400     6.9279     6.9059
  123.0000   113.3579     6.9288     6.7631
  123.5000   111.5405     6.8813     6.6696
  124.0000   110.3319     6.8342     6.5773
  124.5000   111.8631     6.7405     6.5779
  125.0000   113.6986     6.6015     6.4870
  125.5000   113.0909     6.4653     6.5330
  126.0000   113.1242     6.4662     6.5793
  126.5000   116.5144     6.4671     6.6259
  127.0000   119.5190     6.6051     6.7197
  127.5000   116.3619     6.6524     6.7673
  128.0000   113.9603     6.7944     6.8631
  128.5000   112.2401     6.9881     6.9603
  129.0000   118.0353     7.0381     7.0588
  129.5000   121.6973     7.1383     7.1587
  130.0000   122.9240     7.1894     7.2095
  130.5000   120.4978     7.1400     7.3115
  131.0000   118.0693     7.1914     7.3120
  131.5000   118.0806     7.2428     7.4162
  132.0000   118.0897     7.3974     7.5733
  132.5000   116.8811     7.5553     7.6841
  133.0000   113.5416     7.7166     7.7400
  133.5000   110.5066     7.8813     7.7963
  134.0000   109.6001     7.8824     7.9081
  134.5000   112.6556     7.8835     7.9560
  135.0000   111.7514     7.8846     8.0125
  135.5000   109.6273     7.8857     8.0131
  136.0000   108.4188     7.9421     8.0136
  136.5000   111.1698     7.9432     7.9027
  137.0000   112.3966     7.8857     7.7393
  137.5000   113.3189     7.6724     7.6324
  138.0000   113.6324     7.5613     7.5796
  138.5000   113.9458     7.4628     7.5273
  139.0000   112.7373     7.4119     7.5279
  139.5000   112.1352     7.4650     7.5813
  140.0000   117.0172     7.5714     7.5818
  140.5000   117.3830     7.5196     7.5823
  141.0000   113.3824     7.5207     7.5299
  141.5000   110.9561     7.4691     7.5306
  142.0000   110.6322     7.4704     7.5311
  142.5000   113.1052     7.4714     7.5845
  143.0000   117.6805     7.4724     7.5850
  143.5000   120.7337     7.4735     7.6924
  144.0000   121.6560     7.5270     7.7469
  144.5000   120.7396     7.5280     7.8018
  145.0000   119.1779     7.5291     7.8023
  145.5000   116.7275     7.5301     7.8029
  146.0000   113.4004     7.5840     7.8034
  146.5000   111.9601     7.6383     7.8040
  147.0000   111.9696     7.6394     7.7501
  147.5000   112.2849     7.6940     7.8050
  148.0000   113.8161     7.8035     7.8056
  148.5000   116.2604     7.8594     7.8061
  149.0000   117.4872     7.9156     7.8615
  149.5000   118.1051     7.9167     7.9172
  150.0000   116.8189     8.0409     8.0292
  150.5000   114.4687     8.2018     8.2570
  151.0000   114.1734     8.2593     8.2570
  151.5000   116.9467     8.2640     8.1995
  152.0000   118.1491     8.2525     7.9733
  152.5000   118.0769     8.0292     7.7533
  153.0000   116.2922     7.8626     7.5395
  153.5000   115.7408     7.6383     7.3829
  154.0000   116.6654     7.4869     7.2804
  154.5000   116.9789     7.3830     7.2296
  155.0000   116.6835     7.2905     7.1793
  155.5000   114.2573     7.2918     7.1793
  156.0000   109.7002     7.2928     7.1793
  156.5000   106.9695     7.2427     7.1793
  157.0000   107.5874     7.1935     7.1793
  157.5000   110.6406     7.1441     7.1785
  158.0000   115.5203     7.0953     7.1272
  158.5000   120.0956     7.0471     7.0795
  159.0000   121.3223     6.9987     7.0795
  159.5000   120.7226     6.9509     7.0302
  160.0000   118.2963     6.9034     6.9812
  160.5000   113.4348     6.8563     7.0873
  161.0000   110.7041     7.1015     7.3501
  161.5000   109.1911     7.5112     7.7533
  162.0000   108.2870     7.8891     7.9733
  162.5000   107.3805     8.1141     8.0856
  163.0000   107.3919     8.1721     8.1995
  163.5000   107.4009     8.1733     8.2570
  164.0000   111.3674     8.1744     8.2570
  164.5000   113.5074     8.1756     8.1995
  165.0000   114.1253     8.1767     8.1423
  165.5000   113.5251     8.1778     8.0856
  166.0000   112.3169     8.1217     8.0292
  166.5000   111.1083     8.0662     7.9733
  167.0000   110.2042     7.9556     7.9733
  167.5000   109.6042     7.9009     7.8625
  168.0000   111.4400     7.8470     7.8077
  168.5000   112.6667     7.7391     7.8077
  169.0000   113.2888     7.6862     7.6993
  169.5000   113.5981     7.6337     7.5395
  170.0000   112.3895     7.4762     7.3315
  170.5000   112.0942     7.2713     7.1292
  171.0000   111.7988     7.0224     6.9812
  171.5000   114.0730     7.1723     7.0795
  172.0000   116.5418     7.4807     7.2804
  172.5000   120.9607     7.6939     7.4869
  173.0000   121.8830     7.9133     7.6993
  173.5000   120.6744     8.1389     7.8625
  174.0000   118.2482     8.3127     8.0856
  174.5000   115.8220     8.5497     8.3150
  175.0000   113.7001     8.6713     8.4913
  175.5000   112.1871     8.9185     8.6713
  176.0000   110.9786     9.0480     8.7934
  176.5000   109.7700     9.1102     8.7934
  177.0000   108.5614     9.0429     8.7934
  177.5000   107.6550     8.7873     8.7934
  178.0000   106.4486     8.4113     8.6109
  178.5000   108.2842     7.9734     8.0292
  179.0000   110.1198     7.8626     7.8077
  179.5000   111.0421     7.8175     7.8077
  180.0000   109.8335     7.8189     7.8077
  180.5000   110.4514     7.8749     7.8625
  181.0000   112.5913     7.9312     7.9177
  181.5000   113.2092     7.9880     7.9733
