~VERSION INFORMATION
 VERS.                2.0:   CWLS LOG ASCII STANDARD - VERSION 2.0
 WRAP.                 NO:   ONE LINE PER DEPTH STEP
~WELL INFORMATION
#MNEM.UNIT      DATA TYPE    INFORMATION
#----------   ------------   ------------------------------
 STRT.M         1049.9000:   START DEPTH
 STOP.M         2123.5000:   STOP DEPTH
 STEP.M            0.1000:   STEP LENGTH
 NULL.          -999.2500:   NO VALUE
 COMP. BROWN JOHN E&C INC:   COMPANY
 WELL. NAVAL PETROLEUM RESERVE 3 STX- #34-3:   WELL
 FLD .            WILDCAT:   FIELD
 LOC .       S3 T38N R78W:   LOCATION
 CNTY.            NATRONA:   COUNTY
 STAT.            WYOMING:   STATE
 CTRY. UNITED STATES OF AMERICA:   COUNTRY
 SRVC.            Unknown:   SERVICE COMPANY
 DATE.        04-SEP-1991:   LOGDATE
 API .       490251090400:   API NUMBER
~CURVE INFORMATION
#MNEM.UNIT       API CODE    CURVE DESCRIPTION
#----------   ------------   ------------------------------
 DEPT.M                  :   
 ROP .MIN/FT 91 810 01 00:   RAT OF DRILLING PENETRATION
 TGAS.UNITS  91 830 01 00:   TOTAL GAS FROM HOTWIRE
~PARAMETER INFORMATION
#MNEM.UNIT          VALUE    DESCRIPTION
#----------   ------------   ------------------------------
 EKB .F              5189:   KELLING BUSHING
 EGL .F              5179:   GROUND LEVEL
 DATE.             9-4-91:   RUN DATE
 DD  .F              2123:   DEPTH DRILLER
 CS  .IN            9.625:   CASING SIZE
 BS  .IN             8.75:   BIT SIZE
 BSD .F              2123:   BIT SIZE AT DEPTH
 ENGI.              TOWER:   RECORDING ENGINEER
 WITN.               HUSK:   WITNESSED BY
 CLNT.            A2DTECH:   CLIENT CODE
 ORIG.           5" PRINT:   ORIGIN OF DATA
 UWI .       490251090400:   UNIQUE WELL ID
 DICO. A2D Technologies, Inc.:   DIGITIZING COMPANY
~OTHER INFORMATION
~A  DEPT       ROP         TGAS 
# ...
 1463.0000     0.6922     1.0243
 1463.1000     0.6855     1.0256
 1463.2000     0.6791     1.0269
 1463.3000     0.6747     1.0281
 1463.4000     0.6703     1.0294
 1463.5000     0.6658     1.0307
 1463.6000     0.6614     1.0320
 1463.7000     0.6564     1.0335
 1463.8000     0.6498     1.0346
 1463.9000     0.6431     1.0359
 1464.0000     0.6365     1.0371
 1464.1000     0.6299     1.0384
 1464.2000     0.6248     1.0398
 1464.3000     0.6226     1.0410
 1464.4000     0.6203     1.0423
 1464.5000     0.6181     1.0436
 1464.6000     0.6159     1.0449
 1464.7000     0.6158     1.0462
 1464.8000     0.6179     1.0474
 1464.9000     0.6201     1.0487
 1465.0000     0.6222     1.0500
 1465.1000     0.6244     1.0513
 1465.2000     0.6293     1.0526
 1465.3000     0.6358     1.0541
 1465.4000     0.6424     1.0551
 1465.5000     0.6489     1.0564
 1465.6000     0.6555     1.0577
 1465.7000     0.6637     1.0590
 1465.8000     0.6724     1.0604
 1465.9000     0.6812     1.0616
 1466.0000     0.6899     1.0629
 1466.1000     0.6997     1.0641
 1466.2000     0.7113     1.0654
 1466.3000     0.7245     1.0700
 1466.4000     0.7376     1.2456
 1466.5000     0.7508     1.2836
 1466.6000     0.7639     1.2849
 1466.7000     0.7770     1.2861
 1466.8000     0.7902     1.2874
 1466.9000     0.8033     1.2889
 1467.0000     0.8165     1.2900
 1467.1000     0.8293     1.4043
 1467.2000     0.8403     1.5069
 1467.3000     0.8512     1.5081
 1467.4000     0.8622     1.5095
 1467.5000     0.8731     1.5107
 1467.6000     0.8829     1.6401
 1467.7000     0.8894     1.7276
 1467.8000     0.8960     1.7289
 1467.9000     0.9025     1.7301
 1468.0000     0.9091     1.7317
 1468.1000     0.9130     1.7327
 1468.2000     0.9130     1.8371
 1468.3000     0.9129     1.9496
 1468.4000     0.9129     1.9509
 1468.5000     0.9128     1.9523
 1468.6000     0.9128     1.9534
 1468.7000     0.9128     1.9547
 1468.8000     0.9127     1.9560
 1468.9000     0.9127     1.9573
 1469.0000     0.9126     1.9586
 1469.1000     0.9126     1.9599
 1469.2000     0.9125     1.9611
 1469.3000     0.9125     1.9624
 1469.4000     0.9125     1.9637
 1469.5000     0.9124     1.9650
 1469.6000     0.9124     1.9665
 1469.7000     0.9123     1.9676
 1469.8000     0.9123     1.9689
 1469.9000     0.9122     1.9701
 1470.0000     0.9248     1.9714
 1470.1000     0.9419     1.9728
 1470.2000     0.9591     1.9740
 1470.3000     0.9763     1.9753
 1470.4000     0.9934     1.9766
 1470.5000     1.0106     1.9779
 1470.6000     1.0277     1.9791
 1470.7000     1.0449     1.9804
 1470.8000     1.0621     1.9817
 1470.9000     1.0804     1.9830
 1471.0000     1.1005     1.9843
 1471.1000     1.1207     1.9670
 1471.2000     1.1408     1.7727
 1471.3000     1.1609     1.7739
 1471.4000     1.1811     1.7751
 1471.5000     1.2012     1.7028
 1471.6000     1.1993     1.5632
 1471.7000     1.1751     1.5648
 1471.8000     1.1508     1.3976
 1471.9000     1.1266     1.3530
 1472.0000     1.1024     1.3543
 1472.1000     1.0809     1.3069
 1472.2000     1.0611     1.1425
 1472.3000     1.0413     1.1441
 1472.4000     1.0214     1.1451
 1472.5000     1.0016     1.1464
 1472.6000     0.9768     1.1477
 1472.7000     0.9504     1.1490
 1472.8000     0.9239     1.1504
 1472.9000     0.8975     0.9931
 1473.0000     0.8681     0.9386
 1473.1000     0.8505     0.9399
 1473.2000     0.8307     0.9411
 1473.3000     0.8109     0.9424
 1473.4000     0.7910     0.9437
 1473.5000     0.7714     0.9450
 1473.6000     0.7648     0.8526
 1473.7000     0.7581     0.7333
 1473.8000     0.7515     0.7346
 1473.9000     0.7449     0.7360
 1474.0000     0.7376     0.7371
 1474.1000     0.7265     0.7384
 1474.2000     0.7155     0.6708
 1474.3000     0.7045     0.5265
 1474.4000     0.6934     0.5281
 1474.5000     0.6836     0.5293
 1474.6000     0.6770     0.5306
 1474.7000     0.6703     0.4479
 1474.8000     0.6637     0.3189
 1474.9000     0.6571     0.3201
 1475.0000     0.6495     0.3214
 1475.1000     0.6407     0.3227
 1475.2000     0.6319     0.3240
 1475.3000     0.6230     0.3253
 1475.4000     0.6142     0.3266
 1475.5000     0.6049     0.3280
 1475.6000     0.5953     0.3291
 1475.7000     0.5857     0.4443
 1475.8000     0.5760     0.5460
 1475.9000     0.5671     0.5813
 1476.0000     0.5859     0.7629
 1476.1000     0.6034     0.9329
 1476.2000     0.6210     1.1085
 1476.3000     0.6385     1.2842
 1476.4000     0.6552     1.5583
 1476.5000     0.6683     2.0831
 1476.6000     0.6815     2.6994
 1476.7000     0.6946     3.2759
 1476.8000     0.7077     3.9752
 1476.9000     0.7202     4.7384
 1477.0000     0.7311     5.6114
 1477.1000     0.7421     6.5628
 1477.2000     0.7530     7.8346
 1477.3000     0.7640     8.9935
 1477.4000     0.7688    10.1209
 1477.5000     0.7666    11.3434
 1477.6000     0.7644    12.5691
 1477.7000     0.7621    13.7865
 1477.8000     0.7599    14.6078
 1477.9000     0.7550    15.3070
 1478.0000     0.7484    15.9514
 1478.1000     0.7418    16.4757
 1478.2000     0.7351    17.0770
 1478.3000     0.7285    17.3762
 1478.4000     0.7218    17.8354
 1478.5000     0.7152    18.2214
 1478.6000     0.7086    18.4560
 1478.7000     0.7019    19.0119
 1478.8000     0.6943    19.1771
 1478.9000     0.6924    19.4770
 1479.0000     0.6902    19.7428
 1479.1000     0.6879    19.9185
 1479.2000     0.6857    20.0945
 1479.3000     0.6834    20.2701
 1479.4000     0.6812    20.4457
 1479.5000     0.6789    20.6214
 1479.6000     0.6767    20.7972
 1479.7000     0.6745    20.9533
 1479.8000     0.6722    20.9547
 1479.9000     0.6700    21.1100
 1480.0000     0.6677    21.1714
 1480.1000     0.6655    21.1727
 1480.2000     0.6633    21.1740
 1480.3000     0.6615    21.1753
 1480.4000     0.6615    21.1766
 1480.5000     0.6615    21.1779
 1480.6000     0.6614    21.0898
 1480.7000     0.6614    20.9661
 1480.8000     0.6605    20.9674
 1480.9000     0.6583    20.9689
 1481.0000     0.6560    20.9700
 1481.1000     0.6538    20.9713
 1481.2000     0.6515    20.9726
 1481.3000     0.6482    20.9739
 1481.4000     0.6438    20.9753
 1481.5000     0.6393    20.9764
 1481.6000     0.6349    20.9777
 1481.7000     0.6305    20.9790
 1481.8000     0.6288    20.9803
 1481.9000     0.6287    20.9816
 1482.0000     0.6287    20.9829
 1482.1000     0.6287    20.9841
 1482.2000     0.6286    20.9854
 1482.3000     0.6336    20.9867
 1482.4000     0.6401    20.9880
 1482.5000     0.6467    20.9895
 1482.6000     0.6532    20.9906
 1482.7000     0.6605    20.8823
 1482.8000     0.6742    20.7789
 1482.9000     0.6895    20.7801
 1483.0000     0.7048    20.7815
 1483.1000     0.7202    20.6182
 1483.2000     0.7355    20.4451
 1483.3000     0.7509    20.1873
 1483.4000     0.7662    19.8396
 1483.5000     0.7816    19.4970
 1483.6000     0.7969    19.2894
 1483.7000     0.8106    18.8720
 1483.8000     0.8150    18.4495
 1483.9000     0.8193    18.1016
 1484.0000     0.8237    17.7343
 1484.1000     0.8280    17.1529
 1484.2000     0.8300    16.8450
 1484.3000     0.8255    16.3825
 1484.4000     0.8211    15.8606
 1484.5000     0.8166    15.3388
 1484.6000     0.8122    14.8020
 1484.7000     0.8051    14.2949
 1484.8000     0.7940    13.7724
 1484.9000     0.7830    13.4302
 1485.0000     0.7719    13.1571
 1485.1000     0.7609    12.6455
 1485.2000     0.7499    12.2385
 1485.3000     0.7388    11.5158
 1485.4000     0.7278    10.6451
 1485.5000     0.7168     9.7744
 1485.6000     0.7057     8.9033
 1485.7000     0.6950     7.9591
 1485.8000     0.6844     7.4811
 1485.9000     0.6738     6.9591
 1486.0000     0.6632     6.5971
 1486.1000     0.6671     6.4241
 1486.2000     0.6803     6.2511
 1486.3000     0.6934     6.2524
 1486.4000     0.7066     6.2537
 1486.5000     0.7197     6.2550
 1486.6000     0.7312     6.3113
 1486.7000     0.7422     6.4717
 1486.8000     0.7531     6.2590
 1486.9000     0.7641     6.2601
 1487.0000     0.7764     6.2614
 1487.1000     0.7860     6.2627
 1487.2000     0.7969     6.2337
