~VERSION INFORMATION
 VERS.                2.0:   CWLS LOG ASCII STANDARD - VERSION 2.0
 WRAP.                 NO:   ONE LINE PER DEPTH STEP
~WELL INFORMATION
#MNEM.UNIT      DATA TYPE    INFORMATION
#----------   ------------   ------------------------------
 STRT.F           82.0000:   START DEPTH
 STOP.F          426.5000:   STOP DEPTH
 STEP.F            0.5000:   STEP LENGTH
 NULL.          -999.2500:   NO VALUE
 COMP. BROWN JOHN E&C INC:   COMPANY
 WELL.    NPR 3 #73-45X10:   WELL
 FLD .             TEAPOT:   FIELD
 LOC .      S10 T38N R78W:   LOCATION
 CNTY.            NATRONA:   COUNTY
 STAT.            WYOMING:   STATE
 CTRY. UNITED STATES OF AMERICA:   COUNTRY
 SRVC.      Western Atlas:   SERVICE COMPANY
 DATE.        30-DEC-1990:   LOGDATE
 API .       490251132400:   API NUMBER
~CURVE INFORMATION
#MNEM.UNIT       API CODE    CURVE DESCRIPTION
#----------   ------------   ------------------------------
 DEPT.F                  :   
 GR  .CPS    30 310 30 00:   GAMMA RAY
 TT  .US/F   30 520 00 00:   TRANSIT TIME FROM GAMMA RAY LOG
~PARAMETER INFORMATION
#MNEM.UNIT          VALUE    DESCRIPTION
#----------   ------------   ------------------------------
 PD  .                 GL:   PERMANENT DATUM
 EPD .F              5175:   ELEVATION PERMANENT DATUM
 LMF .                 KB:   LOG MEASURED FROM
 DMF .                 KB:   DRILLING MEASURED FROM
 EKB .F              5185:   KELLING BUSHING
 EGL .F              5175:   GROUND LEVEL
 DATE.         12-30-1990:   RUN DATE
 RUN .                  1:   RUN NUMBER
 DD  .F               485:   DEPTH DRILLER
 DL  .F               489:   DEPTH LOGGER
 BLI .F               483:   BOTTOM LOG INTERVAL
 TLI .F                26:   TOP LOG INTERVAL
 BSD .F               485:   BIT SIZE AT DEPTH
 BHT .F                70:   BOTTOM HOLE TEMPERATURE
 TCS .HRS             1.5:   TIME CURCULATED STOPPED
 MRT .F                70:   MAXIMUM RECORDED TEMPERATURE
 ENGI.          ATTERHOLT:   RECORDING ENGINEER
 WITN.              DOYLE:   WITNESSED BY
 CLNT.            A2DTECH:   CLIENT CODE
 ORIG.           5" PRINT:   ORIGIN OF DATA
 UWI .       490251132400:   UNIQUE WELL ID
 DICO. A2D Technologies, Inc.:   DIGITIZING COMPANY
~OTHER INFORMATION
~A   DEPT        GR         TT  
# ...
  203.5000    83.0241   222.7581
  204.0000    82.1467   222.3628
  204.5000    82.3480   222.0576
  205.0000    83.3533   222.2873
  205.5000    84.1753   222.5120
  206.0000    82.6472   222.7358
  206.5000    81.0363   222.7208
  207.0000    79.4233   222.5284
  207.5000    79.0665   222.3352
  208.0000    79.8434   222.1433
  208.5000    79.1909   222.1507
  209.0000    80.5863   222.7861
  209.5000    82.1210   223.4174
  210.0000    82.5543   224.0361
  210.5000    84.7266   224.4377
  211.0000    84.2379   224.0823
  211.5000    84.6411   223.7302
  212.0000    85.6243   223.3796
  212.5000    84.5278   223.0302
  213.0000    84.1085   222.6806
  213.5000    84.6301   222.6305
  214.0000    83.9845   222.4655
  214.5000    85.2160   222.3102
  215.0000    84.5616   222.1548
  215.5000    85.7557   221.9994
  216.0000    86.5614   221.8440
  216.5000    85.5071   222.8416
  217.0000    84.4681   224.1091
  217.5000    82.1940   225.8258
  218.0000    78.9125   227.7375
  218.5000    77.3891   230.3818
  219.0000    77.5449   233.0331
  219.5000    77.7351   233.8482
  220.0000    78.2042   231.8295
  220.5000    79.2562   229.7702
  221.0000    80.2916   228.9652
  221.5000    81.2252   226.7013
  222.0000    82.4311   223.4392
  222.5000    83.4011   223.8627
  223.0000    83.7160   225.0402
  223.5000    84.7349   228.1212
  224.0000    86.3436   231.2776
  224.5000    84.4489   234.4389
  225.0000    86.9078   237.5875
  225.5000    88.2107   240.1168
  226.0000    86.1505   239.7296
  226.5000    84.2513   236.1943
  227.0000    84.9126   234.4779
  227.5000    86.7114   224.0361
  228.0000    88.4100   226.2072
  228.5000    86.1257   227.0201
  229.0000    87.5552   226.3467
  229.5000    89.0935   226.4458
  230.0000    90.6404   227.3293
  230.5000    89.7324   228.6760
  231.0000    88.4786   229.8594
  231.5000    88.1587   229.8609
  232.0000    88.9213   229.1394
  232.5000    89.6776   224.5883
  233.0000    89.5014   223.8265
  233.5000    88.6790   223.5235
  234.0000    87.6961   223.2205
  234.5000    86.3773   222.9175
  235.0000    87.4736   222.7969
  235.5000    88.0582   222.7488
  236.0000    86.8470   222.7007
  236.5000    86.9720   222.6526
  237.0000    87.4659   222.6045
  237.5000    87.9909   222.5564
  238.0000    86.6542   222.5083
  238.5000    84.6681   222.4587
  239.0000    88.0186   222.5180
  239.5000    89.8958   222.7577
  240.0000    88.0709   222.9987
  240.5000    86.3410   223.2392
  241.0000    87.8396   223.3952
  241.5000    90.4389   223.1932
  242.0000    92.0637   223.0321
  242.5000    90.9254   223.2223
  243.0000    87.8415   223.4117
  243.5000    86.5840   223.6010
  244.0000    87.3997   223.6345
  244.5000    88.4635   223.4150
  245.0000    90.6827   223.0668
  245.5000    92.8873   222.7185
  246.0000    93.4616   222.3702
  246.5000    92.6230   222.0212
  247.0000    92.8871   221.6743
  247.5000    93.1516   221.4507
  248.0000    92.6514   221.2498
  248.5000    91.8960   221.0478
  249.0000    89.0838   221.1613
  249.5000    88.2261   221.3159
  250.0000    91.7068   221.3773
  250.5000    90.6558   221.2043
  251.0000    89.4457   221.0251
  251.5000    87.8774   221.1936
  252.0000    84.6824   221.3793
  252.5000    86.9780   221.5644
  253.0000    88.4871   221.7492
  253.5000    87.4341   221.9339
  254.0000    85.9925   222.1187
  254.5000    88.0126   222.1834
  255.0000    89.8601   222.0705
  255.5000    89.7166   221.9584
  256.0000    87.5314   221.8432
  256.5000    85.0298   221.6827
  257.0000    83.8400   221.4537
  257.5000    85.0293   221.2225
  258.0000    83.3876   221.0310
  258.5000    80.7311   222.1676
  259.0000    80.1421   223.2303
  259.5000    79.5187   224.2854
  260.0000    79.9342   225.3406
  260.5000    82.6965   226.4458
  261.0000    84.0347   226.1693
  261.5000    84.3623   224.8350
  262.0000    84.6631   222.7105
  262.5000    85.4239   220.9093
  263.0000    86.5045   219.6185
  263.5000    86.2798   219.2758
  264.0000    85.3138   218.9371
  264.5000    84.3315   218.6145
  265.0000    83.9775   218.4962
  265.5000    83.0749   218.4819
  266.0000    81.8006   218.7359
  266.5000    84.8955   218.9870
  267.0000    86.6310   219.2749
  267.5000    85.7210   219.5596
  268.0000    84.6873   219.8463
  268.5000    85.6148   220.1329
  269.0000    87.1305   220.4196
  269.5000    88.6327   220.7061
  270.0000    88.9367   220.9927
  270.5000    87.0563   221.2249
  271.0000    86.2213   221.4257
  271.5000    86.7617   221.3140
  272.0000    85.8738   221.1754
  272.5000    81.4795   221.0369
  273.0000    80.2885   220.8927
  273.5000    78.7088   221.1149
  274.0000    76.6203   221.7384
  274.5000    75.2150   222.3697
  275.0000    77.0905   222.9987
  275.5000    79.3128   223.5173
  276.0000    81.4369   223.7882
  276.5000    80.5488   224.0592
  277.0000    80.1552   224.2687
  277.5000    80.7765   224.3611
  278.0000    80.0263   224.4534
  278.5000    78.9478   224.5458
  279.0000    77.0204   224.6385
  279.5000    74.2319   224.8008
  280.0000    71.4287   225.0040
  280.5000    68.6379   225.2072
  281.0000    65.7179   225.7252
  281.5000    62.7565   227.1561
  282.0000    59.7825   229.4578
  282.5000    56.7855   244.3173
  283.0000    55.4797   245.9237
  283.5000    55.1309   248.0174
  284.0000    55.3048   248.7349
  284.5000    55.9581   240.5486
  285.0000    56.6439   236.4029
  285.5000    56.2081   237.7532
  286.0000    55.4554   240.0979
  286.5000    54.6791   244.4240
  287.0000    54.9556   246.2186
  287.5000    55.1973   245.8489
  288.0000    54.2038   242.8264
  288.5000    53.2098   237.9326
  289.0000    53.5186   233.8956
  289.5000    54.5108   231.2442
  290.0000    54.9986   229.9484
  290.5000    53.6472   226.8474
  291.0000    52.3515   231.2851
  291.5000    52.4192   234.4779
  292.0000    54.2265   236.5638
  292.5000    52.7284   237.9685
  293.0000    50.8232   238.8999
  293.5000    49.0701   239.7422
  294.0000    47.6992   240.0470
  294.5000    46.4365   240.2500
  295.0000    45.9202   239.9049
  295.5000    45.4889   239.5584
  296.0000    45.8692   239.2121
  296.5000    46.7498   240.3187
  297.0000    47.6388   245.4405
  297.5000    48.5183   250.5422
  298.0000    49.3070   253.5859
  298.5000    53.6240   255.5051
  299.0000    56.4257   256.3340
  299.5000    57.5394   256.8883
  300.0000    58.6286   257.0685
  300.5000    59.7348   256.2681
  301.0000    59.9701   253.4849
  301.5000    60.1541   252.5959
  302.0000    60.3453   253.9875
  302.5000    60.1623   253.3668
  303.0000    59.4497   251.9478
  303.5000    58.7057   255.2820
  304.0000    59.8082   258.7859
  304.5000    61.4478   262.3159
  305.0000    62.7171   266.8228
  305.5000    61.9467   276.1061
  306.0000    61.2094   280.2153
  306.5000    60.4774   281.2650
  307.0000    59.7445   273.2382
  307.5000    59.0075   265.4016
  308.0000    59.0427   263.3446
  308.5000    59.4184   259.7791
  309.0000    59.8210   266.5792
  309.5000    60.9710   270.1245
  310.0000    62.1238   270.8233
  310.5000    64.5321   265.8032
  311.0000    66.8634   265.0000
  311.5000    66.2271   264.7992
  312.0000    63.9603   268.7157
  312.5000    67.8260   276.7398
  313.0000    67.3178   284.8580
  313.5000    66.0130   288.7313
  314.0000    63.4586   289.4587
  314.5000    60.8666   284.2080
  315.0000    60.4794   275.7068
  315.5000    60.3947   267.2056
  316.0000    60.3770   262.1176
  316.5000    61.0580   260.1807
  317.0000    63.1930   262.6648
  317.5000    66.0206   265.2410
  318.0000    68.9133   265.2008
  318.5000    68.8351   269.2169
  319.0000    67.5413   269.0121
  319.5000    65.8908   268.0000
  320.0000    64.3327   271.3454
  320.5000    63.7848   275.2410
  321.0000    63.2854   274.7209
  321.5000    63.5031   279.6586
  322.0000    64.4158   278.4538
  322.5000    65.3224   284.0006
  323.0000    65.6310   288.4380
  323.5000    65.1053   289.8434
  324.0000    62.7743   289.7243
  324.5000    61.2243   289.6053
