~VERSION INFORMATION
 VERS.                2.0:   CWLS LOG ASCII STANDARD - VERSION 2.0
 WRAP.                 NO:   ONE LINE PER DEPTH STEP
~WELL INFORMATION
#MNEM.UNIT      DATA TYPE    INFORMATION
#----------   ------------   ------------------------------
 STRT.F           30.0000:   START DEPTH
 STOP.F          500.0000:   STOP DEPTH
 STEP.F            0.5000:   STEP LENGTH
 NULL.          -999.2500:   NO VALUE
 COMP. FENIX & SCISSON INC:   COMPANY
 WELL.     3-FI #55-45 SX:   WELL
 FLD .             TEAPOT:   FIELD
 LOC .       S3 T38N R78W:   LOCATION
 CNTY.            NATRONA:   COUNTY
 STAT.            WYOMING:   STATE
 CTRY. UNITED STATES OF AMERICA:   COUNTRY
 SRVC.              Welex:   SERVICE COMPANY
 DATE.        16-MAY-1980:   LOGDATE
 API .       490251082700:   API NUMBER
~CURVE INFORMATION
#MNEM.UNIT       API CODE    CURVE DESCRIPTION
#----------   ------------   ------------------------------
 DEPT.F                  :   
 SPR .MV     07 010 01 00:   SPONTANEOUS POTENTIAL
 GURD.OHMM   07 220 05 00:   GUARD RESISTIVITY
 CALD.IN     45 280 60 00:   CALIPER
 GRD .GAPI   45 310 01 00:   GAMMA RAY FROM DENSITY LOG
 RHOB.G/C3   45 350 01 00:   BULK DENSITY
 CORR.G/C3   45 356 01 00:   DENSITY CORRECTION
 NPHI.DEC    42 890 03 00:   NEUTRON POROSITY SANDSTONE
 DPHI.DEC    45 890 12 00:   DENSITY POROSITY SANDSTONE
 ILD .OHMM   07 120 46 00:   INDUCTION LOG DEEP
 ILM .OHMM   07 120 44 00:   INDUCTION LOG MEDIUM
~PARAMETER INFORMATION
#MNEM.UNIT          VALUE    DESCRIPTION
#----------   ------------   ------------------------------
 PD  .                 GL:   PERMANENT DATUM
 EPD .F              5167:   ELEVATION PERMANENT DATUM
 LMF .                 KB:   LOG MEASURED FROM
 DAPD.F                 5:   FEET ABOVE PERMANENT DATUM
 DMF .                 KB:   DRILLING MEASURED FROM
 EKB .F              5172:   KELLING BUSHING
 EGL .F              5167:   GROUND LEVEL
 DATE.            5-16-80:   RUN DATE
 RUN .                  1:   RUN NUMBER
 DD  .F               483:   DEPTH DRILLER
 DL  .F               496:   DEPTH LOGGER
 BLI .F               494:   BOTTOM LOG INTERVAL
 TLI .F                35:   TOP LOG INTERVAL
 BS  .IN             9.75:   BIT SIZE
 BSD .F               483:   BIT SIZE AT DEPTH
 DFT .            KCL MUD:   DRILLING FLUID TYPE
 DFD .                9.5:   DRILLING FLUID DENSITY
 DFV .                 45:   DRILLING FLUID VISCOSITY
 DFL .                7.5:   DRILLING FLUID LOSS
 MSS .            MUD PIT:   MUD SAMPLE SOURCE
 RMS .OHMM            .29:   RESISTIVITY MUD SAMPLE
 MST .F                75:   MUD SAMPLE TEMPERATURE
 RMF .OHMM            .23:   RESISTIVITY MUD FILTRATE SAMPLE
 MFST.F                75:   MUD FILTRATE SAMPLE TEMPERATURE
 RMC .OHMM            .35:   RESISTIVITY MUD CAKE
 MCST.F                75:   MUD CAKE SAMPLE TEMPERATURE
 MFSS.           MEASURED:   MUD FILTRATE SAMPLE SOURCE
 MCSS.           MEASURED:   MUD CAKE SAMPLE SOURCE
 TCS .HRS               2:   TIME CURCULATED STOPPED
 LUN .               9685:   LOGGING UNIT NUMBER
 LUL .             CASPER:   LOGGING UNIT LOCATION
 ENGI.            TOTHILL:   RECORDING ENGINEER
 WITN.              AMEND:   WITNESSED BY
 CLNT.            A2DTECH:   CLIENT CODE
 ORIG.           5" PRINT:   ORIGIN OF DATA
 UWI .       490251082700:   UNIQUE WELL ID
 DICO. A2D Technologies, Inc.:   DIGITIZING COMPANY
~OTHER INFORMATION
~A   DEPT      SPR         GURD     CALD        GRD       RHOB       CORR         NPHI       DPHI        ILD        ILM 
# ...
  164.0000   -55.8285     5.0685    10.2986   103.5209     2.3905     0.0089     0.3309     0.1477     3.8230     5.6457
  164.5000   -55.8074     5.1679    10.2986   104.5906     2.4186     0.0238     0.3238     0.1517     3.9132     5.7412
  165.0000   -55.9550     5.2692    10.2986   105.6566     2.4281     0.0295     0.3248     0.1601     3.9132     5.8384
  165.5000   -56.1296     5.3714    10.2986   106.6013     2.4192     0.0195     0.3285     0.1685     3.9551     5.8975
  166.0000   -56.3083     5.3530    10.2986   105.9974     2.4052     0.0052     0.3224     0.1769     3.9904     5.9236
  166.5000   -56.4808     5.3359    10.2987   105.2375     2.3909    -0.0092     0.3161     0.1873     4.0259     5.9673
  167.0000   -56.6613     5.2985    10.2912   104.4803     2.3767    -0.0237     0.3134     0.1799     4.0618     6.0114
  167.5000   -56.8327     5.3048    10.2782   103.8377     2.3655    -0.0368     0.3164     0.1702     4.0981     6.0558
  168.0000   -56.9867     5.2756    10.2652   103.6176     2.3738    -0.0285     0.3167     0.1646     4.1346     6.1005
  168.5000   -56.9015     5.1902    10.2521   102.9828     2.3957    -0.0132     0.3162     0.1730     4.1715     6.1456
  169.0000   -56.8171     5.6980    10.2391   102.3519     2.3987    -0.0083     0.3184     0.1750     4.2162     6.1910
  169.5000   -56.7221     6.0240    10.2261   101.7223     2.3829    -0.0281     0.3178     0.1626     4.2192     6.2367
  170.0000   -56.6332     5.9867    10.2184   101.0778     2.3862    -0.0276     0.3167     0.1610     4.2267     6.2201
  170.5000   -56.5422     5.8928    10.2227   101.3329     2.4054    -0.0100     0.3155     0.1622     4.2343     6.2036
  171.0000   -56.4519     5.9016    10.2328   102.0803     2.4043    -0.0057     0.3176     0.1590     4.2419     6.1871
  171.5000   -56.3604     5.8706    10.2429   102.8393     2.4030    -0.0007     0.3222     0.1477     4.2495     6.1706
  172.0000   -56.2698     5.7980    10.2530   103.5941     2.4164     0.0057     0.3223     0.1365     4.2572     6.1542
  172.5000   -56.2024     5.7270    10.2631   104.1762     2.4306     0.0194     0.3187     0.1335     4.2648     6.1379
  173.0000   -56.2581     5.6570    10.2732   103.8296     2.4455     0.0329     0.3150     0.1495     4.2725     6.1215
  173.5000   -56.3277     5.5876    10.2832   103.3441     2.4502     0.0385     0.3154     0.1649     4.2801     6.1054
  174.0000   -56.4025     5.5195    10.2931   102.8536     2.4248     0.0187     0.3178     0.1661     4.2878     6.0891
  174.5000   -56.4677     5.4522    10.3036   102.3631     2.4000    -0.0128     0.3197     0.1690     4.2955     6.0727
  175.0000   -56.5456     5.3725    10.3179   101.8725     2.3975    -0.0101     0.3183     0.1667     4.2246     6.0560
  175.5000   -56.6199     5.3326    10.3170   101.3783     2.3867    -0.0183     0.3185     0.1638     4.1548     6.0392
  176.0000   -56.8842     5.2831    10.3154   100.8756     2.3924    -0.0092     0.3225     0.1532     4.0862     6.0224
  176.5000   -57.1062     5.2341    10.3138   100.8470     2.4079     0.0090     0.3229     0.1450     4.0188     6.0058
  177.0000   -57.3444     5.1856    10.3122   100.9065     2.4271     0.0273     0.3196     0.1472     3.9524     5.7614
  177.5000   -57.5750     5.1374    10.3106   101.3408     2.4319     0.0419     0.3207     0.1506     3.8624     5.5269
  178.0000   -57.8074     5.0803    10.3090   101.7688     2.4269     0.0438     0.3241     0.1540     3.7384     5.3018
  178.5000   -58.0405     4.8761    10.3074   102.0651     2.4173     0.0437     0.3292     0.1692     3.6184     5.1466
  179.0000   -58.2727     4.6324    10.3059   101.1999     2.4074     0.0349     0.3366     0.1769     3.5023     5.0861
  179.5000   -58.5055     4.4009    10.3043    99.6893     2.3924     0.0315     0.3440     0.1879     3.4344     5.0264
  180.0000   -58.7375     4.1383    10.3027    98.1407     2.3687     0.0289     0.3498     0.2010     3.1353     4.9796
  180.5000   -58.9710     3.8696    10.3011    98.2186     2.3481     0.0217     0.3544     0.2142     2.8623     4.5470
  181.0000   -59.2031     3.4990    10.2996    99.3842     2.3354     0.0264     0.3562     0.2253     2.6131     4.2211
  181.5000   -59.4003     3.3334    10.3003   100.5878     2.3119     0.0230     0.3599     0.2288     2.3855     3.9132
  182.0000   -59.3227     2.9530    10.3100   101.7907     2.2970     0.0258     0.3671     0.2486     2.1778     3.5412
  182.5000   -59.0956     2.6160    10.3195   102.9202     2.2742     0.0408     0.3756     0.2669     1.9882     3.2046
  183.0000   -58.8696     2.3174    10.3289   102.5893     2.2506     0.0307     0.3724     0.2711     1.8151     2.9585
  183.5000   -58.6430     2.0529    10.3384   101.6843     2.2266     0.0253     0.3788     0.2693     1.6570     2.7976
  184.0000   -58.4170     1.8186    10.3479   100.7938     2.2185     0.0299     0.3722     0.2522     1.5405     2.6454
  184.5000   -58.1892     1.6598    10.3574    99.9556     2.2362     0.0469     0.3659     0.2262     1.5121     2.6454
  185.0000   -57.9635     1.8189    10.3587   100.8757     2.2677     0.0668     0.3611     0.2041     1.4841     2.7395
  185.5000   -57.7397     2.1186    10.3545   102.2127     2.2868     0.0669     0.3583     0.1860     1.5080     2.9038
  186.0000   -57.5001     2.4678    10.3453   103.5681     2.3153     0.0620     0.3534     0.1743     1.5283     3.1876
  186.5000   -57.4078     2.8745    10.3389   104.8642     2.3735     0.0731     0.3474     0.1709     1.6007     2.9174
  187.0000   -57.4580     3.2476    10.3399   105.7046     2.3867     0.0591     0.3414     0.1627     1.7617     2.2367
  187.5000   -57.4924     3.6094    10.3142   105.6563     2.4042     0.0512     0.3363     0.1574     1.9388     2.9038
  188.0000   -57.5283     3.9416    10.3037   105.6535     2.4013     0.0377     0.3389     0.1507     2.1338     4.2955
  188.5000   -57.5668     4.4560    10.2935   105.7417     2.4224     0.0263     0.3338     0.1536     2.3483     4.4421
  189.0000   -57.6027     4.4357    10.2835   106.3950     2.4232     0.0219     0.3309     0.1615     2.5844     4.6324
  189.5000   -57.6402     4.3866    10.2773   107.8537     2.4167     0.0199     0.3361     0.1694     2.8443     4.8309
  190.0000   -57.6767     4.3382    10.2999   109.2861     2.4074     0.0084     0.3321     0.1742     3.0709     5.0803
  190.5000   -57.7139     4.2905    10.2984   110.7624     2.3836    -0.0099     0.3381     0.1650     3.1580     5.0803
  191.0000   -57.7516     4.2440    10.2986   111.0811     2.3859    -0.0027     0.3325     0.1776     3.2325     5.0803
  191.5000   -57.7842     4.2163    10.2986   110.5917     2.3985     0.0051     0.3308     0.1981     3.3087     5.0803
  192.0000   -57.8404     4.2156    10.2986   109.9535     2.3718    -0.0100     0.3273     0.2119     3.3709     5.0803
  192.5000   -57.9114     4.3116    10.2986   109.3147     2.3488    -0.0322     0.3310     0.2133     3.3709     5.0803
  193.0000   -57.9776     4.4338    10.2986   108.6155     2.3258    -0.0549     0.3349     0.2083     3.3709     5.0803
  193.5000   -58.0431     4.5596    10.2986   108.3487     2.3164    -0.0545     0.3325     0.2025     3.2415     5.0803
  194.0000   -58.1112     4.7152    10.2986   108.6583     2.3315    -0.0439     0.3392     0.1927     3.1374     5.0803
  194.5000   -58.1753     4.7152    10.2986   109.6918     2.3433    -0.0214     0.3444     0.1836     3.0367     4.3763
  195.0000   -58.1975     3.9132    10.2986   110.9693     2.3546     0.0012     0.3496     0.1745     2.9392     4.2955
  195.5000   -58.0335     3.2476    10.2986   112.2537     2.3672     0.0237     0.3544     0.1705     2.8449     4.3184
  196.0000   -57.8345     2.7976    10.2986   113.4546     2.3852     0.0489     0.3505     0.1786     2.7536     4.3473
  196.5000   -57.6351     3.6319    10.2986   113.4600     2.3944     0.0351     0.3447     0.1574     2.6642     4.3763
  197.0000   -57.4316     3.8052    10.2986   112.8641     2.3770     0.0203     0.3420     0.1498     2.5954     4.3968
