~VERSION INFORMATION
 VERS.                2.0:   CWLS LOG ASCII STANDARD - VERSION 2.0
 WRAP.                 NO:   ONE LINE PER DEPTH STEP
~WELL INFORMATION
#MNEM.UNIT      DATA TYPE    INFORMATION
#----------   ------------   ------------------------------
 STRT.F           40.0000:   START DEPTH
 STOP.F          534.0000:   STOP DEPTH
 STEP.F            0.5000:   STEP LENGTH
 NULL.          -999.2500:   NO VALUE
 COMP. LAWRENCE/ALLISON INC:   COMPANY
 WELL.   55-41 SX FI #3-3:   WELL
 FLD .             TEAPOT:   FIELD
 LOC .       S3 T38N R78W:   LOCATION
 CNTY.            NATRONA:   COUNTY
 STAT.            WYOMING:   STATE
 CTRY. UNITED STATES OF AMERICA:   COUNTRY
 SRVC.      Dresser Atlas:   SERVICE COMPANY
 DATE.        12-DEC-1983:   LOGDATE
 API .       490251089400:   API NUMBER
~CURVE INFORMATION
#MNEM.UNIT       API CODE    CURVE DESCRIPTION
#----------   ------------   ------------------------------
 DEPT.F                  :   
 RILD.OHMM   07 120 46 00:   INDUCTION LOG DEEP RESISTIVITY
 RILM.OHMM   07 120 44 00:   INDUCTION LOG MEDIUM RESISTIVITY
 RFOC.OHMM   07 220 04 00:   RESISTIVITY FOCUSED LOG
 CALD.IN     45 280 60 00:   CALIPER FROM DENSITY LOG
 GRD .GAPI   45 310 01 00:   GAMMA RAY FROM DENSITY LOG
 CORR.G/C3   45 356 01 00:   DENSITY CORRECTION
 DPHI.DEC    45 890 12 00:   DENSITY POROSITY SANDSTONE
 RHOB.G/C3   45 350 01 00:   BULK DENSITY
~PARAMETER INFORMATION
#MNEM.UNIT          VALUE    DESCRIPTION
#----------   ------------   ------------------------------
 PD  .                 GL:   PERMANENT DATUM
 EPD .F              5161:   ELEVATION PERMANENT DATUM
 LMF .                 KB:   LOG MEASURED FROM
 DAPD.F                10:   FEET ABOVE PERMANENT DATUM
 DMF .                 KB:   DRILLING MEASURED FROM
 EKB .F              5171:   KELLING BUSHING
 EGL .F              5161:   GROUND LEVEL
 DATE.        12-DEC-1983:   RUN DATE
 RUN .                  1:   RUN NUMBER
 DD  .F               490:   DEPTH DRILLER
 DL  .F               489:   DEPTH LOGGER
 BLI .F               487:   BOTTOM LOG INTERVAL
 CS  .IN            10.75:   CASING SIZE
 CBD .F                52:   CASING BOTTOM DRILLER
 CBL .F                46:   CASING BOTTOM LOGGER
 BS  .IN             8.75:   BIT SIZE
 BSD .F               490:   BIT SIZE AT DEPTH
 DFT .           AIR FOAM:   DRILLING FLUID TYPE
 TCS .HRS               3:   TIME CURCULATED STOPPED
 MRT .F                72:   MAXIMUM RECORDED TEMPERATURE
 LUN .               6274:   LOGGING UNIT NUMBER
 LUL .               GLTE:   LOGGING UNIT LOCATION
 ENGI.             RAUTIO:   RECORDING ENGINEER
 WITN.             GROOMS:   WITNESSED BY
 CLNT.            A2DTECH:   CLIENT CODE
 ORIG.           5" PRINT:   ORIGIN OF DATA
 UWI .       490251089400:   UNIQUE WELL ID
 DICO. A2D Technologies, Inc.:   DIGITIZING COMPANY
~OTHER INFORMATION
~A   DEPT     RILD       RILM       RFOC       CALD         GRD      CORR       DPHI       RHOB   
# ...
   80.5000     7.3458     7.4165  -999.2500    12.3250    76.2323     0.0728     0.0881     2.5491
   81.0000     7.4528     7.6283  -999.2500    12.3541    80.4727     0.0733     0.0992     2.5485
   81.5000     7.5614     7.7389  -999.2500    12.3980    85.1588     0.0406     0.1159     2.5079
   82.0000     7.7245     7.9054  -999.2500    12.4420    88.5076     0.0234     0.1222     2.4827
   82.5000     7.8912     8.0754  -999.2500    12.4711    89.6261     0.0122     0.1222     2.4743
   83.0000     8.0615     8.1925  -999.2500    12.4707    86.5127     0.0257     0.1227     2.4736
   83.5000     8.2361     8.3693  -999.2500    12.4702    84.2895     0.0235     0.1272     2.4714
   84.0000     8.4715     8.5511  -999.2500    12.4846    85.1866     0.0009     0.1338     2.4588
   84.5000     8.4772     8.5540  -999.2500    12.5285    87.4210     0.0196     0.1270     2.4536
   85.0000     8.1902     8.3266  -999.2500    12.6020    89.6553     0.0568     0.1197     2.4791
   85.5000     8.0336     8.2178  -999.2500    12.6904    87.2092     0.0708     0.1158     2.4867
   86.0000     8.2639     8.3463  -999.2500    12.6455    84.5402     0.0582     0.1241     2.4852
   86.5000     8.3954     8.4580  -999.2500    12.5120    82.7627     0.0193     0.1361     2.4591
   87.0000     8.4492     8.3472  -999.2500    12.4080    81.4309     0.0168     0.1336     2.4479
   87.5000     8.3379     8.1827  -999.2500    12.3779    80.3221     0.0213     0.1285     2.4584
   88.0000     8.0625     8.0757  -999.2500    12.3775    79.8805     0.0206     0.1273     2.4697
   88.5000     7.9030     7.9142  -999.2500    12.3771    81.0018     0.0176     0.1318     2.4683
   89.0000     7.8527     7.8647  -999.2500    12.3914    82.7905     0.0139     0.1378     2.4601
   89.5000     7.8055     7.7619  -999.2500    12.3910    84.5791     0.0132     0.1383     2.4534
   90.0000     7.7026     7.7133  -999.2500    12.3905    86.5906     0.0177     0.1362     2.4452
   90.5000     7.4997     7.6125  -999.2500    12.3753    85.2589     0.0252     0.1320     2.4408
   91.0000     7.4009     7.5129  -999.2500    12.3591    84.1500     0.0357     0.1245     2.4603
   91.5000     7.4584     7.3649  -999.2500    12.3448    83.4869     0.0544     0.1164     2.4799
   92.0000     7.2607     7.3177  -999.2500    12.3276    83.0467     0.0634     0.1134     2.4942
   92.5000     7.1170     7.2220  -999.2500    12.2971    82.8280     0.0537     0.1188     2.4815
   93.0000     7.0718     7.1769  -999.2500    12.2694    82.6107     0.0260     0.1349     2.4494
   93.5000     7.1267     7.1824  -999.2500    12.2246    82.3933     0.0200     0.1436     2.4367
   94.0000     7.1316     7.2865  -999.2500    12.2242    82.4003     0.0178     0.1451     2.4375
   94.5000     7.1858     7.3414  -999.2500    12.2237    82.4059     0.0193     0.1365     2.4518
   95.0000     7.2905     7.4478  -999.2500    12.2233    82.6343     0.0201     0.1330     2.4601
   95.5000     7.3459     7.5558  -999.2500    12.2229    83.0856     0.0118     0.1315     2.4639
   96.0000     7.4529     7.7183  -999.2500    12.2225    83.7598     0.0081     0.1324     2.4608
   96.5000     7.5615     7.7765  -999.2500    12.2221    85.1027     0.0051     0.1357     2.4534
   97.0000     7.6716     7.8350  -999.2500    12.2216    82.8794     0.0029     0.1393     2.4459
   97.5000     7.7299     7.8941  -999.2500    12.2211    80.8791     0.0052     0.1410     2.4409
   98.0000     7.8425     7.9535  -999.2500    12.2207    79.1015     0.0104     0.1377     2.4537
   98.5000     7.9568     8.0134  -999.2500    12.2202    79.3300     0.0149     0.1341     2.4575
   99.0000     7.9622     8.0184  -999.2500    12.2347    82.2330     0.0164     0.1374     2.4531
   99.5000     8.0782     8.0233  -999.2500    12.2341    84.2445     0.0194     0.1410     2.4456
  100.0000     8.1959     8.0837  -999.2500    12.2353    85.5860     0.0225     0.1350     2.4468
  100.5000     8.2030     8.1555  -999.2500    12.2442    84.9198     0.0247     0.1329     2.4548
  101.0000     8.2092     8.2094  -999.2500    12.2532    84.4902     0.0195     0.1325     2.4578
  101.5000     8.2153     8.2162  -999.2500    12.2633    83.1174     0.0091     0.1325     2.4578
  102.0000     8.1650     8.1679  -999.2500    12.2633    81.1055     0.0031     0.1328     2.4571
  102.5000     8.1711     8.1745  -999.2500    12.2633    79.5765     0.0121     0.1334     2.4549
  103.0000     8.1211     8.1234  -999.2500    12.2485    78.9535     0.0189     0.1340     2.4519
  103.5000     8.0699     8.1316  -999.2500    12.2337    79.1874     0.0219     0.1367     2.4475
  104.0000     8.0205     8.0808  -999.2500    12.2337    79.1963     0.0204     0.1418     2.4423
  104.5000     7.9182     8.0890  -999.2500    12.2189    79.2051     0.0175     0.1432     2.4378
  105.0000     7.8694     8.0384  -999.2500    12.2189    78.7682     0.0152     0.1420     2.4401
  105.5000     7.8756     7.9897  -999.2500    12.2161    77.6626     0.0130     0.1387     2.4461
  106.0000     7.8815     7.9978  -999.2500    12.2189    79.0088     0.0116     0.1324     2.4589
  106.5000     7.9419     8.0044  -999.2500    12.2189    80.3549     0.0071     0.1321     2.4582
  107.0000     8.0028     8.0109  -999.2500    12.2337    79.0264     0.0034     0.1353     2.4500
  107.5000     8.0642     8.0728  -999.2500    12.2633    77.0293     0.0027     0.1404     2.4425
  108.0000     8.2465     8.1353  -999.2500    12.2781    75.7009     0.0057     0.1440     2.4381
  108.5000     8.3701     8.3119  -999.2500    12.3077    74.3724     0.0005     0.1469     2.4320
  109.0000     8.5418     8.4936  -999.2500    12.3390    73.2669    -0.0032     0.1481     2.4282
  109.5000     8.7267     8.6816  -999.2500    12.3817    72.1613     0.0006     0.1487     2.4269
  110.0000     8.7936     8.8654  -999.2500    12.3965    71.2786     0.0036     0.1454     2.4382
  110.5000     9.0199     9.1216  -999.2500    12.3817    70.8395     0.0066     0.1382     2.4532
  111.0000     9.2413     9.2557  -999.2500    12.3817    71.7420     0.0096     0.1325     2.4615
  111.5000     9.1216     9.3253  -999.2500    12.3817    73.3111     0.0134     0.1295     2.4675
  112.0000     9.2551     9.2052  -999.2500    12.3965    76.2174     0.0180     0.1264     2.4736
  112.5000     9.8544     9.8718  -999.2500    12.4260    75.3347     0.0211     0.1173     2.4811
  113.0000     9.9986     9.9481  -999.2500    12.4556    73.3376     0.0270     0.1088     2.5014
  113.5000    10.1449    10.1641  -999.2500    12.4852    70.6718     0.0360     0.0980     2.5254
  114.0000    10.3694    10.3135  -999.2500    12.4852    68.0061     0.0413     0.0938     2.5351
  114.5000    10.5977    10.6837  -999.2500    12.5000    68.6836     0.0308     0.0968     2.5284
  115.0000    10.8184    10.9937  -999.2500    12.5296    69.8068     0.0256     0.1054     2.5067
  115.5000    10.9784    11.1598  -999.2500    12.5444    69.1323     0.0279     0.1144     2.4806
  116.0000    11.0626    11.4558  -999.2500    12.5444    67.1202     0.0272     0.1218     2.4625
  116.5000    11.2245    11.6798  -999.2500    12.5444    65.3314     0.0182     0.1296     2.4543
  117.0000    11.4674    11.9037  -999.2500    12.5444    64.0472     0.0152     0.1356     2.4498
  117.5000    11.7156    12.0716  -999.2500    12.5592    64.7623     0.0190     0.1385     2.4455
  118.0000    11.8055    12.0814  -999.2500    12.5444    66.0731     0.0250     0.1406     2.4433
  118.5000    11.8143    12.0058  -999.2500    12.5592    67.1963     0.0258     0.1424     2.4411
  119.0000    11.7398    11.9352  -999.2500    12.5592    68.5425     0.0181     0.1436     2.4374
  119.5000    11.6701    11.8630  -999.2500    12.5592    69.6657     0.0124     0.1435     2.4329
  120.0000    11.5190    11.7105  -999.2500    12.5592    71.0119     0.0304     0.1429     2.4390
  120.5000    11.4464    11.5597  -999.2500    12.5592    72.5809     0.0417     0.1408     2.4510
