~VERSION INFORMATION
 VERS.                2.0:   CWLS LOG ASCII STANDARD - VERSION 2.0
 WRAP.                 NO:   ONE LINE PER DEPTH STEP
~WELL INFORMATION
#MNEM.UNIT      DATA TYPE    INFORMATION
#----------   ------------   ------------------------------
 STRT.F           57.5000:   START DEPTH
 STOP.F         4049.0000:   STOP DEPTH
 STEP.F            0.5000:   STEP LENGTH
 NULL.          -999.2500:   NO VALUE
 COMP. LAWRENCE/ALLISON INC:   COMPANY
 WELL.     NPR #3` #13-11:   WELL
 FLD .             NPR #3:   FIELD
 LOC .      S11 T38N R78W:   LOCATION
 CNTY.            NATRONA:   COUNTY
 STAT.            WYOMING:   STATE
 CTRY. UNITED STATES OF AMERICA:   COUNTRY
 SRVC.      Dresser Atlas:   SERVICE COMPANY
 DATE.        13-MAR-1986:   LOGDATE
 API .       490251106500:   API NUMBER
~CURVE INFORMATION
#MNEM.UNIT       API CODE    CURVE DESCRIPTION
#----------   ------------   ------------------------------
 DEPT.F                  :   
 CALR.IN     07 280 01 00:   CALIPER FROM RESISTIVITY
 GRR .GAPI   07 310 01 00:   GAMMA RAY FROM RESISTIVITY
 RILD.OHMM   07 120 46 00:   RESISTIVITY INDUCTION LOG DEEP
 RILM.OHMM   07 120 44 00:   RESISTIVITY INDUCTION LOG MEDIUM
 RFOC.OHMM   07 220 04 00:   RESISTIVITY FOCUSED LOG
 SPR .MV     07 010 01 00:   SPONTANEOUS POTENTIAL FROM RES.
 PORD.DEC    45 890 12 00:   POROSITY DENSITY SANDSTONE
 CNC .DEC    42 890 03 00:   COMPENSATED NEUTRON POROSITY SANDSTONE
 CORR.G/C3   45 356 01 00:   DENSITY CORRECTION
 DEN .G/C3   45 350 01 00:   COMPENSATED BULK DENSTIY
 DT  .US/F   60 520 00 00:   INTERVAL TRANSIT TIME
~PARAMETER INFORMATION
#MNEM.UNIT          VALUE    DESCRIPTION
#----------   ------------   ------------------------------
 PD  .                 GL:   PERMANENT DATUM
 EPD .F              5176:   ELEVATION PERMANENT DATUM
 LMF .                 KB:   LOG MEASURED FROM
 DAPD.F              11.8:   FEET ABOVE PERMANENT DATUM
 DMF .                 KB:   DRILLING MEASURED FROM
 EKB .F            5187.8:   KELLING BUSHING
 EGL .F              5176:   GROUND LEVEL
 DATE.        13-MAR-1986:   RUN DATE
 RUN .                  1:   RUN NUMBER
 DD  .F              4051:   DEPTH DRILLER
 DL  .F              4051:   DEPTH LOGGER
 BLI .F              4049:   BOTTOM LOG INTERVAL
 TLI .F               564:   TOP LOG INTERVAL
 CS  .IN            8.625:   CASING SIZE
 CBD .F               564:   CASING BOTTOM DRILLER
 CBL .F               564:   CASING BOTTOM LOGGER
 BS  .IN            7.875:   BIT SIZE
 BSD .F              4051:   BIT SIZE AT DEPTH
 DFT .          POLY- KCL:   DRILLING FLUID TYPE
 DFD .                8.9:   DRILLING FLUID DENSITY
 DFV .                 36:   DRILLING FLUID VISCOSITY
 DFPH.                8.5:   DRILLING FLUID PH
 DFL .               13.5:   DRILLING FLUID LOSS
 MSS .           FLOWLINE:   MUD SAMPLE SOURCE
 RMS .OHMM           .275:   RESISTIVITY MUD SAMPLE
 MST .F                55:   MUD SAMPLE TEMPERATURE
 RMF .OHMM           .206:   RESISTIVITY MUD FILTRATE SAMPLE
 MFST.F                55:   MUD FILTRATE SAMPLE TEMPERATURE
 RMC .OHMM           .344:   RESISTIVITY MUD CAKE
 MCST.F                55:   MUD CAKE SAMPLE TEMPERATURE
 MFSS.               CALC:   MUD FILTRATE SAMPLE SOURCE
 MCSS.               CALC:   MUD CAKE SAMPLE SOURCE
 RMB .OHMM           .092:   RESISTIVITY MUD AT BHT
 BHT .F               164:   BOTTOM HOLE TEMPERATURE
 TCS .HRS            0400:   TIME CURCULATED STOPPED
 MRT .F               164:   MAXIMUM RECORDED TEMPERATURE
 LUN .               6274:   LOGGING UNIT NUMBER
 LUL .           GILLETTE:   LOGGING UNIT LOCATION
 ENGI.             MILLER:   RECORDING ENGINEER
 WITN.             STRONG:   WITNESSED BY
 CLNT.            A2DTECH:   CLIENT CODE
 ORIG.         2.5" PRINT:   ORIGIN OF DATA
 UWI .       490251106500:   UNIQUE WELL ID
 DICO. A2D Technologies, Inc.:   DIGITIZING COMPANY
~OTHER INFORMATION
~A   DEPT     CALR         GRR      RILD       RILM       RFOC        SPR       PORD        CNC       CORR        DEN         DT   
# ...
 2192.5000    11.4541   109.3842     4.7648     4.9404     5.6688   -46.2501  -999.2500  -999.2500  -999.2500  -999.2500  -999.2500
 2193.0000    11.4228   109.9877     5.0552     5.2961     6.3164   -46.2562  -999.2500  -999.2500  -999.2500  -999.2500  -999.2500
 2193.5000    11.3942   112.4271     5.2958     5.5989     6.7327   -46.2623  -999.2500  -999.2500  -999.2500  -999.2500  -999.2500
 2194.0000    11.3933   111.8014     5.5696     5.8371     6.6043   -46.2684  -999.2500  -999.2500  -999.2500  -999.2500  -999.2500
 2194.5000    11.3924   108.1082     5.7256     6.0854     6.6375   -46.2744  -999.2500  -999.2500  -999.2500  -999.2500  -999.2500
 2195.0000    11.3914   106.2554     5.8860     6.3443     6.9540   -46.2805  -999.2500  -999.2500  -999.2500  -999.2500  -999.2500
 2195.5000    11.3905   106.8567     5.9673     6.4324     7.3870   -45.9818  -999.2500  -999.2500  -999.2500  -999.2500  -999.2500
 2196.0000    11.3896   111.7524     6.1344     6.6133     7.7962   -45.9878  -999.2500  -999.2500  -999.2500  -999.2500  -999.2500
 2196.5000    11.3887   112.5749     6.2192     6.7053     7.2323   -45.9939  -999.2500  -999.2500  -999.2500  -999.2500  -999.2500
 2197.0000    11.3878   111.1144     6.3935     6.5199     6.6583   -46.0000  -999.2500  -999.2500  -999.2500  -999.2500  -999.2500
 2197.5000    11.3869   108.6482     6.4818     6.2521     6.7559   -46.0061  -999.2500  -999.2500  -999.2500  -999.2500  -999.2500
 2198.0000    11.3859   107.4089     6.5405     5.9953     7.2395   -46.0122  -999.2500  -999.2500  -999.2500  -999.2500  -999.2500
 2198.5000    11.3850   109.2372     6.4191     5.9115     7.6507   -46.0183  -999.2500  -999.2500  -999.2500  -999.2500  -999.2500
 2199.0000    11.3841   109.8405     6.2425     5.8289     7.7897   -45.7195  -999.2500  -999.2500  -999.2500  -999.2500  -999.2500
 2199.5000    11.3832   107.3722     6.0148     5.7475     7.4363   -45.4207  -999.2500  -999.2500  -999.2500  -999.2500  -999.2500
 2200.0000    11.4128   105.5215     5.9863     5.7224     7.0709   -45.1220  -999.2500  -999.2500  -999.2500  -999.2500  -999.2500
 2200.5000    11.4729   106.1208     5.9302     5.6487     6.5020   -45.1273  -999.2500  -999.2500  -999.2500  -999.2500  -999.2500
 2201.0000    11.5026   108.5631     5.8763     5.5873     6.0659   -45.1319  -999.2500  -999.2500  -999.2500  -999.2500  -999.2500
 2201.5000    11.5628   112.2420     5.5341     5.5603     6.6840   -44.5267  -999.2500  -999.2500  -999.2500  -999.2500  -999.2500
 2202.0000    11.5619   118.3436     5.1135     5.3566     6.6835   -44.2265  -999.2500  -999.2500  -999.2500  -999.2500  -999.2500
 2202.5000    11.5917   117.0821     4.9477     5.0652     6.3224   -44.2310  -999.2500  -999.2500  -999.2500  -999.2500  -999.2500
 2203.0000    11.5907   112.7716     5.0381     4.9260     5.8983   -44.2356  -999.2500  -999.2500  -999.2500  -999.2500  -999.2500
 2203.5000    11.5898   109.0735     5.1791     4.9253     5.2784   -44.1199  -999.2500  -999.2500  -999.2500  -999.2500  -999.2500
 2204.0000    11.5888   107.2394     5.3240     4.9486     5.1308   -44.2439  -999.2500  -999.2500  -999.2500  -999.2500  -999.2500
 2204.5000    11.5879   110.3094     5.4730     5.1130     5.4262   -44.7337  -999.2500  -999.2500  -999.2500  -999.2500  -999.2500
 2205.0000    11.5870   112.1167     5.6261     5.4543     5.8155   -45.1677  -999.2500  -999.2500  -999.2500  -999.2500  -999.2500
 2205.5000    11.5861   107.7384     5.7836     5.6357     6.7736   -45.1723  -999.2500  -999.2500  -999.2500  -999.2500  -999.2500
 2206.0000    11.5852   101.0070     5.9454     5.8178     6.9637   -45.1768  -999.2500  -999.2500  -999.2500  -999.2500  -999.2500
 2206.5000    11.5843    99.8008     6.1118     5.8987     6.5873   -45.1814  -999.2500  -999.2500  -999.2500  -999.2500  -999.2500
 2207.0000    11.5833   102.8959     6.1961     5.9572     6.2314   -44.8811  -999.2500  -999.2500  -999.2500  -999.2500  -999.2500
 2207.5000    11.5824   106.5496     6.2570     6.1487     6.0604   -44.4156  -999.2500  -999.2500  -999.2500  -999.2500  -999.2500
 2208.0000    11.6121   110.2327     6.2560     6.1788     6.2305   -44.2805  -999.2500  -999.2500  -999.2500  -999.2500  -999.2500
 2208.5000    11.6112   112.0094     6.2551     6.2333     6.5855   -44.1249  -999.2500  -999.2500  -999.2500  -999.2500  -999.2500
 2209.0000    11.6103   109.4655     6.2542     6.2323     7.0580   -43.9848  -999.2500  -999.2500  -999.2500  -999.2500  -999.2500
 2209.5000    11.6093   104.4386     6.2534     6.1999     7.6700   -43.9893  -999.2500  -999.2500  -999.2500  -999.2500  -999.2500
 2210.0000    11.6084    97.2395     6.2758     6.1443     7.0570   -43.9939  -999.2500  -999.2500  -999.2500  -999.2500  -999.2500
 2210.5000    11.6075    99.7619     6.4279     6.1435     6.9593   -43.9985  -999.2500  -999.2500  -999.2500  -999.2500  -999.2500
 2211.0000    11.6066   104.0254     6.4502     6.1426     7.3558   -44.3079  -999.2500  -999.2500  -999.2500  -999.2500  -999.2500
 2211.5000    11.6057   107.0095     6.5160     6.2281     7.4581   -44.3125  -999.2500  -999.2500  -999.2500  -999.2500  -999.2500
 2212.0000    11.6048   106.9447     6.6062     6.3475     7.3548   -44.0122  -999.2500  -999.2500  -999.2500  -999.2500  -999.2500
 2212.5000    11.6038   105.1129     6.6282     6.4358     6.9573   -44.0168  -999.2500  -999.2500  -999.2500  -999.2500  -999.2500
 2213.0000    11.6335   103.8687     6.6967     6.4912     6.6733   -44.0213  -999.2500  -999.2500  -999.2500  -999.2500  -999.2500
 2213.5000    11.6326   103.2672     6.8125     6.4004     6.9564   -44.0259  -999.2500  -999.2500  -999.2500  -999.2500  -999.2500
 2214.0000    11.6317   104.4789     6.8835     6.6509     7.4554   -44.0305  -999.2500  -999.2500  -999.2500  -999.2500  -999.2500
 2214.5000    11.6308   105.1061     6.9788     6.8970     7.6647   -44.0351  -999.2500  -999.2500  -999.2500  -999.2500  -999.2500
 2215.0000    11.6298   106.3195     7.0984     7.1906     7.6641   -44.0396  -999.2500  -999.2500  -999.2500  -999.2500  -999.2500
 2215.5000    11.6596   107.5636     7.2738     7.3534     7.9892   -44.0442  -999.2500  -999.2500  -999.2500  -999.2500  -999.2500
 2216.0000    11.6586   109.3576     7.3745     7.3522     8.6820   -44.0488  -999.2500  -999.2500  -999.2500  -999.2500  -999.2500
 2216.5000    11.6577   110.6040     7.2717     7.2494     8.8027   -43.9339  -999.2500  -999.2500  -999.2500  -999.2500  -999.2500
 2217.0000    11.6568   113.0450     7.1272     7.2093     8.5612   -43.6362  -999.2500  -999.2500  -999.2500  -999.2500  -999.2500
 2217.5000    11.6865   114.8725     6.8157     6.9130     8.0985   -43.4519  -999.2500  -999.2500  -999.2500  -999.2500  -999.2500
 2218.0000    11.6855   116.0127     6.4661     6.3776     7.6609   -43.3455  -999.2500  -999.2500  -999.2500  -999.2500  -999.2500
 2218.5000    11.6846   115.3457     6.1163     5.9472     7.6604   -43.1562  -999.2500  -999.2500  -999.2500  -999.2500  -999.2500
 2219.0000    11.6531   114.1021     5.8829     5.4523     7.5543   -43.0548  -999.2500  -999.2500  -999.2500  -999.2500  -999.2500
 2219.5000    11.6522   111.5915     5.6422     5.3016     7.2459   -42.8605  -999.2500  -999.2500  -999.2500  -999.2500  -999.2500
 2220.0000    11.6207   108.4259     5.5793     5.2567     6.6668   -42.2553  -999.2500  -999.2500  -999.2500  -999.2500  -999.2500
 2220.5000    11.5280   104.2378     5.5016     5.4801     5.8029   -41.9550  -999.2500  -999.2500  -999.2500  -999.2500  -999.2500
 2221.0000    11.4659   102.9937     5.5778     5.5563     5.0510   -41.8638  -999.2500  -999.2500  -999.2500  -999.2500  -999.2500
 2221.5000    11.4039   101.7945     5.5770     5.6654     5.1212   -41.6594  -999.2500  -999.2500  -999.2500  -999.2500  -999.2500
 2222.0000    11.4029   101.8241     5.6690     5.7918     5.4130   -41.6646  -999.2500  -999.2500  -999.2500  -999.2500  -999.2500
 2222.5000    11.4020   104.3547     5.8128     5.8723     7.1431   -41.6692  -999.2500  -999.2500  -999.2500  -999.2500  -999.2500
