~VERSION INFORMATION
 VERS.                2.0:   CWLS LOG ASCII STANDARD - VERSION 2.0
 WRAP.                 NO:   ONE LINE PER DEPTH STEP
~WELL INFORMATION
#MNEM.UNIT      DATA TYPE    INFORMATION
#----------   ------------   ------------------------------
 STRT.F           34.0000:   START DEPTH
 STOP.F          576.0000:   STOP DEPTH
 STEP.F            0.5000:   STEP LENGTH
 NULL.          -999.2500:   NO VALUE
 COMP. FENIX & SCISSON INC:   COMPANY
 WELL.   NPR-3 #22 SX 3-3:   WELL
 FLD .             TEAPOT:   FIELD
 LOC .       S3 T38N R78W:   LOCATION
 CNTY.            NATRONA:   COUNTY
 STAT.            WYOMING:   STATE
 CTRY. UNITED STATES OF AMERICA:   COUNTRY
 SRVC.            Unknown:   SERVICE COMPANY
 DATE.        17-JUL-1978:   LOGDATE
 API .       490251066700:   API NUMBER
~CURVE INFORMATION
#MNEM.UNIT       API CODE    CURVE DESCRIPTION
#----------   ------------   ------------------------------
 DEPT.F                  :   
 SN  .OHMM   05 040 16 00:   SHORT NORMAL 16"
 ILD .OHMM   05 120 46 00:   INDUCTION LOG DEEP
 SPR .MV     05 010 01 00:   SPONTANEOUS POTENTIAL FROM RES.
 CALD.IN     45 280 60 00:   CALIPER FROM DENSITY LOG
 GRD .GAPI   45 310 01 00:   GAMMA RAY FROM DENSITY LOG
 CORR.G/C3   45 356 01 00:   DENSITY CORRECTION
 DPHI.DEC    45 890 12 00:   DENSITY POROSITY SANDSTONE
 DEN .G/C3   45 350 01 00:   COMPENSATED BULK DENSITY
~PARAMETER INFORMATION
#MNEM.UNIT          VALUE    DESCRIPTION
#----------   ------------   ------------------------------
 PD  .                 GL:   PERMANENT DATUM
 EPD .F              5193:   ELEVATION PERMANENT DATUM
 LMF .                 KB:   LOG MEASURED FROM
 DAPD.F                 4:   FEET ABOVE PERMANENT DATUM
 DMF .                 KB:   DRILLING MEASURED FROM
 EKB .F              5197:   KELLING BUSHING
 EGL .F              5193:   GROUND LEVEL
 DATE.        17-JUL-1978:   RUN DATE
 RUN .                  1:   RUN NUMBER
 DD  .F               570:   DEPTH DRILLER
 DL  .F               576:   DEPTH LOGGER
 BLI .F               576:   BOTTOM LOG INTERVAL
 CS  .IN            8.625:   CASING SIZE
 CBD .F                30:   CASING BOTTOM DRILLER
 BS  .IN            7.875:   BIT SIZE
 BSD .F               570:   BIT SIZE AT DEPTH
 DFT .            MUD KCL:   DRILLING FLUID TYPE
 DFD .                8.6:   DRILLING FLUID DENSITY
 DFV .                 32:   DRILLING FLUID VISCOSITY
 DFL .                 15:   DRILLING FLUID LOSS
 MSS .           FLOWLINE:   MUD SAMPLE SOURCE
 RMS .OHMM            .18:   RESISTIVITY MUD SAMPLE
 MST .F                86:   MUD SAMPLE TEMPERATURE
 RMF .OHMM            .17:   RESISTIVITY MUD FILTRATE SAMPLE
 MFST.F                94:   MUD FILTRATE SAMPLE TEMPERATURE
 RMC .OHMM            .34:   RESISTIVITY MUD CAKE
 MCST.F                94:   MUD CAKE SAMPLE TEMPERATURE
 MFSS.               MEAS:   MUD FILTRATE SAMPLE SOURCE
 TCS .HRS            0300:   TIME CURCULATED STOPPED
 LUN .               2958:   LOGGING UNIT NUMBER
 LUL .               CASP:   LOGGING UNIT LOCATION
 ENGI.             MILLER:   RECORDING ENGINEER
 WITN.           MCGINLEY:   WITNESSED BY
 CLNT.            A2DTECH:   CLIENT CODE
 ORIG.           5" PRINT:   ORIGIN OF DATA
 UWI .       490251066700:   UNIQUE WELL ID
 DICO. A2D Technologies, Inc.:   DIGITIZING COMPANY
~OTHER INFORMATION
~A   DEPT       SN        ILD        SPR       CALD         GRD      CORR       DPHI        DEN   
# ...
  277.0000     5.6665     5.8247   -47.7878     7.9487    89.5888    -0.0097     0.1551     2.4178
  277.5000     5.6692     5.7084   -47.6259     7.9631    89.3046    -0.0082     0.1590     2.4171
  278.0000     5.5559     5.6323   -47.4641     7.9919    85.9768    -0.0067     0.1587     2.4133
  278.5000     5.4825     5.6356   -46.8507     8.0062    87.4854    -0.0097     0.1542     2.4156
  279.0000     5.4851     5.6772   -46.0982     8.0061    87.2938    -0.0171     0.1563     2.4201
  279.5000     5.5256     5.7984   -46.0823     8.0059    81.2124    -0.0276     0.1622     2.4208
  280.0000     5.6825     5.8815   -46.0693     8.0058    79.3340    -0.0245     0.1756     2.4030
  280.5000     5.7245     5.9250   -45.7586     8.0056    79.3396    -0.0186     0.1988     2.3829
  281.0000     5.5723     5.6886   -45.2991     7.9910    79.4901    -0.0082     0.2023     2.3799
  281.5000     5.3863     5.4987   -44.5420     7.9909    81.5247     0.0022     0.2014     2.3463
  282.0000     5.2065     5.3519   -45.1241     7.9762    92.8930     0.0082     0.1970     2.3428
  282.5000     5.1019     5.2449   -45.8551     7.9763    95.0156     0.0067     0.1810     2.3524
  283.0000     5.0351     5.1750   -46.4373     7.9904    94.2966     0.0052     0.1741     2.3703
  283.5000     5.0375     5.1420   -46.7218     8.0048    88.6500     0.0097     0.1693     2.3926
  284.0000     5.0746     5.1805   -46.8576     8.1351    85.9020     0.0127     0.1640     2.4052
  284.5000     5.1474     5.3277   -46.9933     8.0190    87.2119     0.0082     0.1530     2.4141
  285.0000     5.4040     5.4790   -46.8282     8.0188    87.9565     0.0067     0.1467     2.4216
  285.5000     5.5576     5.5195   -46.6663     8.0187    83.6817     0.0082     0.1411     2.4323
  286.0000     5.5992     5.5226   -46.5044     8.0185    80.4171     0.0022     0.1396     2.4394
  286.5000     5.9190     5.7582   -46.4914     8.0184    87.9604    -0.0052     0.1402     2.4461
  287.0000     6.0453     6.0038   -46.4783     8.0328    95.7921    -0.0097     0.1390     2.4431
  287.5000     6.1744     6.1744   -46.3164     8.0471    96.0861    -0.0097     0.1366     2.4483
  288.0000     6.3936     6.3062   -46.3034     8.0615    87.8323    -0.0096     0.1357     2.4513
  288.5000     6.4853     6.3966   -46.2902     8.0758    89.8669    -0.0052     0.1417     2.4446
  289.0000     6.4883     6.4883   -46.4260     8.0756    90.4522    -0.0007     0.1556     2.4386
  289.5000     6.4914     6.5362   -45.3680     8.0755    89.9856     0.0067     0.1547     2.4297
  290.0000     6.4499     6.5393   -44.6109     8.0754    84.5228     0.0142     0.1494     2.4201
  290.5000     6.4530     6.5424   -45.0475     8.0607    78.7313     0.0082     0.1530     2.4283
  291.0000     6.4116     6.5462   -45.1833     8.0445    78.1558     0.0142     0.1488     2.4268
  291.5000     6.3714     6.5036   -45.3190     8.0169    80.9164     0.0187     0.1414     2.4260
  292.0000     6.2441     6.3307   -45.1539     8.0168    82.9510    -0.0053     0.1360     2.4506
  292.5000     6.1616     6.2042   -44.9920     8.0166    91.5073    -0.0097     0.1422     2.4550
  293.0000     6.0802     6.2071   -44.5325     8.0165    92.0927    -0.0007     0.1624     2.4226
  293.5000     6.1251     6.2100   -44.6781     8.0164    85.5779     0.0052     0.1571     2.4030
  294.0000     6.1703     6.2129   -45.4384     8.0162    82.9748     0.0082     0.1579     2.4045
  294.5000     6.1774     6.0470   -45.9781     8.0161    79.7906     0.0082     0.1610     2.4082
  295.0000     5.9262     5.8452   -46.1172     8.0159    81.2469     0.0067     0.1586     2.4149
  295.5000     5.6814     5.7284   -46.1008     8.0158    87.6293    -0.0112     0.1565     2.4201
  296.0000     5.5379     5.6925   -46.5342     8.0156    91.4030    -0.0261     0.1553     2.4209
  296.5000     5.4641     5.5025   -47.1164     8.0155    86.7150    -0.0229     0.2005     2.3880
  297.0000     5.3188     5.3188   -47.4042     8.0153    83.0098    -0.0037     0.2112     2.3405
  297.5000     5.2479     5.2842   -47.8343     8.0152    83.1604     0.0514     0.2121     2.3197
  298.0000     5.3606     5.3606   -47.9702     8.0151    87.3689     0.0678     0.2048     2.3145
  298.5000     5.5128     5.5128   -48.1058     8.0294    91.5774     0.0201     0.1648     2.3502
  299.0000     5.6305     5.6694   -48.0923     8.0293    92.7424    -0.0067     0.1473     2.4439
  299.5000     5.7507     5.8304   -47.9276     8.0291    91.5886    -0.0216     0.1422     2.4448
  300.0000     5.9549     5.9960   -47.9178     8.0279    81.4493    -0.0037     0.1428     2.4364
  300.5000     6.4270     6.1802   -48.0126     8.0141    78.4086    -0.0112     0.1419     2.4327
  301.0000     6.5647     6.3419   -47.5906     8.0002    79.5716    -0.0156     0.1410     2.4327
  301.5000     6.6593     6.4773   -46.9822     7.9864    82.3280    -0.0127     0.1389     2.4447
  302.0000     6.8019     6.4804   -46.3738     7.9726    86.6786    -0.0037     0.1374     2.4239
  302.5000     6.8526     6.4390   -46.3607     7.9587    95.0873    -0.0022     0.1472     2.4200
  303.0000     6.8564     6.3532   -46.4996     7.9591    96.3944    -0.0052     0.1522     2.4269
  303.5000     6.8609     6.2700   -46.3344     7.9596    92.7741    -0.0052     0.1508     2.4237
  304.0000     6.8646     6.1872   -45.7260     7.9601    90.0233    -0.0037     0.1386     2.4269
  304.5000     6.8684     6.1902   -45.4152     7.9605    90.1796    -0.0022     0.1359     2.4477
  305.0000     6.8721     6.2359   -45.2381     7.9609    91.0434    -0.0022     0.1394     2.4552
  305.5000     6.8758     6.3697   -45.0908     7.9613    88.7274    -0.0037     0.1409     2.4440
  306.0000     6.8795     6.5506   -45.3725     7.9618    90.7599    -0.0067     0.1385     2.4396
  306.5000     6.8832     6.6905   -45.8058     7.9622    92.9366    -0.0097     0.1361     2.4411
  307.0000     6.8869     6.7399   -46.0936     7.9626    90.7655    -0.0067     0.1382     2.4441
  307.5000     6.8907     6.7431   -46.0772     7.9631    88.3046    -0.0022     0.1361     2.4478
  308.0000     6.8944     6.7462   -45.9152     7.9635    90.9161     0.0067     0.1325     2.4508
  308.5000     6.8981     6.7494   -45.7533     7.9640    93.8174     0.0097     0.1266     2.4568
  309.0000     6.9019     6.7993   -46.0410     7.9789    92.2027     0.0067     0.1156     2.4865
  309.5000     6.9057     6.8025   -46.6198     7.9938    89.9886    -0.0082     0.1052     2.5311
  310.0000     6.9102     6.8057   -47.0531     7.9942    89.7679    -0.0380     0.0989     2.5252
  310.5000     6.9140     6.8559   -47.1890     8.0091    93.5396    -0.0231     0.1126     2.4464
  311.0000     6.9177     6.8593   -47.1726     8.0097    97.3105    -0.0127     0.1578     2.4449
  311.5000     6.9214     6.8626   -46.8646     8.0101    97.8923    -0.0097     0.1622     2.4390
  312.0000     6.9252     6.8665   -46.5536     8.0250    89.9248     0.0007     0.1560     2.4011
  312.5000     6.9289     6.8697   -46.0913     8.0254    83.5508     0.0007     0.1488     2.4116
  313.0000     6.9327     6.7790   -45.6317     8.0258    81.8145    -0.0022     0.1562     2.4331
  313.5000     6.8879     6.7349   -45.1721     8.0262    83.0203     0.0037     0.1592     2.4168
  314.0000     6.7983     6.6011   -44.7126     8.0267    90.1876    -0.0052     0.1690     2.4026
  314.5000     6.7090     6.4692   -45.0003     8.0271    93.4172    -0.0097     0.1835     2.3908
  315.0000     6.5303     6.2533   -44.9839     8.0276    91.6816    -0.0097     0.1945     2.3707
  315.5000     6.2265     6.0446   -44.6732     8.0280    90.8148     0.0082     0.2047     2.3380
  316.0000     6.0093     5.8832   -44.5112     8.0430    90.3829     0.0440     0.1847     2.3298
  316.5000     5.7398     5.7261   -44.6469     8.0434    90.0951     0.0261     0.1591     2.3797
  317.0000     5.6636     5.7289   -44.6337     8.0438    90.2436     0.0067     0.1565     2.4192
