~VERSION INFORMATION
 VERS.                2.0:   CWLS LOG ASCII STANDARD - VERSION 2.0
 WRAP.                 NO:   ONE LINE PER DEPTH STEP
~WELL INFORMATION
#MNEM.UNIT      DATA TYPE    INFORMATION
#----------   ------------   ------------------------------
 STRT.F           27.0000:   START DEPTH
 STOP.F          566.0000:   STOP DEPTH
 STEP.F            0.5000:   STEP LENGTH
 NULL.          -999.2500:   NO VALUE
 COMP.    FENIX & SCISSON:   COMPANY
 WELL. S-3 NPR #3 #86-S-3:   WELL
 FLD .             TEAPOT:   FIELD
 LOC .       S3 T38N R78W:   LOCATION
 CNTY.            NATRONA:   COUNTY
 STAT.            WYOMING:   STATE
 CTRY. UNITED STATES OF AMERICA:   COUNTRY
 SRVC.       Schlumberger:   SERVICE COMPANY
 DATE.        08-APR-1977:   LOGDATE
 API .       490251032900:   API NUMBER
~CURVE INFORMATION
#MNEM.UNIT       API CODE    CURVE DESCRIPTION
#----------   ------------   ------------------------------
 DEPT.F                  :   
 CALD.IN     45 280 60 00:   CALIPER FROM DENSITY LOG
 GRD .GAPI   45 310 01 00:   GAMMA RAY FROM DENSITY LOG
 CORR.G/C3   45 356 01 00:   DENSITY CORRECTION
 RHOB.G/C3   45 350 01 00:   BULK DENSITY
 DPHI.DEC    45 890 12 00:   DENSITY POROSITY SANDSTONE
 SPR .MV     07 010 01 00:   SPONTANEOUS POTENTIAL
 ILD .OHMM   07 120 46 00:   INDUCTION LOG DEEP
 ILM .OHMM   07 120 44 00:   INDUCTION LOG MEDIUM
 LL8 .OHMM   07 220 08 00:   LATEROLOG-8 RES.
~PARAMETER INFORMATION
#MNEM.UNIT          VALUE    DESCRIPTION
#----------   ------------   ------------------------------
 PD  .                 GL:   PERMANENT DATUM
 EPD .F              5147:   ELEVATION PERMANENT DATUM
 LMF .                 KB:   LOG MEASURED FROM
 DMF .                 KB:   DRILLING MEASURED FROM
 EGL .F              5147:   GROUND LEVEL
 DATE.        08-APR-1977:   RUN DATE
 RUN .                  1:   RUN NUMBER
 DD  .F               570:   DEPTH DRILLER
 DL  .F               567:   DEPTH LOGGER
 BLI .F               566:   BOTTOM LOG INTERVAL
 TLI .F                27:   TOP LOG INTERVAL
 CS  .IN            8.625:   CASING SIZE
 CBD .F                40:   CASING BOTTOM DRILLER
 CBL .F                33:   CASING BOTTOM LOGGER
 BS  .IN            7.875:   BIT SIZE
 BSD .F               570:   BIT SIZE AT DEPTH
 DFT .                KCL:   DRILLING FLUID TYPE
 DFD .                8.6:   DRILLING FLUID DENSITY
 DFV .                 31:   DRILLING FLUID VISCOSITY
 DFPH.                9.5:   DRILLING FLUID PH
 DFL .                8.6:   DRILLING FLUID LOSS
 MSS .           FLOWLINE:   MUD SAMPLE SOURCE
 RMS .OHMM          0.306:   RESISTIVITY MUD SAMPLE
 MST .F                78:   MUD SAMPLE TEMPERATURE
 RMF .OHMM          0.230:   RESISTIVITY MUD FILTRATE SAMPLE
 MFST.F                78:   MUD FILTRATE SAMPLE TEMPERATURE
 MFSS.               MEAS:   MUD FILTRATE SAMPLE SOURCE
 RMB .OHMM          0.341:   RESISTIVITY MUD AT BHT
 BHT .F                70:   BOTTOM HOLE TEMPERATURE
 TCS .HRS              20:   TIME CURCULATED STOPPED
 MRT .F                70:   MAXIMUM RECORDED TEMPERATURE
 LUN .               5642:   LOGGING UNIT NUMBER
 LUL .               CSPR:   LOGGING UNIT LOCATION
 ENGI.             MARTIN:   RECORDING ENGINEER
 WITN.               LYON:   WITNESSED BY
 CLNT.            A2DTECH:   CLIENT CODE
 ORIG.       2", 5" PRINT:   ORIGIN OF DATA
 UWI .       490251032900:   UNIQUE WELL ID
 DICO. A2D Technologies, Inc.:   DIGITIZING COMPANY
~OTHER INFORMATION
~A   DEPT     CALD         GRD      CORR       RHOB       DPHI        SPR        ILD        ILM        LL8   
# ...
  209.5000     8.1831   102.6809     0.0063     2.4288     0.1351   -75.2973     8.1496     8.2532     8.6741
  210.0000     8.1851   102.0991    -0.0004     2.4341     0.1282   -75.2849     8.2084     8.3699     9.6277
  210.5000     8.1870   103.3152     0.0178     2.4227     0.1273   -75.2730     8.2677     8.4293    10.3939
  211.0000     8.1889   103.7814     0.0028     2.4207     0.1401   -75.1109     8.3852     8.4891    10.2543
  211.5000     8.1908   103.2044     0.0141     2.4238     0.1392   -74.9488     8.4458     8.4903     9.8401
  212.0000     8.1927   102.3293     0.0202     2.4306     0.1359   -74.4864     8.5067     8.6700     9.4426
  212.5000     8.1946   101.5985     0.0226     2.4405     0.1304   -74.0240     8.6876     8.7316     9.5115
  213.0000     8.1811   102.6656     0.0174     2.4465     0.1223   -74.0120     8.7503     8.9164     9.9188
  213.5000     8.1536   103.8770     0.0257     2.4594     0.1171   -74.4506     8.9363     8.9797    10.2011
  214.0000     8.0960   104.1941     0.0431     2.4632     0.1165   -74.4385     8.9388     9.0434    10.3470
  214.5000     8.0532   105.2564     0.0311     2.4505     0.1213   -73.9600     9.1288     9.1710    10.3506
  215.0000     8.1450   105.8719     0.0244     2.4258     0.1323   -73.4934     9.1335     9.2361    10.0702
  215.5000     8.1763   105.1058     0.0255     2.4213     0.1359   -73.1772     9.1972     9.2373    10.0746
  216.0000     8.1633   101.3740     0.0366     2.4537     0.1179   -73.0110     9.2637     9.3081    10.2187
  216.5000     8.1508   102.9531     0.0277     2.4493     0.1205   -72.7274     9.3954     9.4342    10.3649
  217.0000     8.1676   104.4626     0.0165     2.4373     0.1249   -73.0157     9.3980     9.5012    10.6599
  217.5000     8.1695   105.8229     0.0173     2.4519     0.1190   -73.1539     9.4659     9.5025    10.9633
  218.0000     8.1714   107.7794     0.0159     2.4525     0.1195   -73.7426     9.5457     9.6482    11.3538
  218.5000     8.1882   110.3321     0.0122     2.4488     0.1210   -74.3283     9.7375     9.7728    11.5963
  219.0000     8.1747   111.8415     0.0138     2.4459     0.1226   -74.4695     9.7402     9.7741    11.6800
  219.5000     8.1771   112.3077     0.0168     2.4339     0.1293   -74.7579     9.7428     9.9810    11.0548
  220.0000     8.1790   108.7500     0.0047     2.3994     0.1404   -74.8961     9.6777     9.8445    10.9055
  220.5000     8.1809   106.0866     0.0117     2.4137     0.1344   -74.8812     9.6810     9.7778    10.6855
  221.0000     8.1828   107.4470     0.0164     2.4394     0.1259   -74.8692     9.5506     9.7119    10.6894
  221.5000     8.1848   108.6583     0.0241     2.4560     0.1166   -74.8573     9.4867     9.7133    10.9177
  222.0000     8.1867   108.9755     0.0315     2.4583     0.1169   -74.8454     9.4895     9.5805    10.7711
  222.5000     8.1886   108.8450     0.0293     2.4508     0.1237   -74.8334     9.4921     9.5156    10.1233
  223.0000     8.1905   108.7153     0.0384     2.4396     0.1246   -74.8215     9.4949     9.5172    10.0568
  223.5000     8.1626   107.9896     0.0573     2.4367     0.1285   -74.8096     9.4314     9.4524    10.2007
  224.0000     8.0594   106.6357     0.0521     2.4261     0.1396   -74.4973     9.3043     9.3884    10.6375
  224.5000     7.9562   105.1962     0.0394     2.4172     0.1443   -74.1851     9.2432     9.3251    10.9403
  225.0000     7.9299   106.6070     0.0357     2.4158     0.1443   -74.1732     9.2459     9.3264    10.7934
  225.5000     7.9169   107.9217     0.0411     2.4182     0.1405   -74.1612     9.1846     9.2632    10.4280
  226.0000     7.9342   107.7918     0.0509     2.4423     0.1328   -73.6989     9.1872     9.2645    10.1478
  226.5000     7.9510   106.9167     0.0472     2.4303     0.1283   -74.1374     9.0633     9.2657    10.0812
  227.0000     8.0125   106.7820     0.0270     2.4266     0.1300   -74.1255     9.0034     9.2670    10.1549
  227.5000     8.1187   107.5511     0.0135     2.4365     0.1330   -74.7141     9.0059     9.2683    10.2432
  228.0000     8.1803   108.7624     0.0120     2.4313     0.1358   -74.8528     9.0709     9.2696    10.4475
  228.5000     8.1971   109.3776     0.0092     2.4246     0.1383   -75.2913     9.1998     9.2708    10.6707
  229.0000     8.1990   109.5458     0.0040     2.4247     0.1398   -75.4295     9.2024     9.2721    10.7486
  229.5000     8.2009   110.1610     0.0063     2.4240     0.1320   -75.7177     9.2688     9.2734    10.4454
  230.0000     8.1730   110.0311     0.0297     2.4451     0.1193   -75.5554     9.2714     9.2103    10.1064
  230.5000     8.1749   109.3050     0.0538     2.4729     0.1043   -75.3933     9.1930     9.0850     9.8335
  231.0000     8.1768   105.4540     0.0577     2.4940     0.1010   -75.2312     8.8310     9.0862     9.8369
  231.5000     8.1787   102.1897     0.0382     2.4648     0.1153   -75.0691     8.7793     9.0243     9.8403
  232.0000     8.1806   102.8050     0.0240     2.4450     0.1216   -74.9069     8.7721     8.8400     9.8437
  232.5000     8.1826   103.7255     0.0172     2.4266     0.1279   -74.7447     8.5443     8.7195     9.8470
  233.0000     8.1845   103.7374     0.0241     2.4440     0.1245   -74.7327     8.2566     8.4821     9.7149
  233.5000     8.1865   102.4152     0.0280     2.4441     0.1235   -74.7207     8.0886     8.3086     9.5836
  234.0000     8.1734   102.6398     0.0242     2.4366     0.1302   -74.8593     7.8705     8.0823     9.3256
  234.5000     8.1609   103.7994     0.0191     2.4262     0.1323   -74.9975     7.6572     7.8079     8.9489
  235.0000     8.1628   104.4099     0.0162     2.4165     0.1414   -75.1357     7.2474     7.3875     8.4691
  235.5000     8.1647   102.7944     0.0087     2.4083     0.1475   -75.1208     6.8589     6.7985     7.9598
  236.0000     8.1666   100.2800     0.0073     2.4061     0.1478   -75.5593     6.6275     6.6134     7.4811
  236.5000     8.1685   100.8952     0.0134     2.4159     0.1414   -76.2981     6.4927     6.6144     6.8389
  237.0000     8.1853   101.3614     0.0195     2.4430     0.1219   -76.4393     6.5400     6.6669     6.5620
  237.5000     8.1872   101.6786     0.0271     2.4596     0.1161   -76.7277     6.7254     6.8576     8.1382
  238.0000     8.1891   102.5919     0.0151     2.4552     0.1200   -76.8659     7.0125     7.1524     9.3514
  238.5000     8.1911   103.9523     0.0137     2.4484     0.1242   -76.4006     7.2613     7.4461     9.6167
  239.0000     8.1930   104.2647     0.0100     2.4270     0.1335   -76.3886     7.4672     7.6567     9.1020
  239.5000     8.1949   103.5434     0.0071     2.4171     0.1307   -76.2266     7.7322     7.8829     8.9170
  240.0000     8.1818   102.8173     0.0217     2.4479     0.1205   -76.2146     7.9514     8.1524     8.9208
  240.5000     8.1838   103.4326     0.0320     2.4638     0.1138   -75.7522     8.1768     8.3249     8.9860
  241.0000     8.1857   104.6439     0.0238     2.4616     0.1201   -75.5902     8.3506     8.5011     9.1145
  241.5000     8.1876   105.7227     0.0216     2.4489     0.1181   -75.5782     8.4693     8.5614     9.1811
  242.0000     8.1746   107.3791     0.0180     2.4640     0.1131   -75.2660     8.5305     8.5626     9.3124
  242.5000     8.1766   108.4724     0.0248     2.4535     0.1242   -74.9538     8.5328     8.5638     9.4457
  243.0000     8.1635   109.3451     0.0324     2.4348     0.1251   -74.9418     8.4179     8.5650     9.4489
  243.5000     8.1659   111.0035     0.0317     2.4447     0.1202   -74.7797     8.3615     8.5067     9.4522
  244.0000     8.1678   112.0658     0.0243     2.4567     0.1169   -74.6177     8.2495     8.3329     9.4554
  244.5000     8.1548   112.5320     0.0251     2.4576     0.1175   -74.4556     8.1378     8.3341     9.3934
  245.0000     8.1568   113.1473     0.0237     2.4532     0.1195   -74.4436     8.0287     8.1072     9.2025
  245.5000     8.1587   114.2096     0.0170     2.4411     0.1339   -74.7320     7.9199     7.9413     8.9546
