~VERSION INFORMATION
 VERS.                2.0:   CWLS LOG ASCII STANDARD - VERSION 2.0
 WRAP.                 NO:   ONE LINE PER DEPTH STEP
~WELL INFORMATION
#MNEM.UNIT      DATA TYPE    INFORMATION
#----------   ------------   ------------------------------
 STRT.F           15.0000:   START DEPTH
 STOP.F          557.0000:   STOP DEPTH
 STEP.F            0.5000:   STEP LENGTH
 NULL.          -999.2500:   NO VALUE
 COMP. FENIX & SICISSOR INC.:   COMPANY
 WELL.       NPR #85-S-10:   WELL
 FLD .             TEAPOT:   FIELD
 LOC .      S10 T38N R78W:   LOCATION
 CNTY.            NATRONA:   COUNTY
 STAT.            WYOMING:   STATE
 CTRY. UNITED STATES OF AMERICA:   COUNTRY
 SRVC.           BIRDWELL:   SERVICE COMPANY
 DATE.        27-NOV-1978:   LOGDATE
 API .       490251075300:   API NUMBER
~CURVE INFORMATION
#MNEM.UNIT       API CODE    CURVE DESCRIPTION
#----------   ------------   ------------------------------
 DEPT.F                  :   
 CALD.IN     45 280 60 00:   CALIPER FROM DENSITY LOG
 DPHI.DEC    45 890 12 00:   DENSITY POROSITY SANDSTONE
 GRD .GAPI   45 310 01 00:   GAMMA RAY FROM DENSITY LOG
 RHOB.G/C3   45 350 01 00:   BULK DENSITY
 CORR.G/C3   45 356 01 00:   DENSITY CORRECTION
 ILD .OHMM   05 120 46 00:   INDUCTION LOG DEEP
 SN  .OHMM   05 040 00 00:   SHORT NORMAL
 SPR .MV     05 010 01 00:   SPONTANEOUS POTENTIAL
~PARAMETER INFORMATION
#MNEM.UNIT          VALUE    DESCRIPTION
#----------   ------------   ------------------------------
 PD  .                 GL:   PERMANENT DATUM
 EPD .F              5196:   ELEVATION PERMANENT DATUM
 LMF .                 KB:   LOG MEASURED FROM
 DAPD.F                 4:   FEET ABOVE PERMANENT DATUM
 DMF .                 KB:   DRILLING MEASURED FROM
 EKB .F              5200:   KELLING BUSHING
 EGL .F              5196:   GROUND LEVEL
 DATE.        27-NOV-1978:   RUN DATE
 RUN .                  1:   RUN NUMBER
 DD  .F               557:   DEPTH DRILLER
 DL  .F               551:   DEPTH LOGGER
 BLI .F               545:   BOTTOM LOG INTERVAL
 TLI .F                48:   TOP LOG INTERVAL
 CS  .IN            8.625:   CASING SIZE
 CBD .F                40:   CASING BOTTOM DRILLER
 CBL .F                35:   CASING BOTTOM LOGGER
 BS  .IN            7.875:   BIT SIZE
 BSD .F               557:   BIT SIZE AT DEPTH
 DFT .                KCL:   DRILLING FLUID TYPE
 DFD .                8.8:   DRILLING FLUID DENSITY
 DFV .                 38:   DRILLING FLUID VISCOSITY
 DFPH.               11.1:   DRILLING FLUID PH
 DFL .                 14:   DRILLING FLUID LOSS
 MSS .           FLOWLINE:   MUD SAMPLE SOURCE
 RMS .OHMM           0.32:   RESISTIVITY MUD SAMPLE
 MST .F                58:   MUD SAMPLE TEMPERATURE
 RMF .OHMM           0.31:   RESISTIVITY MUD FILTRATE SAMPLE
 MFST.F                74:   MUD FILTRATE SAMPLE TEMPERATURE
 RMC .OHMM           0.53:   RESISTIVITY MUD CAKE
 MCST.F                75:   MUD CAKE SAMPLE TEMPERATURE
 MFSS.               MEAS:   MUD FILTRATE SAMPLE SOURCE
 MCSS.               MEAS:   MUD CAKE SAMPLE SOURCE
 RMB .OHMM           0.31:   RESISTIVITY MUD AT BHT
 BHT .F                59:   BOTTOM HOLE TEMPERATURE
 TCS .HRS               2:   TIME CURCULATED STOPPED
 MRT .F                59:   MAXIMUM RECORDED TEMPERATURE
 LUN .               2958:   LOGGING UNIT NUMBER
 LUL .             CASPER:   LOGGING UNIT LOCATION
 ENGI.             MILLER:   RECORDING ENGINEER
 WITN.           DINSMORE:   WITNESSED BY
 CLNT.            A2DTECH:   CLIENT CODE
 ORIG.         2.5" PRINT:   ORIGIN OF DATA
 UWI .       490251075300:   UNIQUE WELL ID
 DICO. A2D Technologies, Inc.:   DIGITIZING COMPANY
~OTHER INFORMATION
~A   DEPT     CALD       DPHI         GRD      RHOB       CORR        ILD         SN        SPR   
# ...
  420.0000     8.1656     0.1898    83.8272     2.3657     0.0464    12.9229    13.2525    -4.5121
  420.5000     8.1655     0.1904    83.2099     2.3634     0.0433    12.9220    12.8849    -4.8155
  421.0000     8.1653     0.1905    83.2099     2.3619     0.0433    12.7415    12.7041    -5.1219
  421.5000     8.1652     0.1897    83.2099     2.3619     0.0432    12.5636    12.5258    -5.7272
  422.0000     8.1650     0.1833    83.2099     2.3680     0.0446    12.5627    12.5241    -5.7724
  422.5000     8.1649     0.1810    82.9012     2.3710     0.0501    12.5619    12.3483    -6.3340
  423.0000     8.1647     0.1793    82.4856     2.3725     0.0552    12.3864    12.2508    -6.3323
  423.5000     8.1646     0.1793    81.8436     2.3740     0.0551    12.2134    12.1733    -6.4431
  424.0000     8.1644     0.1802    81.3580     2.3743     0.0505    12.2125    12.0024    -6.6341
  424.5000     8.1642     0.1760    81.9753     2.3778     0.0430    12.2117    11.8339    -6.9375
  425.0000     8.1641     0.1687    85.3704     2.3892     0.0429    12.2108    11.8322    -7.4187
  425.5000     8.1639     0.1681    85.3704     2.3965     0.0459    12.2099    11.8306    -7.5442
  426.0000     8.1945     0.1681    85.6790     2.3990     0.0489    12.2091    11.6645    -7.5425
  426.5000     8.2250     0.1688    86.9136     2.3989     0.0518    12.2082    11.6626    -7.8459
  427.0000     8.2248     0.1725    89.3827     2.3983     0.0518    12.2072    11.6610    -7.8444
  427.5000     8.2267     0.1763    94.7531     2.3877     0.0487    12.2064    11.6594    -7.8429
  428.0000     8.2552     0.1800    97.4979     2.3771     0.0487    12.0359    11.6579    -7.8415
  428.5000     8.2858     0.1815    98.1646     2.3741     0.0492    12.0351    11.6563    -7.8658
  429.0000     8.2856     0.1780    98.7366     2.3711     0.0546    12.2039    11.6547    -8.1434
  429.5000     8.2854     0.1743    99.2593     2.3747     0.0555    12.2031    11.6531    -8.1418
  430.0000     8.2853     0.1718    94.8148     2.3895     0.0587    12.2023    11.6514    -8.5366
  430.5000     8.2851     0.1706    93.0576     2.3908     0.0605    12.2014    11.6498    -8.7487
  431.0000     8.3156     0.1749    91.8519     2.3884     0.0558    12.2006    11.7217    -9.1870
  431.5000     8.3461     0.1834    91.8519     2.3768     0.0423    12.1997    11.8360    -9.5122
  432.0000     8.3460     0.1882    95.5556     2.3615     0.0302    12.1988    11.9503    -9.9631
  432.5000     8.3458     0.1803    95.5967     2.3615     0.0242    12.1980    12.0646    -9.9616
  433.0000     8.3150     0.1730    94.3210     2.3802     0.0181    12.1971    12.1788    -9.9602
  433.5000     8.3141     0.1707    92.4527     2.3923     0.0181    12.1963    12.3101    -9.9587
  434.0000     8.2840     0.1728    92.1605     2.3923     0.0180    12.1953    12.3084    -9.9572
  434.5000     8.2839     0.1751    94.0123     2.3833     0.0181    12.1945    12.1357    -9.9558
  435.0000     8.2756     0.1772    93.7037     2.3772     0.0213    12.1936    11.9654    -9.9543
  435.5000     8.2423     0.1792    93.7037     2.3742     0.0251    12.1928    11.9638   -10.2577
  436.0000     8.1959     0.1801    96.2552     2.3744     0.0337    12.1920    11.9621   -10.2561
  436.5000     8.0837     0.1816    98.7984     2.3757     0.0419    12.3665    12.1292   -10.2546
  437.0000     8.0377     0.1835    99.2593     2.3735     0.0461    12.7298    12.3358    -9.9482
  437.5000     8.0376     0.1877    95.5556     2.3631     0.0493    13.1038    12.6977    -9.8323
  438.0000     8.0988     0.2009    87.5099     2.3326     0.0538    13.7257    13.0701    -9.5041
  438.5000     8.1293     0.2223    74.5536     2.3085     0.0537    14.2793    13.7286    -9.1758
  439.0000     8.1905     0.2375    67.6296     2.2928     0.0507    14.9879    14.4418    -8.7223
  439.5000     8.2210     0.2503    68.5432     2.2714     0.0446    15.7795    15.1605    -8.4159
  440.0000     8.2822     0.2542    73.8272     2.2623     0.0416    16.7229    15.8086    -8.1096
  440.5000     8.3127     0.2527    75.3333     2.2548     0.0415    19.0689    16.9523    -7.8032
  441.0000     8.3433     0.2479    75.8025     2.2546     0.0475    21.6275    17.6770    -7.8017
  441.5000     8.3431     0.2417    76.4198     2.2669     0.0475    23.1939    18.4326    -7.8003
  442.0000     8.3123     0.2379    78.2716     2.2761     0.0469    24.1869    19.4914    -7.7988
  442.5000     8.2978     0.2361    78.8889     2.2809     0.0406    25.2225    20.0657    -7.7973
  443.0000     8.2813     0.2379    77.6543     2.2836     0.0343    25.9368    20.6764    -7.7957
  443.5000     8.2811     0.2452    76.7284     2.2682     0.0292    26.3093    21.2475    -7.7942
  444.0000     8.2810     0.2525    75.4691     2.2562     0.0248    26.7603    21.5667    -7.7927
  444.5000     8.2808     0.2573    74.8765     2.2489     0.0199    27.4249    21.7863    -7.9065
  445.0000     8.2807     0.2512    74.9383     2.2443     0.0230    27.8096    21.7827    -8.0945
  445.5000     8.2805     0.2413    75.2716     2.2564     0.0290    27.8074    21.7797    -8.0930
  446.0000     8.2497     0.2342    75.8025     2.2699     0.0290    27.8055    21.7766    -8.0912
  446.5000     8.2463     0.2308    75.9341     2.2866     0.0289    27.6154    21.7730    -8.0897
  447.0000     8.2187     0.2330    81.0864     2.3018     0.0259    27.4151    21.3610    -8.3931
  447.5000     8.2104     0.2347    82.2840     2.2919     0.0258    27.4129    21.1663    -8.6965
  448.0000     8.1571     0.2298    80.5267     2.2861     0.0322    27.4110    21.1634    -8.6950
  448.5000     8.1569     0.2199    79.2428     2.2849     0.0478    27.4092    20.5764    -8.6936
  449.0000     8.1412     0.2157    78.2716     2.3026     0.0630    26.6507    20.2876    -9.3018
  449.5000     8.1259     0.2121    77.9630     2.3185     0.0716    25.9132    20.0028    -9.3003
  450.0000     8.1257     0.2115    78.2716     2.3215     0.0658    25.1961    20.0000    -9.6038
  450.5000     8.1256     0.2139    78.9083     2.3200     0.0369    24.4738    19.9972    -9.9072
  451.0000     8.1254     0.2181    80.0530     2.3109     0.0241    23.8208    19.9944    -9.9055
  451.5000     8.1253     0.2240    81.1509     2.3064     0.0178    23.4163    19.9916   -10.2091
  452.0000     8.1252     0.2327    82.2018     2.3003     0.0164    23.1600    19.9888   -10.5122
  452.5000     8.1250     0.2411    84.6483     2.2922     0.0103    22.8365    19.9860   -10.5107
  453.0000     8.1248     0.2466    85.5658     2.2768     0.0103    22.5175    19.9827   -11.1186
  453.5000     8.1247     0.2502    85.5658     2.2682     0.0102    22.5159    19.9800   -11.4220
  454.0000     8.1245     0.2490    85.5658     2.2646     0.0132    22.5140    19.9773   -11.7256
  454.5000     8.1244     0.2509    84.6412     2.2625     0.0192    22.5125    19.6970   -12.3337
  455.0000     8.1242     0.2478    83.3639     2.2626     0.0254    22.5110    19.6943   -12.3322
  455.5000     8.1241     0.2439    80.9959     2.2706     0.0341    22.5094    19.4179   -12.6357
  456.0000     8.1239     0.2406    75.1600     2.2777     0.0322    22.5079    19.4152   -12.6341
  456.5000     8.1238     0.2388    73.0275     2.2762     0.0143    22.5064    19.3743   -12.6026
  457.0000     8.1236     0.2370    73.1519     2.2868     0.0069    22.5049    19.0824   -12.3262
  457.5000     8.1235     0.2345    73.9348     2.2929     0.0082    22.5033    18.8713   -12.3247
  458.0000     8.1233     0.2320    77.9939     2.2959     0.0129    22.5017    18.7725   -12.7236
  458.5000     8.1232     0.2290    80.9786     2.2990     0.0175    22.5001    18.3452   -12.9317
  459.0000     8.1230     0.2270    82.5076     2.3020     0.0218    22.3985    17.9578   -13.2348
  459.5000     8.1229     0.2236    82.8135     2.3038     0.0217    22.0630    17.5854   -13.5381
  460.0000     8.1534     0.2190    82.8135     2.3058     0.0247    21.8744    17.3386   -13.5363
