~VERSION INFORMATION
 VERS.                2.0:   CWLS LOG ASCII STANDARD - VERSION 2.0
 WRAP.                 NO:   ONE LINE PER DEPTH STEP
~WELL INFORMATION
#MNEM.UNIT      DATA TYPE    INFORMATION
#----------   ------------   ------------------------------
 STRT.F            0.0000:   START DEPTH
 STOP.F         3024.5000:   STOP DEPTH
 STEP.F            0.5000:   STEP LENGTH
 NULL.          -999.2500:   NO VALUE
 COMP. LAWRENCE/ALLISON INC:   COMPANY
 WELL.   NPR 3 77X #77-28:   WELL
 FLD .           N.P.R. 3:   FIELD
 LOC .      S28 T39N R78W:   LOCATION
 CNTY.            NATRONA:   COUNTY
 STAT.            WYOMING:   STATE
 CTRY. UNITED STATES OF AMERICA:   COUNTRY
 SRVC.      Dresser Atlas:   SERVICE COMPANY
 DATE.        19-OCT-1986:   LOGDATE
 API .       490251110400:   API NUMBER
~CURVE INFORMATION
#MNEM.UNIT       API CODE    CURVE DESCRIPTION
#----------   ------------   ------------------------------
 DEPT.F                  :   
 PORD.DEC    45 890 12 00:   DENSITY POROSITY SANDSTONE
 CNC .DEC    42 890 03 00:   NEUTRON POROSITY SANDSTONE
 DEN .G/C3   45 350 01 00:   COMPENSATED BULK DENSTIY
 CORR.G/C3   45 356 01 00:   DENSITY CORRECTION
 CALD.IN     45 280 60 00:   CALIPER FROM DENSITY LOG
 GRR .GAPI   07 310 01 00:   GAMMA RAY FROM RES. LOG.
 RFOC.OHMM   07 220 04 00:   RESISTIVITY FOCUSED LOG
 RILD.OHMM   07 120 46 00:   INDUCTION LOG DEEP RESISTIVITY
 RILM.OHMM   07 120 44 00:   INDUCTION LOG MEDIUM RESISTIVITY
 SPR .MV     07 010 01 00:   SPONTANEOUS POTENTIAL
~PARAMETER INFORMATION
#MNEM.UNIT          VALUE    DESCRIPTION
#----------   ------------   ------------------------------
 PD  .                 GL:   PERMANENT DATUM
 EPD .F              5074:   ELEVATION PERMANENT DATUM
 LMF .                 KB:   LOG MEASURED FROM
 DAPD.F                12:   FEET ABOVE PERMANENT DATUM
 DMF .                 KB:   DRILLING MEASURED FROM
 EKB .F              5086:   KELLING BUSHING
 EGL .F              5074:   GROUND LEVEL
 DATE.           10-19-86:   RUN DATE
 RUN .                  1:   RUN NUMBER
 DD  .F              3021:   DEPTH DRILLER
 DL  .F              3025:   DEPTH LOGGER
 BLI .F              3023:   BOTTOM LOG INTERVAL
 CS  .IN            8.625:   CASING SIZE
 CBD .F               620:   CASING BOTTOM DRILLER
 CBL .F               615:   CASING BOTTOM LOGGER
 BS  .IN            7.875:   BIT SIZE
 BSD .F              3021:   BIT SIZE AT DEPTH
 DFT .        KCL POLYMER:   DRILLING FLUID TYPE
 DFD .                8.9:   DRILLING FLUID DENSITY
 DFV .                 38:   DRILLING FLUID VISCOSITY
 DFPH.                9.5:   DRILLING FLUID PH
 DFL .               11.2:   DRILLING FLUID LOSS
 MSS .           FLOWLINE:   MUD SAMPLE SOURCE
 RMS .OHMM            .25:   RESISTIVITY MUD SAMPLE
 MST .F                65:   MUD SAMPLE TEMPERATURE
 RMF .OHMM           .203:   RESISTIVITY MUD FILTRATE SAMPLE
 MFST.F                65:   MUD FILTRATE SAMPLE TEMPERATURE
 RMC .OHMM            .31:   RESISTIVITY MUD CAKE
 MCST.F                65:   MUD CAKE SAMPLE TEMPERATURE
 MFSS.               MEAS:   MUD FILTRATE SAMPLE SOURCE
 MCSS.               CALC:   MUD CAKE SAMPLE SOURCE
 RMB .OHMM           .136:   RESISTIVITY MUD AT BHT
 BHT .F               119:   BOTTOM HOLE TEMPERATURE
 TCS .HRS               5:   TIME CURCULATED STOPPED
 MRT .F               119:   MAXIMUM RECORDED TEMPERATURE
 LUN .               6274:   LOGGING UNIT NUMBER
 LUL .               GLTE:   LOGGING UNIT LOCATION
 ENGI.             RAUTIO:   RECORDING ENGINEER
 WITN.             STRONG:   WITNESSED BY
 CLNT.            A2DTECH:   CLIENT CODE
 ORIG.       2", 5" PRINT:   ORIGIN OF DATA
 UWI .       490251110400:   UNIQUE WELL ID
 DICO. A2D Technologies, Inc.:   DIGITIZING COMPANY
~OTHER INFORMATION
~A    DEPT    PORD        CNC        DEN       CORR       CALD        GRR       RFOC       RILD       RILM        SPR   
# ...
  804.0000  -999.2500  -999.2500  -999.2500  -999.2500  -999.2500    99.2965     8.1305     7.8965     7.2977   -77.8346
  804.5000  -999.2500  -999.2500  -999.2500  -999.2500  -999.2500    99.0681     8.1925     7.8965     7.2393   -77.8321
  805.0000  -999.2500  -999.2500  -999.2500  -999.2500  -999.2500   101.1678     8.1045     7.8209     7.1814   -77.8326
  805.5000  -999.2500  -999.2500  -999.2500  -999.2500  -999.2500   102.7464     8.0264     7.7640     7.1238   -77.8328
  806.0000  -999.2500  -999.2500  -999.2500  -999.2500  -999.2500   100.6607     7.9485     7.7074     7.0665   -77.8330
  806.5000  -999.2500  -999.2500  -999.2500  -999.2500  -999.2500    98.6578     7.8956     7.6514     7.0062   -77.9849
  807.0000  -999.2500  -999.2500  -999.2500  -999.2500  -999.2500    98.4129     7.8965     7.5957     7.0729   -78.2886
  807.5000  -999.2500  -999.2500  -999.2500  -999.2500  -999.2500    98.4046     7.8965     7.5414     7.1644   -78.5924
  808.0000  -999.2500  -999.2500  -999.2500  -999.2500  -999.2500    98.4006     7.8965     7.5412     7.2572   -78.8996
  808.5000  -999.2500  -999.2500  -999.2500  -999.2500  -999.2500    98.4284     7.8963     7.5414     7.2689   -79.2158
  809.0000  -999.2500  -999.2500  -999.2500  -999.2500  -999.2500   100.1425     7.8765     7.5414     7.2183   -79.1838
  809.5000  -999.2500  -999.2500  -999.2500  -999.2500  -999.2500   101.9186     7.8401     7.5414     7.1731   -78.8596
  810.0000  -999.2500  -999.2500  -999.2500  -999.2500  -999.2500   100.7214     7.8035     7.5414     7.1281   -78.6325
  810.5000  -999.2500  -999.2500  -999.2500  -999.2500  -999.2500    97.7435     7.7672     7.5414     7.0705   -78.4125
  811.0000  -999.2500  -999.2500  -999.2500  -999.2500  -999.2500    97.8867     7.7310     7.5414     7.0758   -78.1914
  811.5000  -999.2500  -999.2500  -999.2500  -999.2500  -999.2500   100.0113     7.6950     7.5414     7.1084   -77.9702
  812.0000  -999.2500  -999.2500  -999.2500  -999.2500  -999.2500   102.0883     7.6815     7.5414     7.1411   -77.7516
  812.5000  -999.2500  -999.2500  -999.2500  -999.2500  -999.2500   102.3867     7.6967     7.5414     7.1740   -77.7243
  813.0000  -999.2500  -999.2500  -999.2500  -999.2500  -999.2500    99.0267     7.7498     7.5414     7.2070   -77.9143
  813.5000  -999.2500  -999.2500  -999.2500  -999.2500  -999.2500    96.3167     7.8034     7.5514     7.2402   -78.1036
  814.0000  -999.2500  -999.2500  -999.2500  -999.2500  -999.2500    97.7951     7.8573     7.5686     7.2735   -78.2926
  814.5000  -999.2500  -999.2500  -999.2500  -999.2500  -999.2500    99.5123     7.9104     7.5859     7.3070   -78.4245
  815.0000  -999.2500  -999.2500  -999.2500  -999.2500  -999.2500   101.2417     8.0464     7.6101     7.3361   -78.3879
  815.5000  -999.2500  -999.2500  -999.2500  -999.2500  -999.2500   102.0059     8.0406     7.5818     7.2917   -78.3553
  816.0000  -999.2500  -999.2500  -999.2500  -999.2500  -999.2500   100.8379     8.0431     7.5297     7.2527   -78.3227
  816.5000  -999.2500  -999.2500  -999.2500  -999.2500  -999.2500    99.3866     7.9865     7.4781     7.2140   -78.2898
  817.0000  -999.2500  -999.2500  -999.2500  -999.2500  -999.2500    97.9290     7.9198     7.4267     7.1754   -78.2560
  817.5000  -999.2500  -999.2500  -999.2500  -999.2500  -999.2500    96.4836     7.8536     7.3758     7.1371   -78.2354
  818.0000  -999.2500  -999.2500  -999.2500  -999.2500  -999.2500    95.6318     7.7878     7.3358     7.0990   -78.4697
  818.5000  -999.2500  -999.2500  -999.2500  -999.2500  -999.2500    96.7029     7.7525     7.3361     7.0610   -78.7159
  819.0000  -999.2500  -999.2500  -999.2500  -999.2500  -999.2500    99.6311     7.7525     7.3361     7.0233   -78.9706
  819.5000  -999.2500  -999.2500  -999.2500  -999.2500  -999.2500   102.4760     7.7525     7.3248     6.9858   -78.9267
  820.0000  -999.2500  -999.2500  -999.2500  -999.2500  -999.2500   105.3526     7.7525     7.3127     6.9485   -78.7467
  820.5000  -999.2500  -999.2500  -999.2500  -999.2500  -999.2500   106.4033     7.7526     7.3005     6.8809   -78.5638
  821.0000  -999.2500  -999.2500  -999.2500  -999.2500  -999.2500   104.2431     7.7551     7.2884     6.8762   -78.3850
  821.5000  -999.2500  -999.2500  -999.2500  -999.2500  -999.2500   101.7182     7.7605     7.2762     6.8785   -78.2413
  822.0000  -999.2500  -999.2500  -999.2500  -999.2500  -999.2500   102.4022     7.7658     7.2617     6.8785   -78.0391
  822.5000  -999.2500  -999.2500  -999.2500  -999.2500  -999.2500   105.5466     7.7712     7.2433     6.8785   -78.0327
  823.0000  -999.2500  -999.2500  -999.2500  -999.2500  -999.2500   107.1435     7.7765     7.2249     6.8784   -78.0317
  823.5000  -999.2500  -999.2500  -999.2500  -999.2500  -999.2500   105.6156     7.7819     7.2023     6.8782   -78.0150
  824.0000  -999.2500  -999.2500  -999.2500  -999.2500  -999.2500   103.8939     7.7872     7.2405     6.8948   -77.8941
  824.5000  -999.2500  -999.2500  -999.2500  -999.2500  -999.2500   104.2816     7.7926     7.2905     6.9363   -77.7736
  825.0000  -999.2500  -999.2500  -999.2500  -999.2500  -999.2500   105.0148     7.7980     7.3409     6.9786   -77.6529
  825.5000  -999.2500  -999.2500  -999.2500  -999.2500  -999.2500   104.3959     7.8033     7.4044     7.0062   -77.5323
  826.0000  -999.2500  -999.2500  -999.2500  -999.2500  -999.2500   104.7159     7.8087     7.3920     6.9391   -77.4272
  826.5000  -999.2500  -999.2500  -999.2500  -999.2500  -999.2500   105.1586     7.8141     7.3711     6.8891   -77.6443
  827.0000  -999.2500  -999.2500  -999.2500  -999.2500  -999.2500   104.0401     7.8196     7.3500     6.8394   -77.9048
  827.5000  -999.2500  -999.2500  -999.2500  -999.2500  -999.2500   101.6193     7.8238     7.3362     6.8155   -78.1664
  828.0000  -999.2500  -999.2500  -999.2500  -999.2500  -999.2500    99.2793     7.8104     7.3361     6.8155   -78.4272
  828.5000  -999.2500  -999.2500  -999.2500  -999.2500  -999.2500    99.0054     7.7982     7.3361     6.8155   -78.6840
  829.0000  -999.2500  -999.2500  -999.2500  -999.2500  -999.2500    98.0684     7.7861     7.3360     6.8155   -78.6943
  829.5000  -999.2500  -999.2500  -999.2500  -999.2500  -999.2500    97.5930     7.7740     7.3359     6.8155   -78.4036
  830.0000  -999.2500  -999.2500  -999.2500  -999.2500  -999.2500    98.9578     7.7619     7.3089     6.8156   -78.1151
  830.5000  -999.2500  -999.2500  -999.2500  -999.2500  -999.2500   100.7646     7.7499     7.2599     6.8164   -77.8253
  831.0000  -999.2500  -999.2500  -999.2500  -999.2500  -999.2500   102.5690     7.7378     7.2112     6.7985   -77.5356
  831.5000  -999.2500  -999.2500  -999.2500  -999.2500  -999.2500   102.7985     7.7258     7.1628     6.7611   -77.2437
  832.0000  -999.2500  -999.2500  -999.2500  -999.2500  -999.2500   103.1925     7.7138     7.1148     6.7239   -76.9682
  832.5000  -999.2500  -999.2500  -999.2500  -999.2500  -999.2500   104.3269     7.7018     7.0671     6.6870   -76.7236
  833.0000  -999.2500  -999.2500  -999.2500  -999.2500  -999.2500   103.2925     7.6898     7.0197     6.6503   -76.9718
  833.5000  -999.2500  -999.2500  -999.2500  -999.2500  -999.2500   100.3094     7.6100     6.9726     6.6137   -77.2044
  834.0000  -999.2500  -999.2500  -999.2500  -999.2500  -999.2500   101.3575     7.3778     6.9421     6.5774   -77.4405
  834.5000  -999.2500  -999.2500  -999.2500  -999.2500  -999.2500   102.8453     7.1526     6.9421     6.5692   -77.6758
  835.0000  -999.2500  -999.2500  -999.2500  -999.2500  -999.2500   100.4278     7.0062     6.9421     6.7156   -77.9088
  835.5000  -999.2500  -999.2500  -999.2500  -999.2500  -999.2500    96.7549     7.0062     7.2540     6.8227   -77.9448
  836.0000  -999.2500  -999.2500  -999.2500  -999.2500  -999.2500    93.2619     7.1502     7.6368     6.9315   -77.7649
  836.5000  -999.2500  -999.2500  -999.2500  -999.2500  -999.2500    94.3344     7.3119     8.0398     7.0420   -77.5859
  837.0000  -999.2500  -999.2500  -999.2500  -999.2500  -999.2500    97.3083     7.4773     8.1190     7.1543   -77.4058
