~VERSION INFORMATION
 VERS.                2.0:   CWLS LOG ASCII STANDARD - VERSION 2.0
 WRAP.                 NO:   ONE LINE PER DEPTH STEP
~WELL INFORMATION
#MNEM.UNIT      DATA TYPE    INFORMATION
#----------   ------------   ------------------------------
 STRT.F           33.0000:   START DEPTH
 STOP.F          957.0000:   STOP DEPTH
 STEP.F            0.5000:   STEP LENGTH
 NULL.          -999.2500:   NO VALUE
 COMP. TESORO PETROLEUM CORP:   COMPANY
 WELL.  NPR #3 46-S-14 #3:   WELL
 FLD .             TEAPOT:   FIELD
 LOC .      S14 T38N R78W:   LOCATION
 CNTY.            NATRONA:   COUNTY
 STAT.            WYOMING:   STATE
 CTRY. UNITED STATES OF AMERICA:   COUNTRY
 SRVC.       Schlumberger:   SERVICE COMPANY
 DATE.        25-JUN-1970:   LOGDATE
 API .       490251023100:   API NUMBER
~CURVE INFORMATION
#MNEM.UNIT       API CODE    CURVE DESCRIPTION
#----------   ------------   ------------------------------
 DEPT.F                  :   
 SPR .MV     05 010 01 00:   SPONTANEOUS POTENTIAL FROM RES.
 ILD .OHMM   05 120 46 00:   INDUCTION LOG DEEP
 CILD.MMHO   05 110 46 00:   CONDUCTIVITY INDUCTION LOG DEEP
 ASN .OHMM   05 041 16 00:   AMPLIFIED SHORT NORMAL 16"
 GR  .GAPI   30 310 01 00:   GAMMA RAY
 CALD.IN     45 280 60 00:   CALIPER FROM DENSITY LOG
 CORR.G/C3   45 356 01 00:   DENSITY CORRECTION
 DPHI.DEC    45 890 12 00:   DENSITY POROSITY SANDSTONE
 RHOB.G/C3   45 350 01 00:   BULK DENSITY
~PARAMETER INFORMATION
#MNEM.UNIT          VALUE    DESCRIPTION
#----------   ------------   ------------------------------
 PD  .                 GL:   PERMANENT DATUM
 EPD .F              5271:   ELEVATION PERMANENT DATUM
 LMF .                 KB:   LOG MEASURED FROM
 DAPD.F                10:   FEET ABOVE PERMANENT DATUM
 DMF .                 KB:   DRILLING MEASURED FROM
 EKB .F              5281:   KELLING BUSHING
 EDF .F              5280:   DRILLING FLOOR
 EGL .F              5271:   GROUND LEVEL
 DATE.        25-JUN-1970:   RUN DATE
 RUN .                  1:   RUN NUMBER
 DD  .F               950:   DEPTH DRILLER
 DL  .F               958:   DEPTH LOGGER
 BLI .F               957:   BOTTOM LOG INTERVAL
 TLI .F                33:   TOP LOG INTERVAL
 CS  .IN            10.75:   CASING SIZE
 CBD .F                30:   CASING BOTTOM DRILLER
 CBL .F                33:   CASING BOTTOM LOGGER
 BS  .IN                9:   BIT SIZE
 BSD .F               950:   BIT SIZE AT DEPTH
 DFT .         MO-MAR MUD:   DRILLING FLUID TYPE
 DFD .                9.7:   DRILLING FLUID DENSITY
 DFV .                 62:   DRILLING FLUID VISCOSITY
 DFPH.                7.4:   DRILLING FLUID PH
 DFL .                5.6:   DRILLING FLUID LOSS
 MSS .           FLOWLINE:   MUD SAMPLE SOURCE
 RMS .OHMM           1.40:   RESISTIVITY MUD SAMPLE
 MST .F                85:   MUD SAMPLE TEMPERATURE
 RMF .OHMM           0.85:   RESISTIVITY MUD FILTRATE SAMPLE
 MFST.F                87:   MUD FILTRATE SAMPLE TEMPERATURE
 MFSS.               MEAS:   MUD FILTRATE SAMPLE SOURCE
 RMB .OHMM           1.06:   RESISTIVITY MUD AT BHT
 BHT .F               112:   BOTTOM HOLE TEMPERATURE
 TCS .HRS               1:   TIME CURCULATED STOPPED
 MRT .F               112:   MAXIMUM RECORDED TEMPERATURE
 LUN .               7037:   LOGGING UNIT NUMBER
 LUL .                GLT:   LOGGING UNIT LOCATION
 ENGI.           KNOSTMAN:   RECORDING ENGINEER
 WITN.                MAY:   WITNESSED BY
 CLNT.            A2DTECH:   CLIENT CODE
 ORIG.         2.5" PRINT:   ORIGIN OF DATA
 UWI .       490251023100:   UNIQUE WELL ID
 DICO. A2D Technologies, Inc.:   DIGITIZING COMPANY
~OTHER INFORMATION
~A   DEPT       SPR        ILD       CILD       ASN         GR       CALD       CORR       DPHI       RHOB   
# ...
  580.5000   -33.3678     8.0932   128.8450     8.5570  -999.2500     9.3964     0.0149     0.0956     2.4679
  581.0000   -33.3617     8.0955   129.8405     8.4928  -999.2500     9.3957     0.0167     0.0907     2.5045
  581.5000   -33.3552     8.0818   130.3040     8.4417  -999.2500     9.3950     0.0198     0.0889     2.5090
  582.0000   -33.2482     7.7967   131.7891     8.3818  -999.2500     9.3943     0.0290     0.0908     2.5074
  582.5000   -33.0395     7.7992   133.2827     8.3220  -999.2500     9.3935     0.0352     0.0913     2.5089
  583.0000   -33.0334     7.6504   134.8483     8.2621  -999.2500     9.3928     0.0398     0.0913     2.5089
  583.5000   -33.0274     7.5008   136.2645     8.2016  -999.2500     9.3921     0.0261     0.0912     2.5088
  584.0000   -33.0203     7.5030   139.2761     8.1074  -999.2500     9.3913     0.0098     0.1019     2.4989
  584.5000   -33.0147     7.4208   142.2737     8.0129  -999.2500     9.3906     0.0069     0.1102     2.4770
  585.0000   -33.0091     7.2042   142.2457     7.9487  -999.2500     9.3899     0.0058     0.1198     2.4557
  585.5000   -33.0030     7.2068   145.2573     7.8721  -999.2500     9.3891     0.0076     0.1177     2.4508
  586.0000   -32.9970     7.1621   145.3038     7.8122  -999.2500     9.3884     0.0258     0.1020     2.4859
  586.5000   -32.9909     7.0598   147.1353     7.7220  -999.2500     9.3877     0.0227     0.1029     2.5025
  587.0000   -32.9839     7.0622   148.2067     7.6305  -999.2500     9.3870     0.0119     0.1084     2.4896
  587.5000   -32.9787     7.0549   148.1711     7.5316  -999.2500     9.3862     0.0041     0.1193     2.4799
  588.0000   -32.9726     6.9148   149.6656     7.4724  -999.2500     9.3855     0.0011     0.1352     2.4681
  588.5000   -32.9666     6.9174   151.1547     7.4661  -999.2500     9.3848     0.0081     0.1405     2.4384
  589.0000   -32.9352     6.9201   151.1246     7.5138  -999.2500     9.3840     0.0125     0.1261     2.4523
  589.5000   -32.7644     6.9222   150.6003     7.5751  -999.2500     9.3833     0.0087     0.1127     2.4720
  590.0000   -32.6444     6.9975   148.0243     7.6364  -999.2500     9.3826     0.0030     0.1041     2.4901
  590.5000   -32.6378     7.0780   146.4696     7.7301  -999.2500     9.3819     0.0288     0.0915     2.5038
  591.0000   -32.6322     7.1790   143.4022     7.8554  -999.2500     9.3811     0.0272     0.0873     2.5115
  591.5000   -32.6261     7.2341   140.3343     7.9309  -999.2500     9.3804     0.0195     0.0849     2.5147
  592.0000   -32.6201     7.2848   138.4803     7.9869  -999.2500     9.3797     0.0132     0.0899     2.5158
  592.5000   -32.6140     7.4514   135.7143     8.0342  -999.2500     9.3789     0.0099     0.1012     2.5035
  593.0000   -32.6070     7.5440   135.6839     8.0349  -999.2500     9.3782     0.0015     0.1153     2.4763
  593.5000   -32.6014     7.5556   134.1299     8.0659  -999.2500     9.3775    -0.0028     0.1158     2.4611
  594.0000   -32.6717     7.7000   132.5822     8.0970  -999.2500     9.3767    -0.0037     0.1098     2.4686
  594.5000   -32.8303     7.7023   132.5532     8.1338  -999.2500     9.3760    -0.0021     0.1050     2.4822
  595.0000   -32.8875     7.7049   132.5228     8.1793  -999.2500     9.3753     0.0102     0.1014     2.4886
  595.5000   -32.8815     7.7068   132.4924     8.2205  -999.2500     9.3746     0.0178     0.0977     2.4972
  596.0000   -32.8754     7.7091   132.4564     8.2213  -999.2500     9.3738     0.0209     0.0947     2.5085
  596.5000   -32.8693     7.6239   132.4285     8.2221  -999.2500     9.3731     0.0160     0.0935     2.5176
  597.0000   -32.8632     7.5621   132.4005     8.2228  -999.2500     9.3724     0.0107     0.0978     2.5033
  597.5000   -32.8571     7.5644   133.8923     8.1612  -999.2500     9.3716     0.0048     0.1074     2.4865
  598.0000   -32.8511     7.5667   135.3841     8.1030  -999.2500     9.3709     0.0071     0.1056     2.4729
  598.5000   -32.8450     7.5062   136.0713     8.0431  -999.2500     9.3702     0.0116     0.0972     2.5062
  599.0000   -32.8389     7.3442   138.3587     7.9988  -999.2500     9.3695     0.0162     0.0991     2.5017
  599.5000   -32.8324     7.2703   139.8480     7.9841  -999.2500     9.3687     0.0192     0.1051     2.4812
  600.0000   -32.8267     7.2727   141.3374     7.9546  -999.2500     9.3680     0.0223     0.1064     2.4945
  600.5000   -32.8207     7.2758   142.8430     7.9250  -999.2500     9.3673     0.0253     0.1000     2.5093
  601.0000   -32.8146     7.2788   143.2926     7.9258  -999.2500     9.3665     0.0315     0.0964     2.5037
  601.5000   -32.8085     7.2818   144.3313     7.9265  -999.2500     9.3658     0.0349     0.0943     2.5167
  602.0000   -32.8024     7.2854   144.3134     7.9273  -999.2500     9.3651     0.0376     0.0937     2.5152
  602.5000   -32.7964     7.2882   144.2993     7.9280  -999.2500     9.3643     0.0391     0.0901     2.5091
  603.0000   -32.9422     7.2910   142.7654     7.9592  -999.2500     9.3636     0.0453     0.0871     2.5207
  603.5000   -33.0886     7.2939   141.1195     7.9599  -999.2500     9.3629     0.0498     0.0847     2.5322
  604.0000   -33.0821     7.2970   137.8319     8.0515  -999.2500     9.3622     0.0436     0.0883     2.5394
  604.5000   -33.0760     7.5091   135.4867     8.2435  -999.2500     9.3614     0.0313     0.0953     2.5212
  605.0000   -33.0690     7.6061   133.5866     8.4369  -999.2500     9.3607     0.0266     0.1003     2.5045
  605.5000   -33.0638     7.7610   130.5297     8.6215  -999.2500     9.3600     0.0281     0.1065     2.4894
  606.0000   -33.0578     7.9154   127.4761     8.7980  -999.2500     9.3592     0.0266     0.0999     2.4909
  606.5000   -33.0521     8.2212   124.4224     9.0251  -999.2500     9.3585     0.0048     0.1029     2.4985
  607.0000   -33.0530     8.3869   120.9219     9.2076  -999.2500     9.3578     0.0019     0.1065     2.4832
  607.5000   -33.0537     8.5757   116.3375     9.3296  -999.2500     9.3571     0.0188     0.1099     2.4746
  608.0000   -33.0545     8.9050   111.5301     9.4569  -999.2500     9.3563     0.0310     0.1112     2.4776
  608.5000   -33.3568     9.1735   107.6416     9.5573  -999.2500     9.3556     0.0127     0.1094     2.4768
  609.0000   -33.6565     9.4488   103.0682     9.6577  -999.2500     9.3549     0.0002     0.1076     2.4662
  609.5000   -33.6520     9.6032   100.0146     9.7740  -999.2500     9.3541     0.0017     0.1153     2.4593
  610.0000   -33.6474     9.7677    98.3788    10.0001  -999.2500     9.3534     0.0038     0.1173     2.4593
  610.5000   -33.6429    10.0636    96.6109    10.3051  -999.2500     9.3529     0.0078     0.1149     2.4736
  611.0000   -33.6383    10.2182    94.8430    10.6663  -999.2500     9.3523     0.0155     0.1071     2.4903
  611.5000   -33.6337    10.3727    93.0752    11.0274  -999.2500     9.3518     0.0220     0.0994     2.4925
  612.0000   -33.6292    10.6792    90.8184    11.2324  -999.2500     9.3513     0.0277     0.0944     2.4970
  612.5000   -33.6246    10.6821    90.8043    11.5152  -999.2500     9.3507     0.0154     0.0902     2.5079
  613.0000   -33.6201    10.8364    92.3099    11.5808  -999.2500     9.3502     0.0122     0.0914     2.5098
  613.5000   -33.6155    10.9909    94.0275    11.5152  -999.2500     9.3496     0.0153     0.0996     2.5120
  614.0000   -33.6109    10.9939    95.7650    11.3636  -999.2500     9.3491     0.0045     0.1102     2.4833
  614.5000   -33.6064    10.8455    97.5025    11.2121  -999.2500     9.3485     0.0091     0.1187     2.4658
  615.0000   -33.6013    10.6975    99.8452    11.0606  -999.2500     9.3480     0.0174     0.1218     2.4484
  615.5000   -33.5970    10.7003   101.3508    10.9091  -999.2500     9.3474     0.0244     0.1186     2.4665
  616.0000   -33.5927    10.7032   101.3367    10.8283  -999.2500     9.3469     0.0213     0.1145     2.4756
  616.5000   -33.7665    10.5454   102.8424    10.6061  -999.2500     9.3463     0.0167     0.1127     2.4725
