~VERSION INFORMATION
 VERS.                2.0:   CWLS LOG ASCII STANDARD - VERSION 2.0
 WRAP.                 NO:   ONE LINE PER DEPTH STEP
~WELL INFORMATION
#MNEM.UNIT      DATA TYPE    INFORMATION
#----------   ------------   ------------------------------
 STRT.F           32.0000:   START DEPTH
 STOP.F          697.0000:   STOP DEPTH
 STEP.F            0.5000:   STEP LENGTH
 NULL.          -999.2500:   NO VALUE
 COMP.    FENIX & SCISSON:   COMPANY
 WELL.      NPR-3 #81S3-3:   WELL
 FLD .        TEAPOT DOME:   FIELD
 LOC .       S3 T38N R78W:   LOCATION
 CNTY.            NATRONA:   COUNTY
 STAT.            WYOMING:   STATE
 CTRY. UNITED STATES OF AMERICA:   COUNTRY
 SRVC.           BIRDWELL:   SERVICE COMPANY
 DATE.        11-JAN-1978:   LOGDATE
 API .       490251055400:   API NUMBER
~CURVE INFORMATION
#MNEM.UNIT       API CODE    CURVE DESCRIPTION
#----------   ------------   ------------------------------
 DEPT.F                  :   
 ILD .OHMM   05 120 46 00:   INDUCTION LOG DEEP
 SN  .OHMM   05 040 16 00:   SHORT NORMAL 16"
 SPR .MV     05 010 01 00:   SPONTANEOUS POTENTIAL FROM RES.
 CALD.IN     45 280 60 00:   CALIPER FROM DENSITY LOG
 DPHI.DEC    45 890 12 00:   DENSITY POROSITY SANDSTONE
 DRHO.G/C3   45 356 01 00:   DENSITY CORRECTION
 GRD .GAPI   45 310 01 00:   GAMMA RAY FROM DENSITY LOG
 RHOB.G/C3   45 350 01 00:   BULK DENSITY
~PARAMETER INFORMATION
#MNEM.UNIT          VALUE    DESCRIPTION
#----------   ------------   ------------------------------
 PD  .                 GL:   PERMANENT DATUM
 EPD .F              5119:   ELEVATION PERMANENT DATUM
 LMF .                 KB:   LOG MEASURED FROM
 DAPD.F                 4:   FEET ABOVE PERMANENT DATUM
 DMF .                 KB:   DRILLING MEASURED FROM
 EKB .F              5123:   KELLING BUSHING
 EGL .F              5119:   GROUND LEVEL
 DATE.        11-JAN-1978:   RUN DATE
 RUN .                  1:   RUN NUMBER
 DD  .F               695:   DEPTH DRILLER
 DL  .F               704:   DEPTH LOGGER
 BLI .F               697:   BOTTOM LOG INTERVAL
 TLI .F                40:   TOP LOG INTERVAL
 CS  .IN            8.625:   CASING SIZE
 CBD .F                40:   CASING BOTTOM DRILLER
 CBL .F                40:   CASING BOTTOM LOGGER
 BS  .IN            7.875:   BIT SIZE
 BSD .F               695:   BIT SIZE AT DEPTH
 DFT .                KCL:   DRILLING FLUID TYPE
 DFD .                8.6:   DRILLING FLUID DENSITY
 DFV .                 31:   DRILLING FLUID VISCOSITY
 DFPH.                9.5:   DRILLING FLUID PH
 DFL .                7.6:   DRILLING FLUID LOSS
 MSS .           FLOWLINE:   MUD SAMPLE SOURCE
 RMS .OHMM           0.32:   RESISTIVITY MUD SAMPLE
 MST .F                62:   MUD SAMPLE TEMPERATURE
 RMF .OHMM           0.32:   RESISTIVITY MUD FILTRATE SAMPLE
 MFST.F                62:   MUD FILTRATE SAMPLE TEMPERATURE
 RMC .OHMM            0.8:   RESISTIVITY MUD CAKE
 MCST.F                63:   MUD CAKE SAMPLE TEMPERATURE
 MFSS.               MEAS:   MUD FILTRATE SAMPLE SOURCE
 MCSS.               MEAS:   MUD CAKE SAMPLE SOURCE
 TCS .HRS               2:   TIME CURCULATED STOPPED
 LUN .               2958:   LOGGING UNIT NUMBER
 LUL .             CASPER:   LOGGING UNIT LOCATION
 ENGI.           REYNOLDS:   RECORDING ENGINEER
 WITN.         HARRINGTON:   WITNESSED BY
 CLNT.            A2DTECH:   CLIENT CODE
 ORIG.           5" PRINT:   ORIGIN OF DATA
 UWI .       490251055400:   UNIQUE WELL ID
 DICO. A2D Technologies, Inc.:   DIGITIZING COMPANY
~OTHER INFORMATION
~A   DEPT      ILD         SN        SPR       CALD       DPHI       DRHO         GRD      RHOB   
# ...
  558.5000    16.9979    15.7322   -36.6655     8.6791     0.1014     0.0857    70.4424     2.4661
  559.0000    17.0001    15.6255   -36.8119     8.6810     0.0957     0.0858    71.0404     2.4796
  559.5000    17.0022    15.5198   -36.8088     8.6962     0.0899     0.0873    70.7438     2.4894
  560.0000    17.0044    15.4153   -36.9552     8.6965     0.0923     0.0919    70.0001     2.4939
  560.5000    17.0074    15.4175   -37.3999     8.7116     0.0987     0.0934    70.1507     2.4804
  561.0000    17.0110    15.4196   -37.9940     8.7119     0.0996     0.0935    72.5366     2.4759
  561.5000    17.0145    15.4217   -38.1483     8.7122     0.0899     0.0950    74.9226     2.4902
  562.0000    17.0180    15.4238   -37.5403     8.7125     0.0830     0.0981    78.0538     2.4985
  562.5000    17.0216    15.4259   -37.6866     8.7128     0.0813     0.1026    79.5455     2.4970
  563.0000    17.0251    15.5353   -37.6836     8.7131     0.0887     0.1087    78.5038     2.4918
  563.5000    17.0287    15.5374   -37.6806     8.7134     0.0881     0.1133    77.0150     2.4933
  564.0000    17.0322    15.6475   -37.6776     8.6988     0.0911     0.1178    79.2519     2.4925
  564.5000    17.0358    15.6497   -37.6746     8.6991     0.0980     0.1239    81.6379     2.4783
  565.0000    17.0393    15.7606   -37.5024     8.6845     0.1019     0.1269    82.0865     2.4723
  565.5000    17.0432    15.8723   -37.1970     8.6848     0.1047     0.1375    82.2370     2.4723
  566.0000    17.0467    15.9848   -36.9194     8.6702     0.1071     0.1586    82.2385     2.4685
  566.5000    17.0502    16.2100   -36.9158     8.6690     0.1119     0.1737    82.2399     2.4603
  567.0000    17.1724    16.4383   -36.7636     8.6550     0.1152     0.1722    77.0193     2.4505
  567.5000    17.4159    16.6757   -36.7607     8.6414     0.1148     0.1707    76.5797     2.4567
  568.0000    17.9095    17.0316   -36.6084     8.6268     0.1139     0.1663    80.9625     2.4649
  568.5000    19.1997    17.3952   -36.6055     8.6123     0.1188     0.1618    82.8585     2.4519
  569.0000    20.5828    17.8900   -36.0055     8.5977     0.1254     0.1243    82.9925     2.4367
  569.5000    22.0655    18.3989   -35.4055     8.5980     0.1287     0.1168    79.4370     2.4288
  570.0000    23.9855    19.2931   -34.8055     8.5833     0.1392     0.1289    73.4578     2.4270
  570.5000    27.9450    20.6794   -34.2055     8.5837     0.1838     0.1349    68.5413     2.3903
  571.0000    33.2425    22.3193   -33.6056     8.5840     0.1985     0.1500    62.8796     2.3171
  571.5000    37.4101    23.5939   -33.3041     8.5693     0.2067     0.1666    61.8374     2.2904
  572.0000    41.5202    24.7692   -33.0026     8.5548     0.2127     0.1817    60.2000     2.2899
  572.5000    43.9032    25.6454   -32.7011     8.5401     0.2280     0.2268    55.8795     2.2712
  573.0000    43.2748    25.8272   -32.3997     8.5107     0.2313     0.2449    55.4335     2.2584
  573.5000    41.5240    26.0097   -32.2475     8.4813     0.2286     0.2781    55.8825     2.2809
  574.0000    39.8026    26.0133   -31.7967     8.4666     0.2229     0.3052    56.1820     2.2922
  574.5000    38.2081    26.0169   -31.3460     8.4372     0.2172     0.3068    56.3325     2.2892
  575.0000    36.3976    26.0205   -31.6415     8.4078     0.2009     0.2872    56.3340     2.3073
  575.5000    34.2430    26.0241   -31.9378     8.3931     0.1684     0.2767    56.1861     2.3494
  576.0000    32.1776    25.8488   -32.0841     8.3785     0.1536     0.2673    56.0385     2.3802
  576.5000    32.4082    25.4967   -31.7819     8.3639     0.1509     0.2405    56.0404     2.3885
  577.0000    33.3268    24.9759   -31.4804     8.3643     0.1506     0.2361    57.6812     2.3930
  577.5000    32.6472    24.6350   -31.4775     8.3497     0.1662     0.2314    58.5769     2.3960
  578.0000    31.3230    24.2994   -31.3252     8.3500     0.1858     0.2208    59.1745     2.3314
  578.5000    31.3295    23.8039   -31.3223     8.3354     0.1828     0.2058    60.6663     2.3344
  579.0000    31.3360    23.6421   -31.3193     8.3357     0.1783     0.1929    62.7542     2.3390
  579.5000    31.3425    23.1600   -31.1671     8.3360     0.1807     0.1929    63.6495     2.3262
  580.0000    31.1323    23.1632   -31.1641     8.3214     0.1927     0.1854    62.6081     2.3202
  580.5000    31.1387    23.0064   -31.3104     8.3217     0.1987     0.1764    61.4174     2.3142
  581.0000    30.9283    22.8500   -31.9045     8.3220     0.1956     0.1750    60.5246     2.3278
  581.5000    30.5101    22.5396   -32.2020     8.3074     0.1914     0.2006    60.0790     2.3428
  582.0000    30.3055    22.3051   -32.3463     8.3077     0.1878     0.2082    59.9314     2.3353
  582.5000    30.3117    22.0822   -32.3433     8.3229     0.1846     0.2097    60.8271     2.3308
  583.0000    30.1085    21.9321   -32.3403     8.3530     0.1767     0.2098    61.2757     2.3421
  583.5000    29.4946    21.7838   -32.1701     8.3980     0.1610     0.2083    61.7243     2.3579
  584.0000    28.6935    21.7875   -31.8867     8.4280     0.1294     0.1918    61.7258     2.3955
  584.5000    27.9142    21.7905   -32.4807     8.5176     0.0999     0.1257    61.8867     2.4511
  585.0000    27.5339    21.7935   -32.3278     8.6518     0.0920     0.0836    63.4723     2.4849
  585.5000    27.5410    21.7965   -32.1755     7.9229     0.0969     0.0807    66.5381     2.5067
  586.0000    27.5467    21.6489   -31.8741     8.7268     0.1375     0.0747    66.4293     2.4060
  586.5000    27.3618    20.7708   -32.1696     8.3700     0.1438     0.0717    64.3309     2.4000
  587.0000    27.3676    20.6302   -32.4659     8.4447     0.1360     0.0733    62.1821     2.4068
  587.5000    27.3733    20.6331   -32.4622     8.6235     0.1417     0.0733    59.7991     2.4159
  588.0000    27.1896    20.6360   -32.3100     8.4899     0.1447     0.0703    59.5021     2.4106
  588.5000    27.0073    20.6388   -32.1578     8.4306     0.1429     0.0659    60.1001     2.4174
  589.0000    27.0130    20.4992   -32.6025     8.4607     0.1327     0.0629    61.7409     2.4347
  589.5000    26.8318    20.5020   -33.0481     8.4908     0.1257     0.0614    63.0837     2.4392
  590.0000    26.6518    20.5049   -32.7459     8.5357     0.1233     0.0690    63.2342     2.4542
  590.5000    26.6575    20.3661   -33.6384     8.5807     0.1224     0.0751    62.7886     2.4655
  591.0000    26.4556    20.3690   -33.7855     8.4917     0.1218     0.0781    61.7468     2.4731
  591.5000    26.1192    20.2093   -33.9317     8.4770     0.1191     0.0782    59.6619     2.4505
  592.0000    25.7318    19.9300   -34.0780     8.4774     0.1149     0.0692    59.2159     2.4626
  592.5000    25.2394    19.5480   -34.3728     8.4777     0.1209     0.0632    62.9435     2.4512
  593.0000    24.5552    19.1493   -34.3699     8.5375     0.1281     0.0618    67.8630     2.4346
  593.5000    23.8883    18.8886   -34.5169     8.6569     0.1314     0.0618    71.5903     2.4210
  594.0000    23.2395    18.5027   -34.3639     8.6423     0.1239     0.0634    71.8895     2.4068
  594.5000    22.6083    18.2501   -34.3610     8.6426     0.1371     0.0680    70.2520     2.3979
  595.0000    22.1462    18.1267   -34.2088     8.6429     0.1510     0.0725    68.6141     2.3917
  595.5000    22.1519    18.1298   -34.0565     8.6432     0.1549     0.0772    67.5724     2.3851
  596.0000    22.1565    18.0065   -34.6506     8.6435     0.1496     0.0818    67.4245     2.3910
  596.5000    22.0067    18.0096   -34.6756     8.6438     0.1412     0.0846    69.0657     2.3999
  597.0000    22.0124    17.7643   -34.3461     8.6440     0.1370     0.0829    69.9613     2.4049
  597.5000    22.0170    17.5224   -34.3233     8.6443     0.1349     0.0757    69.8138     2.4199
  598.0000    21.8693    17.4039   -34.4896     8.6446     0.1298     0.0727    66.6856     2.4372
  598.5000    21.5725    17.2861   -34.6358     8.6599     0.1274     0.0728    65.9150     2.4320
