~VERSION INFORMATION
 VERS.                2.0:   CWLS LOG ASCII STANDARD - VERSION 2.0
 WRAP.                 NO:   ONE LINE PER DEPTH STEP
~WELL INFORMATION
#MNEM.UNIT      DATA TYPE    INFORMATION
#----------   ------------   ------------------------------
 STRT.F           32.0000:   START DEPTH
 STOP.F          557.0000:   STOP DEPTH
 STEP.F            0.5000:   STEP LENGTH
 NULL.          -999.2500:   NO VALUE
 COMP. FENIX & SCISSON U.S. NAVY:   COMPANY
 WELL.   S-3 NPR #3 #31-3:   WELL
 FLD .              NPR-3:   FIELD
 LOC .       S3 T38N R78W:   LOCATION
 CNTY.            NATRONA:   COUNTY
 STAT.            WYOMING:   STATE
 CTRY. UNITED STATES OF AMERICA:   COUNTRY
 SRVC.              Welex:   SERVICE COMPANY
 DATE.        05-MAR-1977:   LOGDATE
 API .       490251039500:   API NUMBER
~CURVE INFORMATION
#MNEM.UNIT       API CODE    CURVE DESCRIPTION
#----------   ------------   ------------------------------
 DEPT.F                  :   
 CALD.IN     45 280 60 00:   CALIPER FROM DENSITY LOG
 DPHI.DEC    45 890 12 00:   DENSITY POROSITY SANDSTONE
 DRHO.G/C3   45 356 01 00:   DENSITY CORRECTION
 GRD .GAPI   45 310 01 00:   GAMMA RAY FROM DENSITY LOG
 RHOB.G/C3   45 350 01 00:   BULK DENSITY
 ILD .OHMM   07 120 46 00:   INDUCTION LOG DEEP
 ILM .OHMM   07 120 44 00:   INDUCTION LOG MEDIUM
 SGRD.OHMM   07 220 05 00:   SHALLOW GUARD RESISTIVITY
 SPR .MV     07 010 01 00:   SPONTANEOUS POTENTIAL FROM RES.
~PARAMETER INFORMATION
#MNEM.UNIT          VALUE    DESCRIPTION
#----------   ------------   ------------------------------
 PD  .                 GL:   PERMANENT DATUM
 EPD .F              5178:   ELEVATION PERMANENT DATUM
 LMF .                 GL:   LOG MEASURED FROM
 DMF .                 GL:   DRILLING MEASURED FROM
 EGL .F              5178:   GROUND LEVEL
 DATE.        05-MAR-1977:   RUN DATE
 RUN .                  1:   RUN NUMBER
 DD  .F               560:   DEPTH DRILLER
 DL  .F               560:   DEPTH LOGGER
 BLI .F               558:   BOTTOM LOG INTERVAL
 TLI .F                40:   TOP LOG INTERVAL
 CS  .IN            8.625:   CASING SIZE
 CBD .F                43:   CASING BOTTOM DRILLER
 CBL .F                43:   CASING BOTTOM LOGGER
 BS  .IN            7.875:   BIT SIZE
 BSD .F               560:   BIT SIZE AT DEPTH
 DFT .                KCL:   DRILLING FLUID TYPE
 DFD .                8.8:   DRILLING FLUID DENSITY
 DFV .                 32:   DRILLING FLUID VISCOSITY
 MSS .           FLOWLINE:   MUD SAMPLE SOURCE
 RMS .OHMM           1.46:   RESISTIVITY MUD SAMPLE
 MST .F                48:   MUD SAMPLE TEMPERATURE
 RMF .OHMM          0.972:   RESISTIVITY MUD FILTRATE SAMPLE
 MFST.F                48:   MUD FILTRATE SAMPLE TEMPERATURE
 RMC .OHMM           2.32:   RESISTIVITY MUD CAKE
 MCST.F                48:   MUD CAKE SAMPLE TEMPERATURE
 MFSS.               MEAS:   MUD FILTRATE SAMPLE SOURCE
 MCSS.               MEAS:   MUD CAKE SAMPLE SOURCE
 RMB .OHMM           1.03:   RESISTIVITY MUD AT BHT
 BHT .F                68:   BOTTOM HOLE TEMPERATURE
 TCS .HRS               2:   TIME CURCULATED STOPPED
 MRT .F                68:   MAXIMUM RECORDED TEMPERATURE
 LUN .               8611:   LOGGING UNIT NUMBER
 LUL .           GILLETTE:   LOGGING UNIT LOCATION
 ENGI.          D. LAWSON:   RECORDING ENGINEER
 WITN.     MR. STUEBINGER:   WITNESSED BY
 CLNT.            A2DTECH:   CLIENT CODE
 ORIG.           5" PRINT:   ORIGIN OF DATA
 UWI .       490251039500:   UNIQUE WELL ID
 DICO. A2D Technologies, Inc.:   DIGITIZING COMPANY
~OTHER INFORMATION
~A   DEPT       CALD     DPHI        DRHO        GRD        RHOB      ILD        ILM       SGRD        SPR   
# ...
  397.0000     8.0169     0.0856     0.0333    86.1263     2.5094    18.8455    26.8375    40.2367   -19.7472
  397.5000     8.0031     0.0804     0.0364    86.5879     2.5109    19.1210    26.3006    54.5194   -19.7298
  398.0000     7.9891     0.1055     0.0410    87.0631     2.4855    18.8740    24.5566    41.7037   -19.7124
  398.5000     7.9754     0.1193     0.0335    87.2171     2.4361    18.4989    23.0874    23.9876   -19.5462
  399.0000     7.9917     0.1498     0.0276    89.3323     2.3867    17.6367    22.3017    19.7731   -19.2312
  399.5000     8.0226     0.1677     0.0247    90.2264     2.3575    17.4032    21.7206    19.7837   -18.9162
  400.0000     8.0536     0.1748     0.0188    91.4331     2.3538    16.9427    20.8491    20.6335   -18.7500
  400.5000     8.1143     0.1754     0.0159    92.6399     2.3539    16.4916    20.5711    21.0777   -18.4390
  401.0000     8.0711     0.1763     0.0116    94.2937     2.3525    16.0525    20.1623    20.6557   -18.4231
  401.5000     8.0570     0.1768     0.0102    95.7986     2.3496    15.8369    19.7564    20.2414   -18.1125
  402.0000     8.0139     0.1751     0.0104    93.8757     2.3617    15.5125    19.2278    19.8370   -17.8019
  402.5000     7.9859     0.1684     0.0105    93.2936     2.3647    15.3274    18.8457    19.5749   -18.0897
  403.0000     8.0170     0.1663     0.0107    93.3086     2.3670    15.2294    18.7258    19.3163   -18.3744
  403.5000     8.0183     0.1650     0.0168    92.3935     2.3701    15.2422    18.5998    19.0636   -18.6562
  404.0000     8.0496     0.1653     0.0200    87.9761     2.3694    15.1448    18.4887    18.9398   -18.6427
  404.5000     8.0807     0.1643     0.0202    85.0100     2.3725    15.0505    18.5012    18.8193   -18.6295
  405.0000     8.1118     0.1637     0.0203    83.5342     2.3718    15.0632    18.5112    18.8320   -18.7623
  405.5000     8.1428     0.1691     0.0174    85.0390     2.3636    14.9694    18.5211    18.8421   -18.9013
  406.0000     8.1140     0.1703     0.0116    86.8419     2.3667    14.9797    18.5311    18.8523   -18.8851
  406.5000     8.0562     0.1654     0.0117    89.8371     2.3713    15.0961    18.5411    18.8628   -19.1730
  407.0000     8.0575     0.1624     0.0119    91.9380     2.3759    15.1062    18.5511    19.0062   -19.1567
  407.5000     8.0588     0.1633     0.0166    93.2938     2.3749    15.2212    18.5611    19.1485   -19.2958
  408.0000     8.0753     0.1749     0.0212    92.7005     2.3520    15.2315    18.4431    19.4258   -19.4286
  408.5000     8.0914     0.1821     0.0183    91.6403     2.3431    15.2417    18.4533    19.7071   -19.4152
  409.0000     8.0927     0.1820     0.0153    90.8038     2.3432    15.1468    18.3383    19.8546   -19.4018
  409.5000     8.0940     0.1790     0.0141    90.5203     2.3493    15.1570    18.3482    19.7283   -19.3861
  410.0000     8.0953     0.1766     0.0158    90.6839     2.3523    15.1674    18.1035    19.6028   -19.2242
  410.5000     8.0814     0.1742     0.0190    94.5648     2.3562    15.0753    17.9909    19.1393   -19.0624
  411.0000     8.0682     0.1720     0.0236    96.0954     2.3600    14.9790    17.8742    18.7705   -18.7518
  411.5000     8.0397     0.1705     0.0283    96.3615     2.3616    14.9916    17.6406    18.3904   -18.7388
  412.0000     8.0411     0.1681     0.0284    96.3746     2.3661    14.7956    17.5285    18.0216   -18.7258
  412.5000     8.0427     0.1618     0.0301    95.4934     2.3782    14.8055    17.5379    17.9028   -18.7128
  413.0000     8.0440     0.1548     0.0302    93.2710     2.3918    14.8155    17.6692    18.5424   -18.6994
  413.5000     8.0304     0.1512     0.0289    89.5583     2.3993    14.6218    17.6787    18.9390   -18.6835
  414.0000     8.0168     0.1536     0.0260    91.3597     2.3904    14.4667    17.4453    18.1761   -18.6705
  414.5000     8.0181     0.1553     0.0262    94.9495     2.3860    14.2854    17.4570    17.6870   -18.6575
  415.0000     8.0045     0.1541     0.0263    96.7909     2.3906    14.1927    17.2265    17.7356   -18.6445
  415.5000     7.9761     0.1577     0.0265    97.0620     2.3816    14.2022    16.9991    18.1999   -18.6315
  416.0000     7.9476     0.1642     0.0206    92.6074     2.3727    14.0128    17.0083    18.2073   -18.6185
  416.5000     7.9492     0.1648     0.0177    90.2359     2.3698    13.9256    16.7837    17.8404   -18.6055
  417.0000     7.9505     0.1600     0.0179    88.7586     2.3864    13.8352    16.6771    17.3603   -18.4435
  417.5000     7.9667     0.1481     0.0211    88.7717     2.4014    13.6541    16.3435    16.7767   -18.4275
  418.0000     7.9680     0.1347     0.0242    89.6789     2.4030    13.4741    16.1160    16.3253   -18.4145
  418.5000     7.9842     0.1353     0.0274    90.7352     2.4001    13.4814    15.6962    16.1074   -18.4015
  419.0000     7.9855     0.1353     0.0290    92.9837     2.3972    13.3034    15.4890    16.1139   -18.5373
  419.5000     8.0017     0.1352     0.0307    95.4073     2.3957    13.3123    15.2845    16.0093   -18.5243
  420.0000     8.0030     0.1358     0.0293    95.8414     2.4003    13.1348    15.2948    16.1286   -18.5113
  420.5000     8.0043     0.1367     0.0295    94.6654     2.3929    12.9631    15.3031    16.1351   -18.4983
  421.0000     8.0357     0.1372     0.0281    93.6353     2.3891    12.9701    15.3113    16.1416   -18.4851
  421.5000     8.0667     0.1363     0.0283    92.3070     2.4080    12.9771    15.3196    16.1481   -18.4717
  422.0000     8.0680     0.1338     0.0299    88.8923     2.4123    12.8943    15.3279    16.1546   -18.4560
  422.5000     8.0842     0.1314     0.0286    87.4151     2.4217    12.8126    15.3361    16.1611   -18.4430
  423.0000     8.1004     0.1308     0.0287    87.8752     2.4203    12.8196    15.3446    16.1677   -18.2812
  423.5000     8.1017     0.1320     0.0274    89.2295     2.4158    12.6503    15.2489    16.1744   -18.1194
  424.0000     8.1030     0.1355     0.0260    90.4988     2.4009    12.5699    15.1500    16.1823   -18.1064
  424.5000     8.1043     0.1361     0.0231    91.9382     2.4002    12.4900    14.9520    15.7469   -18.0934
  425.0000     8.1056     0.1349     0.0233    89.5667     2.4056    12.4984    14.5519    14.5986   -18.2292
  425.5000     8.0626     0.1336     0.0220    90.7753     2.4116    12.2484    14.3579    14.2058   -18.3650
  426.0000     8.0487     0.1318     0.0236    92.5767     2.4209    12.0867    14.1683    14.1121   -18.3487
  426.5000     8.0351     0.1288     0.0268    92.8845     2.4298    11.9271    14.1779    14.1193   -18.3357
  427.0000     8.0215     0.1252     0.0284    91.1125     2.4381    11.8512    14.1855    14.3218   -18.3227
  427.5000     8.0231     0.1227     0.0316    89.9333     2.4479    11.6948    14.3909    14.5358   -18.3097
  428.0000     8.0393     0.1233     0.0302    88.7462     2.4502    11.7014    14.5993    15.1507   -18.2967
  428.5000     8.0406     0.1257     0.0274    88.4690     2.4376    11.6268    14.5083    15.1569   -18.2837
  429.0000     8.0420     0.1322     0.0260    91.1679     2.4189    11.5544    14.0209    14.7490   -18.2707
  429.5000     8.0584     0.1322     0.0247    92.9693     2.4257    11.5606    13.6476    14.5507   -18.2574
  430.0000     8.0445     0.1286     0.0248    95.5159     2.4340    11.4872    13.4656    14.2589   -18.2414
  430.5000     8.0462     0.1251     0.0235    97.9134     2.4410    11.4141    13.2897    14.1649   -18.2284
  431.0000     8.0623     0.1207     0.0266    99.7149     2.4499    11.4203    13.2968    14.0743   -18.2154
  431.5000     8.0934     0.1201     0.0313   100.7711     2.4485    11.4264    13.1213    13.9829   -18.2024
  432.0000     8.0947     0.1236     0.0330    99.7409     2.4411    11.4327    13.1284    13.9887   -18.1894
  432.5000     8.0960     0.1269     0.0316    99.1530     2.4367    11.5303    13.3184    13.9956   -18.1764
  433.0000     8.0978     0.1308     0.0302    98.0845     2.4262    11.6058    13.5114    14.1964   -18.0146
