~VERSION INFORMATION
 VERS.                2.0:   CWLS LOG ASCII STANDARD - VERSION 2.0
 WRAP.                 NO:   ONE LINE PER DEPTH STEP
~WELL INFORMATION
#MNEM.UNIT      DATA TYPE    INFORMATION
#----------   ------------   ------------------------------
 STRT.F           14.0000:   START DEPTH
 STOP.F          432.0000:   STOP DEPTH
 STEP.F            0.5000:   STEP LENGTH
 NULL.          -999.2500:   NO VALUE
 COMP.    FENIX & SCISSON:   COMPANY
 WELL.   NPR-3 #63SX10-10:   WELL
 FLD .             TEAPOT:   FIELD
 LOC .      S10 T38N R78W:   LOCATION
 CNTY.            NATRONA:   COUNTY
 STAT.            WYOMING:   STATE
 CTRY. UNITED STATES OF AMERICA:   COUNTRY
 SRVC.           BIRDWELL:   SERVICE COMPANY
 DATE.        10-FEB-1978:   LOGDATE
 API .       490251066800:   API NUMBER
~CURVE INFORMATION
#MNEM.UNIT       API CODE    CURVE DESCRIPTION
#----------   ------------   ------------------------------
 DEPT.F                  :   
 CALD.IN     45 280 60 00:   CALIPER FROM DENSITY LOG
 CORR.G/C3   45 356 01 00:   DENSITY CORRECTION
 DPHI.DEC    45 890 12 00:   DENSITY POROSITY SANDSTONE
 GRD .GAPI   45 310 01 00:   GAMMA RAY FROM DENSITY LOG
 RHOB.G/C3   45 350 01 00:   BULK DENSITY
 ILD .OHMM   05 120 46 00:   INDUCTION LOG DEEP
 SN  .OHMM   05 040 16 00:   SHORT NORMAL 16"
 SPR .MV     05 010 01 00:   SPONTANEOUS POTENTIAL FROM RES.
~PARAMETER INFORMATION
#MNEM.UNIT          VALUE    DESCRIPTION
#----------   ------------   ------------------------------
 PD  .                 GL:   PERMANENT DATUM
 EPD .F              5186:   ELEVATION PERMANENT DATUM
 LMF .                 KB:   LOG MEASURED FROM
 DAPD.F                 4:   FEET ABOVE PERMANENT DATUM
 DMF .                 KB:   DRILLING MEASURED FROM
 EKB .F              5190:   KELLING BUSHING
 EGL .F              5186:   GROUND LEVEL
 DATE.        10-FEB-1978:   RUN DATE
 RUN .                  1:   RUN NUMBER
 DD  .F               429:   DEPTH DRILLER
 DL  .F               432:   DEPTH LOGGER
 BLI .F               424:   BOTTOM LOG INTERVAL
 TLI .F                20:   TOP LOG INTERVAL
 CS  .IN            8.625:   CASING SIZE
 CBD .F                29:   CASING BOTTOM DRILLER
 CBL .F                29:   CASING BOTTOM LOGGER
 BS  .IN            7.875:   BIT SIZE
 BSD .F               429:   BIT SIZE AT DEPTH
 DFT .    LIGNO SULF/FULL:   DRILLING FLUID TYPE
 DFD .                8.6:   DRILLING FLUID DENSITY
 DFV .                 34:   DRILLING FLUID VISCOSITY
 DFPH.                9.8:   DRILLING FLUID PH
 DFL .                5.6:   DRILLING FLUID LOSS
 MSS .           FLOWLINE:   MUD SAMPLE SOURCE
 RMS .OHMM            1.2:   RESISTIVITY MUD SAMPLE
 MST .F                62:   MUD SAMPLE TEMPERATURE
 RMF .OHMM            1.4:   RESISTIVITY MUD FILTRATE SAMPLE
 MFST.F                62:   MUD FILTRATE SAMPLE TEMPERATURE
 RMC .OHMM            1.0:   RESISTIVITY MUD CAKE
 MCST.F                62:   MUD CAKE SAMPLE TEMPERATURE
 MFSS.               MEAS:   MUD FILTRATE SAMPLE SOURCE
 RMB .OHMM            1.2:   RESISTIVITY MUD AT BHT
 BHT .F                62:   BOTTOM HOLE TEMPERATURE
 TCS .HRS               4:   TIME CURCULATED STOPPED
 MRT .F                62:   MAXIMUM RECORDED TEMPERATURE
 LUN .               2958:   LOGGING UNIT NUMBER
 LUL .                CAS:   LOGGING UNIT LOCATION
 ENGI.            POINTER:   RECORDING ENGINEER
 WITN.          MC GINLEY:   WITNESSED BY
 CLNT.            A2DTECH:   CLIENT CODE
 ORIG.           5" PRINT:   ORIGIN OF DATA
 UWI .       490251066800:   UNIQUE WELL ID
 DICO. A2D Technologies, Inc.:   DIGITIZING COMPANY
~OTHER INFORMATION
~A   DEPT     CALD       CORR       DPHI         GRD      RHOB        ILD         SN        SPR   
# ...
  338.0000     7.7046     0.0725     0.1935    57.4735     2.3078    32.8667    32.5838   -37.3291
  338.5000     7.7052     0.0710     0.1861    58.6840     2.3303    32.6449    32.3695   -37.3277
  339.0000     7.7059     0.0694     0.1850    58.8427     2.3423    31.9810    32.3785   -37.4767
  339.5000     7.7215     0.0666     0.1868    57.3423     2.3454    31.7681    32.1635   -37.6376
  340.0000     7.7523     0.0607     0.1886    56.2531     2.3394    31.5411    31.7319   -37.9249
  340.5000     7.7680     0.0592     0.1921    55.2441     2.3357    31.1295    31.5193   -37.9231
  341.0000     7.7687     0.0608     0.1880    55.7103     2.3357    30.9209    31.3120   -38.0724
  341.5000     7.7844     0.0623     0.1808    57.3844     2.3342    30.5020    30.8803   -38.2210
  342.0000     7.7849     0.0653     0.1769    60.5737     2.3522    30.0887    30.4756   -38.2195
  342.5000     7.8006     0.0684     0.1705    62.3991     2.3545    29.2731    30.0646   -38.2178
  343.0000     7.8013     0.0730     0.1705    63.0141     2.3605    28.4810    29.6592   -38.2165
  343.5000     7.8019     0.0790     0.1681    62.8517     2.3688    28.0937    29.0556   -38.2149
  344.0000     7.8024     0.0835     0.1576    61.6748     2.3665    27.9055    28.4654   -38.2134
  344.5000     7.8031     0.0882     0.1495    60.3232     2.3636    27.7185    28.0842   -38.0616
  345.0000     7.7884     0.0821     0.1465    59.4254     2.3876    27.5279    27.7073   -38.0602
  345.5000     7.7892     0.0732     0.1516    59.8916     2.4027    27.1611    27.5217   -38.0584
  346.0000     7.7897     0.0732     0.1576    60.6579     2.4259    26.9792    27.3410   -37.9066
  346.5000     7.7752     0.0733     0.1632    61.1217     2.3989    26.6136    27.1595   -37.4540
  347.0000     7.7759     0.0733     0.1773    60.5255     2.3877    26.4364    26.7934   -37.1038
  347.5000     7.7613     0.0749     0.1821    59.4798     2.3810    26.4419    26.6156   -36.8396
  348.0000     7.7317     0.0749     0.1845    58.2795     2.3630    26.4484    26.2567   -36.6975
  348.5000     7.7022     0.0734     0.1860    58.1356     2.3510    26.2699    26.2654   -36.6960
  349.0000     7.6724     0.0735     0.1863    59.0731     2.3495    26.2764    26.2723   -36.6946
  349.5000     7.6572     0.0735     0.1872    59.5219     2.3481    26.2816    26.4706   -36.8435
  350.0000     7.5982     0.0706     0.1887    59.2290     2.3518    26.8386    26.8382   -36.8421
  350.5000     7.5837     0.0646     0.1920    59.0849     2.3586    26.8439    26.6566   -36.8403
  351.0000     7.5542     0.0392     0.1947    58.4700     2.3570    26.4802    26.4763   -37.2900
  351.5000     7.5548     0.0242     0.1959    57.2856     2.3360    26.3027    26.4806   -37.2886
  352.0000     7.5401     0.0228     0.1892    56.5363     2.3285    26.1265    26.1200   -37.5882
  352.5000     7.5408     0.0213     0.1886    56.6948     2.3390    25.5960    25.7379   -37.8872
  353.0000     7.5415     0.0229     0.1883    58.9753     2.3412    25.4233    25.2384   -38.0361
  353.5000     7.5268     0.0229     0.1877    62.1572     2.3412    24.9070    24.7239   -37.8840
  354.0000     7.5275     0.0275     0.1871    63.2234     2.3404    24.7401    24.5558   -37.5818
  354.5000     7.5281     0.0351     0.1850    62.6254     2.3411    24.2378    24.2106   -37.2796
  355.0000     7.5137     0.0441     0.1805    60.6658     2.3479    23.9094    23.8925   -36.8270
  355.5000     7.4841     0.0547     0.1664    59.0089     2.3568    23.5854    23.5679   -36.8175
  356.0000     7.4544     0.0639     0.1646    59.9255     2.3668    23.2669    23.2470   -36.6734
  356.5000     7.4248     0.0699     0.1637    62.0507     2.3778    22.6362    22.7724   -36.3712
  357.0000     7.3800     0.0759     0.1628    64.4784     2.3808    22.1744    22.4631   -36.2194
  357.5000     7.3504     0.0880     0.1568    66.6111     2.3823    21.5743    22.0037   -36.2180
  358.0000     7.3813     0.1061     0.1574    68.8818     2.3846    20.9905    21.4065   -36.2165
  358.5000     7.4423     0.1437     0.1577    70.4019     2.3912    20.5623    20.9694   -36.2147
  359.0000     7.5034     0.1678     0.1457    70.5585     2.3987    20.1448    20.3997   -36.0629
  359.5000     7.4436     0.1873     0.1429    68.1469     2.4077    20.0097    19.8460   -36.0045
  360.0000     7.4138     0.1994     0.1483    65.8848     2.4153    19.8576    19.7111   -35.9991
  360.5000     7.4749     0.2010     0.1535    66.3476     2.4136    19.4712    19.5777   -36.2956
  361.0000     7.5512     0.2055     0.1588    66.2035     2.4016    19.8845    19.3118   -36.5921
  361.5000     7.5667     0.2161     0.1606    64.2439     2.3926    19.6141    19.0495   -36.5878
  362.0000     7.5371     0.2282     0.1552    62.7221     2.3866    19.4836    18.7895   -36.5835
  362.5000     7.5076     0.2342     0.1453    60.7805     2.3820    19.4884    18.6624   -36.7297
  363.0000     7.4930     0.2373     0.1429    59.5773     2.3963    19.3569    18.4089   -36.7243
  363.5000     7.5542     0.2374     0.1501    58.6768     2.4225    19.3616    18.1582   -36.7201
  364.0000     7.6152     0.2359     0.1546    58.5325     2.4045    19.2318    17.7881   -36.7158
  364.5000     7.6610     0.2330     0.1699    59.1669     2.4044    19.2168    17.6671   -36.7105
  365.0000     7.6769     0.2332     0.1849    59.7591     2.4027    19.1068    17.4271   -37.0070
  365.5000     7.6774     0.2481     0.1846    62.0355     2.3429    18.8488    17.3093   -37.1541
  366.0000     7.6780     0.2632     0.1675    64.1607     2.3361    18.5934    17.1921   -37.2992
  366.5000     7.6786     0.2692     0.1354    65.0812     2.4246    18.4688    16.9586   -37.5956
  367.0000     7.6793     0.2043     0.1237    65.2358     2.4666    18.0938    16.8433   -37.4399
  367.5000     7.6798     0.1808     0.1525    67.8148     2.4178    17.8486    16.7299   -37.1349
  368.0000     7.6652     0.1733     0.1623    68.8810     2.4020    17.6068    16.3889   -36.6795
  368.5000     7.6356     0.1569     0.1620    68.2830     2.4013    17.3682    16.1657   -36.5168
  369.0000     7.5911     0.1539     0.1589    65.7539     2.3942    16.9968    15.8357   -36.0684
  369.5000     7.5463     0.1450     0.1380    63.6093     2.4020    16.5543    15.6200   -35.9138
  370.0000     7.5014     0.1240     0.1392    63.4634     2.4192    16.3299    15.4074   -35.9095
  370.5000     7.5021     0.1136     0.1404    63.3193     2.4237    15.9976    15.0933   -35.7548
  371.0000     7.5028     0.1031     0.1391    63.4866     2.4182    15.8853    14.8878   -35.4488
  371.5000     7.5034     0.0986     0.1311    64.6987     2.4124    15.6758    14.6851   -35.2941
  372.0000     7.5040     0.0927     0.1281    65.7649     2.4274    15.5708    14.6749   -35.2898
  372.5000     7.5045     0.0868     0.1260    65.4695     2.4333    15.4657    14.3876   -35.1352
  373.0000     7.5808     0.0808     0.1260    65.3253     2.4380    15.2569    14.2898   -35.1308
  373.5000     7.6569     0.0719     0.1290    65.1813     2.4415    15.1554    14.1931   -35.2770
  374.0000     7.6877     0.0599     0.1509    65.4928     2.4160    14.9493    14.0975   -35.7228
  374.5000     7.6882     0.0585     0.1542    66.1051     2.4123    14.8491    14.0022   -35.8700
  375.0000     7.7192     0.0586     0.1605    67.0200     2.4055    14.7496    14.0045   -36.3158
  375.5000     7.7348     0.0646     0.1509    68.2547     2.3859    14.7533    14.0063   -36.6123
  376.0000     7.7354     0.0797     0.1298    69.6079     2.3942    14.6544    13.9115   -36.6069
  376.5000     7.7511     0.0798     0.1295    70.3715     2.4167    14.5562    13.9138   -36.4523
  377.0000     7.7518     0.0723     0.1310    70.2274     2.4339    14.4587    13.9156   -36.1473
  377.5000     7.7523     0.0514     0.1316    69.0243     2.4406    14.4622    13.9174   -35.9725
  378.0000     7.7529     0.0363     0.1307    64.3434     2.4458    14.4658    13.9193   -35.8369
