~VERSION INFORMATION
 VERS.                2.0:   CWLS LOG ASCII STANDARD - VERSION 2.0
 WRAP.                 NO:   ONE LINE PER DEPTH STEP
~WELL INFORMATION
#MNEM.UNIT      DATA TYPE    INFORMATION
#----------   ------------   ------------------------------
 STRT.F           28.0000:   START DEPTH
 STOP.F          551.0000:   STOP DEPTH
 STEP.F            0.5000:   STEP LENGTH
 NULL.          -999.2500:   NO VALUE
 COMP. FENIX & SCISSON, INC.:   COMPANY
 WELL.        NPR #85-S-3:   WELL
 FLD .             TEAPOT:   FIELD
 LOC .       S3 T38N R78W:   LOCATION
 CNTY.            NATRONA:   COUNTY
 STAT.            WYOMING:   STATE
 CTRY. UNITED STATES OF AMERICA:   COUNTRY
 SRVC.            Unknown:   SERVICE COMPANY
 DATE.        22-JAN-1977:   LOGDATE
 API .       490251055800:   API NUMBER
~CURVE INFORMATION
#MNEM.UNIT       API CODE    CURVE DESCRIPTION
#----------   ------------   ------------------------------
 DEPT.F                  :   
 ILD .OHMM   05 120 46 00:   INDUCTION LOG DEEP
 SN  .OHMM   05 040 16 00:   SHORT NORMAL 16"
 SPR .MV     05 010 01 00:   SPONTANEOUS POTENTIAL FROM RES.
 CALD.IN     45 280 60 00:   CALIPER FROM DENSITY LOG
 CORR.G/C3   45 356 01 00:   DENSITY CORRECTION
 DPHI.DEC    45 890 12 00:   DENSITY POROSITY SANDSTONE
 GRD .GAPI   45 310 01 00:   GAMMA RAY FROM DENSITY LOG
 RHOB.G/C3   45 350 01 00:   BULK DENSITY
~PARAMETER INFORMATION
#MNEM.UNIT          VALUE    DESCRIPTION
#----------   ------------   ------------------------------
 PD  .                 GL:   PERMANENT DATUM
 EPD .F              5132:   ELEVATION PERMANENT DATUM
 LMF .                 KB:   LOG MEASURED FROM
 DAPD.F                 4:   FEET ABOVE PERMANENT DATUM
 DMF .                 KB:   DRILLING MEASURED FROM
 EKB .F              5136:   KELLING BUSHING
 EGL .F              5132:   GROUND LEVEL
 DATE.          1-22-1977:   RUN DATE
 RUN .                  1:   RUN NUMBER
 DD  .F               550:   DEPTH DRILLER
 DL  .F               550:   DEPTH LOGGER
 BLI .F               545:   BOTTOM LOG INTERVAL
 TLI .F                50:   TOP LOG INTERVAL
 CS  .IN            8.625:   CASING SIZE
 CBD .F                40:   CASING BOTTOM DRILLER
 CBL .F                40:   CASING BOTTOM LOGGER
 BS  .IN            7.875:   BIT SIZE
 BSD .F               550:   BIT SIZE AT DEPTH
 DFT .                KCL:   DRILLING FLUID TYPE
 DFD .                8.6:   DRILLING FLUID DENSITY
 DFV .                 36:   DRILLING FLUID VISCOSITY
 DFPH.                 10:   DRILLING FLUID PH
 DFL .                7.2:   DRILLING FLUID LOSS
 MSS .           FLOWLINE:   MUD SAMPLE SOURCE
 RMS .OHMM             .3:   RESISTIVITY MUD SAMPLE
 MST .F                56:   MUD SAMPLE TEMPERATURE
 RMF .OHMM             .3:   RESISTIVITY MUD FILTRATE SAMPLE
 MFST.F                58:   MUD FILTRATE SAMPLE TEMPERATURE
 RMC .OHMM             .3:   RESISTIVITY MUD CAKE
 MCST.F                58:   MUD CAKE SAMPLE TEMPERATURE
 MFSS.           MEASURED:   MUD FILTRATE SAMPLE SOURCE
 MCSS.           MEASURED:   MUD CAKE SAMPLE SOURCE
 RMB .OHMM            .25:   RESISTIVITY MUD AT BHT
 BHT .F                68:   BOTTOM HOLE TEMPERATURE
 TCS .HRS               3:   TIME CURCULATED STOPPED
 MRT .F                68:   MAXIMUM RECORDED TEMPERATURE
 LUN .               2958:   LOGGING UNIT NUMBER
 LUL .             CASPER:   LOGGING UNIT LOCATION
 ENGI.           REYNOLDS:   RECORDING ENGINEER
 WITN.             GINLEY:   WITNESSED BY
 CLNT.            A2DTECH:   CLIENT CODE
 ORIG.           5" PRINT:   ORIGIN OF DATA
 UWI .       490251055800:   UNIQUE WELL ID
 DICO. A2D Technologies, Inc.:   DIGITIZING COMPANY
~OTHER INFORMATION
~A   DEPT      ILD         SN        SPR       CALD       CORR       DPHI         GRD      RHOB   
# ...
  473.5000    16.8183    13.1475   -32.7543     7.8038     0.1843     0.1603    81.2078     2.3878
  474.0000    16.4752    13.0604   -32.8963     7.8042     0.1843     0.1636    81.9585     2.3871
  474.5000    16.1392    12.8845   -33.0398     7.8047     0.1842     0.1660    77.7901     2.3833
  475.0000    15.9192    12.7991   -33.1848     7.8026     0.1841     0.1648    75.5591     2.3811
  475.5000    15.7027    12.6276   -33.3284     7.7906     0.1841     0.1597    75.2429     2.3887
  476.0000    15.5966    12.5431   -33.6199     7.7884     0.1840     0.1579    76.1641     2.3961
  476.5000    15.4913    12.4600   -33.6139     7.7766     0.1839     0.1609    78.4040     2.3946
  477.0000    15.4940    12.3775   -33.9069     7.7692     0.1838     0.1591    80.7930     2.3939
  477.5000    15.4961    12.2964   -34.0505     7.7626     0.1838     0.1519    80.9836     2.4003
  478.0000    15.3913    12.2141   -34.0445     7.7631     0.1837     0.1525    79.1625     2.4059
  478.5000    15.3935    12.1332   -34.0386     7.7636     0.1884     0.1519    78.2728     2.4051
  479.0000    15.2895    12.0537   -34.1824     7.7640     0.1976     0.1477    77.9791     2.4075
  479.5000    15.1862    11.9739   -34.3259     7.7644     0.2051     0.1446    78.2817     2.4180
  480.0000    15.0837    11.9548   -34.4694     7.7500     0.2067     0.1419    79.4784     2.4233
  480.5000    14.7761    11.8970   -34.9116     7.7504     0.2080     0.1395    79.6319     2.4270
  481.0000    14.4747    11.8182   -35.0553     7.7509     0.2111     0.1427    79.6364     2.4300
  481.5000    14.1782    11.6598   -35.3482     7.7662     0.2141     0.1484    79.6483     2.4218
  482.0000    14.0837    11.5818   -35.3422     7.7667     0.2157     0.1501    80.1123     2.4166
  482.5000    13.9886    11.5051   -35.4755     7.7671     0.2187     0.1474    81.3139     2.4166
  483.0000    13.8941    11.5091   -35.4486     7.7825     0.2218     0.1429    82.6348     2.4211
  483.5000    13.8961    11.5122   -35.4217     7.7829     0.2248     0.1399    79.6065     2.4271
  484.0000    13.8980    11.5154   -35.3947     7.7833     0.2309     0.1405    78.3218     2.4466
  484.5000    13.8040    11.5186   -35.3678     7.7838     0.2189     0.1444    79.8837     2.4662
  485.0000    13.8064    11.5218   -35.3408     7.7842     0.2114     0.1450    80.7402     2.4242
  485.5000    13.7127    11.5123   -35.3139     7.7847     0.2190     0.1392    81.0179     2.4302
  486.0000    13.7150    11.4972   -35.4446     7.7851     0.2130     0.1350    80.7252     2.4407
  486.5000    13.6224    11.4822   -35.8856     7.7856     0.1950     0.1323    80.2814     2.4505
  487.0000    13.6243    11.4671   -36.1786     7.7860     0.1845     0.1368    80.7341     2.4452
  487.5000    13.5318    11.4521   -36.3236     7.7716     0.1831     0.1383    82.9740     2.4557
  488.0000    13.5341    11.4370   -36.4671     7.7720     0.1861     0.1233    84.0206     2.4595
  488.5000    13.4422    11.4220   -36.6107     7.7576     0.1892     0.1185    80.7474     2.4490
  489.0000    13.3514    11.4070   -36.7542     7.7580     0.1907     0.1212    80.9009     2.4640
  489.5000    13.2613    11.3916   -36.8977     7.7585     0.1833     0.1311    82.2467     2.4663
  490.0000    13.1717    11.3161   -37.0398     7.7590     0.1831     0.1344    82.9952     2.4536
  490.5000    13.0827    10.9343   -37.3328     7.7743     0.1829     0.1353    81.2123     2.4408
  491.0000    13.0850    10.9373   -37.4778     7.7897     0.1827     0.1350    82.2600     2.4371
  491.5000    13.1776    10.9368   -37.4703     7.8050     0.1826     0.1329    84.4999     2.4379
  492.0000    13.0881    10.9362   -37.4644     7.8224     0.1824     0.1311    85.2495     2.4401
  492.5000    12.9997    10.9357   -37.4589     7.8356     0.1822     0.1323    85.5521     2.4439
  493.0000    12.9119    10.9351   -37.4525     7.8658     0.1820     0.1341    85.2585     2.4454
  493.5000    12.9141    10.9346   -37.4720     7.8812     0.1818     0.1356    85.7100     2.4372
  494.0000    12.8265    10.9340   -37.4929     7.8816     0.1816     0.1368    86.6086     2.4342
  494.5000    12.8287    10.9335   -37.5138     7.8821     0.1815     0.1374    88.1034     2.4342
  495.0000    12.8304    10.9329   -37.5347     7.8825     0.1813     0.1365    85.1272     2.4335
  495.5000    12.8322    10.9324   -37.5557     7.8829     0.1811     0.1356    84.2364     2.4335
  496.0000    12.8340    10.9318   -37.5673     7.8685     0.1809     0.1371    85.7323     2.4372
  496.5000    12.7472    10.9313   -37.5598     7.8690     0.1839     0.1372    86.6309     2.4304
  497.0000    12.6611    10.9307   -37.7034     7.8694     0.1869     0.1338    86.9323     2.4353
  497.5000    12.5756    10.9302   -37.8484     7.8698     0.1870     0.1317    85.5966     2.4410
  498.0000    12.4907    10.9296   -38.1414     7.8703     0.1885     0.1299    86.3462     2.4456
  498.5000    12.4924    10.9291   -38.2834     7.8558     0.1886     0.1278    87.3939     2.4493
  499.0000    12.4941    10.9285   -38.2775     7.8563     0.1886     0.1276    85.9080     2.4516
  499.5000    12.4097    10.9280   -38.2715     7.8567     0.1872     0.1299    87.1047     2.4501
  500.0000    12.3259    10.9274   -38.2993     7.8568     0.1872     0.1311    87.7042     2.4479
  500.5000    12.2427    10.9269   -38.4940     7.8565     0.1873     0.1320    86.0704     2.4449
  501.0000    12.1600    10.9263   -38.7021     7.8561     0.1873     0.1329    86.5812     2.4441
  501.5000    12.1617    10.9257   -38.9951     7.8557     0.1874     0.1331    88.3148     2.4427
  502.0000    12.1544    10.8533   -39.4376     7.8554     0.1874     0.1303    89.2134     2.4412
  502.5000    12.0812    10.7071   -39.7306     7.8550     0.1889     0.1250    88.9198     2.4419
  503.0000    11.9996    10.6355   -40.0237     7.8547     0.1905     0.1291    88.6262     2.4510
  503.5000    11.9859    10.6391   -40.1674     7.8543     0.1908     0.1287    86.6932     2.4540
  504.0000    11.9154    10.5679   -40.1613     7.8540     0.1910     0.1240    85.3553     2.4457
  504.5000    11.8261    10.4987   -40.3049     7.8536     0.1913     0.1208    86.2684     2.4495
  505.0000    11.7367    10.4284   -40.4484     7.8532     0.1915     0.1274    86.4234     2.4593
  505.5000    11.6474    10.3601   -40.4424     7.8529     0.1918     0.1328    86.4293     2.4465
  506.0000    11.3824    10.2915   -40.5859     7.8525     0.1949     0.1297    86.5843     2.4435
  506.5000    11.0749    10.1528   -40.5800     7.8522     0.1964     0.1285    87.0373     2.4443
  507.0000    10.8505    10.0849   -40.5740     7.8539     0.1965     0.1282    88.2355     2.4488
  507.5000    10.5574     9.9490   -40.5680     7.8561     0.1965     0.1291    89.5927     2.4466
  508.0000    10.3435     9.7860   -40.5760     7.8584     0.1965     0.1333    89.2846     2.4466
  508.5000    10.2750     9.6078   -40.7057     7.8606     0.1965     0.1324    89.4550     2.4474
  509.0000    10.2779     9.4296   -40.6996     7.8629     0.1980     0.1339    90.0476     2.4474
  509.5000    10.2098     9.2515   -40.6936     7.8651     0.1980     0.1390    88.1161     2.4406
  510.0000    10.1423     9.1056   -40.8374     7.8674     0.1980     0.1399    91.3115     2.4339
  510.5000     9.8638     8.8601   -40.9809     7.8696     0.1996     0.1381    87.3828     2.4354
  511.0000     9.2628     8.6206   -41.2724     7.8719     0.1996     0.1366    90.6528     2.4377
  511.5000     8.5217     8.3297   -41.2665     7.8742     0.2011     0.1357    93.3574     2.4385
  512.0000     7.7323     7.9931   -41.2606     7.8764     0.2011     0.1377    94.4065     2.4385
  512.5000     7.0080     7.7234   -41.2546     7.8787     0.2011     0.1407    95.7537     2.4355
  513.0000     6.6170     7.2090   -41.2487     7.8809     0.2026     0.1446   102.4660     2.4295
  513.5000     6.7115     6.6364   -41.0933     7.8832     0.2027     0.1488   103.2157     2.4220
