~VERSION INFORMATION
 VERS.                2.0:   CWLS LOG ASCII STANDARD - VERSION 2.0
 WRAP.                 NO:   ONE LINE PER DEPTH STEP
~WELL INFORMATION
#MNEM.UNIT      DATA TYPE    INFORMATION
#----------   ------------   ------------------------------
 STRT.F           66.0000:   START DEPTH
 STOP.F          814.0000:   STOP DEPTH
 STEP.F            0.5000:   STEP LENGTH
 NULL.          -999.2500:   NO VALUE
 COMP.   FLUOR DANIEL INC:   COMPANY
 WELL. NAVAL PETROLEUM RESERVE 3 SX-2 #32-11-2:   WELL
 FLD .        N.P.R NO. 3:   FIELD
 LOC .       S2 T38N R78W:   LOCATION
 CNTY.            NATRONA:   COUNTY
 STAT.            WYOMING:   STATE
 CTRY. UNITED STATES OF AMERICA:   COUNTRY
 SRVC.      Dresser Atlas:   SERVICE COMPANY
 DATE.        15-AUG-1985:   LOGDATE
 API .       490251104000:   API NUMBER
~CURVE INFORMATION
#MNEM.UNIT       API CODE    CURVE DESCRIPTION
#----------   ------------   ------------------------------
 DEPT.F                  :   
 SPR .MV     07 010 01 00:   SPONTANEOUS POTENTIAL
 RILD.OHMM   07 120 46 00:   INDUCTION LOG DEEP RESISTIVITY
 RILM.OHMM   07 120 44 00:   INDUCTION LOG MEDIUM RESISTIVITY
 RFOC.OHMM   07 220 04 00:   RESISTIVITY FOCUSED LOG
 PORD.DEC    45 890 12 00:   POROSITY DENSITY SANDSTONE
 CNC .DEC    42 890 03 00:   NEUTRON POROSITY SANDSTONE
 GRD .GAPI   45 310 01 00:   GAMMA RAY FROM DENSITY LOG
 CALD.IN     45 280 60 00:   CALIPER FROM DENSITY LOG
 CORR.G/C3   45 356 01 00:   DENSITY CORRECTION
 DEN .G/C3   45 350 01 00:   COMPENSATED BULK DENSTIY
~PARAMETER INFORMATION
#MNEM.UNIT          VALUE    DESCRIPTION
#----------   ------------   ------------------------------
 PD  .                 GL:   PERMANENT DATUM
 EPD .F              5113:   ELEVATION PERMANENT DATUM
 LMF .                 GL:   LOG MEASURED FROM
 DMF .                 GL:   DRILLING MEASURED FROM
 EGL .F              5113:   GROUND LEVEL
 DATE.            8-15-85:   RUN DATE
 RUN .                  1:   RUN NUMBER
 DD  .F               817:   DEPTH DRILLER
 DL  .F               817:   DEPTH LOGGER
 BLI .F               814:   BOTTOM LOG INTERVAL
 CS  .IN            8.625:   CASING SIZE
 CBD .F                79:   CASING BOTTOM DRILLER
 CBL .F                79:   CASING BOTTOM LOGGER
 BS  .IN            7.875:   BIT SIZE
 BSD .F               817:   BIT SIZE AT DEPTH
 DFT .          KCL WATER:   DRILLING FLUID TYPE
 MSS .               TANK:   MUD SAMPLE SOURCE
 RMS .OHMM            .25:   RESISTIVITY MUD SAMPLE
 MST .F                70:   MUD SAMPLE TEMPERATURE
 BHT .F               100:   BOTTOM HOLE TEMPERATURE
 TCS .HRS               2:   TIME CURCULATED STOPPED
 MRT .F               100:   MAXIMUM RECORDED TEMPERATURE
 LUN .            HL-6274:   LOGGING UNIT NUMBER
 LUL .           GILLETTE:   LOGGING UNIT LOCATION
 ENGI.             RAUTIO:   RECORDING ENGINEER
 WITN.           JENNINGS:   WITNESSED BY
 CLNT.            A2DTECH:   CLIENT CODE
 ORIG.       2", 5" PRINT:   ORIGIN OF DATA
 UWI .       490251104000:   UNIQUE WELL ID
 DICO. A2D Technologies, Inc.:   DIGITIZING COMPANY
~OTHER INFORMATION
~A   DEPT      SPR       RILD       RILM       RFOC       PORD        CNC        GRD       CALD       CORR        DEN   
# ...
  501.5000   -29.2308     4.2989     4.3280     3.8912     0.1954     0.3380    98.4715     8.3330    -0.0064     2.3568
  502.0000   -28.7818     4.4821     4.4808     4.5658     0.1700     0.3188   104.4668     8.3324    -0.0171     2.3906
  502.5000   -28.6285     4.7091     4.8033     5.7113     0.1552     0.3142   103.2570     8.3320    -0.0019     2.4116
  503.0000   -28.6271     5.0800     5.0779     6.4634     0.1485     0.3057   101.9563     8.3316     0.0105     2.4356
  503.5000   -28.6256     5.3707     5.4058     6.5539     0.1431     0.2931   100.4538     8.3311     0.0175     2.4424
  504.0000   -28.4730     5.7177     5.7204     6.4634     0.1395     0.2906    99.0025     8.3307     0.0115     2.4446
  504.5000   -28.7742     6.0871     5.9992     6.8331     0.1389     0.3039    96.8888     8.3303     0.0085     2.4416
  505.0000   -29.0757     6.3466     6.2982     6.9287     0.1402     0.3224    95.3154     8.3449    -0.0020     2.4415
  505.5000   -29.3773     6.5257     6.4305     6.8331     0.1411     0.3196    93.8597     8.3470    -0.0126     2.4438
  506.0000   -29.5273     6.7104     6.6115     6.9300     0.1414     0.2993    92.9472     8.3740    -0.0036     2.4475
  506.5000   -29.8285     6.9065     6.7976     7.1241     0.1378     0.2969    94.1368     8.3736     0.0166     2.4505
  507.0000   -30.2816     7.0938     6.9408     7.2238     0.1354     0.2932    97.1282     8.3883     0.0355     2.4527
  507.5000   -30.8866     7.2434     7.1434     7.3760     0.1332     0.2905   100.4199     8.4029     0.0385     2.4550
  508.0000   -31.6423     7.3449     7.3367     7.4275     0.1318     0.2999   100.1080     8.4024     0.0219     2.4474
  508.5000   -32.2469     7.3962     7.3875     7.4275     0.1361     0.3141    97.0311     8.4020     0.0024     2.4391
  509.0000   -32.8515     7.3962     7.3356     7.4793     0.1415     0.3197    94.6765     8.3996    -0.0247     2.4369
  509.5000   -32.8500     7.2940     7.2843     7.5840     0.1452     0.3247    93.7640     8.3859    -0.0322     2.4383
  510.0000   -32.6967     7.2940     7.2838     7.6369     0.1434     0.3259    96.4551     8.3855    -0.0198     2.4458
  510.5000   -32.5437     7.3449     7.2833     7.6902     0.1354     0.3144   100.6477     8.3700     0.0098     2.4526
  511.0000   -32.5422     7.3449     7.2828     7.6902     0.1325     0.3001   105.7412     8.3545     0.0203     2.4533
  511.5000   -32.5408     7.3449     7.2822     7.6369     0.1320     0.2883   107.5536     8.3390     0.0173     2.4478
  512.0000   -32.2363     7.3449     7.2817     7.6369     0.1356     0.2862   104.7848     8.3385     0.0068     2.4465
  512.5000   -32.0833     7.3449     7.2812     7.7438     0.1393     0.2835   105.4032     8.3381     0.0038     2.4502
  513.0000   -31.9303     7.3449     7.2807     7.7978     0.1378     0.2811   105.6948     8.3376     0.0037     2.4510
  513.5000   -31.9288     7.3449     7.2803     7.9070     0.1369     0.2835   101.7764     8.3371     0.0158     2.4502
  514.0000   -31.9270     7.3449     7.2798     7.9621     0.1366     0.2896    97.8609     8.3367     0.0220     2.4569
  514.5000   -32.0774     7.2940     7.2288     7.9621     0.1348     0.2953    95.1466     8.3363     0.0142     2.4644
  515.0000   -32.0756     7.2940     7.2282     8.0177     0.1297     0.2919    93.9338     8.3358    -0.0008     2.4697
  515.5000   -31.9226     7.2940     7.1776     7.9621     0.1264     0.2995    97.0898     8.3354    -0.0054     2.4719
  516.0000   -31.4666     7.2940     7.1771     7.9070     0.1243     0.3019   102.3162     8.3349    -0.0024     2.4719
  516.5000   -31.0105     7.2940     7.1767     7.7438     0.1246     0.2895   103.8061     8.3344     0.0066     2.4741
  517.0000   -30.5545     7.2434     7.1264     7.6320     0.1234     0.2834   102.8936     8.3340     0.0217     2.4771
  517.5000   -30.0985     7.1433     7.0766     7.5315     0.1204     0.2825   101.0802     8.3335     0.0370     2.4801
  518.0000   -29.9452     7.0446     7.0270     7.4793     0.1183     0.2916   102.2698     8.3483     0.0442     2.4823
  518.5000   -29.4892     6.9473     6.8813     7.4793     0.1174     0.2937   103.4595     8.3327     0.0366     2.4830
  519.0000   -29.1847     6.8038     6.7858     7.4275     0.1165     0.2822   100.0080     8.3322     0.0216     2.4830
  519.5000   -28.8802     6.6171     6.5534     7.3249     0.1163     0.2725    96.2290     8.3468     0.0141     2.4800
  520.0000   -28.5757     6.4355     6.3731     7.2238     0.1166     0.2704   102.2205     8.3464     0.0171     2.4739
  520.5000   -28.4227     6.1662     6.0698     6.8772     0.1208     0.2740   105.5122     8.3459     0.0246     2.4656
  521.0000   -28.2697     5.7576     5.5818     6.5996     0.1257     0.2976   104.9000     8.3454     0.0305     2.4543
  521.5000   -27.7965     5.3335     5.1542     6.4187     0.1336     0.3173   102.1857     8.3450     0.0275     2.4288
  522.0000   -27.3573     4.9063     4.6913     6.0294     0.1418     0.3288    99.4714     8.3445     0.0200     2.4197
  522.5000   -26.9013     4.3386     4.1969     5.6638     0.1566     0.3381    97.2872     8.3441     0.0020     2.4096
  523.0000   -26.2938     3.5627     3.4299     5.4703     0.1615     0.3521    98.2441     8.3437    -0.0236     2.3911
  523.5000   -25.8377     2.7735     2.9636     5.1744     0.1651     0.3618   102.7370     8.3282    -0.0296     2.3663
  524.0000   -25.3817     2.4106     2.4903     4.7550     0.1709     0.3709   105.1278     8.3276    -0.0191     2.3363
  524.5000   -24.4712     2.2200     2.2117     4.2889     0.1870     0.3864   105.4194     8.3272    -0.0085     2.2994
  525.0000   -24.0152     2.1441     2.1491     3.5059     0.2145     0.4345   101.5010     8.3268     0.0069     2.2385
  525.5000   -23.8621     2.1145     2.1365     2.6734     0.2572     0.4464    96.0840     8.3414     0.0289     2.1777
  526.0000   -23.8603     2.1292     2.1814     2.4087     0.2944     0.4393    89.2495     8.3409     0.0394     2.1679
  526.5000   -23.8589     2.1590     2.2118     2.3590     0.3002     0.4139    83.7456     8.3405     0.0469     2.1844
  527.0000   -23.8574     2.2355     2.3545     2.5465     0.2960     0.3960    84.6349     8.3401    -0.0012     2.2422
  527.5000   -24.0074     2.3651     2.7437     3.2533     0.2735     0.3700    92.7314     8.3547    -0.0358     2.3045
  528.0000   -24.0060     2.6974     3.2220     4.0853     0.2328     0.3469    98.7258     8.3693    -0.0223     2.3473
  528.5000   -24.0045     3.1216     3.8808     4.7603     0.1871     0.3354   103.2187     8.3688     0.0239     2.3864
  529.0000   -24.1546     3.8194     4.4640     5.5856     0.1633     0.3247   105.9099     8.3835     0.0513     2.4209
  529.5000   -24.3048     4.5449     4.8862     5.9462     0.1527     0.3096   103.9849     8.3830     0.0573     2.4278
  530.0000   -24.6061     5.1512     5.2379     6.1138     0.1476     0.2905   100.4784     8.3825     0.0513     2.4269
  530.5000   -25.5318     5.4840     5.4607     6.2427     0.1506     0.3048    98.9653     8.3821     0.0393     2.4209
  531.0000   -26.7239     5.6786     5.6931     6.1565     0.1555     0.3130   101.3561     8.3837     0.0227     2.4103
  531.5000   -27.6316     5.7638     5.8140     6.1138     0.1625     0.3090   104.6478     8.3963     0.0062     2.4028
  532.0000   -28.6907     5.8791     5.8938     6.1138     0.1649     0.2932   108.8404     8.4109    -0.0013     2.4065
  532.5000   -29.5983     5.8791     5.9759     6.1565     0.1583     0.2917   111.8318     8.3802     0.0047     2.4170
  533.0000   -30.2029     5.8791     5.9341     6.1994     0.1510     0.2948   113.9223     8.3195     0.0152     2.4268
  533.5000   -30.8075     5.8791     5.9337     6.2427     0.1462     0.3028   107.6015     8.2890     0.0257     2.4344
  534.0000   -31.2606     5.8791     5.9333     6.2862     0.1432     0.3235   103.9863     8.2735     0.0076     2.4380
  534.5000   -31.4217     5.8383     5.8917     6.4634     0.1423     0.3275   103.3741     8.2745    -0.0119     2.4395
