~VERSION INFORMATION
 VERS.                2.0:   CWLS LOG ASCII STANDARD - VERSION 2.0
 WRAP.                 NO:   ONE LINE PER DEPTH STEP
~WELL INFORMATION
#MNEM.UNIT      DATA TYPE    INFORMATION
#----------   ------------   ------------------------------
 STRT.F           60.0000:   START DEPTH
 STOP.F          945.0000:   STOP DEPTH
 STEP.F            0.5000:   STEP LENGTH
 NULL.          -999.2500:   NO VALUE
 COMP.          U.S. NAVY:   COMPANY
 WELL. RES 3 TEAPOT DOM #48S-35:   WELL
 FLD .           TEAPOT E:   FIELD
 LOC .      S35 T39N R78W:   LOCATION
 CNTY.            NATRONA:   COUNTY
 STAT.            WYOMING:   STATE
 CTRY. UNITED STATES OF AMERICA:   COUNTRY
 SRVC.       Schlumberger:   SERVICE COMPANY
 DATE.        15-JUL-1964:   LOGDATE
 API .       490250649200:   API NUMBER
~CURVE INFORMATION
#MNEM.UNIT       API CODE    CURVE DESCRIPTION
#----------   ------------   ------------------------------
 DEPT.F                  :   
 SPR .MV     05 010 01 00:   SPONTANEOUS POTENTIAL FROM RES.
 ILD .OHMM   05 120 46 00:   INDUCTION LOG DEEP
 ASN .OHMM   05 041 18 00:   AMPLIFIED SHORT NORMAL 18"
 CILD.MMHO   05 110 46 00:   CONDUCTIVITY INDUCTION LOG DEEP
 CALS.IN     60 280 50 00:   CALIPER FROM SONIC LOG
 DT  .US/F   60 520 00 00:   INTERVAL TRANSIT TIME
 GR  .GAPI   30 310 01 00:   GAMMA RAY
~PARAMETER INFORMATION
#MNEM.UNIT          VALUE    DESCRIPTION
#----------   ------------   ------------------------------
 PD  .                 GL:   PERMANENT DATUM
 EPD .F              5123:   ELEVATION PERMANENT DATUM
 LMF .                 KB:   LOG MEASURED FROM
 DAPD.F                 5:   FEET ABOVE PERMANENT DATUM
 DMF .                 KB:   DRILLING MEASURED FROM
 EKB .F              5128:   KELLING BUSHING
 EGL .F              5123:   GROUND LEVEL
 DATE.        15-JUL-1964:   RUN DATE
 RUN .                  1:   RUN NUMBER
 DD  .F               945:   DEPTH DRILLER
 DL  .F               946:   DEPTH LOGGER
 BLI .F               945:   BOTTOM LOG INTERVAL
 TLI .F                94:   TOP LOG INTERVAL
 CS  .IN            8.625:   CASING SIZE
 CBD .F                10:   CASING BOTTOM DRILLER
 BS  .IN             6.75:   BIT SIZE
 BSD .F               945:   BIT SIZE AT DEPTH
 DFT .                GEL:   DRILLING FLUID TYPE
 DFD .                9.5:   DRILLING FLUID DENSITY
 DFV .                 44:   DRILLING FLUID VISCOSITY
 DFPH.                8.0:   DRILLING FLUID PH
 DFL .               10.5:   DRILLING FLUID LOSS
 MSS .           FLOWLINE:   MUD SAMPLE SOURCE
 RMS .OHMM           3.37:   RESISTIVITY MUD SAMPLE
 MST .F                74:   MUD SAMPLE TEMPERATURE
 RMF .OHMM           2.97:   RESISTIVITY MUD FILTRATE SAMPLE
 MFST.F                78:   MUD FILTRATE SAMPLE TEMPERATURE
 MFSS.                 FP:   MUD FILTRATE SAMPLE SOURCE
 TCS .HRS             1.5:   TIME CURCULATED STOPPED
 MRT .F       T. L. T. M.:   MAXIMUM RECORDED TEMPERATURE
 LUN .               3527:   LOGGING UNIT NUMBER
 LUL .               CSPR:   LOGGING UNIT LOCATION
 ENGI.            WINKLER:   RECORDING ENGINEER
 WITN.          JORGENSEN:   WITNESSED BY
 CLNT.            A2DTECH:   CLIENT CODE
 ORIG.           2" PRINT:   ORIGIN OF DATA
 UWI .       490250649200:   UNIQUE WELL ID
 DICO. A2D Technologies, Inc.:   DIGITIZING COMPANY
~OTHER INFORMATION
~A   DEPT      SPR        ILD        ASN       CILD         CALS       DT         GR   
# ...
  242.0000   -58.2579     5.8963     7.1257   167.8575     6.6666   117.5207  -999.2500
  242.5000   -58.2572     5.9718     7.1432   167.5968     6.7118   116.6164  -999.2500
  243.0000   -58.1064     5.9722     7.2375   166.3424     6.7570   115.2600  -999.2500
  243.5000   -58.1057     5.9726     7.3610   164.6014     6.7569   114.3557  -999.2500
  244.0000   -58.1050     5.9730     7.4605   163.0869     6.7718   114.8078  -999.2500
  244.5000   -58.1042     5.9733     7.5690   162.5603     6.7868   115.0465  -999.2500
  245.0000   -57.9535     5.9737     7.6068   162.5566     6.8018   115.1846  -999.2500
  245.5000   -57.8029     5.9741     7.5799   162.5528     6.8168   113.7528  -999.2500
  246.0000   -57.8021     5.9744     7.5396   162.5489     6.8318   113.1500  -999.2500
  246.5000   -57.7176     5.9748     7.4961   163.2994     6.8694   114.4436  -999.2500
  247.0000   -57.6507     5.9752     7.4483   164.9824     6.8920   113.4514  -999.2500
  247.5000   -57.6499     5.9004     7.4049   167.0623     6.9070   113.1500  -999.2500
  248.0000   -57.4992     5.9008     7.3630   168.9794     6.8917   113.9035  -999.2500
  248.5000   -57.4698     5.8259     7.3128   170.2237     6.8461   114.2050  -999.2500
  249.0000   -57.3478     5.7512     7.2402   171.5758     6.7855   114.4310  -999.2500
  249.5000   -57.1971     5.7515     7.1847   171.5724     6.7550   114.5064  -999.2500
  250.0000   -57.1964     5.7519     7.1353   171.5686     6.7577   114.5064  -999.2500
  250.5000   -57.1956     5.7523     7.1107   171.5644     6.7718   114.3412  -999.2500
  251.0000   -57.1949     5.7526     7.1403   171.5611     6.7858   114.2050  -999.2500
  251.5000   -57.0442     5.8282     7.1962   171.5573     6.7407   114.1296  -999.2500
  252.0000   -57.0434     5.9038     7.2595   171.5531     6.6881   113.9035  -999.2500
  252.5000   -57.0427     5.9041     7.3245   171.5498     6.6506   113.7503  -999.2500
  253.0000   -57.0420     5.9045     7.3773   170.6461     6.6509   113.2253  -999.2500
  253.5000   -57.0411     5.9801     7.3941   169.2792     6.6360   112.0949  -999.2500
  254.0000   -57.0405     6.0090     7.4078   167.9085     6.6363   111.3414  -999.2500
  254.5000   -57.0398     6.1360     7.4081   165.3622     6.6517   111.4167  -999.2500
  255.0000   -57.0389     6.3572     7.4233   159.4639     6.6520   111.4167  -999.2500
  255.5000   -57.0382     6.5331     7.4905   154.5687     6.6523   111.1153  -999.2500
  256.0000   -57.0375     6.7338     7.5742   148.0639     6.6526   110.4351  -999.2500
  256.5000   -57.0366     6.9054     7.9218   142.1071     6.6530   110.1356  -999.2500
  257.0000   -57.0360     7.1324     8.3130   140.0880     6.6533   110.1356  -999.2500
  257.5000   -57.0353     7.2613     8.6425   138.3295     6.6536   110.2110  -999.2500
  258.0000   -57.0343     7.2672     8.7901   137.0840     6.6387   110.1356  -999.2500
  258.5000   -57.0337     7.1868     8.9475   136.8144     6.6390   108.5531  -999.2500
  259.0000   -57.0330     7.0948     9.0492   138.3181     6.6544   105.7649  -999.2500
  259.5000   -57.0321     6.8869     9.0336   139.9913     6.6547   102.9766  -999.2500
  260.0000   -57.0315     6.7719     8.7639   142.1319     6.6551   101.5900  -999.2500
  260.5000   -57.0307     6.6342     8.4115   145.8482     6.6554   100.4898  -999.2500
  261.0000   -57.0300     6.3617     8.2005   150.3970     6.6708   100.0377  -999.2500
  261.5000   -57.0292     6.2868     8.0578   155.8195     6.6862   101.1680  -999.2500
  262.0000   -57.0285     6.2872     8.0099   157.1491     6.6865   103.1274  -999.2500
  262.5000   -57.0277     6.3628     7.9793   157.1456     6.7020   105.0867  -999.2500
  263.0000   -57.0270     6.4717     7.9382   156.9935     6.7023   107.6488  -999.2500
  263.5000   -57.0262     6.6034     7.9384   154.8752     6.7025   108.9470  -999.2500
  264.0000   -57.0255     6.8151     7.9386   151.4627     6.7180   108.7038  -999.2500
  264.5000   -57.0248     7.0257     7.9840   148.5908     6.7334   108.4024  -999.2500
  265.0000   -57.0240     7.1992     8.1045   145.0599     6.7338   108.1763  -999.2500
  265.5000   -57.1732     7.4929     8.3445   141.4140     6.7492   108.3271  -999.2500
  266.0000   -57.2074     7.6215     8.6463   136.3747     6.7646   109.0806  -999.2500
  266.5000   -57.4715     7.7948     8.8443   132.2280     6.7800   109.6835  -999.2500
  267.0000   -57.5532     7.9687     9.0001   129.6330     6.7954   110.4582  -999.2500
  267.5000   -57.6200     8.0959     9.1282   126.1878     6.7957   110.9646  -999.2500
  268.0000   -57.6191     8.0962     9.2638   125.4293     6.7961   110.1356  -999.2500
  268.5000   -57.6184     8.1718     9.3888   125.4261     6.7964   109.3821  -999.2500
  269.0000   -57.6177     8.1722     9.5500   126.1766     6.7664   108.8546  -999.2500
  269.5000   -57.6169     8.0974     9.6314   126.9262     6.7213   108.3271  -999.2500
  270.0000   -57.6162     7.9374     9.7158   130.0153     6.6914   107.5735  -999.2500
  270.5000   -57.4655     7.7645     9.7363   134.5581     6.6614   106.9650  -999.2500
  271.0000   -57.4647     7.4970     9.4185   141.9978     6.6466   106.4431  -999.2500
  271.5000   -57.3928     7.3438     8.9947   145.2576     6.6317   106.1417  -999.2500
  272.0000   -57.2934     7.1579     8.6941   148.0241     6.6170   105.9910  -999.2500
  272.5000   -57.0126     6.8967     8.4425   151.2508     6.6323   106.4431  -999.2500
  273.0000   -56.9445     6.7501     8.1232   152.5422     6.6478   107.4228  -999.2500
  273.5000   -56.8451     6.6718     7.9836   152.5376     6.6633   108.1763  -999.2500
  274.0000   -56.5606     6.6722     7.8529   152.5340     6.6635   110.7785  -999.2500
  274.5000   -56.4100     6.5974     7.8833   152.3328     6.6638   112.9992  -999.2500
  275.0000   -56.3968     6.5977     7.9511   151.7721     6.6793   113.9035  -999.2500
  275.5000   -56.2585     6.5982     8.0108   151.0143     6.6796   114.2803  -999.2500
  276.0000   -56.2579     6.5985     8.0644   151.0106     6.6799   113.3760  -999.2500
  276.5000   -56.2571     6.5989     8.1232   151.7607     6.6802   111.4167  -999.2500
  277.0000   -56.2562     6.5993     8.1731   152.9159     6.6805   110.1356  -999.2500
  277.5000   -56.2556     6.5245     8.2004   155.6687     6.6808   109.0706  -999.2500
  278.0000   -56.2549     6.4496     8.1525   158.5366     6.6811   108.3271  -999.2500
  278.5000   -56.2540     6.3748     8.0272   162.3066     6.6814   109.4574  -999.2500
  279.0000   -56.2534     6.2554     7.7049   165.5529     6.6666   111.0399  -999.2500
  279.5000   -56.2526     5.9996     7.5584   168.3291     6.6366   110.2110  -999.2500
  280.0000   -56.2519     5.8797     7.4496   169.7839     6.6066   109.5328  -999.2500
  280.5000   -56.2511     5.7559     7.3807   171.4303     6.5238   109.8342  -999.2500
  281.0000   -56.2504     5.7000     7.2967   172.0890     6.4409   111.1153  -999.2500
  281.5000   -56.2496     5.7004     7.1947   172.8394     6.5319   111.0399  -999.2500
  282.0000   -56.2489     5.7007     7.2460   172.8356     6.6230   111.1907  -999.2500
  282.5000   -56.2481     5.7012     7.3417   173.5854     6.6536   112.9239  -999.2500
  283.0000   -56.2474     5.7015     7.3758   173.2831     6.6690   112.8485  -999.2500
  283.5000   -56.2466     5.7018     7.3212   172.8243     6.6693   112.1703  -999.2500
  284.0000   -56.2458     5.7023     7.2138   172.0657     6.6696   111.9442  -999.2500
  284.5000   -56.2451     5.7376     7.1058   172.0626     6.6775   111.7935  -999.2500
  285.0000   -56.2444     5.7782     7.0158   172.0589     6.6854   111.7182  -999.2500
  285.5000   -56.2436     5.7786     6.9536   172.0543     6.6856   111.9442  -999.2500
  286.0000   -56.2429     5.7790     6.9411   173.5603     6.6708   113.1500  -999.2500
  286.5000   -56.2421     5.7793     6.9631   174.3099     6.6711   114.0543  -999.2500
  287.0000   -56.2413     5.7046     6.9896   176.0206     6.6714   113.2253  -999.2500
