~VERSION INFORMATION
 VERS.                2.0:   CWLS LOG ASCII STANDARD - VERSION 2.0
 WRAP.                 NO:   ONE LINE PER DEPTH STEP
~WELL INFORMATION
#MNEM.UNIT      DATA TYPE    INFORMATION
#----------   ------------   ------------------------------
 STRT.F           11.0000:   START DEPTH
 STOP.F          915.0000:   STOP DEPTH
 STEP.F            0.5000:   STEP LENGTH
 NULL.          -999.2500:   NO VALUE
 COMP. U S NAVY/INTEX OIL CO:   COMPANY
 WELL.       N.P.R. #3-35:   WELL
 FLD .           TEAPOT E:   FIELD
 LOC .      S35 T39N R78W:   LOCATION
 CNTY.            NATRONA:   COUNTY
 STAT.            WYOMING:   STATE
 CTRY. UNITED STATES OF AMERICA:   COUNTRY
 SRVC.       Schlumberger:   SERVICE COMPANY
 DATE.        25-JUL-1953:   LOGDATE
 API .       490250653700:   API NUMBER
~CURVE INFORMATION
#MNEM.UNIT       API CODE    CURVE DESCRIPTION
#----------   ------------   ------------------------------
 DEPT.F                  :   
 SPR .MV     05 010 01 00:   SPONTANEOUS POTENTIAL FROM RES.
 CILD.MMHO   05 110 46 00:   CONDUCTIVITY INDUCTION LOG DEEP
 ILD .OHMM   05 120 46 00:   INDUCTION LOG DEEP
 ASN .OHMM   05 041 16 00:   AMPLIFIED SHORT NORMAL 16"
 GR  .GAPI   30 310 01 00:   GAMMA RAY
~PARAMETER INFORMATION
#MNEM.UNIT          VALUE    DESCRIPTION
#----------   ------------   ------------------------------
 EPD .F              5097:   ELEVATION PERMANENT DATUM
 LMF .                 KB:   LOG MEASURED FROM
 DMF .                 KB:   DRILLING MEASURED FROM
 EKB .F              5102:   KELLING BUSHING
 EGL .F              5097:   GROUND LEVEL
 DATE.           7-2-1963:   RUN DATE
 RUN .                  1:   RUN NUMBER
 DD  .F               916:   DEPTH DRILLER
 DL  .F               916:   DEPTH LOGGER
 BLI .F               915:   BOTTOM LOG INTERVAL
 TLI .F                90:   TOP LOG INTERVAL
 CS  .IN            8.625:   CASING SIZE
 CBD .F                10:   CASING BOTTOM DRILLER
 BS  .IN             6.75:   BIT SIZE
 BSD .F               916:   BIT SIZE AT DEPTH
 DFT .            GEL/OIL:   DRILLING FLUID TYPE
 DFD .                9.6:   DRILLING FLUID DENSITY
 DFV .                 67:   DRILLING FLUID VISCOSITY
 DFPH.                  9:   DRILLING FLUID PH
 DFL .                4.2:   DRILLING FLUID LOSS
 MSS .          FLOW LINE:   MUD SAMPLE SOURCE
 RMS .OHMM           2.92:   RESISTIVITY MUD SAMPLE
 MST .F                86:   MUD SAMPLE TEMPERATURE
 RMF .OHMM            2.6:   RESISTIVITY MUD FILTRATE SAMPLE
 MFST.F                86:   MUD FILTRATE SAMPLE TEMPERATURE
 RMC .OHMM           2.49:   RESISTIVITY MUD CAKE
 MCST.F                86:   MUD CAKE SAMPLE TEMPERATURE
 MFSS.                  M:   MUD FILTRATE SAMPLE SOURCE
 MCSS.                  M:   MUD CAKE SAMPLE SOURCE
 TCS .HRS              .5:   TIME CURCULATED STOPPED
 LUN .               4507:   LOGGING UNIT NUMBER
 ENGI.             KNOBEL:   RECORDING ENGINEER
 WITN.          JORGENSON:   WITNESSED BY
 CLNT.            A2DTECH:   CLIENT CODE
 ORIG.       2", 5" PRINT:   ORIGIN OF DATA
 UWI .       490250653700:   UNIQUE WELL ID
 DICO. A2D Technologies, Inc.:   DIGITIZING COMPANY
~OTHER INFORMATION
~A   DEPT      SPR       CILD        ILD        ASN          GR  
# ...
  743.0000   -27.9049   235.9303     4.2023     5.3774    60.0600
  743.5000   -28.0019   222.9381     4.4653     5.3296    64.4645
  744.0000   -28.1018   209.9459     4.7290     5.3580    68.1387
  744.5000   -28.4843   199.5978     4.9931     5.7552    69.8372
  745.0000   -28.9753   190.8010     5.2571     6.1474    69.5935
  745.5000   -29.4648   182.0042     5.5210     6.3343    67.6886
  746.0000   -29.8102   173.2074     5.7850     6.5279    66.3463
  746.5000   -29.7649   164.6776     6.0486     7.0269    68.0118
  747.0000   -29.7287   156.4673     6.3122     7.2784    69.9093
  747.5000   -29.6929   151.9675     6.5847     7.4276    68.8307
  748.0000   -29.6566   149.3284     6.7373     7.5692    66.9426
  748.5000   -29.6205   149.3042     6.7284     7.5961    58.8871
  749.0000   -29.5736   150.5222     6.6701     7.6068    60.6629
  749.5000   -29.5141   151.6264     6.5628     7.6178    66.4250
  750.0000   -29.4522   154.6004     6.4496     7.6272    70.1921
  750.5000   -29.4368   157.3202     6.3365     7.4941    72.1501
  751.0000   -29.7118   160.0400     6.2221     7.3415    76.0355
  751.5000   -29.9010   162.7599     6.0719     7.1131    72.7321
  752.0000   -30.0872   171.9412     5.7927     6.9603    66.5954
  752.5000   -30.2348   182.2665     5.5173     6.8682    68.0760
  753.0000   -30.2424   192.5918     5.2417     6.6669    64.5514
  753.5000   -29.8728   202.9171     4.9654     6.4017    71.6098
  754.0000   -29.4476   213.2424     4.6921     6.1355    71.5889
  754.5000   -29.2549   220.3945     4.4497     5.8692    68.6790
  755.0000   -29.4553   221.9308     4.5026     5.6027    66.3476
  755.5000   -29.7752   217.8909     4.5597     5.4326    64.6542
  756.0000   -29.6559   213.5887     4.6147     5.5692    66.6347
  756.5000   -29.1907   209.3300     4.6818     5.7209    68.7280
  757.0000   -29.0719   203.5114     4.9936     5.7952    71.6470
  757.5000   -29.3995   193.7638     5.2957     6.1129    74.7022
  758.0000   -29.7240   184.0102     5.5919     6.5416    71.3937
  758.5000   -29.4752   174.2731     5.8358     6.9516    66.2384
  759.0000   -28.8261   164.5435     5.9859     7.0750    69.3905
  759.5000   -28.3356   154.7744     6.1450     7.1867    70.9239
  760.0000   -28.3469   154.7744     6.2576     7.2994    70.3762
  760.5000   -28.3476   154.7744     6.3304     7.4140    70.1010
  761.0000   -28.3486   154.7744     6.4045     7.4515    69.8335
  761.5000   -28.5149   154.4714     6.4782     7.5019    70.6090
  762.0000   -28.9108   152.2128     6.5520     7.6449    71.9366
  762.5000   -29.3053   149.9541     6.6259     7.7057    72.0379
  763.0000   -29.6959   147.6954     6.7002     7.7647    70.6430
  763.5000   -30.0149   148.4918     6.7653     7.8109    71.8055
  764.0000   -29.9001   149.6929     6.7164     7.8422    79.1748
  764.5000   -29.7961   150.8998     6.6652     7.8734    78.0378
  765.0000   -29.6932   152.1070     6.6189     7.9034    78.7215
  765.5000   -29.5511   153.3134     6.5892     7.8978    79.1583
  766.0000   -29.1540   154.5149     6.3490     7.7703    73.7329
  766.5000   -28.7555   154.6380     6.3520     7.6590    75.5640
  767.0000   -28.2135   154.4033     6.3485     7.5743    72.6874
  767.5000   -27.5026   154.1687     6.3487     7.4886    73.5387
  768.0000   -27.1534   153.9307     6.3475     7.4008    70.9001
  768.5000   -27.3221   153.7180     6.3458     7.3683    68.6039
  769.0000   -27.6624   164.9476     6.0659     7.3364    65.0586
  769.5000   -27.9651   182.3999     5.5113     7.2761    64.9181
  770.0000   -28.0822   200.4722     4.9772     7.1041    71.0596
  770.5000   -28.7075   218.5414     4.5733     6.6837    71.7918
  771.0000   -29.6394   227.5498     4.3579     6.1464    71.9341
  771.5000   -29.6625   231.4218     4.2866     5.6095    71.2432
  772.0000   -28.7976   235.2938     4.2242     5.3079    73.0863
  772.5000   -27.9024   239.1658     4.1594     5.5923    73.7059
  773.0000   -27.9314   240.8185     4.3227     5.1245    72.4868
  773.5000   -28.3106   233.6595     4.6240     4.9692    69.3655
  774.0000   -28.9940   222.6889     4.9273     5.3805    68.6754
  774.5000   -29.6125   211.7183     5.1914     6.1517    67.7229
  775.0000   -29.7327   205.6243     5.1161     6.3078    68.6448
  775.5000   -29.8452   213.3683     4.8145     6.3693    69.7224
  776.0000   -29.9595   223.6936     4.5228     6.1324    70.0743
  776.5000   -29.9779   233.4732     4.2559     5.8006    66.8809
  777.0000   -29.8804   232.3897     4.2970     5.4604    63.2284
  777.5000   -29.6567   229.9442     4.3456     5.1748    62.6900
  778.0000   -28.9540   227.4831     4.3931     5.5290    64.5738
  778.5000   -28.2561   225.0202     4.4409     5.6039    66.2433
  779.0000   -28.2173   219.0196     4.5271     5.3600    65.0804
  779.5000   -28.3100   210.4934     4.6295     5.2848    65.0264
  780.0000   -28.7109   193.7636     5.1503     6.0086    65.0308
  780.5000   -29.3038   172.7478     5.8053     6.6728    64.9580
  781.0000   -29.8311   165.7618     6.0304     6.9277    67.7653
  781.5000   -29.8091   158.1994     6.3270     6.9974    70.4038
  782.0000   -29.6002   156.8885     6.3392     7.0610    70.0933
  782.5000   -29.3745   164.3016     6.0481     7.1258    71.6446
  783.0000   -29.1477   174.6158     5.7637     7.1875    69.1764
  783.5000   -28.9326   185.2046     5.4819     7.2109    68.4258
  784.0000   -28.9889   191.9622     5.1985     7.0436    68.5272
  784.5000   -29.8013   198.5329     5.0705     6.7825    69.8396
  785.0000   -29.5387   200.7673     5.0372     6.4237    70.1937
  785.5000   -29.2199   199.8416     5.0051     5.9845    70.6598
  786.0000   -29.0313   198.8504     4.9993     6.1208    75.0635
  786.5000   -29.3329   197.8094     5.0465     6.1511    73.5941
  787.0000   -29.6234   195.7117     5.1220     5.9826    75.4682
  787.5000   -29.9133   182.8811     5.4405     6.5125    74.0445
  788.0000   -30.2004   168.8682     5.7998     7.1093    69.9279
  788.5000   -30.4339   155.8237     6.3649     7.6268    68.5718
  789.0000   -30.3471   147.5446     6.7896     7.8828    69.7403
  789.5000   -30.2672   142.4567     7.0364     8.0433    65.8636
  790.0000   -30.4029   139.2273     7.2095     8.2063    66.7405
  790.5000   -30.7108   137.1889     7.2867     8.3691    69.5771
  791.0000   -31.0190   135.9007     7.3671     8.5098    71.1933
  791.5000   -31.3305   134.6118     7.4479     8.5772    71.9922
  792.0000   -31.4801   133.3211     7.5285     8.6205    70.8879
  792.5000   -30.9125   132.0304     7.6093     8.6638    65.4912
  793.0000   -30.3761   130.7398     7.6925     8.7070    66.0945
  793.5000   -30.1690   129.6616     7.7114     8.7504    62.1590
  794.0000   -29.9561   130.3069     7.6784     8.7936    63.7848
  794.5000   -29.7431   132.3570     7.5450     8.8300    69.6408
  795.0000   -29.5308   135.9064     7.4155     8.8468    65.5125
  795.5000   -29.3193   139.4557     7.2874     8.8651    67.4153
  796.0000   -29.1053   142.1826     7.1604     8.8044    72.7558
  796.5000   -28.8550   140.0840     7.1772     8.7081    69.6482
  797.0000   -28.1836   135.9781     7.4053     8.6125    59.6813
  797.5000   -27.5120   131.9218     7.6294     8.5717    56.3489
  798.0000   -26.8215   128.5414     7.8218     8.6973    54.4182
  798.5000   -26.9573   128.5414     7.8088     8.8730    52.0988
  799.0000   -27.4670   134.7758     7.3108     9.0494    50.0717
  799.5000   -27.9941   146.2050     6.6805     9.2269    49.2208
  800.0000   -28.5244   157.6336     6.1379     9.3616    53.5773
  800.5000   -28.4043   169.0678     5.7201     9.0775    56.8074
  801.0000   -28.2238   180.4940     5.4517     8.4517    55.3766
  801.5000   -28.0564   188.3089     5.3301     7.1766    57.7597
  802.0000   -28.1308   187.2122     5.3274     6.7924    60.4818
  802.5000   -28.8827   185.2455     5.3646     6.8693    56.9206
  803.0000   -29.2234   185.9809     5.4118     6.7997    56.9332
  803.5000   -28.5122   181.8553     5.6577     6.7027    57.5820
