~VERSION INFORMATION
 VERS.                2.0:   CWLS LOG ASCII STANDARD - VERSION 2.0
 WRAP.                 NO:   ONE LINE PER DEPTH STEP
~WELL INFORMATION
#MNEM.UNIT      DATA TYPE    INFORMATION
#----------   ------------   ------------------------------
 STRT.F           28.0000:   START DEPTH
 STOP.F          659.0000:   STOP DEPTH
 STEP.F            0.5000:   STEP LENGTH
 NULL.          -999.2500:   NO VALUE
 COMP. FENIX & SCISSON INC:   COMPANY
 WELL.    NPR 3 #46-SX-34:   WELL
 FLD .             TEAPOT:   FIELD
 LOC .      S34 T39N R78W:   LOCATION
 CNTY.            NATRONA:   COUNTY
 STAT.            WYOMING:   STATE
 CTRY. UNITED STATES OF AMERICA:   COUNTRY
 SRVC.              Welex:   SERVICE COMPANY
 DATE.        01-MAY-1977:   LOGDATE
 API .       490251035600:   API NUMBER
~CURVE INFORMATION
#MNEM.UNIT       API CODE    CURVE DESCRIPTION
#----------   ------------   ------------------------------
 DEPT.F                  :   
 CALD.IN     45 280 60 00:   CALIPER FROM DENSITY
 GRD .GAPI   45 310 01 00:   GAMMA RAY FROM DENSITY LOG
 CORR.G/C3   45 356 01 00:   DENSITY CORRECTION
 DPHI.DEC    45 890 12 00:   DENSITY POROSITY SANDSTONE
 RHOB.G/C3   45 350 01 00:   BULK DENSITY
 SPR .MV     07 010 01 00:   SPONTANEOUS POTENTIAL
 ILD .OHMM   07 120 46 00:   INDUCTION LOG DEEP
 ILM .OHMM   07 120 44 00:   INDUCTION LOG MEDIUM
 SGRD.OHMM   07 221 05 00:   SHALLOW SHORT GUARD RESISTIVITY
~PARAMETER INFORMATION
#MNEM.UNIT          VALUE    DESCRIPTION
#----------   ------------   ------------------------------
 PD  .                 GL:   PERMANENT DATUM
 EPD .F              5120:   ELEVATION PERMANENT DATUM
 LMF .                 GL:   LOG MEASURED FROM
 DMF .                 GL:   DRILLING MEASURED FROM
 EGL .F              5120:   GROUND LEVEL
 DATE.        01-MAY-1977:   RUN DATE
 RUN .                  1:   RUN NUMBER
 DD  .F               660:   DEPTH DRILLER
 DL  .F               663:   DEPTH LOGGER
 BLI .F               661:   BOTTOM LOG INTERVAL
 TLI .F                28:   TOP LOG INTERVAL
 CS  .IN            8.625:   CASING SIZE
 BS  .IN               12:   BIT SIZE
 BSD .F               660:   BIT SIZE AT DEPTH
 DFT .            KCL MUD:   DRILLING FLUID TYPE
 DFD .                8.7:   DRILLING FLUID DENSITY
 TCS .HRS            0100:   TIME CURCULATED STOPPED
 MRT .F                71:   MAXIMUM RECORDED TEMPERATURE
 ENGI.          T. JOYNER:   RECORDING ENGINEER
 WITN.            R. LYON:   WITNESSED BY
 CLNT.            A2DTECH:   CLIENT CODE
 ORIG.           5" PRINT:   ORIGIN OF DATA
 UWI .       490251035600:   UNIQUE WELL ID
 DICO. A2D Technologies, Inc.:   DIGITIZING COMPANY
~OTHER INFORMATION
~A   DEPT     CALD        GRD        CORR      DPHI       RHOB        SPR        ILD        ILM       SGRD   
# ...
  137.5000     7.7931   100.6006     0.0183     0.1157     2.4881   -41.1072     9.1774    10.3546    10.6373
  138.0000     7.7924   106.1562     0.0196     0.1199     2.4859   -41.0999     9.3073    10.7221    11.1712
  138.5000     7.8066   110.0601     0.0211     0.1211     2.4767   -41.0925     9.3743    11.2568    11.5587
  139.0000     7.7908   111.7117     0.0226     0.1208     2.4798   -40.9363     9.3768    11.6564    11.9540
  139.5000     7.7902   110.2102     0.0256     0.1190     2.4843   -40.9289     9.3794    11.9048    12.0392
  140.0000     7.7895   107.9580     0.0241     0.1097     2.4963   -40.9215     9.2535    11.9097    11.9583
  140.5000     7.7887   108.1081     0.0240     0.1097     2.4918   -40.9141     9.0665    11.7514    11.7976
  141.0000     7.7880   108.5586     0.0240     0.1127     2.4850   -40.9067     8.8834    11.5941    11.7190
  141.5000     7.7872   109.6096     0.0240     0.1191     2.4804   -40.8994     8.7039    11.4412    11.4808
  142.0000     7.8015   114.1141     0.0224     0.1197     2.4804   -40.8920     8.4113    11.2116    11.1709
  142.5000     7.8007   115.3153     0.0209     0.1197     2.4872   -40.8846     8.0718    10.9111    10.9444
  143.0000     7.7999   114.5646     0.0205     0.1125     2.4924   -40.8772     7.7413    10.6910    10.7973
  143.5000     7.8144   114.6847     0.0177     0.1095     2.4940   -40.8698     7.5337    10.5498    10.5785
  144.0000     7.8287   117.2673     0.0162     0.1131     2.4873   -40.8624     7.3793    10.4817    10.5807
  144.5000     7.8277   116.0160     0.0147     0.1197     2.4750   -40.8550     7.2375    10.4861    10.5096
  145.0000     7.8270   111.7117     0.0132     0.1198     2.4780   -40.8477     7.3912    10.4904    10.5123
  145.5000     7.8262   109.4595     0.0101     0.1173     2.4818   -40.8403     7.4959    10.4947    10.5872
  146.0000     7.8407   109.1592     0.0086     0.1165     2.4802   -40.8329     7.6020    10.5717    10.5893
  146.5000     7.8398   109.4595     0.0070     0.1201     2.4742   -40.8255     7.8167    10.5799    10.6648
  147.0000     7.8391   110.6607     0.0055     0.1225     2.4727   -40.8181     8.0375    10.6536    10.6670
  147.5000     7.8233   111.4114     0.0039     0.1225     2.4726   -40.8107     8.2645    10.7318    10.7430
  148.0000     7.8225   113.9640     0.0024     0.1247     2.4689   -40.8033     8.4978    10.8234    10.8195
  148.5000     7.8218   115.1652     0.0008     0.1274     2.4643   -40.7960     8.7983    10.9660    10.8966
  149.0000     7.8210   116.9670    -0.0007     0.1292     2.4598   -40.7886     9.0467    11.1228    10.9742
  149.5000     7.8355   118.6186    -0.0008     0.1316     2.4560   -40.7812     9.2383    11.2043    11.0524
  150.0000     7.8341   120.8709    -0.0023     0.1328     2.4567   -40.7738     9.3854    11.3633    11.1311
  150.5000     7.8302   119.8198    -0.0023     0.1344     2.4560   -40.7091     9.4881    11.3378    11.2484
  151.0000     7.8263   117.5376    -0.0023     0.1373     2.4519   -40.6445     9.5909    11.3142    11.3653
  151.5000     7.8224   114.1241    -0.0024     0.1389     2.4444   -40.5938     9.7017    11.2903    11.3661
  152.0000     7.8186   111.8619    -0.0024     0.1401     2.4385   -40.5833     9.8378    11.2919    11.3669
  152.5000     7.8173   113.5135    -0.0009     0.1449     2.4363   -40.5729     9.8391    11.2935    11.2120
  153.0000     7.8018   115.3153     0.0006     0.1447     2.4372   -40.5625     9.7729    11.1404    11.0562
  153.5000     7.8013   117.1171     0.0005     0.1437     2.4439   -40.5521     9.6401    10.9893    10.8301
  154.0000     7.8160   119.3694     0.0020     0.1348     2.4522   -40.5419     9.5097    10.7659    10.6126
  154.5000     7.8155   121.6216     0.0020     0.1344     2.4567   -40.6803     9.3160    10.5470    10.4680
  155.0000     7.8150   121.9219     0.0050     0.1337     2.4590   -40.6696     9.0642    10.4039    10.3920
  155.5000     7.8145   118.1682     0.0080     0.1299     2.4643   -40.8083     8.8799    10.3339    10.3260
  156.0000     7.8141   112.9129     0.0110     0.1214     2.4718   -40.7976     8.6993    10.2643    10.2558
  156.5000     7.8136   113.2132     0.0094     0.1250     2.4718   -40.9364     8.4639    10.1952    10.1860
  157.0000     7.7981   115.1652     0.0091     0.1253     2.4718   -41.0748     8.2917    10.1967    10.1868
  157.5000     7.7977   117.2673     0.0079     0.1256     2.4710   -41.2132     8.1791    10.1981    10.1875
  158.0000     7.7973   114.2643     0.0110     0.1241     2.4718   -41.2024     8.1240    10.1995    10.1882
  158.5000     7.7968   112.5826     0.0154     0.1172     2.4801   -41.1920     8.1254    10.1308    10.1889
  159.0000     7.7964   110.6206     0.0153     0.1127     2.4891   -41.1815     8.0704    10.1322    10.1896
  159.5000     7.7959   111.2913     0.0153     0.1097     2.4996   -41.1711     8.0161    10.1336    10.1903
  160.0000     7.7955   112.4625     0.0153     0.1109     2.4996   -41.1586     8.0172    10.2051    10.1910
  160.5000     7.7950   113.6637     0.0152     0.1121     2.4996   -41.1482     8.0183    10.2065    10.1917
  161.0000     7.7946   115.7658     0.0152     0.1130     2.4996   -41.1379     8.0194    10.2786    10.2629
  161.5000     7.7941   119.3694     0.0152     0.1088     2.4996   -41.1275     8.0205    10.3511    10.2636
  162.0000     7.7936   120.1201     0.0152     0.1085     2.5004   -41.1171     8.0771    10.3525    10.3353
  162.5000     7.8082   118.4685     0.0166     0.1094     2.5019   -41.1067     8.1341    10.4256    10.3360
  163.0000     7.8078   112.9129     0.0181     0.1066     2.5034   -41.0963     8.1915    10.4270    10.3491
  163.5000     7.8073   113.9640     0.0196     0.1043     2.5056   -41.0859     8.3639    10.5006    10.4090
  164.0000     7.8068   116.0661     0.0211     0.1004     2.5089   -41.0755     8.4314    10.5021    10.4231
  164.5000     7.8064   117.1171     0.0241     0.0953     2.5157   -41.0651     8.6084    10.5035    10.4824
  165.0000     7.8059   115.0150     0.0210     0.0924     2.5184   -41.0547     8.7891    10.5050    10.4833
  165.5000     7.8056   112.9129     0.0195     0.0998     2.5079   -41.0443     8.9658    10.5064    10.4840
  166.0000     7.8051   110.0300     0.0161     0.1055     2.4996   -41.0340     8.9670    10.5806    10.5573
  166.5000     7.8047   109.7598     0.0134     0.1088     2.4944   -41.0236     8.9682    10.5820    10.6310
  167.0000     7.8042   110.7007     0.0102     0.1097     2.4906   -41.0132     8.9695    10.6567    10.6317
  167.5000     7.8037   113.0631     0.0073     0.1116     2.4853   -41.0028     8.9707    10.7319    10.6325
  168.0000     7.8033   121.6216     0.0042     0.1182     2.4808   -40.8436     8.9719    10.7334    10.7068
  168.5000     7.8028   125.3754     0.0027     0.1194     2.4763   -40.8332     9.0352    10.8092    10.7075
  169.0000     7.8024   125.6156     0.0026     0.1221     2.4725   -40.8228     9.0365    10.8854    10.8569
  169.5000     7.8019   123.1231     0.0011     0.1239     2.4695   -40.8124     9.0377    10.9623    10.9328
  170.0000     7.8015   121.1712     0.0011     0.1242     2.4680   -40.8020     9.1057    11.1160    11.0092
  170.5000     7.8010   119.6697     0.0041     0.1232     2.4771   -40.7916     9.2969    11.2719    11.1628
  171.0000     7.8005   117.4174     0.0071     0.1211     2.4771   -40.6324     9.4268    11.4300    11.3185
  171.5000     7.8001   114.5646     0.0100     0.1187     2.4772   -40.6220     9.5585    11.6704    11.5558
  172.0000     7.7996   113.9640     0.0130     0.1158     2.4898   -40.6116     9.6921    11.9159    11.7981
  172.5000     7.7992   116.5165     0.0085     0.1143     2.4838   -40.4524     9.8253    12.2508    12.0455
  173.0000     7.7988   119.0691     0.0069     0.1182     2.4778   -40.4421     9.8947    12.5951    12.2981
  173.5000     7.7983   119.6697     0.0024     0.1224     2.4718   -40.4317    10.0348    12.6840    12.5559
