~VERSION INFORMATION
 VERS.                2.0:   CWLS LOG ASCII STANDARD - VERSION 2.0
 WRAP.                 NO:   ONE LINE PER DEPTH STEP
~WELL INFORMATION
#MNEM.UNIT      DATA TYPE    INFORMATION
#----------   ------------   ------------------------------
 STRT.F            0.5000:   START DEPTH
 STOP.F         2271.5000:   STOP DEPTH
 STEP.F            0.5000:   STEP LENGTH
 NULL.          -999.2500:   NO VALUE
 COMP. BROWN JOHN E&C INC:   COMPANY
 WELL. NPR 3 STX-11 #27-11:   WELL
 FLD .             TEAPOT:   FIELD
 LOC .      S11 T38N R78W:   LOCATION
 CNTY.            NATRONA:   COUNTY
 STAT.            WYOMING:   STATE
 CTRY. UNITED STATES OF AMERICA:   COUNTRY
 SRVC.      Dresser Atlas:   SERVICE COMPANY
 DATE.        20-JAN-1993:   LOGDATE
 API .       490251108500:   API NUMBER
~CURVE INFORMATION
#MNEM.UNIT       API CODE    CURVE DESCRIPTION
#----------   ------------   ------------------------------
 DEPT.F                  :   
 ILD .OHMM   07 120 46 00:   INDUCTION LOG DEEP
 ILM .OHMM   07 120 44 00:   INDUCTION LOG MEDIUM
 GRR .GAPI   07 310 01 00:   GAMMA RAY FROM RES. LOG.
~PARAMETER INFORMATION
#MNEM.UNIT          VALUE    DESCRIPTION
#----------   ------------   ------------------------------
 PD  .                 GL:   PERMANENT DATUM
 EPD .F              5187:   ELEVATION PERMANENT DATUM
 LMF .                 KB:   LOG MEASURED FROM
 DAPD.F                12:   FEET ABOVE PERMANENT DATUM
 DMF .                 KB:   DRILLING MEASURED FROM
 EKB .F            5198.8:   KELLING BUSHING
 EDF .F            5197.8:   DRILLING FLOOR
 EGL .F              5187:   GROUND LEVEL
 DATE.            1-20-93:   RUN DATE
 RUN .                  1:   RUN NUMBER
 DD  .F              2279:   DEPTH DRILLER
 DL  .F              2279:   DEPTH LOGGER
 BLI .F              2271:   BOTTOM LOG INTERVAL
 TLI .F               692:   TOP LOG INTERVAL
 CS  .IN            8.625:   CASING SIZE
 CBD .F               689:   CASING BOTTOM DRILLER
 CBL .F               692:   CASING BOTTOM LOGGER
 BS  .IN            7.875:   BIT SIZE
 BSD .F              2279:   BIT SIZE AT DEPTH
 DFT .                OIL:   DRILLING FLUID TYPE
 BHT .F                92:   BOTTOM HOLE TEMPERATURE
 TCS .HRS               2:   TIME CURCULATED STOPPED
 MRT .F                92:   MAXIMUM RECORDED TEMPERATURE
 LUN .            HL-6274:   LOGGING UNIT NUMBER
 LUL .             CASPER:   LOGGING UNIT LOCATION
 ENGI.             RAUTIO:   RECORDING ENGINEER
 WITN.             STRONG:   WITNESSED BY
 CLNT.            A2DTECH:   CLIENT CODE
 ORIG.  2", 5", 20" PRINT:   ORIGIN OF DATA
 UWI .       490251108500:   UNIQUE WELL ID
 DICO. A2D Technologies, Inc.:   DIGITIZING COMPANY
~OTHER INFORMATION
~A    DEPT     ILD        ILM         GRR  
# ...
  637.5000  -999.2500  -999.2500    80.3466
  638.0000  -999.2500  -999.2500    80.3366
  638.5000  -999.2500  -999.2500    80.1494
  639.0000  -999.2500  -999.2500    80.7799
  639.5000  -999.2500  -999.2500    81.8445
  640.0000  -999.2500  -999.2500    82.9772
  640.5000  -999.2500  -999.2500    84.1255
  641.0000  -999.2500  -999.2500    84.3973
  641.5000  -999.2500  -999.2500    84.2275
  642.0000  -999.2500  -999.2500    82.1247
  642.5000  -999.2500  -999.2500    79.6989
  643.0000  -999.2500  -999.2500    77.2630
  643.5000  -999.2500  -999.2500    77.0131
  644.0000  -999.2500  -999.2500    77.6212
  644.5000  -999.2500  -999.2500    80.1275
  645.0000  -999.2500  -999.2500    82.9655
  645.5000  -999.2500  -999.2500    82.0802
  646.0000  -999.2500  -999.2500    79.7965
  646.5000  -999.2500  -999.2500    77.6063
  647.0000  -999.2500  -999.2500    76.5955
  647.5000  -999.2500  -999.2500    75.8109
  648.0000  -999.2500  -999.2500    74.7111
  648.5000  -999.2500  -999.2500    73.6414
  649.0000  -999.2500  -999.2500    75.5349
  649.5000  -999.2500  -999.2500    78.1507
  650.0000  -999.2500  -999.2500    79.2865
  650.5000  -999.2500  -999.2500    79.3254
  651.0000  -999.2500  -999.2500    79.3223
  651.5000  -999.2500  -999.2500    79.3075
  652.0000  -999.2500  -999.2500    78.6950
  652.5000  -999.2500  -999.2500    78.1036
  653.0000  -999.2500  -999.2500    79.0530
  653.5000  -999.2500  -999.2500    82.8552
  654.0000  -999.2500  -999.2500    85.2051
  654.5000  -999.2500  -999.2500    75.9716
  655.0000  -999.2500  -999.2500    65.9822
  655.5000  -999.2500  -999.2500    61.8455
  656.0000  -999.2500  -999.2500    74.8180
  656.5000  -999.2500  -999.2500    83.1083
  657.0000  -999.2500  -999.2500    81.8831
  657.5000  -999.2500  -999.2500    80.7074
  658.0000  -999.2500  -999.2500    81.6046
  658.5000  -999.2500  -999.2500    82.8443
  659.0000  -999.2500  -999.2500    81.6046
  659.5000  -999.2500  -999.2500    80.2003
  660.0000  -999.2500  -999.2500    82.5445
  660.5000  -999.2500  -999.2500    87.0383
  661.0000  -999.2500  -999.2500    86.5907
  661.5000  -999.2500  -999.2500    82.8703
  662.0000  -999.2500  -999.2500    78.9446
  662.5000  -999.2500  -999.2500    78.3227
  663.0000  -999.2500  -999.2500    79.3593
  663.5000  -999.2500  -999.2500    80.3745
  664.0000  -999.2500  -999.2500    81.6868
  664.5000  -999.2500  -999.2500    83.3382
  665.0000  -999.2500  -999.2500    84.9648
  665.5000  -999.2500  -999.2500    86.0239
  666.0000  -999.2500  -999.2500    84.6621
  666.5000  -999.2500  -999.2500    82.4360
  667.0000  -999.2500  -999.2500    82.0895
  667.5000  -999.2500  -999.2500    84.7338
  668.0000  -999.2500  -999.2500    84.0207
  668.5000  -999.2500  -999.2500    80.9786
  669.0000  -999.2500  -999.2500    78.4819
  669.5000  -999.2500  -999.2500    80.6894
  670.0000  -999.2500  -999.2500    83.0577
  670.5000  -999.2500  -999.2500    83.7879
  671.0000  -999.2500  -999.2500    82.2471
  671.5000  -999.2500  -999.2500    80.8061
  672.0000  -999.2500  -999.2500    80.2556
  672.5000  -999.2500  -999.2500    79.6655
  673.0000  -999.2500  -999.2500    78.1304
  673.5000  -999.2500  -999.2500    74.8801
  674.0000  -999.2500  -999.2500    72.1011
  674.5000  -999.2500  -999.2500    70.5964
  675.0000  -999.2500  -999.2500    71.5520
  675.5000  -999.2500  -999.2500    73.1251
  676.0000  -999.2500  -999.2500    77.3653
  676.5000  -999.2500  -999.2500    81.2545
  677.0000  -999.2500  -999.2500    82.4754
  677.5000  -999.2500  -999.2500    82.3900
  678.0000  -999.2500  -999.2500    79.6994
  678.5000  -999.2500  -999.2500    77.7141
  679.0000  -999.2500  -999.2500    79.9373
  679.5000  -999.2500  -999.2500    82.1527
  680.0000  -999.2500  -999.2500    84.1067
  680.5000  -999.2500  -999.2500    85.3983
  681.0000  -999.2500  -999.2500    84.2870
  681.5000  -999.2500  -999.2500    83.1015
  682.0000  -999.2500  -999.2500    83.9957
  682.5000  -999.2500  -999.2500    86.6960
  683.0000  -999.2500  -999.2500    88.5947
  683.5000  -999.2500  -999.2500    88.5597
  684.0000  -999.2500  -999.2500    88.4824
  684.5000  -999.2500  -999.2500    85.8059
  685.0000  -999.2500  -999.2500    81.2568
  685.5000  -999.2500  -999.2500    78.0865
  686.0000  -999.2500  -999.2500    80.0756
  686.5000  -999.2500  -999.2500    79.4983
  687.0000  -999.2500  -999.2500    78.0474
  687.5000  -999.2500  -999.2500    84.3695
  688.0000  -999.2500  -999.2500    92.6070
  688.5000  -999.2500  -999.2500    93.8048
  689.0000  -999.2500  -999.2500    94.1927
  689.5000  -999.2500  -999.2500    94.5193
  690.0000  -999.2500  -999.2500    92.3569
  690.5000  -999.2500  -999.2500    88.4770
  691.0000  -999.2500  -999.2500    87.2415
  691.5000  -999.2500  -999.2500    97.0727
  692.0000 10009.8779  -999.2500   106.1362
  692.5000     6.2232    82.1824   115.0131
  693.0000     3.0193     3.5117   120.8610
  693.5000     2.5424     3.7657   123.7221
  694.0000     3.1680     4.2583   124.1396
  694.5000     4.5803     4.8748   125.0823
  695.0000     7.4571     5.5807   135.2430
  695.5000    11.8735     6.3887   145.6716
  696.0000     9.5469     6.7001   148.8831
  696.5000     6.2809     6.5775   147.6892
  697.0000     5.8880     6.5171   146.3113
  697.5000     5.9977     6.7622   144.2834
  698.0000     5.9586     7.6243   139.8959
  698.5000     5.9426     8.8373   134.5731
  699.0000     6.3923     8.5273   130.4590
  699.5000     7.2776     8.1330   130.6604
  700.0000     9.2504     8.1789   133.8291
  700.5000     9.0865     8.2211   136.8804
  701.0000     8.8701     8.2635   138.1812
  701.5000     8.6757     8.3060   136.9707
  702.0000     8.7558     8.3492   135.7221
  702.5000     8.8286     8.4887   135.4776
  703.0000     8.9019     8.7561   137.1433
  703.5000     8.9759     8.7325   139.3371
  704.0000     9.0504     8.6757   141.0620
  704.5000     9.0969     8.8474   141.5258
  705.0000     9.1186     8.8539   141.2339
  705.5000     9.1403     8.8846   140.9459
  706.0000     9.1620     8.9070   140.3813
  706.5000     9.1838     8.9293   137.6836
  707.0000     9.2057     8.9516   134.9545
  707.5000     9.2275     8.9741   134.0423
  708.0000     9.2547     9.0020   134.4942
  708.5000     9.1644     8.9160   134.6298
  709.0000     9.0477     8.8048   132.3948
  709.5000     8.9325     8.6951   130.1852
  710.0000     8.8188     8.5866   130.3188
  710.5000     8.7065     8.4795   132.2106
  711.0000     8.5956     8.3738   133.5144
  711.5000     8.4861     8.2694   132.5436
  712.0000     8.3781     8.1663   131.6391
  712.5000     8.2715     8.0644   133.9704
  713.0000     8.2084     7.9842   138.1516
  713.5000     8.2325     8.0038   142.2992
  714.0000     8.2526     8.0233   146.6224
  714.5000     8.2727     8.0429   146.9896
  715.0000     8.2996     8.0692   139.7847
  715.5000     8.3356     8.1192   136.0560
  716.0000     8.3719     8.1695   134.3972
  716.5000     8.4084     8.2201   132.6526
  717.0000     8.4450     8.2710   131.9012
  717.5000     8.4817     8.3223   132.8124
  718.0000     8.5166     8.3613   137.1033
  718.5000     8.5169     8.3441   141.4021
  719.0000     8.5170     8.3303   140.1647
  719.5000     8.5170     8.3165   136.9730
  720.0000     8.5170     8.3028   133.6285
  720.5000     8.5170     8.2891   133.3033
  721.0000     8.5170     8.2845   134.6819
  721.5000     8.5168     8.2846   134.6885
  722.0000     8.5161     8.2852   133.9870
  722.5000     8.5140     8.2822   135.2476
  723.0000     8.6458     8.3865   138.4200
  723.5000     8.7668     8.5038   139.9260
  724.0000     8.8895     8.6229   136.8891
  724.5000     9.0020     8.7435   133.9774
  725.0000     9.0172     8.7632   134.1791
  725.5000     9.0311     8.7708   134.4288
  726.0000     9.0451     8.7783   134.6476
  726.5000     9.0591     8.7860   135.5145
  727.0000     9.0730     8.7937   139.2788
  727.5000     9.0858     8.8014   143.2910
  728.0000     9.0855     8.8091   145.5674
