~VERSION INFORMATION
 VERS.                2.0:   CWLS LOG ASCII STANDARD - VERSION 2.0
 WRAP.                 NO:   ONE LINE PER DEPTH STEP
~WELL INFORMATION
#MNEM.UNIT      DATA TYPE    INFORMATION
#----------   ------------   ------------------------------
 STRT.F           28.0000:   START DEPTH
 STOP.F          630.0000:   STOP DEPTH
 STEP.F            0.5000:   STEP LENGTH
 NULL.          -999.2500:   NO VALUE
 COMP. FENIX & SCISSON INC:   COMPANY
 WELL. NAVAL PETROLEUM RESERVE 3 SX-1 #81-15:   WELL
 FLD .             TEAPOT:   FIELD
 LOC .      S15 T38N R78W:   LOCATION
 CNTY.            NATRONA:   COUNTY
 STAT.            WYOMING:   STATE
 CTRY. UNITED STATES OF AMERICA:   COUNTRY
 SRVC.           BIRDWELL:   SERVICE COMPANY
 DATE.        03-JUN-1978:   LOGDATE
 API .       490251063900:   API NUMBER
~CURVE INFORMATION
#MNEM.UNIT       API CODE    CURVE DESCRIPTION
#----------   ------------   ------------------------------
 DEPT.F                  :   
 SPR .MV     05 010 01 00:   SPONTANEOUS POTENTIAL FROM RES.
 SN  .OHMM   05 040 16 00:   SHORT NORMAL 16"
 ILD .OHMM   05 120 46 00:   INDUCTION LOG DEEP
 CALD.IN     45 280 60 00:   CALIPER FROM DENSITY LOG
 GRD .GAPI   45 310 01 00:   GAMMA RAY FROM DENSITY LOG
 CORR.G/C3   45 356 01 00:   DENSITY CORRECTION
 DPHI.DEC    45 890 12 00:   DENSITY POROSITY SANDSTONE
 DEN .G/C3   45 350 01 00:   COMPENSATED BULK DENSITY
~PARAMETER INFORMATION
#MNEM.UNIT          VALUE    DESCRIPTION
#----------   ------------   ------------------------------
 PD  .                 GL:   PERMANENT DATUM
 EPD .F              5263:   ELEVATION PERMANENT DATUM
 LMF .                 KB:   LOG MEASURED FROM
 DAPD.F                 4:   FEET ABOVE PERMANENT DATUM
 DMF .                 KB:   DRILLING MEASURED FROM
 EKB .F              5267:   KELLING BUSHING
 EGL .F              5263:   GROUND LEVEL
 DATE.        03-JUN-1978:   RUN DATE
 RUN .                  1:   RUN NUMBER
 DD  .F               632:   DEPTH DRILLER
 DL  .F               636:   DEPTH LOGGER
 BLI .F               630:   BOTTOM LOG INTERVAL
 TLI .F                40:   TOP LOG INTERVAL
 CS  .IN            8.625:   CASING SIZE
 CBD .F                40:   CASING BOTTOM DRILLER
 CBL .F                40:   CASING BOTTOM LOGGER
 BS  .IN            7.875:   BIT SIZE
 BSD .F               632:   BIT SIZE AT DEPTH
 DFT .                KCL:   DRILLING FLUID TYPE
 DFD .                8.7:   DRILLING FLUID DENSITY
 DFV .                 31:   DRILLING FLUID VISCOSITY
 DFPH.                 10:   DRILLING FLUID PH
 DFL .                9.2:   DRILLING FLUID LOSS
 MSS .           FLOWLINE:   MUD SAMPLE SOURCE
 RMS .OHMM            .26:   RESISTIVITY MUD SAMPLE
 MST .F                66:   MUD SAMPLE TEMPERATURE
 RMF .OHMM            .24:   RESISTIVITY MUD FILTRATE SAMPLE
 MFST.F                74:   MUD FILTRATE SAMPLE TEMPERATURE
 RMC .OHMM            .34:   RESISTIVITY MUD CAKE
 MCST.F                75:   MUD CAKE SAMPLE TEMPERATURE
 MFSS.               MEAS:   MUD FILTRATE SAMPLE SOURCE
 MCSS.               MEAS:   MUD CAKE SAMPLE SOURCE
 RMB .OHMM            .23:   RESISTIVITY MUD AT BHT
 BHT .F                74:   BOTTOM HOLE TEMPERATURE
 TCS .HRS            0100:   TIME CURCULATED STOPPED
 MRT .F                74:   MAXIMUM RECORDED TEMPERATURE
 LUN .               2958:   LOGGING UNIT NUMBER
 LUL .               CASP:   LOGGING UNIT LOCATION
 ENGI.             MILLER:   RECORDING ENGINEER
 WITN.           MCGINLEY:   WITNESSED BY
 CLNT.            A2DTECH:   CLIENT CODE
 ORIG.           5" PRINT:   ORIGIN OF DATA
 UWI .       490251063900:   UNIQUE WELL ID
 DICO. A2D Technologies, Inc.:   DIGITIZING COMPANY
~OTHER INFORMATION
~A   DEPT      SPR         SN        ILD       CALD         GRD      CORR       DPHI        DEN   
# ...
  392.5000   -25.4142     7.7769     7.6857     8.4220    78.3285     0.0366     0.1209     2.4706
  393.0000   -25.4215     7.7207     7.6296     8.4215    79.6920     0.0365     0.1209     2.4759
  393.5000   -25.4287     7.6653     7.5712     8.4209    80.7502     0.0409     0.1194     2.4773
  394.0000   -25.4359     7.5579     7.4144     8.4204    79.3656     0.0422     0.1213     2.4719
  394.5000   -25.5933     7.4005     7.2591     8.4198    77.2177     0.0435     0.1263     2.4704
  395.0000   -25.6006     7.2464     7.1070     8.4193    75.3751     0.0464     0.1353     2.4642
  395.5000   -25.6095     7.0466     6.9100     8.4187    73.7602     0.0478     0.1417     2.4558
  396.0000   -25.6167     6.8459     6.7653     8.4182    73.5970     0.0476     0.1357     2.4457
  396.5000   -25.7741     6.6628     6.6235     8.4176    76.1819     0.0414     0.1324     2.4534
  397.0000   -25.7813     6.5241     6.4847     8.4171    80.2158     0.0351     0.1330     2.4556
  397.5000   -25.6381     6.4326     6.3482     8.4159    81.4267     0.0311     0.1346     2.4540
  398.0000   -25.6456     6.3865     6.3019     8.4145    80.8055     0.0326     0.1419     2.4494
  398.5000   -25.5027     6.2970     6.2559     8.4132    80.1843     0.0347     0.1505     2.4462
  399.0000   -25.5117     6.2087     6.2102     8.3964    80.0211     0.0405     0.1520     2.4400
  399.5000   -25.5189     6.1638     6.2077     8.3951    79.8579     0.0465     0.1493     2.4277
  400.0000   -25.3655     6.1686     6.2053     8.3941    79.6947     0.0478     0.1453     2.4217
  400.5000   -25.3113     6.2032     6.1700     8.4040    79.8407     0.0355     0.1433     2.4222
  401.0000   -25.2571     6.2876     6.2032     8.4063    82.1247     0.0292     0.1394     2.4368
  401.5000   -25.2381     6.4170     6.4182     8.4200    83.4927     0.0291     0.1227     2.4542
  402.0000   -25.3937     6.5950     6.6426     8.4336    84.2499     0.0289     0.1228     2.4731
  402.5000   -25.6983     6.9203     6.8748     8.4472    82.2591     0.0303     0.1301     2.4761
  403.0000   -25.8529     7.2686     7.0660     8.4609    81.7950     0.0301     0.1316     2.4608
  403.5000   -25.8581     7.5666     7.1627     8.4590    79.9568     0.0284     0.1244     2.4638
  404.0000   -25.8624     7.6702     7.2105     8.4575    74.9126     0.0267     0.1232     2.4721
  404.5000   -25.8667     7.5616     7.1090     8.4560    72.6164     0.0250     0.1293     2.4751
  405.0000   -25.7198     7.4037     6.8652     8.4590    75.3584     0.0249     0.1369     2.4666
  405.5000   -25.7252     7.1404     6.4042     8.4639    76.4210     0.0247     0.1391     2.4514
  406.0000   -25.5794     6.7612     5.9741     8.4688    76.8729     0.0245     0.1428     2.4384
  406.5000   -25.4335     6.4392     5.6899     8.4737    78.5462     0.0259     0.1461     2.4360
  407.0000   -25.2877     6.1325     5.5711     8.4787    81.1355     0.0273     0.1520     2.4337
  407.5000   -25.1429     6.0044     5.5312     8.4836    81.1294     0.0392     0.1599     2.4146
  408.0000   -24.8469     5.9198     5.4916     8.4885    80.5126     0.0573     0.1511     2.4108
  408.5000   -24.6837     5.9174     5.4522     8.5047    79.7432     0.0389     0.1317     2.4185
  409.0000   -24.5552     5.9570     5.4887     8.5028    79.5844     0.0357     0.1272     2.4556
  409.5000   -24.5606     6.1218     5.6471     8.5169    80.4943     0.0354     0.1233     2.4655
  410.0000   -24.4137     6.2922     5.8787     8.5150    82.9310     0.0338     0.1200     2.4713
  410.5000   -24.1188     6.5564     6.0842     8.5140    82.7722     0.0337     0.1176     2.4724
  411.0000   -23.9680     6.8793     6.3407     8.5133    80.6287     0.0335     0.1164     2.4810
  411.5000   -23.5279     7.1193     6.6079     8.5126    78.6379     0.0333     0.1149     2.4863
  412.0000   -23.3810     7.3677     6.8896     8.5120    79.0898     0.0347     0.1125     2.4907
  412.5000   -23.2351     7.5721     7.2261     8.5113    79.2364     0.0441     0.1068     2.4952
  413.0000   -23.2405     7.7822     7.4271     8.5106    78.0089     0.0398     0.1041     2.5050
  413.5000   -23.0946     7.9982     7.6342     8.5099    77.5448     0.0311     0.1041     2.5065
  414.0000   -23.0991     8.2194     7.8460     8.5093    77.8440     0.0295     0.1053     2.5019
  414.5000   -22.9531     8.3320     8.0642     8.5086    78.7540     0.0308     0.1102     2.5010
  415.0000   -22.9585     8.5034     8.2308     8.5079    78.7479     0.0306     0.1155     2.4979
  415.5000   -22.8130     8.6191     8.3439     8.5073    77.8258     0.0305     0.1167     2.4895
  416.0000   -22.8170     8.6809     8.3997     8.5066    76.7510     0.0303     0.1145     2.4834
  416.5000   -22.8213     8.7456     8.5140     8.5059    76.2868     0.0301     0.1140     2.4886
  417.0000   -22.6754     8.7913     8.5118     8.5053    76.1281     0.0315     0.1169     2.4901
  417.5000   -22.6808     8.8495     8.5095     8.5046    76.7327     0.0313     0.1168     2.4854
  418.0000   -22.6851     8.9074     8.5067     8.5039    78.4060     0.0311     0.1146     2.4877
  418.5000   -22.6894     8.9043     8.5044     8.5033    78.0945     0.0310     0.1156     2.4891
  419.0000   -22.6937     8.9007     8.4435     8.5026    75.3403     0.0308     0.1203     2.4883
  419.5000   -22.6982     8.8977     8.4413     8.5019    72.7388     0.0307     0.1166     2.4821
  420.0000   -22.7034     8.8948     8.3808     8.5012    72.4274     0.0305     0.1142     2.4859
  420.5000   -22.7077     8.8919     8.3780     8.5006    72.4213     0.0303     0.1158     2.4866
  421.0000   -22.7120     9.0129     8.3758     8.4999    72.4152     0.0301     0.1134     2.4865
  421.5000   -22.8665     9.1348     8.3736     8.4992    72.8671     0.0300     0.1083     2.4879
  422.0000   -22.8709     9.2599     8.3714     8.4986    72.2503     0.0298     0.1050     2.4947
  422.5000   -23.0263     9.4512     8.3692     8.4979    70.7175     0.0296     0.1123     2.4984
  423.0000   -23.0306     9.7126     8.4251     8.4972    70.5587     0.0295     0.1208     2.4883
  423.5000   -23.1851     9.9821     8.4814     8.4966    70.5526     0.0293     0.1221     2.4793
  424.0000   -23.1894     9.9705     8.5381     8.4959    72.8366     0.0291     0.1242     2.4761
  424.5000   -23.1937     9.5027     8.5951     8.4952    73.4412     0.0290     0.1270     2.4730
  425.0000   -23.1991     8.7421     8.4156     8.4946    73.1298     0.0288     0.1368     2.4675
  425.5000   -23.2034     7.8769     7.7927     8.4939    71.7496     0.0287     0.1441     2.4555
  426.0000   -23.0565     7.2464     6.8328     8.4932    69.9115     0.0285     0.1572     2.4394
  426.5000   -23.0619     6.9458     6.5530     8.4925    69.7527     0.0329     0.1757     2.4029
  427.0000   -22.9160     6.7566     6.5972     8.4919    69.7466     0.0873     0.1840     2.3755
  427.5000   -22.6076     6.7077     6.6875     8.4912    69.7405     0.1266     0.1621     2.3693
  428.0000   -21.7245     6.6133     6.7317     8.4905    69.8871     0.1371     0.1184     2.4088
  428.5000   -20.9781     6.6570     6.6373     8.5046    72.7823     0.0398     0.1148     2.4855
  429.0000   -20.9824     6.8436     6.5894     8.5027    82.0891     0.0275     0.1039     2.4937
  429.5000   -20.8355     7.6402     6.6795     8.5012    86.2052     0.0258     0.1015     2.5058
  430.0000   -20.8408     8.7118     7.8307     8.4997    88.0312     0.0256     0.1079     2.5035
  430.5000   -20.6950    10.7198     8.9296     8.4982    85.3526     0.0270     0.1134     2.4966
  431.0000   -20.5502    11.4847     9.7704     8.4967    80.1556     0.0268     0.1141     2.4897
  431.5000   -20.1030    11.3230    10.1090     8.4952    68.7755     0.0267     0.1171     2.4843
  432.0000   -19.6583    10.9218    10.3191     8.5092    62.9678     0.0265     0.1184     2.4835
  432.5000   -19.5120    10.6309    10.3874     8.5376    63.1908     0.0278     0.1184     2.4834
