~VERSION INFORMATION
 VERS.                2.0:   CWLS LOG ASCII STANDARD - VERSION 2.0
 WRAP.                 NO:   ONE LINE PER DEPTH STEP
~WELL INFORMATION
#MNEM.UNIT      DATA TYPE    INFORMATION
#----------   ------------   ------------------------------
 STRT.F           16.0000:   START DEPTH
 STOP.F          474.0000:   STOP DEPTH
 STEP.F            0.5000:   STEP LENGTH
 NULL.          -999.2500:   NO VALUE
 COMP. FENIX & SCISSON INCORPORATED:   COMPANY
 WELL.    NPR #3 #58-SX-3:   WELL
 FLD .             TEAPOT:   FIELD
 LOC .       S3 T38N R78W:   LOCATION
 CNTY.            NATRONA:   COUNTY
 STAT.            WYOMING:   STATE
 CTRY. UNITED STATES OF AMERICA:   COUNTRY
 SRVC.           BIRDWELL:   SERVICE COMPANY
 DATE.        19-OCT-1978:   LOGDATE
 API .       490251072000:   API NUMBER
~CURVE INFORMATION
#MNEM.UNIT       API CODE    CURVE DESCRIPTION
#----------   ------------   ------------------------------
 DEPT.F                  :   
 CALD.IN     45 280 60 00:   CALIPER FROM DENSITY LOG
 CORR.G/C3   45 356 01 00:   DENSITY CORRECTION
 DPHI.DEC    45 890 12 00:   DENSITY POROSITY SANDSTONE
 GRD .GAPI   45 310 01 00:   GAMMA RAY FROM DENSITY LOG
 RHOB.G/C3   45 350 01 00:   BULK DENSITY
 ILD .OHMM   05 120 46 00:   INDUCTION LOG DEEP
 SN  .OHMM   05 040 16 00:   SHORT NORMAL 16"
 SPR .MV     05 010 01 00:   SPONTANEOUS POTENTIAL FROM RES.
~PARAMETER INFORMATION
#MNEM.UNIT          VALUE    DESCRIPTION
#----------   ------------   ------------------------------
 PD  .                 GL:   PERMANENT DATUM
 EPD .F              5198:   ELEVATION PERMANENT DATUM
 LMF .                 KB:   LOG MEASURED FROM
 DAPD.F                 4:   FEET ABOVE PERMANENT DATUM
 DMF .                 KB:   DRILLING MEASURED FROM
 EKB .F              5202:   KELLING BUSHING
 EGL .F              5198:   GROUND LEVEL
 DATE.        19-OCT-1978:   RUN DATE
 RUN .                  1:   RUN NUMBER
 DD  .F               474:   DEPTH DRILLER
 DL  .F               474:   DEPTH LOGGER
 BLI .F               474:   BOTTOM LOG INTERVAL
 TLI .F                30:   TOP LOG INTERVAL
 CBD .F                40:   CASING BOTTOM DRILLER
 CBL .F                38:   CASING BOTTOM LOGGER
 BS  .IN            7.875:   BIT SIZE
 BSD .F               474:   BIT SIZE AT DEPTH
 DFT .                KCL:   DRILLING FLUID TYPE
 DFD .                8.7:   DRILLING FLUID DENSITY
 DFV .                 38:   DRILLING FLUID VISCOSITY
 DFPH.                9.0:   DRILLING FLUID PH
 DFL .                 13:   DRILLING FLUID LOSS
 MSS .           FLOWLINE:   MUD SAMPLE SOURCE
 RMS .OHMM            .25:   RESISTIVITY MUD SAMPLE
 MST .F                58:   MUD SAMPLE TEMPERATURE
 RMF .OHMM             .2:   RESISTIVITY MUD FILTRATE SAMPLE
 MFST.F                60:   MUD FILTRATE SAMPLE TEMPERATURE
 RMC .OHMM            .24:   RESISTIVITY MUD CAKE
 MCST.F                60:   MUD CAKE SAMPLE TEMPERATURE
 MFSS.               MEAS:   MUD FILTRATE SAMPLE SOURCE
 MCSS.               MEAS:   MUD CAKE SAMPLE SOURCE
 RMB .OHMM            .23:   RESISTIVITY MUD AT BHT
 BHT .F                70:   BOTTOM HOLE TEMPERATURE
 TCS .HRS               3:   TIME CURCULATED STOPPED
 MRT .F                70:   MAXIMUM RECORDED TEMPERATURE
 LUN .               2958:   LOGGING UNIT NUMBER
 LUL .               CASP:   LOGGING UNIT LOCATION
 ENGI.           REYNOLDS:   RECORDING ENGINEER
 WITN.           DINSMORE:   WITNESSED BY
 CLNT.            A2DTECH:   CLIENT CODE
 ORIG.           5" PRINT:   ORIGIN OF DATA
 UWI .       490251072000:   UNIQUE WELL ID
 DICO. A2D Technologies, Inc.:   DIGITIZING COMPANY
~OTHER INFORMATION
~A   DEPT     CALD       CORR       DPHI         GRD      RHOB        ILD         SN        SPR   
# ...
  299.5000     7.8348     0.0933     0.2036    32.7981     2.3884    24.5187    15.4545   -25.3606
  300.0000     7.8491     0.1088     0.1531    30.5755     2.4156    24.2573    15.3517   -25.9600
  300.5000     7.8931     0.0594     0.1487    29.8299     2.4193    23.8659    15.2348   -26.1108
  301.0000     7.8926     0.0284     0.1532    27.4248     2.4326    23.2293    14.9427   -26.7051
  301.5000     7.8921     0.0167     0.1619    23.9056     2.4223    22.6103    14.7424   -27.0157
  302.0000     7.9065     0.0094     0.1707    38.9650     2.4046    22.3082    14.5447   -27.5997
  302.5000     7.9060     0.0050     0.1790    40.1414     2.3884    22.0101    14.4473   -27.8989
  303.0000     7.8908     0.0035     0.1849    39.5417     2.3793    21.7159    14.4485   -28.0507
  303.5000     7.8903     0.0036     0.1863    37.0235     2.3671    21.5718    14.2548   -28.2025
  304.0000     7.8899     0.0049     0.1784    34.4066     2.3782    21.5753    14.1594   -28.5017
  304.5000     7.8895     0.0063     0.1772    32.4286     2.3878    21.5779    13.9697   -28.6535
  305.0000     7.8891     0.0063     0.1851    30.9445     2.3886    21.5809    13.8760   -28.9577
  305.5000     7.9034     0.0062     0.1928    32.1191     2.3801    21.5838    13.8771   -29.7477
  306.0000     7.9177     0.0077     0.1949    39.0544     2.3657    21.5873    13.8781   -36.0420
  306.5000     7.9195     0.0088     0.1990    39.4978     2.3532    21.5896    13.8790   -32.9490
  307.0000     7.9373     0.0091     0.1984    39.4817     2.3517    21.5926    13.8799   -28.0860
  307.5000     7.9460     0.0091     0.1966    39.1792     2.3584    21.5958    13.8808   -27.2042
  308.0000     7.9604     0.0098     0.1966    38.2859     2.3561    21.5984    13.8819   -27.3571
  308.5000     7.9598     0.0090     0.1972    34.7337     2.3518    21.6014    13.7890   -27.3614
  309.0000     7.9446     0.0090     0.1977    33.3973     2.3510    21.6043    13.7899   -27.5133
  309.5000     7.9442     0.0089     0.1948    32.7769     2.3525    21.6078    13.6974   -27.5185
  310.0000     7.9438     0.0089     0.1900    32.4951     2.3592    21.6106    13.6984   -27.6703
  310.5000     7.9285     0.0089     0.1847    32.4881     2.3666    21.6131    13.6068   -27.6745
  311.0000     7.9281     0.0088     0.1832    32.9241     2.3769    21.6163    13.5157   -28.1213
  311.5000     7.9128     0.0088     0.1873    33.8033     2.3799    21.6191    13.5166   -29.7480
  312.0000     7.9124     0.0068     0.1891    34.8498     2.3747    21.6219    13.5175   -30.1947
  312.5000     7.9120     0.0058     0.1906    36.0031     2.3696    21.7722    13.5184   -29.8918
  313.0000     7.9115     0.0051     0.1906    36.7346     2.3637    21.7757    13.5195   -28.8769
  313.5000     7.9111     0.0043     0.1846    37.3201     2.3593    21.9270    13.5203   -27.5538
  314.0000     7.9107     0.0043     0.1805    37.4608     2.3740    21.9298    13.5212   -26.5256
  314.5000     7.9102     0.0043     0.1796    37.3043     2.3829    21.9327    13.5221   -25.6449
  315.0000     7.9098     0.0042     0.1817    37.0000     2.3859    21.7871    13.4316   -24.7643
  315.5000     7.9093     0.0042     0.1858    33.1525     2.3785    21.7772    13.4327   -23.7361
  316.0000     7.9088     0.0042     0.1905    30.7820     2.3673    21.0658    13.4336   -31.2625
  316.5000     7.9084     0.0041     0.1946    29.8887     2.3557    20.3650    13.3434   -29.2029
  317.0000     7.9228     0.0041     0.1972    29.7339     2.3505    20.0922    13.3445   -28.7637
  317.5000     7.9223     0.0041     0.1854    30.0468     2.3675    19.9588    13.3051   -28.9165
  318.0000     7.9261     0.0041     0.1789    35.4788     2.3845    19.9621    13.2561   -28.9636
  318.5000     7.9363     0.0040     0.1792    39.6076     2.3889    19.9647    13.1673   -29.2198
  319.0000     7.9358     0.0040     0.1839    39.7500     2.3801    19.9674    13.1625   -29.2243
  319.5000     7.9354     0.0025     0.1898    38.7072     2.3690    19.9706    12.9918   -29.5236
  320.0000     7.9348     0.0025     0.1992    35.8936     2.3580    19.9729    12.9927   -29.8230
  320.5000     7.9196     0.0024     0.2010    35.5894     2.3514    19.9758    12.8185   -30.1232
  321.0000     7.8748     0.0024     0.2010    35.7318     2.3543    19.9784    12.8193   -30.1275
  321.5000     7.8448     0.0024     0.2027    35.1321     2.3492    19.9811    12.8202   -29.0993
  322.0000     7.8148     0.0024     0.2015    31.8755     2.3455    19.9837    12.8210   -27.9226
  322.5000     7.7848     0.0023     0.1989    28.9142     2.3433    19.9864    12.8219   -32.5002
  323.0000     7.7842     0.0023     0.1933    27.1049     2.3529    19.9891    12.8229   -32.3569
  323.5000     7.7838     0.0008     0.1861    26.3872     2.3640    19.9919    12.7825   -32.2138
  324.0000     7.7834     0.0006     0.1806    27.7095     2.3716    19.9948    12.7377   -32.2191
  324.5000     7.7830    -0.0007     0.1773    34.3495     2.3810    19.9974    12.7387   -32.2234
  325.0000     7.7825    -0.0022     0.1758    35.6718     2.3898    20.0000    12.6534   -32.3752
  325.5000     7.7820    -0.0037     0.1764    36.2556     2.3943    20.0027    12.6543   -35.1818
  326.0000     7.7816    -0.0037     0.1827    36.5439     2.3854    20.0059    12.6460   -37.1035
  326.5000     7.7961    -0.0037     0.1932    36.6846     2.3735    20.0085    12.4013   -37.5502
  327.0000     7.8104    -0.0067     0.1902    36.8252     2.3589    20.0111    12.2350   -37.5546
  327.5000     7.8099    -0.0067     0.1878    36.8164     2.3464    20.0138    12.1529   -37.2649
  328.0000     7.8243    -0.0082     0.1869    36.8093     2.3612    20.0164    12.1539   -37.2692
  328.5000     7.8386    -0.0082     0.1806    36.7848     2.3745    19.8737    12.1547   -37.2734
  329.0000     7.8381    -0.0097     0.1766    36.3503     2.3826    19.3531    12.1555   -37.2777
  329.5000     7.8525    -0.0068     0.1801    35.9001     2.3848    18.8374    12.0689   -37.2820
  330.0000     7.8520    -0.0025     0.1730    34.7114     2.3833    18.4599    11.9933   -37.1386
  330.5000     7.8664     0.0019     0.1648    33.8181     2.3974    17.9674    11.8326   -37.1431
  331.0000     7.8660     0.0048     0.1606    33.5155     2.4106    17.6073    11.8334   -36.9998
  331.5000     7.8655     0.0076     0.1677    33.5067     2.4173    17.1376    11.6746   -37.0044
  332.0000     7.8651     0.0076     0.1680    34.3859     2.4080    16.7775    11.5966   -37.0089
  332.5000     7.8646     0.0076     0.1688    40.5827     2.3982    16.4581    11.5189   -37.0133
  333.0000     7.8642     0.0076     0.1736    40.8728     2.3901    16.4602    11.4609   -37.0180
  333.5000     7.8786     0.0061     0.1728    40.5686     2.3879    16.4624    11.4396   -37.0223
  334.0000     7.8781     0.0046     0.1653    39.9311     2.3997    16.4645    11.3548   -37.0266
  334.5000     7.8776     0.0046     0.1641    38.0416     2.4072    16.5789    11.2136   -37.0310
  335.0000     7.8789     0.0045     0.1626    35.3758     2.4115    16.5811    11.2145   -37.1837
  335.5000     7.8916     0.0045     0.1605    31.9714     2.4130    16.5710    11.2152   -37.1880
  336.0000     7.8911     0.0059     0.1569    31.6101     2.4167    16.2514    11.2160   -37.3398
  336.5000     7.8907     0.0074     0.1513    37.8361     2.4204    15.9770    11.2167   -37.3440
  337.0000     7.8902     0.0088     0.1469    44.6515     2.4271    15.6060    11.1388   -37.3483
  337.5000     7.8898     0.0102     0.1481    43.1674     2.4366    15.1902    11.0671   -37.3526
  338.0000     7.9041     0.0131     0.1481    40.7969     2.4433    14.8857    11.0333   -37.5044
  338.5000     7.9037     0.0134     0.1441    39.7559     2.4448    14.5736    10.9194   -37.5088
  339.0000     7.9033     0.0145     0.1374    39.1580     2.4411    14.2950    10.8711   -37.5140
  339.5000     7.9028     0.0145     0.1327    38.7075     2.4389    14.0090    10.8472   -37.5183
