~VERSION INFORMATION
 VERS.                2.0:   CWLS LOG ASCII STANDARD - VERSION 2.0
 WRAP.                 NO:   ONE LINE PER DEPTH STEP
~WELL INFORMATION
#MNEM.UNIT      DATA TYPE    INFORMATION
#----------   ------------   ------------------------------
 STRT.F           70.0000:   START DEPTH
 STOP.F         1088.0000:   STOP DEPTH
 STEP.F            0.5000:   STEP LENGTH
 NULL.          -999.2500:   NO VALUE
 COMP. U S NAVY/INTEX OIL CO:   COMPANY
 WELL. RES 3 TEAPOT DOME #66S-11:   WELL
 FLD .             TEAPOT:   FIELD
 LOC .      S11 T38N R78W:   LOCATION
 CNTY.            NATRONA:   COUNTY
 STAT.            WYOMING:   STATE
 CTRY. UNITED STATES OF AMERICA:   COUNTRY
 SRVC.         Lane Wells:   SERVICE COMPANY
 DATE.        06-MAR-1960:   LOGDATE
 API .       490250633400:   API NUMBER
~CURVE INFORMATION
#MNEM.UNIT       API CODE    CURVE DESCRIPTION
#----------   ------------   ------------------------------
 DEPT.F                  :   
 SPR .MV     05 010 01 00:   SPONTANEOUS POTENTIAL FROM RES.
 ILD .OHMM   05 120 46 00:   INDUCTION LOG DEEP
 CILD.MMHO   05 110 00 00:   CONDUCTIVITY INDUCTION LOG
 ASN .OHMM   05 041 16 00:   AMPLIFIED SHORT NORMAL 16"
~PARAMETER INFORMATION
#MNEM.UNIT          VALUE    DESCRIPTION
#----------   ------------   ------------------------------
 PD  .                 GL:   PERMANENT DATUM
 EPD .F              5238:   ELEVATION PERMANENT DATUM
 LMF .                 KB:   LOG MEASURED FROM
 DAPD.F                 5:   FEET ABOVE PERMANENT DATUM
 DMF .                 KB:   DRILLING MEASURED FROM
 EKB .F              5243:   KELLING BUSHING
 EGL .F              5238:   GROUND LEVEL
 DATE.             3-6-60:   RUN DATE
 RUN .                  1:   RUN NUMBER
 DD  .F              1085:   DEPTH DRILLER
 DL  .F              1087:   DEPTH LOGGER
 BLI .F              1085:   BOTTOM LOG INTERVAL
 TLI .F                70:   TOP LOG INTERVAL
 CS  .IN            8.625:   CASING SIZE
 CBD .F                12:   CASING BOTTOM DRILLER
 BS  .IN            7.875:   BIT SIZE
 BSD .F              1085:   BIT SIZE AT DEPTH
 DFT .   GEL/OIL EMULSION:   DRILLING FLUID TYPE
 DFD .               10.3:   DRILLING FLUID DENSITY
 DFV .                 37:   DRILLING FLUID VISCOSITY
 DFPH.                8.5:   DRILLING FLUID PH
 DFL .                7.2:   DRILLING FLUID LOSS
 MSS .          FLOW LINE:   MUD SAMPLE SOURCE
 RMS .OHMM           1.65:   RESISTIVITY MUD SAMPLE
 MST .F                70:   MUD SAMPLE TEMPERATURE
 RMF .OHMM            1.2:   RESISTIVITY MUD FILTRATE SAMPLE
 MFST.F                68:   MUD FILTRATE SAMPLE TEMPERATURE
 RMC .OHMM            1.8:   RESISTIVITY MUD CAKE
 MCST.F                68:   MUD CAKE SAMPLE TEMPERATURE
 MFSS.              PRESS:   MUD FILTRATE SAMPLE SOURCE
 MCSS.              PRESS:   MUD CAKE SAMPLE SOURCE
 RMB .OHMM            1.5:   RESISTIVITY MUD AT BHT
 BHT .F                74:   BOTTOM HOLE TEMPERATURE
 MRT .F                74:   MAXIMUM RECORDED TEMPERATURE
 LUN .               4474:   LOGGING UNIT NUMBER
 LUL .             CASPER:   LOGGING UNIT LOCATION
 ENGI.      NELSON/GRIGGS:   RECORDING ENGINEER
 WITN.   JORGENSEN/HUDSON:   WITNESSED BY
 CLNT.            A2DTECH:   CLIENT CODE
 ORIG.       2", 5" PRINT:   ORIGIN OF DATA
 UWI .       490250633400:   UNIQUE WELL ID
 DICO. A2D Technologies, Inc.:   DIGITIZING COMPANY
~OTHER INFORMATION
~A   DEPT      SPR          ILD      CILD         ASN 
   70.0000   -39.1582     6.1130   173.4256     6.9890
   70.5000   -39.5233     6.1130   173.4256     6.9890
   71.0000   -39.5233     6.1130   167.9866     6.9528
   71.5000   -39.8399     6.1126   166.7176     6.9543
   72.0000   -40.0251     6.0886   168.2679     6.9072
   72.5000   -40.0719     6.0206   170.7177     6.8537
   73.0000   -39.9237     5.9533   173.1676     6.7991
   73.5000   -39.7610     5.8858   175.6174     6.7163
   74.0000   -39.5990     5.8185   178.0673     6.5978
   74.5000   -39.4372     5.7511   180.5171     6.4799
   75.0000   -39.2748     5.6837   182.9669     6.3617
   75.5000   -39.1131     5.6163   185.4168     6.2432
   76.0000   -38.9858     5.5489   187.8666     6.1251
   76.5000   -39.0926     5.4816   190.3165     6.0243
   77.0000   -39.1963     5.4146   192.7663     6.0191
   77.5000   -39.2994     5.3463   195.2162     6.0123
   78.0000   -39.4025     5.2483   198.0216     5.9758
   78.5000   -39.5065     5.2055   197.3266     5.9312
   79.0000   -39.5128     5.2682   195.4532     5.8988
   79.5000   -39.4797     5.3435   193.5798     5.9676
   80.0000   -39.4467     5.4186   191.7064     6.0453
   80.5000   -39.4138     5.4935   189.8330     6.1234
   81.0000   -39.3810     5.5684   187.9596     6.2013
   81.5000   -39.3482     5.6432   186.1164     6.2790
   82.0000   -39.3154     5.7187   184.3034     6.3571
   82.5000   -39.2826     5.7487   184.3034     6.3911
   83.0000   -39.2498     5.7174   185.2972     6.2950
   83.5000   -39.2173     5.6859   186.9625     6.1343
   84.0000   -39.1843     5.6546   188.6277     6.1273
   84.5000   -39.1294     5.6234   190.2930     6.1943
   85.0000   -38.9755     5.5922   191.9582     6.1752
   85.5000   -38.8205     5.5610   193.6235     6.1289
   86.0000   -38.8227     5.5298   195.2887     6.0816
   86.5000   -38.8601     5.4990   196.9540     6.0337
   87.0000   -38.8983     5.4794   198.6192     6.0599
   87.5000   -38.9361     5.4584   197.8576     6.0975
   88.0000   -38.9738     5.4349   196.7871     6.1352
   88.5000   -39.0116     5.4115   195.7166     6.1730
   89.0000   -39.0492     5.3881   196.2518     6.1406
   89.5000   -39.0866     5.3647   198.3929     6.0388
   90.0000   -39.1235     5.3413   200.5339     5.9372
   90.5000   -39.2051     5.3179   202.6749     5.8354
   91.0000   -39.3389     5.2945   204.8160     5.7337
   91.5000   -39.2541     5.2711   206.9570     5.6319
   92.0000   -39.1259     5.2479   209.0981     5.5262
   92.5000   -38.9957     5.2243   210.0251     5.5020
   93.0000   -38.8659     5.1929   210.4934     5.5224
   93.5000   -38.7362     5.1310   210.9617     5.5495
   94.0000   -38.6065     5.0711   211.4301     5.5757
   94.5000   -38.4769     5.0112   211.4981     5.5697
   95.0000   -38.3472     4.9514   211.4981     5.5037
   95.5000   -38.2175     4.8915   214.1773     5.4386
   96.0000   -38.0878     4.8316   217.0915     5.3734
   96.5000   -37.9581     4.7717   220.0056     5.3082
   97.0000   -37.8284     4.7118   222.9198     5.2431
   97.5000   -37.6987     4.6519   225.8340     5.1779
   98.0000   -37.5687     4.5918   228.7482     5.1127
   98.5000   -37.4391     4.5320   231.6624     5.0475
   99.0000   -37.3247     4.4813   234.5766     4.9823
   99.5000   -37.2958     4.4827   236.8798     4.9172
  100.0000   -37.2649     4.4942   236.8798     4.8665
  100.5000   -37.2338     4.5501   236.8798     4.8669
  101.0000   -37.2025     4.6044   235.8464     4.8944
  101.5000   -37.1722     4.6586   232.1570     4.9767
  102.0000   -37.1729     4.7128   228.4676     5.0690
  102.5000   -37.2538     4.7670   224.7782     5.1613
  103.0000   -37.3331     4.8213   221.0887     5.2534
  103.5000   -37.4126     4.8755   217.3993     5.3425
  104.0000   -37.4923     4.9297   213.7099     5.4765
  104.5000   -37.5719     4.9839   210.0205     5.6130
  105.0000   -37.6485     5.0381   206.3311     5.7499
  105.5000   -37.5703     5.0923   202.6417     5.8872
  106.0000   -37.2499     5.1466   198.9523     6.0231
  106.5000   -36.9329     5.2008   195.1813     6.0155
  107.0000   -36.6149     5.2550   195.1813     5.9470
  107.5000   -36.2968     5.3091   195.3878     5.8791
  108.0000   -35.9803     5.3636   195.7977     5.8468
  108.5000   -35.6615     5.3880   196.2076     5.8495
  109.0000   -35.6523     5.3946   196.6176     5.9411
  109.5000   -35.9270     5.4054   196.9943     6.0480
  110.0000   -36.2049     5.4162   195.6345     6.1541
  110.5000   -36.4833     5.4270   193.3287     6.2602
  111.0000   -36.7613     5.4378   191.0228     6.3663
  111.5000   -37.0395     5.4487   188.7169     6.4725
  112.0000   -37.3168     5.4596   188.5010     6.5790
  112.5000   -37.5996     5.4704   189.3691     6.6861
  113.0000   -37.5471     5.4795   190.2372     6.6852
  113.5000   -37.3170     5.4690   191.1053     6.5072
  114.0000   -37.0825     5.4548   191.9734     6.3434
  114.5000   -36.8480     5.4406   192.8416     6.2161
  115.0000   -36.6140     5.4264   193.7096     6.0895
  115.5000   -36.3799     5.4121   194.5777     5.9614
  116.0000   -36.1458     5.3984   195.1813     5.9074
  116.5000   -35.9117     5.4093   195.1813     5.9208
  117.0000   -35.6772     5.4782   191.9259     6.0880
  117.5000   -35.4606     5.5461   188.0059     6.2360
  118.0000   -35.3438     5.6140   184.0859     6.5604
  118.5000   -35.4431     5.6819   180.1659     6.8098
  119.0000   -35.6019     5.7498   176.2459     7.0384
  119.5000   -35.9138     5.8177   172.3259     7.2070
  120.0000   -36.2189     5.8856   168.4059     7.2908
  120.5000   -36.3741     5.9529   164.3607     7.3764
  121.0000   -36.2303     6.0250   165.9239     7.4542
  121.5000   -36.0919     6.1115   169.2034     7.3201
  122.0000   -35.9546     6.0785   172.4828     7.1750
  122.5000   -35.9327     6.0439   175.7623     7.0307
  123.0000   -36.0827     6.0092   178.8645     6.8870
  123.5000   -36.2305     5.9747   180.1608     6.7512
  124.0000   -36.3790     5.9401   181.3906     6.6671
  124.5000   -36.5272     5.9055   182.6724     6.5865
  125.0000   -36.6763     5.8708   184.3941     6.5061
  125.5000   -36.8278     5.8409   186.1158     6.4256
  126.0000   -36.9485     5.8055   187.8375     6.3451
  126.5000   -36.5144     5.7520   189.5593     6.2646
  127.0000   -36.0644     5.6978   191.2819     6.1841
  127.5000   -35.7813     5.6435   193.0027     6.1036
  128.0000   -35.6138     5.5893   194.7244     6.0229
  128.5000   -35.4487     5.5351   195.1813     5.9424
  129.0000   -35.2841     5.4808   194.7221     5.8818
  129.5000   -35.1399     5.4267   192.8542     5.9060
  130.0000   -35.1604     5.3865   191.0125     6.0065
  130.5000   -35.1779     5.4351   189.1667     6.1032
  131.0000   -35.1948     5.4932   187.3220     6.1998
  131.5000   -35.2116     5.5516   185.4773     6.2965
  132.0000   -35.2285     5.6098   183.6326     6.3931
  132.5000   -35.2453     5.6680   181.7879     6.4897
  133.0000   -35.2621     5.7262   179.9432     6.5863
  133.5000   -35.2790     5.7845   178.0972     6.6830
  134.0000   -35.2961     5.8426   176.2507     6.7801
  134.5000   -35.3126     5.9007   174.3884     6.8769
  135.0000   -35.3078     5.9321   174.2414     6.8997
  135.5000   -35.2373     5.9322   175.9890     6.9181
  136.0000   -35.1699     5.9305   177.7366     6.9324
  136.5000   -35.1025     5.8856   179.4843     6.7995
  137.0000   -35.0354     5.8393   181.2319     6.6059
  137.5000   -34.9717     5.7932   182.9795     6.4129
  138.0000   -34.8244     5.7471   184.7271     6.2200
  138.5000   -34.6700     5.7010   186.4747     6.0450
  139.0000   -34.5152     5.6550   188.2223     6.0275
  139.5000   -34.3604     5.6089   189.7424     6.0511
  140.0000   -34.2036     5.5628   188.7323     6.0879
  140.5000   -34.0584     5.5167   187.1511     6.1248
  141.0000   -34.3158     5.4706   185.5699     6.1618
  141.5000   -34.5789     5.4246   184.3034     6.1987
  142.0000   -34.3513     5.3843   185.7274     6.2373
  142.5000   -34.0991     5.3680   187.7399     6.2457
