~VERSION INFORMATION
 VERS.                2.0:   CWLS LOG ASCII STANDARD - VERSION 2.0
 WRAP.                 NO:   ONE LINE PER DEPTH STEP
~WELL INFORMATION
#MNEM.UNIT      DATA TYPE    INFORMATION
#----------   ------------   ------------------------------
 STRT.F           30.0000:   START DEPTH
 STOP.F          480.0000:   STOP DEPTH
 STEP.F            0.5000:   STEP LENGTH
 NULL.          -999.2500:   NO VALUE
 COMP. FENIX & SCISSON INC:   COMPANY
 WELL.   51-SX-10 #NPR-10:   WELL
 FLD .             TEAPOT:   FIELD
 LOC .      S10 T38N R78W:   LOCATION
 CNTY.            NATRONA:   COUNTY
 STAT.            WYOMING:   STATE
 CTRY. UNITED STATES OF AMERICA:   COUNTRY
 SRVC.              Welex:   SERVICE COMPANY
 DATE.        13-MAR-1977:   LOGDATE
 API .       490251031000:   API NUMBER
~CURVE INFORMATION
#MNEM.UNIT       API CODE    CURVE DESCRIPTION
#----------   ------------   ------------------------------
 DEPT.F                  :   
 SGRD.OHMM   07 220 05 00:   SHALLOW GUARD RESISTIVITY
 ILD .OHMM   07 120 46 00:   INDUCTION LOG DEEP
 ILM .OHMM   07 120 44 00:   INDUCTION LOG MEDIUM
 SPR .MV     07 010 01 00:   SPONTANEOUS POTENTIAL
 RHOB.G/C3   45 350 01 00:   BULK DENSITY
 DPOR.DEC    45 890 12 00:   DENSITY POROSITY SANDSTONE
 CORR.G/C3   45 356 01 00:   DENSITY CORRECTION
 GRD .GAPI   45 310 01 00:   GAMMA RAY FROM DENSITY LOG
 CALD.IN     45 280 60 00:   CALIPER FROM DENSITY LOG
~PARAMETER INFORMATION
#MNEM.UNIT          VALUE    DESCRIPTION
#----------   ------------   ------------------------------
 PD  .                 GL:   PERMANENT DATUM
 EPD .F              5216:   ELEVATION PERMANENT DATUM
 LMF .                 GL:   LOG MEASURED FROM
 DMF .                 GL:   DRILLING MEASURED FROM
 EGL .F              5216:   GROUND LEVEL
 DATE.            3-13-77:   RUN DATE
 RUN .                  1:   RUN NUMBER
 DD  .F               490:   DEPTH DRILLER
 DL  .F               485:   DEPTH LOGGER
 BLI .F               483:   BOTTOM LOG INTERVAL
 TLI .F                35:   TOP LOG INTERVAL
 CS  .IN            8.625:   CASING SIZE
 CBD .F                40:   CASING BOTTOM DRILLER
 CBL .F                36:   CASING BOTTOM LOGGER
 BS  .IN            7.875:   BIT SIZE
 BSD .F               490:   BIT SIZE AT DEPTH
 DFT .            KCL MUD:   DRILLING FLUID TYPE
 DFD .                8.9:   DRILLING FLUID DENSITY
 DFV .                 34:   DRILLING FLUID VISCOSITY
 MSS .            MUD PIT:   MUD SAMPLE SOURCE
 RMS .OHMM            .43:   RESISTIVITY MUD SAMPLE
 MST .F                60:   MUD SAMPLE TEMPERATURE
 RMF .OHMM            .37:   RESISTIVITY MUD FILTRATE SAMPLE
 MFST.F                60:   MUD FILTRATE SAMPLE TEMPERATURE
 RMC .OHMM            .47:   RESISTIVITY MUD CAKE
 MCST.F                60:   MUD CAKE SAMPLE TEMPERATURE
 MFSS.           FANN KIT:   MUD FILTRATE SAMPLE SOURCE
 MCSS.           FANN KIT:   MUD CAKE SAMPLE SOURCE
 RMB .OHMM            .40:   RESISTIVITY MUD AT BHT
 BHT .F                63:   BOTTOM HOLE TEMPERATURE
 TCS .HRS             1.5:   TIME CURCULATED STOPPED
 MRT .F                63:   MAXIMUM RECORDED TEMPERATURE
 LUN .               8611:   LOGGING UNIT NUMBER
 LUL .             CASPER:   LOGGING UNIT LOCATION
 ENGI.               DOAK:   RECORDING ENGINEER
 WITN.         STUEBINGER:   WITNESSED BY
 CLNT.            A2DTECH:   CLIENT CODE
 ORIG.       2", 5" PRINT:   ORIGIN OF DATA
 UWI .       490251031000:   UNIQUE WELL ID
 DICO. A2D Technologies, Inc.:   DIGITIZING COMPANY
~OTHER INFORMATION
~A   DEPT     SGRD        ILD        ILM        SPR       RHOB       DPOR        CORR       GRD       CALD   
# ...
  249.0000    10.9139     6.9647     7.6844   -40.0892     2.4739     0.1040     0.0849   141.7966     7.9184
  249.5000    10.8618     6.7704     7.5119   -40.3905     2.4681     0.1080     0.0825   143.9247     7.9177
  250.0000    10.4646     6.5815     7.3432   -40.6928     2.4591     0.1123     0.0803   148.1008     7.9170
  250.5000     9.3408     6.3978     7.1783   -40.9943     2.4501     0.1165     0.0780   152.2426     7.9163
  251.0000     8.3376     6.2193     7.0171   -41.2957     2.4465     0.1185     0.0756   153.4281     7.9156
  251.5000     8.0582     6.0458     6.8596   -41.5972     2.4449     0.1201     0.0761   153.9709     7.9148
  252.0000     8.9743     5.8771     6.7056   -41.8986     2.4471     0.1177     0.0777   150.3097     7.9141
  252.5000     9.2547     5.7131     6.5550   -42.2003     2.4506     0.1138     0.0793   149.0736     7.9134
  253.0000     9.5438     5.5537     6.4078   -42.5020     2.4521     0.1174     0.0809   146.3075     7.9127
  253.5000     9.8419     5.3987     6.2639   -42.7992     2.4457     0.1214     0.0825   143.5740     7.9119
  254.0000    10.2714     5.2481     6.1094   -43.0185     2.4396     0.1255     0.0830   143.4129     7.9112
  254.5000     8.6620     5.1224     5.7206   -43.0130     2.4335     0.1296     0.0830   144.4074     7.9105
  255.0000     6.7736     5.0200     5.3176   -42.9787     2.4271     0.1342     0.0830   145.2629     7.9099
  255.5000     4.7182     4.9197     5.0331   -42.8339     2.4361     0.1269     0.0847   144.0647     7.9090
  256.0000     5.5892     4.8506     5.3916   -42.6951     2.4564     0.1158     0.0873   142.9227     7.9081
  256.5000    10.0562     5.0737     5.6846   -42.5565     2.4773     0.1047     0.0899   141.9021     7.9072
  257.0000    10.0562     5.2853     5.9936   -42.4179     2.4984     0.0935     0.0925   140.8032     7.9063
  257.5000    10.0562     5.5058     6.3194   -42.2785     2.5024     0.0878     0.0949   139.5899     7.9054
  258.0000    10.0562     5.7355     6.6629   -42.1386     2.4978     0.0911     0.0943   138.3677     7.9044
  258.5000    10.0562     5.9748     7.0251   -42.0237     2.4869     0.0962     0.0907   137.1676     7.9036
  259.0000    10.1348     6.2241     7.2246   -42.2432     2.4767     0.1013     0.0871   136.2690     7.9026
  259.5000    10.2061     6.4573     7.2468   -42.4545     2.4744     0.1043     0.0836   136.4371     7.9017
  260.0000    10.2449     6.2495     7.2692   -42.6636     2.4724     0.1045     0.0836   137.7683     7.9008
  260.5000    10.2435     6.0663     7.2804   -42.8724     2.4706     0.1047     0.0842   139.0562     7.8999
  261.0000    10.2435     5.8886     7.0460   -43.0813     2.4729     0.1049     0.0849   139.5481     7.8990
  261.5000    10.2435     5.7161     6.8882   -43.2904     2.4716     0.1050     0.0856   139.0256     7.8981
  262.0000    10.2309     5.5486     6.3294   -43.4984     2.4643     0.1091     0.0863   138.2944     7.8972
  262.5000    10.2810     5.3860     5.8609   -43.7063     2.4571     0.1132     0.0870   145.0990     7.8963
  263.0000     7.3534     5.2282     5.4689   -43.7181     2.4498     0.1173     0.0859   151.4513     7.8954
  263.5000     5.4360     5.0748     5.2314   -43.5346     2.4474     0.1194     0.0846   151.6575     7.8945
  264.0000     4.6319     4.9399     5.1268   -43.3506     2.4526     0.1142     0.0832   147.8411     7.8935
  264.5000     7.2024     5.0331     5.1268   -43.1655     2.4707     0.1032     0.0818   144.7083     7.8926
  265.0000     9.8723     5.2806     5.4517   -42.9827     2.4891     0.0918     0.0812   143.0977     7.8917
  265.5000     8.8741     5.5162     5.7649   -42.7922     2.4892     0.0943     0.0823   141.5762     7.8908
  266.0000     8.1330     5.7623     6.0961   -42.4696     2.4852     0.0974     0.0834   140.0387     7.8899
  266.5000     9.5916     6.0194     6.4463   -42.1525     2.4840     0.0984     0.0845   138.5000     7.8890
  267.0000    10.4343     6.2880     6.8169   -41.8411     2.4883     0.0957     0.0856   136.9613     7.8881
  267.5000    10.6287     6.5685     7.2097   -41.5900     2.4924     0.0930     0.0867   135.4231     7.8872
  268.0000    10.8267     6.8616     7.6223   -41.5030     2.4966     0.0902     0.0878   133.8942     7.8863
  268.5000    11.0284     7.0349     7.8916   -41.4141     2.4972     0.0913     0.0890   132.2854     7.8854
  269.0000    11.2339     7.1549     7.9994   -41.3262     2.4936     0.0933     0.0875   129.4368     7.8844
  269.5000    11.4431     7.2770     8.1087   -41.2381     2.4899     0.0950     0.0855   129.4722     7.8836
  270.0000    11.5492     7.4012     8.2084   -41.1501     2.4876     0.0950     0.0834   129.6137     7.8826
  270.5000    11.4237     7.5275     8.5423   -41.0620     2.4882     0.0950     0.0814   131.7596     7.8817
  271.0000    11.3408     7.6559     8.8577   -40.9739     2.4878     0.0969     0.0793   133.8615     7.8808
  271.5000    11.2339     7.7126     9.1047   -40.8859     2.4822     0.0994     0.0773   135.0296     7.8799
  272.0000    11.3027     7.7381     9.1712   -40.7978     2.4766     0.1020     0.0753   134.3897     7.8790
  272.5000    11.4018     7.7636     8.9005   -40.7098     2.4708     0.1046     0.0732   133.4086     7.8781
  273.0000    11.5018     7.7893     8.6594   -40.6217     2.4727     0.1052     0.0712   133.4031     7.8772
  273.5000    11.6026     7.8150     8.4268   -40.5336     2.4772     0.1032     0.0691   134.6067     7.8763
  274.0000    11.7044     7.8408     8.1330   -40.4416     2.4776     0.0997     0.0724   136.5717     7.8754
  274.5000    11.8070     7.8667     8.1489   -40.4194     2.4847     0.0928     0.0763   138.4294     7.8745
  275.0000    11.9105     7.8926     8.1717   -40.4185     2.5037     0.0866     0.0801   139.8491     7.8735
  275.5000    11.9835     7.9187     8.1946   -40.4195     2.5029     0.0878     0.0839   141.2728     7.8727
  276.0000    11.5067     7.9448     8.2176   -40.4516     2.5024     0.0871     0.0877   142.7323     7.8718
  276.5000    11.0897     7.9711     8.2406   -40.5847     2.5089     0.0818     0.0915   142.4078     7.8707
  277.0000    10.6877     7.9842     8.2636   -40.7122     2.5159     0.0750     0.0950   139.5955     7.8599
  277.5000    10.3338     7.9556     8.2846   -40.8396     2.5223     0.0779     0.0950   136.8941     7.8534
  278.0000    11.0366     7.9371     8.2994   -40.9670     2.5140     0.0824     0.0936   134.2156     7.8568
  278.5000    11.7170     7.9239     8.3160   -41.0944     2.5029     0.0867     0.0890   131.5293     7.8605
  279.0000    12.4409     7.6785     8.3328   -41.2218     2.4960     0.0912     0.0845   128.5576     7.8641
  279.5000    12.7479     7.3583     8.3495   -41.3496     2.4887     0.0999     0.0800   125.6322     7.8678
  280.0000    12.8661     7.0514     8.3613   -41.4771     2.4700     0.1109     0.0755   122.5470     7.8714
  280.5000    13.2181     6.7574     7.6964   -41.5966     2.4515     0.1219     0.0720   124.8408     7.8750
  281.0000    13.6363     6.4756     7.0402   -41.8176     2.4330     0.1329     0.0700   127.9766     7.8786
  281.5000    11.8735     6.2056     6.4297   -41.6397     2.4146     0.1439     0.0679   131.1790     7.8822
  282.0000     6.4156     5.9468     5.8750   -41.2894     2.3963     0.1549     0.0658   134.3926     7.8859
  282.5000     4.0497     5.6746     5.3196   -40.9399     2.3787     0.1614     0.0637   138.2116     7.8895
  283.0000     5.7997     5.8339     5.7391   -40.5891     2.3764     0.1422     0.0654   131.7123     7.8931
  283.5000    14.2496     5.9977     6.2426   -40.2384     2.4536     0.1236     0.0691   122.7422     7.8967
  284.0000    14.1348     6.4010     6.7934   -39.8880     2.4754     0.1051     0.0728   121.4371     7.9004
  284.5000    14.3473     6.7911     7.3917   -39.5418     2.4815     0.0983     0.0766   123.0857     7.9040
  285.0000    14.6880     7.2049     8.0416   -39.1728     2.4837     0.0986     0.0803   124.8236     7.9076
