~VERSION INFORMATION
 VERS.                2.0:   CWLS LOG ASCII STANDARD - VERSION 2.0
 WRAP.                 NO:   ONE LINE PER DEPTH STEP
~WELL INFORMATION
#MNEM.UNIT      DATA TYPE    INFORMATION
#----------   ------------   ------------------------------
 STRT.F           84.0000:   START DEPTH
 STOP.F          860.0000:   STOP DEPTH
 STEP.F            0.5000:   STEP LENGTH
 NULL.          -999.2500:   NO VALUE
 COMP.               NAVY:   COMPANY
 WELL. 52-S-11  NPR #3 #52S-11:   WELL
 FLD .        TEAPOT DOME:   FIELD
 LOC .      S11 T38N R78W:   LOCATION
 CNTY.            NATRONA:   COUNTY
 STAT.            WYOMING:   STATE
 CTRY. UNITED STATES OF AMERICA:   COUNTRY
 SRVC.       Schlumberger:   SERVICE COMPANY
 DATE.        01-JUL-1962:   LOGDATE
 API .       490250637300:   API NUMBER
~CURVE INFORMATION
#MNEM.UNIT       API CODE    CURVE DESCRIPTION
#----------   ------------   ------------------------------
 DEPT.F                  :   
 ASN .OHMM   05 041 16 00:   AMPLIFIED SHORT NORMAL 16"
 CILD.MMHO   05 110 46 00:   CONDUCTIVITY INDUCTION LOG DEEP
 ILD .OHMM   05 120 46 00:   INDUCTION LOG DEEP
 SPR .MV     05 010 01 00:   SPONTANEOUS POTENTIAL FROM RES.
 GR  .GAPI   30 310 01 00:   GAMMA RAY
~PARAMETER INFORMATION
#MNEM.UNIT          VALUE    DESCRIPTION
#----------   ------------   ------------------------------
 LMF .                 KB:   LOG MEASURED FROM
 DMF .                 KB:   DRILLING MEASURED FROM
 EKB .F              5191:   KELLING BUSHING
 EGL .F              5186:   GROUND LEVEL
 DATE.           7-1-1962:   RUN DATE
 RUN .                  1:   RUN NUMBER
 DD  .F               860:   DEPTH DRILLER
 DL  .F               861:   DEPTH LOGGER
 BLI .F               860:   BOTTOM LOG INTERVAL
 TLI .F                91:   TOP LOG INTERVAL
 CBD .F                10:   CASING BOTTOM DRILLER
 BS  .IN             6.75:   BIT SIZE
 BSD .F               860:   BIT SIZE AT DEPTH
 DFT .            GEL-OIL:   DRILLING FLUID TYPE
 DFD .               10.2:   DRILLING FLUID DENSITY
 DFV .                 45:   DRILLING FLUID VISCOSITY
 DFL .                  4:   DRILLING FLUID LOSS
 MSS .           FLOWLINE:   MUD SAMPLE SOURCE
 RMS .OHMM           5.54:   RESISTIVITY MUD SAMPLE
 MST .F                75:   MUD SAMPLE TEMPERATURE
 RMB .OHMM           5.19:   RESISTIVITY MUD AT BHT
 BHT .F                80:   BOTTOM HOLE TEMPERATURE
 TCS .HRS               1:   TIME CURCULATED STOPPED
 MRT .F                80:   MAXIMUM RECORDED TEMPERATURE
 LUN .               2503:   LOGGING UNIT NUMBER
 LUL .              CSPR.:   LOGGING UNIT LOCATION
 ENGI.             KNOBEL:   RECORDING ENGINEER
 WITN.          JORGENSEN:   WITNESSED BY
 CLNT.            A2DTECH:   CLIENT CODE
 ORIG.      2" & 5" PRINT:   ORIGIN OF DATA
 UWI .       490250637300:   UNIQUE WELL ID
 DICO. A2D Technologies, Inc.:   DIGITIZING COMPANY
~OTHER INFORMATION
~A   DEPT      ASN       CILD        ILD        SPR         GR   
# ...
  572.0000     8.0251   135.1752     7.5135   -25.6223  -999.2500
  572.5000     7.9027   135.9978     7.4309   -25.0231  -999.2500
  573.0000     7.6893   137.5758     7.4241   -24.4240  -999.2500
  573.5000     7.5365   139.9091     7.4173   -24.4346  -999.2500
  574.0000     7.4747   142.2424     7.2588   -25.6647  -999.2500
  574.5000     7.4734   144.5757     7.1762   -27.3522  -999.2500
  575.0000     7.5028   146.1537     7.0935   -27.2104  -999.2500
  575.5000     7.4709   147.7316     7.0867   -27.0685  -999.2500
  576.0000     7.4697   148.5543     7.0041   -27.5426  -999.2500
  576.5000     7.4684   148.6218     6.9973   -28.1663  -999.2500
  577.0000     7.5126   149.4445     7.0681   -28.9299  -999.2500
  577.5000     7.5265   149.5119     6.9832   -28.7729  -999.2500
  578.0000     7.4949   150.3346     6.9770   -28.8172  -999.2500
  578.5000     7.4328   151.1573     6.9702   -29.5930  -999.2500
  579.0000     7.3546   151.2247     6.8876   -30.1920  -999.2500
  579.5000     7.2930   152.0474     6.8808   -29.8704  -999.2500
  580.0000     7.2778   152.1148     6.8741   -29.3009  -999.2500
  580.5000     7.3372   152.9381     6.8667   -29.1564  -999.2500
  581.0000     7.3279   153.7613     6.8604   -29.4746  -999.2500
  581.5000     7.2192   154.5846     6.8535   -29.9425  -999.2500
  582.0000     7.1443   155.4078     6.8468   -30.2580  -999.2500
  582.5000     7.1432   155.6016     6.7640   -30.2686  -999.2500
  583.0000     7.1268   157.0679     6.7559   -30.1242  -999.2500
  583.5000     7.1106   157.1353     6.7491   -29.8325  -999.2500
  584.0000     7.0792   157.9580     6.7423   -28.9285  -999.2500
  584.5000     7.0175   158.7807     6.7355   -28.1770  -999.2500
  585.0000     6.9559   158.8481     6.7288   -26.8156  -999.2500
  585.5000     6.9245   161.1814     6.5702   -26.0640  -999.2500
  586.0000     6.9083   163.5146     6.4876   -26.0747  -999.2500
  586.5000     6.8618   165.8479     6.3291   -26.3902  -999.2500
  587.0000     6.6941   169.6918     6.1706   -26.4008  -999.2500
  587.5000     6.5719   175.8015     5.8603   -26.5638  -999.2500
  588.0000     6.4799   183.4218     5.6259   -25.9647  -999.2500
  588.5000     6.2970   189.5315     5.3915   -24.9082  -999.2500
  589.0000     6.0839   194.8859     5.1571   -24.1567  -999.2500
  589.5000     5.9768   197.9745     4.9986   -24.4722  -999.2500
  590.0000     5.9454   200.3077     4.9160   -25.7023  -999.2500
  590.5000     5.8837   200.3751     4.9092   -26.4751  -999.2500
  591.0000     5.8069   199.6873     5.1300   -26.7906  -999.2500
  591.5000     5.7756   198.2441     5.3526   -27.1061  -999.2500
  592.0000     6.0321   195.2904     5.5734   -27.2691  -999.2500
  592.5000     6.2737   189.3155     5.7170   -27.2798  -999.2500
  593.0000     6.3482   182.5853     5.8619   -27.1353  -999.2500
  593.5000     6.3775   176.6104     6.0067   -27.1486  -999.2500
  594.0000     6.3938   172.9014     6.0759   -26.3970  -999.2500
  594.5000     6.4388   169.9477     6.2207   -25.4930  -999.2500
  595.0000     6.5104   169.2598     6.1381   -24.7414  -999.2500
  595.5000     6.5548   169.3278     6.2072   -24.2947  -999.2500
  596.0000     6.5843   168.5900     6.2003   -24.7626  -999.2500
  596.5000     6.5830   166.4409     6.1934   -25.3830  -999.2500
  597.0000     6.5820   164.9978     6.1867   -25.5460  -999.2500
  597.5000     6.5658   164.3099     6.1798   -25.7091  -999.2500
  598.0000     6.5496   165.9047     6.1716   -25.7197  -999.2500
  598.5000     6.5334   168.9933     6.1649   -25.5779  -999.2500
  599.0000     6.4717   171.3266     6.1581   -25.1312  -999.2500
  599.5000     6.3191   173.6598     6.1513   -24.5321  -999.2500
  600.0000     6.1469   175.4625     6.1110   -24.2378  -999.2500
  600.5000     6.1200   178.3853     5.7607   -24.2454  -999.2500
  601.0000     6.1189   181.4549     5.6037   -24.2534  -999.2500
  601.5000     6.0876   186.9567     5.5226   -24.2609  -999.2500
  602.0000     5.9805   197.3517     5.2897   -24.1159  -999.2500
  602.5000     5.7976   208.7331     4.9810   -23.9710  -999.2500
  603.0000     5.5996   220.8699     4.5913   -23.8099  -999.2500
  603.5000     5.3410   233.7619     4.3533   -23.5015  -999.2500
  604.0000     5.1581   244.3881     4.0536   -22.7758  -999.2500
  604.5000     5.0510   248.2168     4.0484   -22.4784  -999.2500
  605.0000     4.8984   250.5348     4.0431   -22.1810  -999.2500
  605.5000     4.8065   250.5870     4.1151   -22.0342  -999.2500
  606.0000     4.7751   249.1155     4.2616   -22.0435  -999.2500
  606.5000     4.8359   244.6490     4.4827   -23.1181  -999.2500
  607.0000     5.1348   230.3507     4.7051   -24.3451  -999.2500
  607.5000     5.6326   215.2972     5.0034   -24.5050  -999.2500
  608.0000     5.9281   198.7330     5.3775   -24.3598  -999.2500
  608.5000     6.0727   188.2112     5.5999   -23.6053  -999.2500
  609.0000     6.1777   180.7105     5.8223   -22.5458  -999.2500
  609.5000     6.2524   177.7319     5.9689   -22.0959  -999.2500
  610.0000     6.3574   174.7234     6.1153   -22.5813  -999.2500
  610.5000     6.4776   170.9594     6.2618   -23.1798  -999.2500
  611.0000     6.5526   167.9505     6.3325   -23.1873  -999.2500
  611.5000     6.6270   164.3681     6.4777   -22.7356  -999.2500
  612.0000     6.7320   162.1414     6.5497   -22.5907  -999.2500
  612.5000     6.8370   159.1854     6.6949   -22.4457  -999.2500
  613.0000     6.9724   157.7140     6.7655   -22.3026  -999.2500
  613.5000     7.0774   155.5003     6.9120   -23.2247  -999.2500
  614.0000     7.1672   153.2997     6.9068   -25.2139  -999.2500
  614.5000     7.2722   151.8282     6.9788   -26.4409  -999.2500
  615.0000     7.3773   150.3698     7.0494   -26.9057  -999.2500
  615.5000     7.4520   148.9245     7.1201   -27.2181  -999.2500
  616.0000     7.4964   147.4530     7.1907   -27.2256  -999.2500
  616.5000     7.5119   145.9946     7.2603   -27.3857  -999.2500
  617.0000     7.5397   143.7940     7.2548   -27.2406  -999.2500
  617.5000     7.5990   143.0892     7.2496   -27.0956  -999.2500
  618.0000     7.6434   143.1431     7.3253   -26.6458  -999.2500
  618.5000     7.6878   143.1952     7.3909   -26.3484  -999.2500
  619.0000     7.7323   144.0031     7.3085   -26.3577  -999.2500
  619.5000     7.7466   144.8112     7.2274   -26.5177  -999.2500
  620.0000     7.7453   145.7202     7.2222   -26.6776  -999.2500
  620.5000     7.6988   146.5684     7.2170   -26.8356  -999.2500
  621.0000     7.5917   147.2456     7.1359   -25.9304  -999.2500
  621.5000     7.4846   146.5424     6.9789   -24.7183  -999.2500
  622.0000     7.3926   145.0710     6.8978   -23.5063    66.4827
  622.5000     7.2855   143.6257     6.8167   -22.2943    73.1558
  623.0000     7.1633   142.9095     6.7356   -21.6860    76.6436
  623.5000     7.0410   142.9747     6.6545   -21.6997    74.5155
  624.0000     6.9188   144.5375     6.5734   -22.1662    71.0231
  624.5000     6.7662   146.8555     6.4165   -22.1736    75.1172
  625.0000     6.6439   151.4394     6.3354   -22.0287    67.5262
  625.5000     6.5344   157.5339     6.1733   -21.7313    68.1302
  626.0000     6.3339   165.1389     5.9352   -21.4339    75.5627
  626.5000     5.9898   174.2545     5.5597   -21.1365    77.3806
  627.0000     5.6546   193.1889     5.2509   -20.9897    78.4398
  627.5000     5.4263   213.6338     4.7146   -20.6923    78.8921
  628.0000     5.0011   235.5893     4.2541   -20.5473    80.1038
  628.5000     4.6819   271.4908     3.7937   -20.7091    77.8238
  629.0000     4.4233   315.4886     3.3332   -21.0215    67.0469
  629.5000     4.1040   352.4522     2.8728   -21.7912    64.3125
  630.0000     3.8454   432.6866     2.4882   -23.0386    57.7845
  630.5000     3.5716   469.8045     2.2553   -22.8307    62.0303
  631.0000     3.3736   488.7680     2.1756   -21.9679    68.0099
  631.5000     3.2968   490.3205     2.4727   -22.1279    79.0195
  632.0000     3.1394   477.5273     2.8467   -22.4402    79.6243
  632.5000     3.0069   447.3229     3.1449   -22.7526    79.6205
