~VERSION INFORMATION
 VERS.                2.0:   CWLS LOG ASCII STANDARD - VERSION 2.0
 WRAP.                 NO:   ONE LINE PER DEPTH STEP
~WELL INFORMATION
#MNEM.UNIT      DATA TYPE    INFORMATION
#----------   ------------   ------------------------------
 STRT.F           30.0000:   START DEPTH
 STOP.F         3375.5000:   STOP DEPTH
 STEP.F            0.5000:   STEP LENGTH
 NULL.          -999.2500:   NO VALUE
 COMP.       INTEX OIL CO:   COMPANY
 WELL.   NPR ##3 57-SX-34:   WELL
 FLD .             TEAPOT:   FIELD
 LOC .      S34 T39N R78W:   LOCATION
 CNTY.            NATRONA:   COUNTY
 STAT.            WYOMING:   STATE
 CTRY. UNITED STATES OF AMERICA:   COUNTRY
 SRVC.       Schlumberger:   SERVICE COMPANY
 DATE.        12-AUG-1967:   LOGDATE
 API .       490251023200:   API NUMBER
~CURVE INFORMATION
#MNEM.UNIT       API CODE    CURVE DESCRIPTION
#----------   ------------   ------------------------------
 DEPT.F                  :   
 SPR .MV     07 010 01 00:   SPONTANEOUS POTENTIAL
 ILD .OHMM   07 120 46 00:   INDUCTION LOG DEEP
 ASN .OHMM   05 041 16 00:   AMPLIFIED SHORT NORMAL 16"
 CILD.MMHO   07 110 46 00:   CONDUCTIVITY INDUCTION LOG DEEP
 LL8 .OHMM   07 220 08 00:   LATEROLOG-8 RES.
 ILM .OHMM   07 120 44 00:   INDUCTION LOG MEDIUM
 CALD.IN     45 280 60 00:   CALIPER
 GRD .GAPI   45 310 01 00:   GAMMA RAY FROM DENSITY LOG
 RHOB.G/C3   45 350 01 00:   BULK DENSITY
 DPHI.DEC    45 890 12 00:   DENSITY POROSITY SANDSTONE
 CORR.G/C3   45 356 01 00:   DENSITY CORRECTION
~PARAMETER INFORMATION
#MNEM.UNIT          VALUE    DESCRIPTION
#----------   ------------   ------------------------------
 PD  .                 GL:   PERMANENT DATUM
 EPD .F              5084:   ELEVATION PERMANENT DATUM
 LMF .                 KB:   LOG MEASURED FROM
 DAPD.F                12:   FEET ABOVE PERMANENT DATUM
 DMF .                 KB:   DRILLING MEASURED FROM
 EKB .F              5096:   KELLING BUSHING
 EGL .F              5084:   GROUND LEVEL
 DATE.            8-12-67:   RUN DATE
 RUN .                  2:   RUN NUMBER
 DD  .F              3380:   DEPTH DRILLER
 DL  .F              3371:   DEPTH LOGGER
 BLI .F              3368:   BOTTOM LOG INTERVAL
 TLI .F               630:   TOP LOG INTERVAL
 CS  .IN            10.75:   CASING SIZE
 CBD .F               643:   CASING BOTTOM DRILLER
 BS  .IN            9.875:   BIT SIZE
 BSD .F              3380:   BIT SIZE AT DEPTH
 DFT .               CHEM:   DRILLING FLUID TYPE
 DFD .                9.4:   DRILLING FLUID DENSITY
 DFV .                 48:   DRILLING FLUID VISCOSITY
 DFPH.                8.5:   DRILLING FLUID PH
 DFL .                3.6:   DRILLING FLUID LOSS
 MSS .          FLOW LINE:   MUD SAMPLE SOURCE
 RMS .OHMM           2.81:   RESISTIVITY MUD SAMPLE
 MST .F                88:   MUD SAMPLE TEMPERATURE
 RMF .OHMM            1.7:   RESISTIVITY MUD FILTRATE SAMPLE
 MFST.F                86:   MUD FILTRATE SAMPLE TEMPERATURE
 MFSS.                  M:   MUD FILTRATE SAMPLE SOURCE
 RMB .OHMM           2.03:   RESISTIVITY MUD AT BHT
 BHT .F               122:   BOTTOM HOLE TEMPERATURE
 TCS .HRS             2.5:   TIME CURCULATED STOPPED
 MRT .F               122:   MAXIMUM RECORDED TEMPERATURE
 LUN .               7030:   LOGGING UNIT NUMBER
 LUL .               CSPR:   LOGGING UNIT LOCATION
 ENGI.             SCHODE:   RECORDING ENGINEER
 WITN.                MAY:   WITNESSED BY
 CLNT.            A2DTECH:   CLIENT CODE
 ORIG.   1" 2.5" 5" PRINT:   ORIGIN OF DATA
 UWI .       490251023200:   UNIQUE WELL ID
 DICO. A2D Technologies, Inc.:   DIGITIZING COMPANY
~OTHER INFORMATION
~A   DEPT      SPR        ILD        ASN       CILD        LL8        ILM       CALD         GRD      RHOB       DPHI       CORR   
# ...
 1402.5000   -36.3080     7.8419  -999.2500  -999.2500     8.8376     8.0596    12.1141    79.8200     2.5301     0.0709     0.0128
 1403.0000   -36.2997     7.7980  -999.2500  -999.2500     8.6737     8.0061    12.1142    79.0449     2.5290     0.0720     0.0151
 1403.5000   -36.1583     7.7543  -999.2500  -999.2500     8.3869     7.9529    12.1145    79.8619     2.5345     0.0705     0.0173
 1404.0000   -36.0453     7.7108  -999.2500  -999.2500     8.1095     7.9124    12.1135    80.6151     2.5362     0.0673     0.0195
 1404.5000   -35.9217     7.6675  -999.2500  -999.2500     7.9289     7.8826    12.1152    81.2094     2.5463     0.0619     0.0218
 1405.0000   -35.9703     7.6250  -999.2500  -999.2500     8.0917     7.8529    12.1140    81.8591     2.5573     0.0531     0.0237
 1405.5000   -36.0244     7.5823  -999.2500  -999.2500     8.1264     7.8232    12.1073    80.3386     2.5638     0.0562     0.0303
 1406.0000   -36.0851     7.5399  -999.2500  -999.2500     8.1611     7.7879    12.0646    78.8271     2.5435     0.0660     0.0431
 1406.5000   -36.1441     7.5103  -999.2500  -999.2500     8.1961     7.8398    12.0574    77.3176     2.5320     0.0720     0.0507
 1407.0000   -36.1981     7.5103  -999.2500  -999.2500     8.2311     7.9187    12.0422    76.0455     2.5377     0.0650     0.0335
 1407.5000   -36.2619     7.5892  -999.2500  -999.2500     8.2664     7.9986    12.0345    78.8755     2.5387     0.0669     0.0204
 1408.0000   -36.3246     7.6625  -999.2500  -999.2500     8.3018     8.0795    12.0358    78.8181     2.5320     0.0697     0.0283
 1408.5000   -36.5362     7.7365  -999.2500  -999.2500     8.3373     8.1612    12.0353    76.7017     2.5433     0.0642     0.0339
 1409.0000   -36.7333     7.8165  -999.2500  -999.2500     8.3730     8.2421    12.0354    75.0051     2.5361     0.0755     0.0401
 1409.5000   -36.9290     7.9229  -999.2500  -999.2500     8.6966     8.3709    12.0354    75.5798     2.5089     0.0804     0.0400
 1410.0000   -37.0818     7.7812  -999.2500  -999.2500     9.0014     8.3377    12.0354    77.1069     2.5172     0.0728     0.0320
 1410.5000   -36.8761     7.7924  -999.2500  -999.2500     8.9386     8.2633    12.0354    78.9712     2.5516     0.0653     0.0286
 1411.0000   -36.6880     7.7678  -999.2500  -999.2500     8.6752     8.1895    12.0354    77.8290     2.5439     0.0579     0.0300
 1411.5000   -36.4852     7.7384  -999.2500  -999.2500     8.3688     8.1164    12.0353    75.3045     2.5404     0.0639     0.0319
 1412.0000   -36.3176     7.7094  -999.2500  -999.2500     8.3729     8.0736    12.0355    74.2506     2.5430     0.0683     0.0338
 1412.5000   -36.3964     7.6806  -999.2500  -999.2500     8.3693     8.0729    12.0358    77.1205     2.5368     0.0708     0.0362
 1413.0000   -36.5143     7.6530  -999.2500  -999.2500     8.5010     8.0730    12.0464    78.2380     2.5345     0.0700     0.0343
 1413.5000   -36.6586     7.6256  -999.2500  -999.2500     8.5831     8.0732    12.0586    78.1607     2.5411     0.0673     0.0278
 1414.0000   -36.6133     7.5983  -999.2500  -999.2500     8.6660     8.0735    12.0711    78.1531     2.5468     0.0587     0.0245
 1414.5000   -36.3720     7.5711  -999.2500  -999.2500     8.7497     8.0736    12.0832    78.5879     2.5507     0.0650     0.0282
 1415.0000   -36.1649     7.5440  -999.2500  -999.2500     8.8376     8.0737    12.0954    80.1028     2.5346     0.0728     0.0357
 1415.5000   -35.9287     7.5170  -999.2500  -999.2500     8.6495     8.0738    12.1083    80.5779     2.5235     0.0713     0.0392
 1416.0000   -35.9369     7.5044  -999.2500  -999.2500     8.3709     8.0651    12.1147    80.5807     2.5345     0.0746     0.0369
 1416.5000   -35.9867     7.4965  -999.2500  -999.2500     8.5348     8.0399    12.1141    80.2604     2.5302     0.0776     0.0330
 1417.0000   -36.0429     7.4888  -999.2500  -999.2500     8.8466     8.0154    12.1142    79.7238     2.5248     0.0746     0.0287
 1417.5000   -36.0924     7.4809  -999.2500  -999.2500     8.9989     7.9905    12.1143    79.2216     2.5345     0.0720     0.0276
 1418.0000   -36.1448     7.4731  -999.2500  -999.2500     8.2209     7.9658    12.1142    78.7744     2.5435     0.0672     0.0317
 1418.5000   -36.1980     7.4653  -999.2500  -999.2500     8.2858     7.9412    12.1142    78.1427     2.5247     0.0689     0.0363
 1419.0000   -36.2481     7.4576  -999.2500  -999.2500     8.3355     7.9166    12.1142    78.9906     2.5296     0.0728     0.0432
 1419.5000   -36.3060     7.4498  -999.2500  -999.2500     8.3855     7.8923    12.1141    81.0901     2.5489     0.0575     0.0374
 1420.0000   -36.3357     7.4420  -999.2500  -999.2500     8.4358     7.8677    12.1145    82.9747     2.5692     0.0468     0.0127
 1420.5000   -36.3690     7.4343  -999.2500  -999.2500     8.5118     7.8436    12.1110    85.1222     2.5749     0.0462     0.0331
 1421.0000   -36.3999     7.4265  -999.2500  -999.2500     8.4629     7.8191    12.1050    85.4851     2.5657     0.0469     0.0616
 1421.5000   -36.4321     7.4189  -999.2500  -999.2500     8.2382     7.7879    12.0994    85.9203     2.5579     0.0529     0.0539
 1422.0000   -36.4640     7.4111  -999.2500  -999.2500     8.1190     7.7990    12.0938    85.9964     2.5499     0.0589     0.0449
 1422.5000   -36.4958     7.4034  -999.2500  -999.2500     8.3709     7.8186    12.0882    83.8822     2.5419     0.0650     0.0367
 1423.0000   -36.5280     7.3963  -999.2500  -999.2500     8.3575     7.8383    12.0826    81.8247     2.5335     0.0711     0.0270
 1423.5000   -36.5594     7.3879  -999.2500  -999.2500     8.3000     7.8581    12.0770    79.6159     2.5311     0.0753     0.0229
 1424.0000   -36.5923     7.3746  -999.2500  -999.2500     8.2429     7.8779    12.0714    77.4429     2.5282     0.0753     0.0226
 1424.5000   -36.6232     7.3775  -999.2500  -999.2500     8.1862     7.8970    12.0658    76.3524     2.5303     0.0733     0.0279
 1425.0000   -36.6543     7.3723  -999.2500  -999.2500     8.1300     7.9184    12.0602    78.7124     2.5394     0.0686     0.0333
 1425.5000   -36.6938     7.4670  -999.2500  -999.2500     8.0736     7.9272    12.0545    80.5033     2.5493     0.0670     0.0220
 1426.0000   -36.6516     7.5405  -999.2500  -999.2500     8.2756     7.9183    12.0489    80.3223     2.5320     0.0703     0.0121
 1426.5000   -36.4924     7.6459  -999.2500  -999.2500     8.4844     7.9113    12.0435    79.7786     2.5262     0.0736     0.0153
 1427.0000   -36.3434     7.6406  -999.2500  -999.2500     8.8376     7.9040    12.0374    79.2010     2.5200     0.0751     0.0192
 1427.5000   -36.1902     7.6241  -999.2500  -999.2500     8.7855     7.8964    12.0353    78.6251     2.5329     0.0768     0.0229
 1428.0000   -36.0369     7.6073  -999.2500  -999.2500     8.6476     7.8891    12.0361    78.0999     2.5470     0.0674     0.0286
 1428.5000   -35.9159     7.5915  -999.2500  -999.2500     8.5067     7.8817    12.0474    77.5507     2.5441     0.0576     0.0358
 1429.0000   -35.9140     7.5760  -999.2500  -999.2500     8.3677     7.8743    12.0595    78.8439     2.5599     0.0461     0.0433
 1429.5000   -35.9113     7.5608  -999.2500  -999.2500     8.2210     7.8670    12.0723    80.8567     2.5644     0.0519     0.0472
 1430.0000   -35.9128     7.5455  -999.2500  -999.2500     8.2630     7.8596    12.0834    80.8380     2.5493     0.0600     0.0442
 1430.5000   -35.9125     7.5302  -999.2500  -999.2500     8.3452     7.8523    12.0973    80.0899     2.5491     0.0596     0.0388
 1431.0000   -35.9124     7.5148  -999.2500  -999.2500     8.4287     7.8450    12.1090    79.3632     2.5478     0.0634     0.0336
 1431.5000   -35.9127     7.5102  -999.2500  -999.2500     8.5230     7.8377    12.1072    78.5746     2.5350     0.0720     0.0283
 1432.0000   -35.9126     7.5102  -999.2500  -999.2500     8.0736     7.8303    12.0747    78.5737     2.5337     0.0682     0.0231
 1432.5000   -35.9127     7.5101  -999.2500  -999.2500     8.1322     7.8231    12.0862    79.7643     2.5430     0.0595     0.0177
