~VERSION INFORMATION
 VERS.                2.0:   CWLS LOG ASCII STANDARD - VERSION 2.0
 WRAP.                 NO:   ONE LINE PER DEPTH STEP
~WELL INFORMATION
#MNEM.UNIT      DATA TYPE    INFORMATION
#----------   ------------   ------------------------------
 STRT.F           36.0000:   START DEPTH
 STOP.F          700.0000:   STOP DEPTH
 STEP.F            0.5000:   STEP LENGTH
 NULL.          -999.2500:   NO VALUE
 COMP. FENIX & SCISSON INC:   COMPANY
 WELL. NPR #3 13SX14 #13-14:   WELL
 FLD .             TEAPOT:   FIELD
 LOC .      S14 T38N R78W:   LOCATION
 CNTY.            NATRONA:   COUNTY
 STAT.            WYOMING:   STATE
 CTRY. UNITED STATES OF AMERICA:   COUNTRY
 SRVC.              Welex:   SERVICE COMPANY
 DATE.        28-FEB-1977:   LOGDATE
 API .       490251029600:   API NUMBER
~CURVE INFORMATION
#MNEM.UNIT       API CODE    CURVE DESCRIPTION
#----------   ------------   ------------------------------
 DEPT.F                  :   
 CALD.IN     45 280 60 00:   CALIPER FROM DENSITY LOG
 GRD .GAPI   45 310 01 00:   GAMMA RAY FROM DENSITY LOG
 CORR.G/C3   45 356 01 00:   DENSITY CORRECTION
 RHOB.G/C3   45 350 01 00:   BULK DENSITY
 DPHI.DEC    45 890 12 00:   DENSITY POROSITY SANDSTONE
 SPR .MV     07 010 01 00:   SPONTANEOUS POTENTIAL
 SGRD.OHMM   07 220 05 00:   SHALLOW RESISTIVITY
 ILD .OHMM   07 120 46 00:   INDUCTION LOG DEEP
 ILM .OHMM   07 120 44 00:   INDUCTION LOG MEDIUM
~PARAMETER INFORMATION
#MNEM.UNIT          VALUE    DESCRIPTION
#----------   ------------   ------------------------------
 PD  .                 GL:   PERMANENT DATUM
 EPD .F              5238:   ELEVATION PERMANENT DATUM
 LMF .                 GL:   LOG MEASURED FROM
 DMF .                 GL:   DRILLING MEASURED FROM
 EGL .F              5238:   GROUND LEVEL
 DATE.            2-28-77:   RUN DATE
 RUN .                  1:   RUN NUMBER
 DD  .F               710:   DEPTH DRILLER
 DL  .F               706:   DEPTH LOGGER
 BLI .F               704:   BOTTOM LOG INTERVAL
 TLI .F                42:   TOP LOG INTERVAL
 CS  .IN            8.625:   CASING SIZE
 CBD .F                42:   CASING BOTTOM DRILLER
 CBL .F                42:   CASING BOTTOM LOGGER
 BS  .IN            7.875:   BIT SIZE
 BSD .F               710:   BIT SIZE AT DEPTH
 DFT .           CHEM-GEL:   DRILLING FLUID TYPE
 DFD .                8.7:   DRILLING FLUID DENSITY
 DFV .                 33:   DRILLING FLUID VISCOSITY
 DFPH.                  7:   DRILLING FLUID PH
 DFL .                  8:   DRILLING FLUID LOSS
 MSS .          FLOW LINE:   MUD SAMPLE SOURCE
 RMS .OHMM           .382:   RESISTIVITY MUD SAMPLE
 MST .F                54:   MUD SAMPLE TEMPERATURE
 RMF .OHMM           .342:   RESISTIVITY MUD FILTRATE SAMPLE
 MFST.F                54:   MUD FILTRATE SAMPLE TEMPERATURE
 RMC .OHMM           .821:   RESISTIVITY MUD CAKE
 MCST.F                54:   MUD CAKE SAMPLE TEMPERATURE
 MFSS.           MEASURED:   MUD FILTRATE SAMPLE SOURCE
 MCSS.           MEASURED:   MUD CAKE SAMPLE SOURCE
 RMB .OHMM           .333:   RESISTIVITY MUD AT BHT
 BHT .F                62:   BOTTOM HOLE TEMPERATURE
 TCS .HRS               3:   TIME CURCULATED STOPPED
 MRT .F                62:   MAXIMUM RECORDED TEMPERATURE
 LUN .               8611:   LOGGING UNIT NUMBER
 LUL .           GILLETTE:   LOGGING UNIT LOCATION
 ENGI.               DOAK:   RECORDING ENGINEER
 WITN.               JAPP:   WITNESSED BY
 CLNT.            A2DTECH:   CLIENT CODE
 ORIG.       2", 5" PRINT:   ORIGIN OF DATA
 UWI .       490251029600:   UNIQUE WELL ID
 DICO. A2D Technologies, Inc.:   DIGITIZING COMPANY
~OTHER INFORMATION
~A   DEPT       CALD       GRD       CORR        RHOB     DPHI         SPR        SGRD      ILD        ILM   
# ...
  437.5000     8.0008   137.0163     0.0242     2.4644     0.1075   -44.0495     8.7048     5.7509     6.9114
  438.0000     7.9884   138.1306     0.0242     2.4630     0.1057   -44.2439    10.1096     6.0634     7.1565
  438.5000     7.9853   138.0176     0.0226     2.4731     0.1019   -44.4273     9.9637     6.3721     7.3955
  439.0000     7.9917   136.4774     0.0211     2.4815     0.0990   -44.4181     9.8498     6.6892     7.6426
  439.5000     7.9980   134.4016     0.0195     2.4729     0.1047   -44.3872    10.0961     7.0220     7.8801
  440.0000     8.0044   132.3138     0.0179     2.4613     0.1112   -44.3569    10.3310     7.2825     8.0900
  440.5000     8.0108   130.2245     0.0164     2.4577     0.1096   -44.3268    10.4894     7.1991     8.3055
  441.0000     8.0172   129.3206     0.0148     2.4662     0.1064   -44.2967    10.4894     7.1409     8.6430
  441.5000     8.0236   130.9857     0.0132     2.4675     0.1054   -44.2661    10.1541     7.0831     8.4690
  442.0000     8.0300   133.1851     0.0117     2.4554     0.1121   -44.2363     9.8380     7.0564     8.1532
  442.5000     8.0363   134.4991     0.0102     2.4457     0.1174   -44.2815     9.5317     6.9962     7.8492
  443.0000     8.0427   133.2778     0.0086     2.4365     0.1228   -44.3327     9.3046     6.9319     7.5565
  443.5000     8.0491   133.9377     0.0065     2.4329     0.1245   -44.3837     9.2222     6.8634     7.2542
  444.0000     8.0555   135.8397     0.0059     2.4393     0.1185   -44.4346     9.1342     6.6546     7.4247
  444.5000     8.0619   137.3701     0.0053     2.4531     0.1129   -44.4855     9.0471     6.3847     7.6668
  445.0000     8.0683   136.3240     0.0048     2.4640     0.1071   -44.5362     8.9608     6.1257     7.3068
  445.5000     8.0748   134.2945     0.0096     2.4593     0.1099   -44.5871     8.8039     5.8773     6.9996
  446.0000     8.0813   132.2536     0.0151     2.4536     0.1133   -44.6456     8.5693     5.6389     6.9095
  446.5000     8.0717   130.2102     0.0206     2.4590     0.1109   -44.7585     8.2527     5.4102     6.4668
  447.0000     8.0604   128.5937     0.0261     2.4660     0.1077   -44.8721     8.0176     5.2386     6.2565
  447.5000     8.0491   129.7152     0.0316     2.4706     0.1042   -44.9855     7.8852     5.1077     6.2561
  448.0000     8.0379   131.8920     0.0374     2.4664     0.1072   -45.0990     7.6254     4.9798     6.2627
  448.5000     8.0266   134.0847     0.0348     2.4543     0.1134   -45.2127     7.1899     4.8550     5.7277
  449.0000     8.0154   136.2776     0.0292     2.4424     0.1196   -45.3262     6.0847     4.7455     5.3478
  449.5000     8.0041   138.4313     0.0235     2.4305     0.1258   -45.4189     5.2968     4.7453     4.9792
  450.0000     7.9929   139.8388     0.0178     2.4190     0.1299   -45.3492     6.9456     4.9898     5.5621
  450.5000     7.9817   137.1235     0.0170     2.4128     0.1238   -45.2791     8.2578     5.1862     6.0327
  451.0000     7.9704   134.9551     0.0211     2.4501     0.1113   -45.2677     8.8975     5.3899     6.3173
  451.5000     7.9592   132.7945     0.0252     2.4795     0.0988   -45.4225     9.6541     5.6014     6.6468
  452.0000     7.9480   131.9089     0.0293     2.4967     0.0916   -45.5153     9.6962     5.8211     7.0312
  452.5000     7.9434   134.4139     0.0333     2.5013     0.0867   -45.6092     9.7561     6.0494     7.4379
  453.0000     7.9481   138.1418     0.0374     2.5055     0.0823   -45.7042     9.8164     6.2867     7.8682
  453.5000     7.9527   141.3065     0.0417     2.5027     0.0854   -45.7993     9.8771     6.5333     8.1779
  454.0000     7.9569   139.7841     0.0417     2.4987     0.0882   -45.8944     9.9381     6.7895     8.0607
  454.5000     7.9595   137.9771     0.0402     2.4976     0.0863   -45.9896    10.0168     7.0558     7.8994
  455.0000     7.9760   138.8144     0.0384     2.5066     0.0828   -46.0842     9.9478     7.3214     7.6668
  455.5000     7.9633   139.8180     0.0342     2.5125     0.0791   -46.1792     9.8525     7.2824     7.9380
  456.0000     7.9513   140.8230     0.0308     2.5051     0.0830   -46.1829     9.7582     7.2182     8.6430
  456.5000     7.9389   141.7993     0.0276     2.4954     0.0888   -46.1122     9.6647     7.1529     8.4288
  457.0000     7.9259   142.0185     0.0244     2.4859     0.0947   -46.0365     9.5655     7.0871     8.1779
  457.5000     7.9224   139.7775     0.0212     2.4885     0.0939   -46.1508     9.6124     7.0219     8.4956
  458.0000     7.9273   137.2746     0.0180     2.4799     0.0951   -46.3137     9.7016     6.9915     8.7612
  458.5000     7.9332   134.8015     0.0148     2.4701     0.1027   -46.3514     9.7916     7.0650     8.3159
  459.0000     7.9391   132.3265     0.0116     2.4623     0.1098   -46.1499     9.8338     7.1306     7.8818
  459.5000     7.9449   130.5244     0.0084     2.4588     0.1084   -46.0746     9.6556     7.1802     8.0541
  460.0000     7.9508   129.0088     0.0052     2.4554     0.1106   -46.2195     9.5374     7.1125     8.2422
  460.5000     7.9566   126.5822     0.0020     2.4520     0.1135   -46.3623     9.4206     7.0563     8.4334
  461.0000     7.9625   128.0567    -0.0012     2.4486     0.1164   -46.3285     9.3046     7.1249     8.7193
  461.5000     7.9683   130.8436    -0.0030     2.4451     0.1185   -46.1753     9.5097     7.1879     8.4172
  462.0000     7.9742   133.6423    -0.0026     2.4481     0.1169   -46.0324     9.7319     7.0850     7.8912
  462.5000     7.9800   135.9880     0.0003     2.4532     0.1138   -46.1946     9.9593     6.9779     7.5956
  463.0000     7.9859   136.7110     0.0026     2.4583     0.1106   -46.3702    10.0168     6.8611     7.7314
  463.5000     7.9917   136.1679     0.0047     2.4634     0.1074   -46.5434     9.7328     6.9249     7.9821
  464.0000     7.9974   134.9819     0.0069     2.4685     0.1043   -46.7150     9.5655     6.9785     8.2536
  464.5000     8.0025   134.2045     0.0091     2.4736     0.1011   -46.7989     9.7952     6.9915     8.1779
  465.0000     8.0148   135.9980     0.0112     2.4788     0.0979   -46.7513     9.9056     6.9913     7.8383
  465.5000     8.0274   137.9903     0.0134     2.4792     0.0985   -46.7046     9.6881     6.7877     7.3864
  466.0000     8.0399   140.5733     0.0155     2.4761     0.0997   -46.6569     9.3908     6.5821     6.9605
  466.5000     8.0523   144.4124     0.0177     2.4772     0.0999   -46.6093     9.4888     6.3823     6.7528
  467.0000     8.0617   146.4414     0.0177     2.4799     0.0993   -46.5618     9.7624     6.1889     6.5606
  467.5000     8.0507   143.6025     0.0148     2.4738     0.1014   -46.5141    10.1096     6.0012     6.3740
  468.0000     8.0397   142.7278     0.0119     2.4649     0.1071   -46.4664     8.9080     5.5523     6.1926
  468.5000     8.0289   146.1946     0.0090     2.4560     0.1127   -46.4225     7.5267     5.7080     6.0163
  469.0000     8.0180   149.5339     0.0060     2.4471     0.1201   -46.4299     8.2354     5.6615     5.8451
  469.5000     8.0072   148.0582     0.0076     2.4428     0.1182   -46.4386     8.7231     5.5393     5.7080
  470.0000     7.9963   145.2092     0.0118     2.4531     0.1146   -46.4470     8.1779     5.4198     5.6310
  470.5000     7.9855   143.0519     0.0160     2.4609     0.1110   -46.4554     8.6150     5.3029     5.4957
  471.0000     7.9746   144.0794     0.0202     2.4669     0.1074   -46.4638     9.2192     5.1885     5.3638
  471.5000     7.9638   145.0366     0.0244     2.4637     0.1070   -46.4722     9.2192     5.0765     5.2349
  472.0000     7.9528   145.9588     0.0254     2.4452     0.1172   -46.4806     7.6523     4.9670     5.0620
  472.5000     7.9428   146.1702     0.0176     2.4262     0.1256   -46.4890     4.6344     4.8800     5.0748
  473.0000     7.9534   143.2088     0.0099     2.4075     0.1339   -46.4973     4.1720     4.8800     5.0883
  473.5000     7.9648   140.2984     0.0082     2.3944     0.1368   -46.5057     9.0508     4.8268     5.1026
