~VERSION INFORMATION
 VERS.                2.0:   CWLS LOG ASCII STANDARD - VERSION 2.0
 WRAP.                 NO:   ONE LINE PER DEPTH STEP
~WELL INFORMATION
#MNEM.UNIT      DATA TYPE    INFORMATION
#----------   ------------   ------------------------------
 STRT.F           80.0000:   START DEPTH
 STOP.F          814.0000:   STOP DEPTH
 STEP.F            0.5000:   STEP LENGTH
 NULL.          -999.2500:   NO VALUE
 COMP.          U.S. NAVY:   COMPANY
 WELL. RES 3 TEAPOT DOM #17-S-35:   WELL
 FLD .             TEAPOT:   FIELD
 LOC .      S35 T39N R78W:   LOCATION
 CNTY.            NATRONA:   COUNTY
 STAT.            WYOMING:   STATE
 CTRY. UNITED STATES OF AMERICA:   COUNTRY
 SRVC. Schlumberger Well Surveying Corp:   SERVICE COMPANY
 DATE.        20-JUL-1952:   LOGDATE
 API .       490250650200:   API NUMBER
~CURVE INFORMATION
#MNEM.UNIT       API CODE    CURVE DESCRIPTION
#----------   ------------   ------------------------------
 DEPT.F                  :   
 SPR .MV     05 010 01 00:   SPONTANEOUS POTENTIAL FROM RES.
 ILD .OHMM   05 120 46 00:   INDUCTION LOG DEEP
 ASN .OHMM   05 041 16 00:   AMPLIFIED SHORT NORMAL 16"
 CILD.MMHO   05 110 46 00:   CONDUCTIVITY INDUCTION LOG DEEP
 GR  .GAPI   30 310 01 00:   GAMMA RAY
~PARAMETER INFORMATION
#MNEM.UNIT          VALUE    DESCRIPTION
#----------   ------------   ------------------------------
 PD  .                 KB:   PERMANENT DATUM
 LMF .                 KB:   LOG MEASURED FROM
 DMF .                 KB:   DRILLING MEASURED FROM
 EKB .F              5101:   KELLING BUSHING
 EGL .F              5096:   GROUND LEVEL
 DATE.        20-JUL-1962:   RUN DATE
 RUN .                  1:   RUN NUMBER
 DD  .F               815:   DEPTH DRILLER
 DL  .F               815:   DEPTH LOGGER
 BLI .F               814:   BOTTOM LOG INTERVAL
 TLI .F                80:   TOP LOG INTERVAL
 BS  .IN             6.75:   BIT SIZE
 BSD .F               815:   BIT SIZE AT DEPTH
 DFT .       OIL EMULSION:   DRILLING FLUID TYPE
 DFD .               10.0:   DRILLING FLUID DENSITY
 DFV .                 45:   DRILLING FLUID VISCOSITY
 DFL .                2.7:   DRILLING FLUID LOSS
 RMS .OHMM           3.64:   RESISTIVITY MUD SAMPLE
 MST .F                89:   MUD SAMPLE TEMPERATURE
 RMF .OHMM           3.01:   RESISTIVITY MUD FILTRATE SAMPLE
 MFST.F                89:   MUD FILTRATE SAMPLE TEMPERATURE
 RMC .OHMM           3.41:   RESISTIVITY MUD CAKE
 MCST.F                89:   MUD CAKE SAMPLE TEMPERATURE
 RMB .OHMM           3.41:   RESISTIVITY MUD AT BHT
 BHT .F                89:   BOTTOM HOLE TEMPERATURE
 TCS .HRS              .5:   TIME CURCULATED STOPPED
 LUN .               2503:   LOGGING UNIT NUMBER
 LUL .               CSPR:   LOGGING UNIT LOCATION
 ENGI.             DANNER:   RECORDING ENGINEER
 WITN.          JORGENSEN:   WITNESSED BY
 CLNT.            A2DTECH:   CLIENT CODE
 ORIG.           5" PRINT:   ORIGIN OF DATA
 UWI .       490250650200:   UNIQUE WELL ID
 DICO. A2D Technologies, Inc.:   DIGITIZING COMPANY
~OTHER INFORMATION
~A   DEPT      SPR          ILD        ASN      CILD        GR   
# ...
  568.0000   -46.5494     5.6476     6.0779   187.4453   114.8408
  568.5000   -46.5604     5.3284     5.8572   194.5489    98.3354
  569.0000   -46.5715     5.1665     5.7308   196.9330   108.9929
  569.5000   -46.8964     5.1618     5.6987   190.6928   105.9158
  570.0000   -47.2423     5.2359     5.6509   190.7417   119.1991
  570.5000   -48.2222     5.3882     5.6817   188.4261   124.3010
  571.0000   -49.4412     5.8552     6.1842   175.1215   122.9191
  571.5000   -48.9806     6.4008     6.6396   165.7415   117.5272
  572.0000   -48.5206     6.8678     6.9220   153.2219   124.6975
  572.5000   -48.3746     7.3348     7.2043   144.6268   126.3426
  573.0000   -48.3882     7.5660     7.3295   137.6017   128.0491
  573.5000   -48.2394     7.6399     7.4547   133.7162   120.6510
  574.0000   -48.0934     7.7138     7.5641   131.4006   126.8332
  574.5000   -48.1071     7.7877     7.6578   131.4397   126.5339
  575.0000   -48.1180     7.8616     7.7725   130.6842   123.7654
  575.5000   -48.1289     7.8569     7.9081   129.1633   120.3797
  576.0000   -48.1399     7.9308     7.9704   127.6327   112.0557
  576.5000   -47.9911     8.0048     8.0484   125.3170   114.8428
  577.0000   -47.8450     8.1573     8.1106   122.2165   122.8769
  577.5000   -47.6990     8.3150     8.2044   122.2557   109.7689
  578.0000   -47.2417     8.4624     8.3295   122.2949   102.8338
  578.5000   -47.8806     8.5436     8.5018   122.3340   109.1703
  579.0000   -48.5194     8.6888     8.5956   121.5785   104.7043
  579.5000   -48.5304     8.7627     8.6578   120.8328   123.3865
  580.0000   -48.5413     8.8366     8.7045   119.3119   118.1489
  580.5000   -48.2383     8.8317     8.7196   118.5563   112.1397
  581.0000   -47.9352     8.9058     8.7188   117.0257   109.9886
  581.5000   -48.5741     8.9798     8.7182   116.2799   106.2919
  582.0000   -49.2130     8.9749     8.7490   115.5342   118.4949
  582.5000   -49.5379     8.8906     8.7956   115.5831   104.9240
  583.0000   -49.7058     8.8073     8.8580   117.1922   120.3654
  583.5000   -49.7167     8.8026     8.8258   118.8012   131.7945
  584.0000   -49.7277     8.7192     8.6993   118.8404   119.6125
  584.5000   -49.5789     8.5573     8.5572   118.8796   118.6936
  585.0000   -49.4356     8.3954     8.4151   117.3489   122.0980
  585.5000   -49.1325     8.2334     8.2572   116.6031   101.1220
  586.0000   -48.3585     8.1501     8.1308   116.6423   113.6313
  586.5000   -47.7415     7.9096     8.0044   117.4664   124.4432
  587.0000   -47.2810     7.6690     7.8780   119.8604   122.8767
  587.5000   -47.1350     7.5071     7.7044   122.2544   132.6904
  588.0000   -47.7743     7.2665     7.5151   129.3579   146.0224
  588.5000   -48.5702     6.9474     7.0585   138.0313   154.1078
  589.0000   -49.0521     6.5496     6.7277   148.2746   152.5739
  589.5000   -49.2200     6.1518     6.3968   160.8726   144.7129
  590.0000   -48.9170     5.6754     6.0817   174.2556   145.3395
  590.5000   -48.4570     5.0418     5.4994   215.8724   140.5649
  591.0000   -48.1539     4.4081     5.1214   274.0200   151.1195
  591.5000   -48.1649     3.8531     4.6962   318.0153   133.3305
  592.0000   -47.8618     3.3767     4.0824   349.4516   141.5188
  592.5000   -47.7106     2.9789     3.6100   390.3071   134.2751
  593.0000   -47.2474     2.5811     3.4365   420.9585   126.2597
  593.5000   -46.3134     2.4192     3.4201   434.3415   133.6765
  594.0000   -45.5364     2.3359     3.4195   446.1546   122.5747
  594.5000   -45.0907     2.4098     3.2773   455.6130   111.1643
  595.0000   -44.9447     2.4849     3.0723   443.0933   120.8958
  595.5000   -44.7986     2.7149     3.0393   388.1874   111.4916
  596.0000   -44.8101     3.0246     3.5428   338.7760   117.6738
  596.5000   -45.0083     3.4916     4.2968   294.8592   122.6214
  597.0000   -45.4621     4.1159     4.3277   252.5122   118.3097
  597.5000   -46.1010     4.9759     4.5157   222.7240   108.4425
  598.0000   -46.8969     5.8360     5.6786   196.8605   114.3161
  598.5000   -47.0648     6.2244     6.0553   174.9217   126.9797
  599.0000   -47.0757     6.4567     6.2277   161.6171   121.8965
  599.5000   -47.0867     6.6867     6.3371   152.2371   116.5688
  600.0000   -46.9242     6.7657     6.3365   145.9969   115.7400
  600.5000   -47.1025     6.7890     6.3712   140.5660   134.7331
  601.0000   -47.5797     6.8123     6.4059   142.9753   145.5449
  601.5000   -46.9580     6.7442     6.4294   145.3846   148.0211
  602.0000   -46.1794     6.8187     6.4937   147.7939   142.8457
  602.5000   -45.7131     6.8118     6.5880   150.9882   142.6385
  603.0000   -45.7209     6.7278     6.6667   155.7523   130.3646
  603.5000   -45.7271     6.6437     6.6948   163.6561   124.4473
  604.0000   -45.7334     6.4024     6.3326   174.6997   124.4052
  604.5000   -45.5825     6.0824     6.0177   192.8076   121.3795
  605.0000   -45.4317     5.7625     5.7027   203.0662   129.5679
  605.5000   -45.4382     5.4426     5.4664   207.8303   138.3735
  606.0000   -45.4444     5.2012     5.4818   212.5944   141.6236
  606.5000   -45.2936     4.9599     5.3240   219.7133   147.1885
  607.0000   -45.1428     4.7971     5.0091   228.4021   152.8147
  607.5000   -45.1492     4.7130     5.1186   233.1526   139.6455
  608.0000   -44.9985     4.8649     5.3698   225.3715   133.0190
  608.5000   -45.3199     5.0167     5.4637   216.7918   146.9149
  609.0000   -45.9571     5.2584     5.4632   205.8573   147.6982
  609.5000   -46.4375     5.6481     5.5099   193.3530   158.8186
  610.0000   -46.2689     6.0209     6.1698   181.6336   159.4452
  610.5000   -45.6442     6.3299     6.4523   171.4840   165.1644
  611.0000   -45.0359     6.6389     6.6405   162.9043   155.1429
  611.5000   -45.0226     7.0265     6.9074   153.5030   133.7016
  612.0000   -44.8915     7.4141     7.3157   145.6607   119.9741
  612.5000   -45.1963     7.6445     7.5668   139.3900   133.1007
  613.0000   -45.5329     7.7977     7.7078   133.8141   120.6124
  613.5000   -45.8531     7.8708     7.8174   126.8469   142.0723
  614.0000   -46.4873     7.8640     7.8327   124.7700   148.7175
  614.5000   -46.9645     7.7799     7.7693   127.1930   150.5763
  615.0000   -47.2848     7.6958     7.6588   128.8174   145.3410
  615.5000   -47.1340     7.5331     7.6041   132.0116   140.5664
  616.0000   -46.6693     7.3704     7.5321   135.2059   136.4091
  616.5000   -46.3600     7.1291     7.3744   139.1850   141.9740
  617.0000   -46.5248     6.8878     7.2318   146.3040   139.9444
  617.5000   -47.3160     6.4892     7.0872   151.8530   136.5891
  618.0000   -48.4212     6.2479     6.8648   162.1116   134.0275
  618.5000   -48.8984     6.0066     6.6457   171.5853   119.9411
  619.0000   -48.7461     5.7653     6.4491   182.6288   133.3253
  619.5000   -48.5953     5.4454     6.1502   192.8875   130.5771
  620.0000   -48.2892     5.1254     5.8301   200.0064   137.4074
  620.5000   -48.2954     5.1200     5.7196   200.8322   144.9785
  621.0000   -48.4586     5.1145     5.7035   195.4059   147.9199
  621.5000   -48.3079     5.2665     5.9388   192.3207   146.5403
  622.0000   -47.8432     5.4966     6.1112   188.4506   130.8089
  622.5000   -47.0645     5.8843     6.2523   183.0106   128.6060
  623.0000   -46.9137     6.3505     6.7550   174.4309   131.0738
  623.5000   -47.0770     6.5809     7.1947   165.0663   137.4728
  624.0000   -47.5542     6.9685     7.3358   152.5620   133.9304
  624.5000   -47.7175     7.3561     7.4297   143.9823   141.5014
  625.0000   -47.7237     7.5079     7.5078   138.5423   129.9391
  625.5000   -47.7300     7.5810     7.5860   133.8873   146.1521
  626.0000   -47.5731     7.6542     7.6641   132.3705   148.0133
  626.5000   -47.4285     7.6487     7.7265   132.4265   155.4300
  627.0000   -47.5918     7.7218     7.8047   133.2659   144.1739
  627.5000   -47.5982     7.7950     7.8828   135.6753   142.1748
  628.0000   -47.6044     7.8681     7.9767   135.7298   134.4680
  628.5000   -47.4535     7.9557     8.0548   133.4296   157.3192
