~VERSION INFORMATION
 VERS.                2.0:   CWLS LOG ASCII STANDARD - VERSION 2.0
 WRAP.                 NO:   ONE LINE PER DEPTH STEP
~WELL INFORMATION
#MNEM.UNIT      DATA TYPE    INFORMATION
#----------   ------------   ------------------------------
 STRT.F            0.0000:   START DEPTH
 STOP.F         3024.5000:   STOP DEPTH
 STEP.F            0.5000:   STEP LENGTH
 NULL.          -999.2500:   NO VALUE
 COMP. LAWRENCE/ALLISON INC:   COMPANY
 WELL.   NPR 3 77X #77-28:   WELL
 FLD .           N.P.R. 3:   FIELD
 LOC .      S28 T39N R78W:   LOCATION
 CNTY.            NATRONA:   COUNTY
 STAT.            WYOMING:   STATE
 CTRY. UNITED STATES OF AMERICA:   COUNTRY
 SRVC.      Dresser Atlas:   SERVICE COMPANY
 DATE.        19-OCT-1986:   LOGDATE
 API .       490251110400:   API NUMBER
~CURVE INFORMATION
#MNEM.UNIT       API CODE    CURVE DESCRIPTION
#----------   ------------   ------------------------------
 DEPT.F                  :   
 PORD.DEC    45 890 12 00:   DENSITY POROSITY SANDSTONE
 CNC .DEC    42 890 03 00:   NEUTRON POROSITY SANDSTONE
 DEN .G/C3   45 350 01 00:   COMPENSATED BULK DENSTIY
 CORR.G/C3   45 356 01 00:   DENSITY CORRECTION
 CALD.IN     45 280 60 00:   CALIPER FROM DENSITY LOG
 GRR .GAPI   07 310 01 00:   GAMMA RAY FROM RES. LOG.
 RFOC.OHMM   07 220 04 00:   RESISTIVITY FOCUSED LOG
 RILD.OHMM   07 120 46 00:   INDUCTION LOG DEEP RESISTIVITY
 RILM.OHMM   07 120 44 00:   INDUCTION LOG MEDIUM RESISTIVITY
 SPR .MV     07 010 01 00:   SPONTANEOUS POTENTIAL
~PARAMETER INFORMATION
#MNEM.UNIT          VALUE    DESCRIPTION
#----------   ------------   ------------------------------
 PD  .                 GL:   PERMANENT DATUM
 EPD .F              5074:   ELEVATION PERMANENT DATUM
 LMF .                 KB:   LOG MEASURED FROM
 DAPD.F                12:   FEET ABOVE PERMANENT DATUM
 DMF .                 KB:   DRILLING MEASURED FROM
 EKB .F              5086:   KELLING BUSHING
 EGL .F              5074:   GROUND LEVEL
 DATE.           10-19-86:   RUN DATE
 RUN .                  1:   RUN NUMBER
 DD  .F              3021:   DEPTH DRILLER
 DL  .F              3025:   DEPTH LOGGER
 BLI .F              3023:   BOTTOM LOG INTERVAL
 CS  .IN            8.625:   CASING SIZE
 CBD .F               620:   CASING BOTTOM DRILLER
 CBL .F               615:   CASING BOTTOM LOGGER
 BS  .IN            7.875:   BIT SIZE
 BSD .F              3021:   BIT SIZE AT DEPTH
 DFT .        KCL POLYMER:   DRILLING FLUID TYPE
 DFD .                8.9:   DRILLING FLUID DENSITY
 DFV .                 38:   DRILLING FLUID VISCOSITY
 DFPH.                9.5:   DRILLING FLUID PH
 DFL .               11.2:   DRILLING FLUID LOSS
 MSS .           FLOWLINE:   MUD SAMPLE SOURCE
 RMS .OHMM            .25:   RESISTIVITY MUD SAMPLE
 MST .F                65:   MUD SAMPLE TEMPERATURE
 RMF .OHMM           .203:   RESISTIVITY MUD FILTRATE SAMPLE
 MFST.F                65:   MUD FILTRATE SAMPLE TEMPERATURE
 RMC .OHMM            .31:   RESISTIVITY MUD CAKE
 MCST.F                65:   MUD CAKE SAMPLE TEMPERATURE
 MFSS.               MEAS:   MUD FILTRATE SAMPLE SOURCE
 MCSS.               CALC:   MUD CAKE SAMPLE SOURCE
 RMB .OHMM           .136:   RESISTIVITY MUD AT BHT
 BHT .F               119:   BOTTOM HOLE TEMPERATURE
 TCS .HRS               5:   TIME CURCULATED STOPPED
 MRT .F               119:   MAXIMUM RECORDED TEMPERATURE
 LUN .               6274:   LOGGING UNIT NUMBER
 LUL .               GLTE:   LOGGING UNIT LOCATION
 ENGI.             RAUTIO:   RECORDING ENGINEER
 WITN.             STRONG:   WITNESSED BY
 CLNT.            A2DTECH:   CLIENT CODE
 ORIG.       2", 5" PRINT:   ORIGIN OF DATA
 UWI .       490251110400:   UNIQUE WELL ID
 DICO. A2D Technologies, Inc.:   DIGITIZING COMPANY
~OTHER INFORMATION
~A    DEPT    PORD        CNC        DEN       CORR       CALD        GRR       RFOC       RILD       RILM        SPR   
# ...
 1407.0000  -999.2500  -999.2500  -999.2500  -999.2500  -999.2500   101.6735     5.9570     5.8286     5.3906   -78.1519
 1407.5000  -999.2500  -999.2500  -999.2500  -999.2500  -999.2500    99.5434     5.8286     5.8286     5.4976   -77.6529
 1408.0000  -999.2500  -999.2500  -999.2500  -999.2500  -999.2500    99.6718     5.8286     5.8285     5.6067   -77.6266
 1408.5000  -999.2500  -999.2500  -999.2500  -999.2500  -999.2500   100.0045     6.1329     5.8217     5.6699   -77.9811
 1409.0000  -999.2500  -999.2500  -999.2500  -999.2500  -999.2500   100.0006     6.3634     5.8058     5.6565   -78.5296
 1409.5000  -999.2500  -999.2500  -999.2500  -999.2500  -999.2500    99.9931     6.6299     5.7899     5.6457   -79.1033
 1410.0000  -999.2500  -999.2500  -999.2500  -999.2500  -999.2500   101.2336     6.5771     5.7740     5.6348   -79.2216
 1410.5000  -999.2500  -999.2500  -999.2500  -999.2500  -999.2500   103.4291     6.4830     5.7582     5.6240   -79.6204
 1411.0000  -999.2500  -999.2500  -999.2500  -999.2500  -999.2500   105.6322     6.3904     5.7424     5.6132   -80.2675
 1411.5000  -999.2500  -999.2500  -999.2500  -999.2500  -999.2500   106.7558     6.3918     5.7267     5.6024   -80.9219
 1412.0000  -999.2500  -999.2500  -999.2500  -999.2500  -999.2500   106.7802     6.2323     5.7223     5.5916   -81.5762
 1412.5000  -999.2500  -999.2500  -999.2500  -999.2500  -999.2500   107.7496     6.1590     5.7223     5.5809   -82.2270
 1413.0000  -999.2500  -999.2500  -999.2500  -999.2500  -999.2500   108.4023     6.3647     5.7223     5.5702   -82.6597
 1413.5000  -999.2500  -999.2500  -999.2500  -999.2500  -999.2500   106.5962     6.5403     5.7223     5.5595   -82.7818
 1414.0000  -999.2500  -999.2500  -999.2500  -999.2500  -999.2500   104.5105     6.6324     5.7223     5.5488   -82.9069
 1414.5000  -999.2500  -999.2500  -999.2500  -999.2500  -999.2500   103.5996     6.3318     5.7223     5.5382   -83.0309
 1415.0000  -999.2500  -999.2500  -999.2500  -999.2500  -999.2500   102.8235     6.3318     5.7223     5.5276   -83.1567
 1415.5000  -999.2500  -999.2500  -999.2500  -999.2500  -999.2500   101.5862     6.5285     5.7223     5.5169   -83.1822
 1416.0000  -999.2500  -999.2500  -999.2500  -999.2500  -999.2500   101.4532     6.6299     5.7223     5.5155   -83.1552
 1416.5000  -999.2500  -999.2500  -999.2500  -999.2500  -999.2500   103.8469     6.3595     5.7223     5.5169   -83.1270
 1417.0000  -999.2500  -999.2500  -999.2500  -999.2500  -999.2500   106.9468     6.2164     5.7223     5.5268   -83.0988
 1417.5000  -999.2500  -999.2500  -999.2500  -999.2500  -999.2500   110.0754     6.3157     5.7223     5.5367   -83.0706
 1418.0000  -999.2500  -999.2500  -999.2500  -999.2500  -999.2500   110.0591     6.4812     5.7223     5.5465   -83.0427
 1418.5000  -999.2500  -999.2500  -999.2500  -999.2500  -999.2500   107.2801     6.6299     5.7223     5.5564   -83.0141
 1419.0000  -999.2500  -999.2500  -999.2500  -999.2500  -999.2500   104.5006     6.4748     5.7223     5.5665   -83.1042
 1419.5000  -999.2500  -999.2500  -999.2500  -999.2500  -999.2500   103.9849     6.2738     5.7222     5.6351   -83.2886
 1420.0000  -999.2500  -999.2500  -999.2500  -999.2500  -999.2500   104.6919     6.4874     5.7223     5.7064   -83.4742
 1420.5000  -999.2500  -999.2500  -999.2500  -999.2500  -999.2500   106.3655     6.7565     5.7763     5.7787   -83.6618
 1421.0000  -999.2500  -999.2500  -999.2500  -999.2500  -999.2500   107.0824     6.9421     5.8393     5.8518   -83.8421
 1421.5000  -999.2500  -999.2500  -999.2500  -999.2500  -999.2500   109.8477     6.7434     5.9030     5.9259   -83.8443
 1422.0000  -999.2500  -999.2500  -999.2500  -999.2500  -999.2500   113.3749     6.5404     5.9674     6.0009   -83.6121
 1422.5000  -999.2500  -999.2500  -999.2500  -999.2500  -999.2500   112.9000     6.5090     6.0328     6.0769   -83.4320
 1423.0000  -999.2500  -999.2500  -999.2500  -999.2500  -999.2500   110.6422     6.8288     6.1030     6.1594   -83.2492
 1423.5000  -999.2500  -999.2500  -999.2500  -999.2500  -999.2500   108.4327     7.0080     6.1030     6.1594   -83.0659
 1424.0000  -999.2500  -999.2500  -999.2500  -999.2500  -999.2500   108.3279     7.0078     6.1382     6.1594   -82.8827
 1424.5000  -999.2500  -999.2500  -999.2500  -999.2500  -999.2500   108.3816     7.0063     6.2282     6.2386   -82.7005
 1425.0000  -999.2500  -999.2500  -999.2500  -999.2500  -999.2500   105.8049     7.0061     6.3194     6.3366   -82.6293
 1425.5000  -999.2500  -999.2500  -999.2500  -999.2500  -999.2500   102.1284     7.0063     6.4121     6.4360   -82.6821
 1426.0000  -999.2500  -999.2500  -999.2500  -999.2500  -999.2500   102.3820     7.0534     6.5062     6.5371   -82.7344
 1426.5000  -999.2500  -999.2500  -999.2500  -999.2500  -999.2500   106.6935     7.1390     6.6015     6.6398   -82.7872
 1427.0000  -999.2500  -999.2500  -999.2500  -999.2500  -999.2500   110.0671     7.2252     6.6912     6.7438   -82.8397
 1427.5000  -999.2500  -999.2500  -999.2500  -999.2500  -999.2500   107.6199     7.3125     6.7555     6.8799   -82.8923
 1428.0000  -999.2500  -999.2500  -999.2500  -999.2500  -999.2500   104.8666     7.4008     6.7516     6.8569   -82.9448
 1428.5000  -999.2500  -999.2500  -999.2500  -999.2500  -999.2500   102.0798     7.4724     6.7529     6.7965   -82.9974
 1429.0000  -999.2500  -999.2500  -999.2500  -999.2500  -999.2500   103.1603     7.4724     6.7539     6.7363   -83.0499
 1429.5000  -999.2500  -999.2500  -999.2500  -999.2500  -999.2500   107.0027     7.3985     6.6184     6.6767   -83.1024
 1430.0000  -999.2500  -999.2500  -999.2500  -999.2500  -999.2500   108.3233     7.2890     6.5260     6.6175   -83.1550
 1430.5000  -999.2500  -999.2500  -999.2500  -999.2500  -999.2500   109.6673     7.1812     6.4349     6.5589   -83.2075
 1431.0000  -999.2500  -999.2500  -999.2500  -999.2500  -999.2500   111.9737     7.0749     6.3451     6.5009   -83.2601
 1431.5000  -999.2500  -999.2500  -999.2500  -999.2500  -999.2500   114.2975     6.9720     6.2565     6.4433   -83.3129
 1432.0000  -999.2500  -999.2500  -999.2500  -999.2500  -999.2500   115.9057     6.8112     6.1692     6.3862   -83.3654
 1432.5000  -999.2500  -999.2500  -999.2500  -999.2500  -999.2500   112.6166     6.8187     6.0833     6.3297   -83.3978
 1433.0000  -999.2500  -999.2500  -999.2500  -999.2500  -999.2500   108.9703     6.9509     6.0475     6.2738   -83.2805
 1433.5000  -999.2500  -999.2500  -999.2500  -999.2500  -999.2500   108.3223     7.0068     6.0463     6.2738   -83.1555
 1434.0000  -999.2500  -999.2500  -999.2500  -999.2500  -999.2500   110.4504     7.0064     6.1245     6.3390   -83.0308
 1434.5000  -999.2500  -999.2500  -999.2500  -999.2500  -999.2500   113.2281     7.0459     6.1792     6.3922   -82.9062
 1435.0000  -999.2500  -999.2500  -999.2500  -999.2500  -999.2500   111.5748     7.0710     6.2344     6.4458   -82.7817
 1435.5000  -999.2500  -999.2500  -999.2500  -999.2500  -999.2500   109.5016     7.0710     6.2901     6.4999   -82.6572
 1436.0000  -999.2500  -999.2500  -999.2500  -999.2500  -999.2500   107.6589     7.0709     6.3318     6.5090   -82.5325
 1436.5000  -999.2500  -999.2500  -999.2500  -999.2500  -999.2500   106.4789     7.0710     6.2607     6.4596   -82.4076
 1437.0000  -999.2500  -999.2500  -999.2500  -999.2500  -999.2500   105.3153     7.0597     6.1803     6.4034   -82.2850
 1437.5000  -999.2500  -999.2500  -999.2500  -999.2500  -999.2500   104.3388     7.0271     6.1009     6.3477   -82.2535
 1438.0000  -999.2500  -999.2500  -999.2500  -999.2500  -999.2500   105.3834     6.9945     6.0225     6.2926   -82.3820
 1438.5000  -999.2500  -999.2500  -999.2500  -999.2500  -999.2500   106.9704     6.9620     5.9451     6.2378   -82.5082
 1439.0000  -999.2500  -999.2500  -999.2500  -999.2500  -999.2500   107.1802     6.9298     5.9369     6.1836   -82.6349
 1439.5000  -999.2500  -999.2500  -999.2500  -999.2500  -999.2500   108.5773     6.8976     5.9369     6.1594   -82.7615
 1440.0000  -999.2500  -999.2500  -999.2500  -999.2500  -999.2500   110.1097     6.8785     5.9369     6.1594   -82.8883
