~VERSION INFORMATION
 VERS.                2.0:   CWLS LOG ASCII STANDARD - VERSION 2.0
 WRAP.                 NO:   ONE LINE PER DEPTH STEP
~WELL INFORMATION
#MNEM.UNIT      DATA TYPE    INFORMATION
#----------   ------------   ------------------------------
 STRT.F            0.0000:   START DEPTH
 STOP.F         2660.0000:   STOP DEPTH
 STEP.F            0.5000:   STEP LENGTH
 NULL.          -999.2500:   NO VALUE
 COMP. FENIX & SCISSON INC:   COMPANY
 WELL.     101-20 #101-20:   WELL
 FLD .        TEAPOT DOME:   FIELD
 LOC .      S20 T39N R78W:   LOCATION
 CNTY.            NATRONA:   COUNTY
 STAT.            WYOMING:   STATE
 CTRY. UNITED STATES OF AMERICA:   COUNTRY
 SRVC.      NL McCullough:   SERVICE COMPANY
 DATE.        19-SEP-1965:   LOGDATE
 API .       490251022100:   API NUMBER
~CURVE INFORMATION
#MNEM.UNIT       API CODE    CURVE DESCRIPTION
#----------   ------------   ------------------------------
 DEPT.F                  :   
 GR  .GAPI   30 310 01 00:   GAMMA RAY
 CALI.IN     30 280 01 00:   CALIPER
~PARAMETER INFORMATION
#MNEM.UNIT          VALUE    DESCRIPTION
#----------   ------------   ------------------------------
 PD  .                 GL:   PERMANENT DATUM
 LMF .                 GL:   LOG MEASURED FROM
 DMF .                 GL:   DRILLING MEASURED FROM
 DATE.          9-19-1965:   RUN DATE
 RUN .                  1:   RUN NUMBER
 DD  .F              2661:   DEPTH DRILLER
 DL  .F              2659:   DEPTH LOGGER
 BLI .F              2657:   BOTTOM LOG INTERVAL
 TLI .F              2000:   TOP LOG INTERVAL
 CS  .IN              6.5:   CASING SIZE
 CBD .F              2619:   CASING BOTTOM DRILLER
 BSD .F              2661:   BIT SIZE AT DEPTH
 DFT .              WATER:   DRILLING FLUID TYPE
 TCS .HRS               1:   TIME CURCULATED STOPPED
 ENGI.        FITZSIMMONS:   RECORDING ENGINEER
 WITN.          JORGENSEN:   WITNESSED BY
 CLNT.            A2DTECH:   CLIENT CODE
 ORIG.           5" PRINT:   ORIGIN OF DATA
 UWI .       490251022100:   UNIQUE WELL ID
 DICO. A2D Technologies, Inc.:   DIGITIZING COMPANY
~OTHER INFORMATION
~A    DEPT      GR         CALI 
# ...
  486.0000  -999.2500     6.5575
  486.5000  -999.2500     6.5564
  487.0000  -999.2500     6.5564
  487.5000  -999.2500     6.5564
  488.0000  -999.2500     6.5564
  488.5000  -999.2500     6.5564
  489.0000  -999.2500     6.5564
  489.5000  -999.2500     6.5564
  490.0000  -999.2500     6.5564
  490.5000  -999.2500     6.5564
  491.0000  -999.2500     6.5564
  491.5000  -999.2500     6.5564
  492.0000  -999.2500     6.5564
  492.5000  -999.2500     6.5564
  493.0000  -999.2500     6.5564
  493.5000  -999.2500     6.5564
  494.0000  -999.2500     6.5564
  494.5000  -999.2500     6.5564
  495.0000  -999.2500     6.5573
  495.5000  -999.2500     6.5609
  496.0000  -999.2500     6.5643
  496.5000  -999.2500     6.5664
  497.0000  -999.2500     6.5664
  497.5000  -999.2500     6.5664
  498.0000  -999.2500     6.5664
  498.5000  -999.2500     6.5664
  499.0000  -999.2500     6.5664
  499.5000  -999.2500     6.5664
  500.0000  -999.2500     6.5664
  500.5000  -999.2500     6.5664
  501.0000  -999.2500     6.5853
  501.5000  -999.2500     6.6173
  502.0000  -999.2500     6.5887
  502.5000  -999.2500     6.5565
  503.0000  -999.2500     6.5563
  503.5000  -999.2500     6.5563
  504.0000  -999.2500     6.5564
  504.5000  -999.2500     6.5564
  505.0000  -999.2500     6.5564
  505.5000  -999.2500     6.5564
  506.0000  -999.2500     6.5564
  506.5000  -999.2500     6.5564
  507.0000  -999.2500     6.5564
  507.5000  -999.2500     6.5564
  508.0000  -999.2500     6.5564
  508.5000  -999.2500     6.5564
  509.0000  -999.2500     6.5564
  509.5000  -999.2500     6.5564
  510.0000  -999.2500     6.5564
  510.5000  -999.2500     6.5564
  511.0000  -999.2500     6.5564
  511.5000  -999.2500     6.5564
  512.0000  -999.2500     6.5564
  512.5000  -999.2500     6.5564
  513.0000  -999.2500     6.5564
  513.5000  -999.2500     6.5564
  514.0000  -999.2500     6.5564
  514.5000  -999.2500     6.5564
  515.0000  -999.2500     6.5564
  515.5000  -999.2500     6.5564
  516.0000  -999.2500     6.5564
  516.5000  -999.2500     6.5564
  517.0000  -999.2500     6.5564
  517.5000  -999.2500     6.5564
  518.0000  -999.2500     6.5564
  518.5000  -999.2500     6.5564
  519.0000  -999.2500     6.5564
  519.5000  -999.2500     6.5564
  520.0000  -999.2500     6.5560
  520.5000  -999.2500     6.5742
  521.0000  -999.2500     6.5966
  521.5000  -999.2500     6.6097
  522.0000  -999.2500     6.5543
  522.5000  -999.2500     6.5488
  523.0000  -999.2500     6.5461
  523.5000  -999.2500     6.5455
  524.0000  -999.2500     6.5449
  524.5000  -999.2500     6.5443
  525.0000  -999.2500     6.5438
  525.5000  -999.2500     6.5432
  526.0000  -999.2500     6.5427
  526.5000  -999.2500     6.5421
  527.0000  -999.2500     6.5415
  527.5000  -999.2500     6.5410
  528.0000  -999.2500     6.5404
  528.5000  -999.2500     6.5399
  529.0000  -999.2500     6.5393
  529.5000  -999.2500     6.5387
  530.0000  -999.2500     6.5382
  530.5000  -999.2500     6.5376
  531.0000  -999.2500     6.5370
  531.5000  -999.2500     6.5364
  532.0000  -999.2500     6.5388
  532.5000  -999.2500     6.5420
  533.0000  -999.2500     6.5451
  533.5000  -999.2500     6.5483
  534.0000  -999.2500     6.5515
  534.5000  -999.2500     6.5547
  535.0000  -999.2500     6.5580
  535.5000  -999.2500     6.5612
  536.0000  -999.2500     6.5643
  536.5000  -999.2500     6.5644
  537.0000  -999.2500     6.5584
  537.5000  -999.2500     6.5524
  538.0000  -999.2500     6.5464
  538.5000  -999.2500     6.5404
  539.0000  -999.2500     6.5345
  539.5000  -999.2500     6.5284
  540.0000  -999.2500     6.5303
  540.5000  -999.2500     6.5363
  541.0000  -999.2500     6.5427
  541.5000  -999.2500     6.5591
  542.0000  -999.2500     6.5942
  542.5000  -999.2500     6.5914
  543.0000  -999.2500     6.5580
  543.5000  -999.2500     6.5540
  544.0000  -999.2500     6.5518
  544.5000  -999.2500     6.5495
  545.0000  -999.2500     6.5470
  545.5000  -999.2500     6.5502
  546.0000  -999.2500     6.5557
  546.5000  -999.2500     6.5612
  547.0000  -999.2500     6.5663
  547.5000  -999.2500     6.5665
  548.0000  -999.2500     6.5664
  548.5000  -999.2500     6.5664
  549.0000  -999.2500     6.5664
  549.5000  -999.2500     6.5668
  550.0000  -999.2500     6.5684
  550.5000  -999.2500     6.5700
  551.0000  -999.2500     6.5715
  551.5000  -999.2500     6.5731
  552.0000  -999.2500     6.5747
  552.5000  -999.2500     6.5763
  553.0000  -999.2500     6.5779
  553.5000  -999.2500     6.5794
  554.0000  -999.2500     6.5810
  554.5000  -999.2500     6.5826
  555.0000  -999.2500     6.5842
  555.5000  -999.2500     6.5858
  556.0000  -999.2500     6.5883
  556.5000  -999.2500     6.5918
  557.0000  -999.2500     6.5952
  557.5000  -999.2500     6.5955
  558.0000  -999.2500     6.5941
  558.5000  -999.2500     6.5925
  559.0000  -999.2500     6.5910
  559.5000  -999.2500     6.5895
  560.0000  -999.2500     6.5880
  560.5000  -999.2500     6.5866
  561.0000  -999.2500     6.5930
  561.5000  -999.2500     6.5999
  562.0000  -999.2500     6.6067
  562.5000  -999.2500     6.6135
  563.0000  -999.2500     6.6203
  563.5000  -999.2500     6.6272
  564.0000  -999.2500     6.6387
  564.5000  -999.2500     6.6373
  565.0000  -999.2500     6.6068
  565.5000  -999.2500     6.5774
  566.0000  -999.2500     6.5762
  566.5000  -999.2500     6.5764
  567.0000  -999.2500     6.5764
  567.5000  -999.2500     6.5764
  568.0000  -999.2500     6.5764
  568.5000  -999.2500     6.5764
  569.0000  -999.2500     6.5764
  569.5000  -999.2500     6.5764
  570.0000  -999.2500     6.5764
  570.5000  -999.2500     6.5764
  571.0000  -999.2500     6.5764
  571.5000  -999.2500     6.5764
  572.0000  -999.2500     6.5764
  572.5000  -999.2500     6.5764
  573.0000  -999.2500     6.5764
  573.5000  -999.2500     6.5764
  574.0000  -999.2500     6.5764
  574.5000  -999.2500     6.5764
  575.0000  -999.2500     6.5764
  575.5000  -999.2500     6.5764
  576.0000  -999.2500     6.5764
  576.5000  -999.2500     6.5764
  577.0000  -999.2500     6.5764
  577.5000  -999.2500     6.5764
  578.0000  -999.2500     6.5764
  578.5000  -999.2500     6.5764
  579.0000  -999.2500     6.5779
  579.5000  -999.2500     6.5804
  580.0000  -999.2500     6.5830
  580.5000  -999.2500     6.5855
  581.0000  -999.2500     6.5895
  581.5000  -999.2500     6.5942
  582.0000  -999.2500     6.6065
  582.5000  -999.2500     6.6249
  583.0000  -999.2500     6.6059
  583.5000  -999.2500     6.5761
  584.0000  -999.2500     6.5724
  584.5000  -999.2500     6.5686
  585.0000  -999.2500     6.5647
  585.5000  -999.2500     6.5608
  586.0000  -999.2500     6.5568
  586.5000  -999.2500     6.5587
  587.0000  -999.2500     6.5613
  587.5000  -999.2500     6.5640
  588.0000  -999.2500     6.5666
  588.5000  -999.2500     6.5692
  589.0000  -999.2500     6.5719
  589.5000  -999.2500     6.5745
  590.0000  -999.2500     6.5747
  590.5000  -999.2500     6.5666
  591.0000  -999.2500     6.5583
  591.5000  -999.2500     6.5570
  592.0000  -999.2500     6.5579
  592.5000  -999.2500     6.5588
  593.0000  -999.2500     6.5597
  593.5000  -999.2500     6.5606
  594.0000  -999.2500     6.5615
  594.5000  -999.2500     6.5623
  595.0000  -999.2500     6.5632
  595.5000  -999.2500     6.5641
  596.0000  -999.2500     6.5650
  596.5000  -999.2500     6.5659
  597.0000  -999.2500     6.5668
  597.5000  -999.2500     6.5677
  598.0000  -999.2500     6.5686
  598.5000  -999.2500     6.5695
  599.0000  -999.2500     6.5704
  599.5000  -999.2500     6.5712
  600.0000  -999.2500     6.5721
  600.5000  -999.2500     6.5730
  601.0000  -999.2500     6.5739
  601.5000  -999.2500     6.5748
  602.0000  -999.2500     6.5756
  602.5000  -999.2500     6.5786
  603.0000  -999.2500     6.5936
  603.5000  -999.2500     6.6080
  604.0000  -999.2500     6.5879
  604.5000  -999.2500     6.5456
  605.0000  -999.2500     6.5495
  605.5000  -999.2500     6.5532
  606.0000  -999.2500     6.5571
  606.5000  -999.2500     6.5610
  607.0000  -999.2500     6.5649
