~VERSION INFORMATION
 VERS.                2.0:   CWLS LOG ASCII STANDARD - VERSION 2.0
 WRAP.                 NO:   ONE LINE PER DEPTH STEP
~WELL INFORMATION
#MNEM.UNIT      DATA TYPE    INFORMATION
#----------   ------------   ------------------------------
 STRT.M           36.0000:   START DEPTH
 STOP.M          687.0000:   STOP DEPTH
 STEP.M            0.5000:   STEP LENGTH
 NULL.          -999.2500:   NO VALUE
 COMP. LAWRENCE/ALLISON INC:   COMPANY
 WELL.    53-1-STX #15-15:   WELL
 FLD .             TEAPOT:   FIELD
 LOC .      S15 T38N R78W:   LOCATION
 CNTY.            NATRONA:   COUNTY
 STAT.            WYOMING:   STATE
 CTRY. UNITED STATES OF AMERICA:   COUNTRY
 SRVC.           Gearhart:   SERVICE COMPANY
 DATE.        29-AUG-1987:   LOGDATE
 API .       490251118700:   API NUMBER
~CURVE INFORMATION
#MNEM.UNIT       API CODE    CURVE DESCRIPTION
#----------   ------------   ------------------------------
 DEPT.M                  :   
 GRR .GAPI   07 310 01 00:   GAMMA RAY
 ILD .OHMM   07 120 46 00:   INDUCTION LOG DEEP
 ILM .OHMM   07 120 44 00:   INDUCTION LOG MEDIUM
~PARAMETER INFORMATION
#MNEM.UNIT          VALUE    DESCRIPTION
#----------   ------------   ------------------------------
 PD  .                 GL:   PERMANENT DATUM
 EPD .F              5237:   ELEVATION PERMANENT DATUM
 LMF .                 KB:   LOG MEASURED FROM
 DAPD.F              10.5:   FEET ABOVE PERMANENT DATUM
 DMF .                 KB:   DRILLING MEASURED FROM
 EKB .F              5247:   KELLING BUSHING
 EDF .F            5246.5:   DRILLING FLOOR
 EGL .F              5237:   GROUND LEVEL
 DATE.        29-AUG-1987:   RUN DATE
 RUN .                  1:   RUN NUMBER
 DD  .F               695:   DEPTH DRILLER
 DL  .F               696:   DEPTH LOGGER
 BLI .F               688:   BOTTOM LOG INTERVAL
 TLI .F                37:   TOP LOG INTERVAL
 CS  .IN            9.625:   CASING SIZE
 CBD .F                48:   CASING BOTTOM DRILLER
 CBL .F                49:   CASING BOTTOM LOGGER
 BS  .IN             8.75:   BIT SIZE
 BSD .F               695:   BIT SIZE AT DEPTH
 DFT .                AIR:   DRILLING FLUID TYPE
 TCS .HRS            0400:   TIME CURCULATED STOPPED
 MRT .F                80:   MAXIMUM RECORDED TEMPERATURE
 LUN .               7597:   LOGGING UNIT NUMBER
 LUL .           GILLETTE:   LOGGING UNIT LOCATION
 ENGI.         WEATHERMON:   RECORDING ENGINEER
 WITN.             STRONG:   WITNESSED BY
 CLNT.            A2DTECH:   CLIENT CODE
 ORIG.       2", 5" PRINT:   ORIGIN OF DATA
 UWI .       490251118700:   UNIQUE WELL ID
 DICO. A2D Technologies, Inc.:   DIGITIZING COMPANY
~OTHER INFORMATION
~A   DEPT       GRR       ILD        ILM   
# ...
  309.0000   110.0701    10.1415    10.1969
  309.5000   110.1073    10.1429    10.2706
  310.0000   108.0191    10.1443    10.2734
  310.5000   105.6284    10.1457    10.2762
  311.0000   104.7504    10.1471    10.2791
  311.5000   106.3218    10.2189    10.2102
  312.0000   109.1436    10.2203    10.2138
  312.5000   111.8508    10.3642    10.2876
  313.0000   113.9543    10.5101    10.4339
  313.5000   115.7996    10.4390    10.5093
  314.0000   117.0397     9.8782    10.5853
  314.5000   118.5823     9.4124     9.7439
  315.0000   120.7301     9.0936     9.2854
  315.5000   122.2728     8.9079     8.9718
  316.0000   119.5795     8.5468     8.7291
  316.5000   118.0964     8.3724     8.5520
  317.0000   117.2111     8.2584     8.3777
  317.5000   117.5509     7.9237     8.1481
  318.0000   118.7910     7.8158     7.7682
  318.5000   118.8542     7.9259     7.9335
  319.0000   115.8249     8.0940     8.0516
  319.5000   112.2219     8.3215     8.1609
  320.0000   112.2743     8.4426     8.2275
  320.5000   112.8896     8.4984     8.4037
  321.0000   112.6159     8.4996     8.5837
  321.5000   112.6531     8.5008     8.6953
  322.0000   113.8932     8.5020     8.6982
  322.5000   115.1333     8.4445     8.7006
  323.0000   117.2811     8.5046     8.7030
  323.5000   119.4289     8.5648     8.7659
  324.0000   121.5768     8.6853     8.7683
  324.5000   121.6066     8.8076     8.8317
  325.0000   120.4261     8.9936     9.0196
  325.5000   119.2456     9.1835     9.2755
  326.0000   117.7626     9.5741     9.6049
  326.5000   115.6744     9.5094     9.8774
  327.0000   116.6119     9.2511     9.6102
  327.5000   120.2726     9.1249     9.4152
  328.0000   127.9073     9.1264     9.3521
  328.5000   130.0145     9.1277     9.1630
  329.0000   127.8830     9.1289     8.9771
  329.5000   127.0484     9.1302     8.9796
  330.0000   130.4139     9.1949     8.9200
  330.5000   132.5618     9.1961     8.9225
  331.0000   131.6839     9.1974     8.9250
  331.5000   128.9905     9.1349     8.9274
  332.0000   124.1792     9.1365     8.9299
  332.5000   122.0910     9.1377     8.9324
  333.0000   119.7002     9.0757     8.9348
  333.5000   117.9146     9.0772     8.9373
  334.0000   116.7341     9.0158     8.9397
  334.5000   117.6716     9.0171     8.8805
  335.0000   119.2143     9.0183     8.8829
  335.5000   120.4544     9.0196     8.8241
  336.0000   121.9971     8.8968     8.8265
  336.5000   124.1593     8.8367     8.7680
  337.0000   125.7207     8.7164     8.5900
  337.5000   127.2819     8.7176     8.4742
  338.0000   124.5443     8.6587     8.4766
  338.5000   122.1536     8.6567     8.5379
  339.0000   117.9474     8.6014     8.5996
  339.5000   116.4569     8.6026     8.6617
  340.0000   116.7967     8.6038     8.6043
  340.5000   117.4317     8.5456     8.5473
  341.0000   117.4615     8.3028     7.9776
  341.5000   116.5836     8.0879     8.0353
  342.0000   118.1262     7.8681     7.9262
  342.5000   120.2741     7.6016     7.7107
  343.0000   120.6064     7.2935     7.5011
  343.5000   121.2414     7.0464     7.2432
  344.0000   121.5738     6.8550     6.9049
  344.5000   122.5154     6.6228     6.7691
  345.0000   124.0746     6.6697     6.7710
  345.5000   124.6889     6.8105     6.8747
  346.0000   122.1866     7.1002     7.0707
  346.5000   120.5200     7.3005     7.2723
  347.0000   119.9372     7.5064     7.5209
  347.5000   120.2770     7.7182     7.7343
  348.0000   122.4248     7.9359     7.9537
  348.5000   125.1778     8.1034     8.1229
  349.0000   125.5027     8.1608     8.2958
  349.5000   122.8168     8.2186     8.2980
  350.0000   121.9365     8.3349     8.3580
  350.5000   123.4796     8.2804     8.3020
  351.0000   123.2061     8.2272     8.1907
  351.5000   121.7303     8.1743     8.0245
  352.0000   121.1548     8.1218     7.9157
  352.5000   120.8745     8.0706     7.8633
  353.0000   120.6090     7.9086     7.8112
  353.5000   120.9412     7.8027     7.7064
  354.0000   121.8786     7.5418     7.6548
  354.5000   122.5134     7.4417     7.5516
  355.0000   121.0302     7.2923     7.3989
  355.5000   119.5470     7.1444     7.1490
  356.0000   118.3664     6.9497     6.7656
  356.5000   119.0256     6.6531     6.3585
  357.0000   120.5446     6.1463     6.1014
  357.5000   119.9757     5.9394     5.8143
  358.0000   115.1642     5.9013     5.5025
  358.5000   111.2604     5.9458     5.3905
  359.0000   109.4672     5.9486     5.4298
  359.5000   110.7146     5.9928     5.5838
  360.0000   114.9803     6.2498     5.8628
  360.5000   118.9434     6.4283     6.2849
  361.0000   122.6039     6.6578     6.6910
  361.5000   125.0541     6.9915     6.9286
  362.0000   123.8735     7.3420     7.3496
  362.5000   121.1800     7.6041     7.5070
  363.0000   119.3943     7.7673     7.6214
  363.5000   119.4251     7.9365     7.7786
  364.0000   119.7636     8.0486     7.8903
  364.5000   119.7932     8.1084     8.0036
  365.0000   120.1255     8.2832     8.1185
  365.5000   120.1551     8.4027     8.2351
  366.0000   120.1848     8.5238     8.4114
  366.5000   120.8196     8.6467     8.4733
  367.0000   124.4801     8.7109     8.5356
  367.5000   130.2587     8.7756     8.6582
  368.0000   131.9456     8.8408     8.7219
  368.5000   125.1743     8.9064     8.7861
  369.0000   120.6171     8.9106     8.7898
  369.5000   115.6373     8.9149     8.8553
  370.0000   114.3707     8.9191     8.9204
  370.5000   118.0386     8.9854     9.0485
  371.0000   120.1863     8.9896     9.0522
  371.5000   121.4262     8.9940     9.0559
  372.0000   121.7585     9.0684     9.0596
  372.5000   121.7881     9.1282     9.0633
  373.0000   123.9358     9.1334     9.0670
  373.5000   126.6886     9.1378     9.0707
  374.0000   129.4414     9.1421     9.0743
  374.5000   129.1685     9.1465     9.0780
  375.0000   127.6853     9.0867     9.0140
  375.5000   127.1098     9.0921     8.9605
  376.0000   128.4478     9.0964     8.7795
  376.5000   130.1949     9.1008     8.7225
  377.0000   126.6011     9.0412     8.6658
  377.5000   122.3902     8.9840     8.5510
  378.0000   120.9042     8.9265     8.4953
  378.5000   123.0592     8.6271     8.3820
  379.0000   124.9043     8.2798     8.2701
  379.5000   127.3546     8.0503     8.0949
  380.0000   131.3177     7.6597     7.8859
  380.5000   131.0439     7.2212     7.6736
  381.0000   129.8641     6.9308     7.3135
  381.5000   127.7640     6.5154     6.9222
  382.0000   128.8230     6.0408     6.4616
  382.5000   130.8683     5.4856     5.9901
  383.0000   129.3851     5.0161     5.5530
  383.5000   124.2710     4.5867     4.9042
  384.0000   120.3672     3.7806     4.0978
  384.5000   121.0021     3.5295     3.6191
  385.0000   122.2420     3.1393     3.0833
  385.5000   123.1794     2.9717     2.7765
  386.0000   122.6039     2.8919     2.5811
  386.5000   121.7258     2.8535     2.5464
  387.0000   119.9401     2.8553     2.5477
  387.5000   120.5749     2.8994     2.6203
  388.0000   125.8698     3.0475     2.7515
  388.5000   130.1603     3.4947     3.0120
  389.0000   135.4973     3.9877     3.3897
  389.5000   136.7373     4.3651     3.7105
  390.0000   131.6232     4.9124     4.1469
  390.5000   130.7377     5.3774     4.5394
  391.0000   131.6751     5.6862     4.9765
  391.5000   131.7122     5.8891     5.6054
  392.0000   129.6165     6.0155     5.8729
  392.5000   131.1664     6.1023     5.9987
  393.0000   134.2218     6.0624     6.0842
  393.5000   137.2772     5.9826     5.7992
  394.0000   139.4494     5.7420     5.4889
  394.5000   142.2512     5.5494     5.0884
  395.0000   145.8456     5.3632     4.7824
  395.5000   148.5984     5.3288     4.8516
  396.0000   144.3920     5.3314     4.9554
  396.5000   139.8831     5.4842     5.0615
  397.0000   136.2819     5.6800     5.1702
  397.5000   133.2859     5.9236     5.2840
  398.0000   138.7618     6.2206     5.4443
  398.5000   141.2121     6.4874     5.7038
  399.0000   143.0572     6.6727     5.9482
  399.5000   144.5997     6.8159     6.2461
