~VERSION INFORMATION
 VERS.                2.0:   CWLS LOG ASCII STANDARD - VERSION 2.0
 WRAP.                 NO:   ONE LINE PER DEPTH STEP
~WELL INFORMATION
#MNEM.UNIT      DATA TYPE    INFORMATION
#----------   ------------   ------------------------------
 STRT.F           57.5000:   START DEPTH
 STOP.F         4049.0000:   STOP DEPTH
 STEP.F            0.5000:   STEP LENGTH
 NULL.          -999.2500:   NO VALUE
 COMP. LAWRENCE/ALLISON INC:   COMPANY
 WELL.     NPR #3` #13-11:   WELL
 FLD .             NPR #3:   FIELD
 LOC .      S11 T38N R78W:   LOCATION
 CNTY.            NATRONA:   COUNTY
 STAT.            WYOMING:   STATE
 CTRY. UNITED STATES OF AMERICA:   COUNTRY
 SRVC.      Dresser Atlas:   SERVICE COMPANY
 DATE.        13-MAR-1986:   LOGDATE
 API .       490251106500:   API NUMBER
~CURVE INFORMATION
#MNEM.UNIT       API CODE    CURVE DESCRIPTION
#----------   ------------   ------------------------------
 DEPT.F                  :   
 CALR.IN     07 280 01 00:   CALIPER FROM RESISTIVITY
 GRR .GAPI   07 310 01 00:   GAMMA RAY FROM RESISTIVITY
 RILD.OHMM   07 120 46 00:   RESISTIVITY INDUCTION LOG DEEP
 RILM.OHMM   07 120 44 00:   RESISTIVITY INDUCTION LOG MEDIUM
 RFOC.OHMM   07 220 04 00:   RESISTIVITY FOCUSED LOG
 SPR .MV     07 010 01 00:   SPONTANEOUS POTENTIAL FROM RES.
 PORD.DEC    45 890 12 00:   POROSITY DENSITY SANDSTONE
 CNC .DEC    42 890 03 00:   COMPENSATED NEUTRON POROSITY SANDSTONE
 CORR.G/C3   45 356 01 00:   DENSITY CORRECTION
 DEN .G/C3   45 350 01 00:   COMPENSATED BULK DENSTIY
 DT  .US/F   60 520 00 00:   INTERVAL TRANSIT TIME
~PARAMETER INFORMATION
#MNEM.UNIT          VALUE    DESCRIPTION
#----------   ------------   ------------------------------
 PD  .                 GL:   PERMANENT DATUM
 EPD .F              5176:   ELEVATION PERMANENT DATUM
 LMF .                 KB:   LOG MEASURED FROM
 DAPD.F              11.8:   FEET ABOVE PERMANENT DATUM
 DMF .                 KB:   DRILLING MEASURED FROM
 EKB .F            5187.8:   KELLING BUSHING
 EGL .F              5176:   GROUND LEVEL
 DATE.        13-MAR-1986:   RUN DATE
 RUN .                  1:   RUN NUMBER
 DD  .F              4051:   DEPTH DRILLER
 DL  .F              4051:   DEPTH LOGGER
 BLI .F              4049:   BOTTOM LOG INTERVAL
 TLI .F               564:   TOP LOG INTERVAL
 CS  .IN            8.625:   CASING SIZE
 CBD .F               564:   CASING BOTTOM DRILLER
 CBL .F               564:   CASING BOTTOM LOGGER
 BS  .IN            7.875:   BIT SIZE
 BSD .F              4051:   BIT SIZE AT DEPTH
 DFT .          POLY- KCL:   DRILLING FLUID TYPE
 DFD .                8.9:   DRILLING FLUID DENSITY
 DFV .                 36:   DRILLING FLUID VISCOSITY
 DFPH.                8.5:   DRILLING FLUID PH
 DFL .               13.5:   DRILLING FLUID LOSS
 MSS .           FLOWLINE:   MUD SAMPLE SOURCE
 RMS .OHMM           .275:   RESISTIVITY MUD SAMPLE
 MST .F                55:   MUD SAMPLE TEMPERATURE
 RMF .OHMM           .206:   RESISTIVITY MUD FILTRATE SAMPLE
 MFST.F                55:   MUD FILTRATE SAMPLE TEMPERATURE
 RMC .OHMM           .344:   RESISTIVITY MUD CAKE
 MCST.F                55:   MUD CAKE SAMPLE TEMPERATURE
 MFSS.               CALC:   MUD FILTRATE SAMPLE SOURCE
 MCSS.               CALC:   MUD CAKE SAMPLE SOURCE
 RMB .OHMM           .092:   RESISTIVITY MUD AT BHT
 BHT .F               164:   BOTTOM HOLE TEMPERATURE
 TCS .HRS            0400:   TIME CURCULATED STOPPED
 MRT .F               164:   MAXIMUM RECORDED TEMPERATURE
 LUN .               6274:   LOGGING UNIT NUMBER
 LUL .           GILLETTE:   LOGGING UNIT LOCATION
 ENGI.             MILLER:   RECORDING ENGINEER
 WITN.             STRONG:   WITNESSED BY
 CLNT.            A2DTECH:   CLIENT CODE
 ORIG.         2.5" PRINT:   ORIGIN OF DATA
 UWI .       490251106500:   UNIQUE WELL ID
 DICO. A2D Technologies, Inc.:   DIGITIZING COMPANY
~OTHER INFORMATION
~A   DEPT     CALR         GRR      RILD       RILM       RFOC        SPR       PORD        CNC       CORR        DEN         DT   
# ...
 1735.0000    11.8073   104.4454     5.8736     5.4492     6.3509   -50.7317  -999.2500  -999.2500  -999.2500  -999.2500  -999.2500
 1735.5000    11.8064   103.2031     5.8458     5.3818     6.4387   -50.4329  -999.2500  -999.2500  -999.2500  -999.2500  -999.2500
 1736.0000    11.8055   100.7338     5.7909     5.3810     6.4377   -50.4390  -999.2500  -999.2500  -999.2500  -999.2500  -999.2500
 1736.5000    11.8045    95.1971     5.7635     5.3803     6.4368   -50.4451  -999.2500  -999.2500  -999.2500  -999.2500  -999.2500
 1737.0000    11.8036    94.8201     5.7095     5.3795     6.2598   -50.4512  -999.2500  -999.2500  -999.2500  -999.2500  -999.2500
 1737.5000    11.8027    97.6205     5.7087     5.3788     6.1727   -50.1513  -999.2500  -999.2500  -999.2500  -999.2500  -999.2500
 1738.0000    11.8018   100.6727     5.7079     5.3780     6.0869   -50.1585  -999.2500  -999.2500  -999.2500  -999.2500  -999.2500
 1738.5000    11.8009   100.6574     5.7071     5.3773     6.0860   -49.4456  -999.2500  -999.2500  -999.2500  -999.2500  -999.2500
 1739.0000    11.7694   100.6421     5.7063     5.3765     6.0852   -49.1494  -999.2500  -999.2500  -999.2500  -999.2500  -999.2500
 1739.5000    11.7073   103.6942     5.7055     5.3758     6.0843   -48.9563  -999.2500  -999.2500  -999.2500  -999.2500  -999.2500
 1740.0000    11.6758   104.9080     5.7047     5.3850     6.0835   -49.0651  -999.2500  -999.2500  -999.2500  -999.2500  -999.2500
 1740.5000    11.6749   103.0501     5.7039     5.4497     6.1677   -49.2744  -999.2500  -999.2500  -999.2500  -999.2500  -999.2500
 1741.0000    11.7046   102.4213     5.7031     5.4489     6.2529   -49.2805  -999.2500  -999.2500  -999.2500  -999.2500  -999.2500
 1741.5000    11.7036   103.6330     5.6761     5.4482     6.4279   -49.1926  -999.2500  -999.2500  -999.2500  -999.2500  -999.2500
 1742.0000    11.7333   107.2987     5.5970     5.4474     6.4270   -48.9869  -999.2500  -999.2500  -999.2500  -999.2500  -999.2500
 1742.5000    11.7630   111.5779     5.3678     5.3503     6.4261   -48.2952  -999.2500  -999.2500  -999.2500  -999.2500  -999.2500
 1743.0000    11.7927   115.2436     5.1014     5.0399     6.4252   -47.6077  -999.2500  -999.2500  -999.2500  -999.2500  -999.2500
 1743.5000    11.7917   114.6148     4.7371     4.2984     6.4243   -46.7881  -999.2500  -999.2500  -999.2500  -999.2500  -999.2500
 1744.0000    11.8214   110.3050     4.3563     3.6856     6.0767   -45.8822  -999.2500  -999.2500  -999.2500  -999.2500  -999.2500
 1744.5000    11.8511    99.8603     4.1203     3.6851     4.8666   -45.5859  -999.2500  -999.2500  -999.2500  -999.2500  -999.2500
 1745.0000    11.8196    95.5505     4.0068     3.7363     3.8974   -45.2896  -999.2500  -999.2500  -999.2500  -999.2500  -999.2500
 1745.5000    11.8186    95.5352     3.9692     3.8495     3.5363   -44.7615  -999.2500  -999.2500  -999.2500  -999.2500  -999.2500
 1746.0000    11.7871    97.9739     3.9687     4.0785     3.5852   -45.4492  -999.2500  -999.2500  -999.2500  -999.2500  -999.2500
 1746.5000    11.6945    98.5721     4.0237     4.3119     3.8958   -46.1311  -999.2500  -999.2500  -999.2500  -999.2500  -999.2500
 1747.0000    11.6630    99.7838     4.0984     4.7087     4.4749   -47.0468  -999.2500  -999.2500  -999.2500  -999.2500  -999.2500
 1747.5000    11.6009   102.2225     4.2331     5.1556     5.0692   -48.1402  -999.2500  -999.2500  -999.2500  -999.2500  -999.2500
 1748.0000    11.5694   102.8221     4.5584     5.3751     5.8226   -48.8170  -999.2500  -999.2500  -999.2500  -999.2500  -999.2500
 1748.5000    11.5685    98.5109     4.8857     5.6167     6.5959   -49.4304  -999.2500  -999.2500  -999.2500  -999.2500  -999.2500
 1749.0000    11.5676    94.8146     5.2363     6.0075     6.6872   -50.3486  -999.2500  -999.2500  -999.2500  -999.2500  -999.2500
 1749.5000    11.5667    92.9588     5.6639     6.2779     6.5941   -50.6037  -999.2500  -999.2500  -999.2500  -999.2500  -999.2500
 1750.0000    11.5657    96.0110     5.9586     6.4246     6.5931   -50.6098  -999.2500  -999.2500  -999.2500  -999.2500  -999.2500
 1750.5000    11.5648   102.1307     6.0974     6.5138     6.5922   -50.9207  -999.2500  -999.2500  -999.2500  -999.2500  -999.2500
 1751.0000    11.5639   105.1829     6.0684     6.2897     6.6835   -50.9268  -999.2500  -999.2500  -999.2500  -999.2500  -999.2500
 1751.5000    11.5630   107.6215     5.6621     5.5744     6.7758   -50.9329  -999.2500  -999.2500  -999.2500  -999.2500  -999.2500
 1752.0000    11.5931   108.2208     4.9961     4.9040     6.6815   -51.2845  -999.2500  -999.2500  -999.2500  -999.2500  -999.2500
 1752.5000    11.6228   103.2965     4.6374     4.5952     6.3200   -51.5549  -999.2500  -999.2500  -999.2500  -999.2500  -999.2500
 1753.0000    11.6520    99.6002     4.5513     4.6059     5.3502   -51.5965  -999.2500  -999.2500  -999.2500  -999.2500  -999.2500
 1753.5000    11.6817    97.7444     4.5719     4.7475     4.9223   -51.8720  -999.2500  -999.2500  -999.2500  -999.2500  -999.2500
 1754.0000    11.7121    97.1156     4.7000     4.9497     4.7869   -51.8780  -999.2500  -999.2500  -999.2500  -999.2500  -999.2500
 1754.5000    11.7716    98.9408     4.8545     5.1473     4.7203   -52.1890  -999.2500  -999.2500  -999.2500  -999.2500  -999.2500
 1755.0000    11.7706    98.9979     5.0367     5.3059     4.9889   -52.2205  -999.2500  -999.2500  -999.2500  -999.2500  -999.2500
 1755.5000    11.7697    96.4562     5.1779     5.4410     5.8105   -52.8110  -999.2500  -999.2500  -999.2500  -999.2500  -999.2500
 1756.0000    11.7688    94.6004     5.3230     5.6090     6.5822   -52.8171  -999.2500  -999.2500  -999.2500  -999.2500  -999.2500
 1756.5000    11.7679    94.5851     5.5488     5.9299     7.0539   -52.8232  -999.2500  -999.2500  -999.2500  -999.2500  -999.2500
 1757.0000    11.7670    95.7968     5.7043     6.1825     6.7655   -52.8293  -999.2500  -999.2500  -999.2500  -999.2500  -999.2500
 1757.5000    11.7661    97.6220     5.8642     6.4111     6.4888   -52.8354  -999.2500  -999.2500  -999.2500  -999.2500  -999.2500
 1758.0000    11.7651    98.8337     6.0286     6.4102     6.3985   -52.8415  -999.2500  -999.2500  -999.2500  -999.2500  -999.2500
 1758.5000    11.7642    99.4325     6.1689     6.3920     6.4870   -52.8476  -999.2500  -999.2500  -999.2500  -999.2500  -999.2500
 1759.0000    11.7327   100.0301     6.2544     6.1460     6.6686   -52.8537  -999.2500  -999.2500  -999.2500  -999.2500  -999.2500
 1759.5000    11.6993   100.0148     6.3410     6.0601     6.7608   -52.8598  -999.2500  -999.2500  -999.2500  -999.2500  -999.2500
 1760.0000    11.6371   100.6135     6.3399     5.9589     6.7598   -52.8659  -999.2500  -999.2500  -999.2500  -999.2500  -999.2500
 1760.5000    11.5465   101.8247     6.3099     5.8104     6.7589   -52.8720  -999.2500  -999.2500  -999.2500  -999.2500  -999.2500
 1761.0000    11.5478   103.0364     6.2507     5.7933     6.7580   -52.8781  -999.2500  -999.2500  -999.2500  -999.2500  -999.2500
 1761.5000    11.6058   104.8620     6.1637     5.7284     6.4816   -52.8842  -999.2500  -999.2500  -999.2500  -999.2500  -999.2500
 1762.0000    11.6355   103.6193     6.0778     5.7276     6.2166   -52.8903  -999.2500  -999.2500  -999.2500  -999.2500  -999.2500
 1762.5000    11.6346   102.3770     5.9931     5.8073     6.0456   -52.8965  -999.2500  -999.2500  -999.2500  -999.2500  -999.2500
 1763.0000    11.6336   100.5212     5.9923     5.8064     6.1292   -52.9026  -999.2500  -999.2500  -999.2500  -999.2500  -999.2500
 1763.5000    11.6021    98.6654     5.9914     5.8228     6.3888   -52.6038  -999.2500  -999.2500  -999.2500  -999.2500  -999.2500
 1764.0000    11.5401    99.8771     6.0745     5.9866     6.4773   -52.3049  -999.2500  -999.2500  -999.2500  -999.2500  -999.2500
 1764.5000    11.5362   100.4755     6.1872     6.0518     6.5065   -52.3112  -999.2500  -999.2500  -999.2500  -999.2500  -999.2500
 1765.0000    11.5046   100.4600     6.2729     6.0509     6.4753   -52.0122  -999.2500  -999.2500  -999.2500  -999.2500  -999.2500
