~VERSION INFORMATION
 VERS.                2.0:   CWLS LOG ASCII STANDARD - VERSION 2.0
 WRAP.                 NO:   ONE LINE PER DEPTH STEP
~WELL INFORMATION
#MNEM.UNIT      DATA TYPE    INFORMATION
#----------   ------------   ------------------------------
 STRT.F           70.0000:   START DEPTH
 STOP.F         1043.0000:   STOP DEPTH
 STEP.F            0.5000:   STEP LENGTH
 NULL.          -999.2500:   NO VALUE
 COMP. U S NAVY/INTEX OIL CO:   COMPANY
 WELL.       NPR 3 #54S-2:   WELL
 FLD .             TEAPOT:   FIELD
 LOC .       S2 T38N R78W:   LOCATION
 CNTY.            NATRONA:   COUNTY
 STAT.            WYOMING:   STATE
 CTRY. UNITED STATES OF AMERICA:   COUNTRY
 SRVC.         Lane Wells:   SERVICE COMPANY
 DATE.        14-JUN-1960:   LOGDATE
 API .       490250643300:   API NUMBER
~CURVE INFORMATION
#MNEM.UNIT       API CODE    CURVE DESCRIPTION
#----------   ------------   ------------------------------
 DEPT.F                  :   
 CILD.MMHO   05 110 46 00:   CONDUCTIVITY INDUCTION LOG DEEP
 ILD .OHMM   05 120 46 00:   INDUCTION LOG DEEP
 ASN .OHMM   05 041 16 00:   AMPLIFIED SHORT NORMAL 16"
 SPR .MV     05 010 01 00:   SPONTANEOUS POTENTIAL FROM RES.
~PARAMETER INFORMATION
#MNEM.UNIT          VALUE    DESCRIPTION
#----------   ------------   ------------------------------
 PD  .                 GL:   PERMANENT DATUM
 EPD .F              6164:   ELEVATION PERMANENT DATUM
 LMF .                 KB:   LOG MEASURED FROM
 DAPD.F                 5:   FEET ABOVE PERMANENT DATUM
 DMF .                 KB:   DRILLING MEASURED FROM
 EKB .F              6169:   KELLING BUSHING
 EGL .F              6164:   GROUND LEVEL
 DATE.            6-14-60:   RUN DATE
 RUN .                  1:   RUN NUMBER
 DD  .F              1045:   DEPTH DRILLER
 DL  .F              1045:   DEPTH LOGGER
 BLI .F              1043:   BOTTOM LOG INTERVAL
 TLI .F                70:   TOP LOG INTERVAL
 CS  .IN            8.625:   CASING SIZE
 CBD .F                12:   CASING BOTTOM DRILLER
 BS  .IN            7.875:   BIT SIZE
 BSD .F              1045:   BIT SIZE AT DEPTH
 DFT .   GEL/OIL EMULSION:   DRILLING FLUID TYPE
 DFD .                9.7:   DRILLING FLUID DENSITY
 DFV .                 45:   DRILLING FLUID VISCOSITY
 DFPH.                  8:   DRILLING FLUID PH
 DFL .               11.6:   DRILLING FLUID LOSS
 MSS .          FLOW LINE:   MUD SAMPLE SOURCE
 RMS .OHMM            1.6:   RESISTIVITY MUD SAMPLE
 MST .F                62:   MUD SAMPLE TEMPERATURE
 RMF .OHMM            1.4:   RESISTIVITY MUD FILTRATE SAMPLE
 MFST.F                60:   MUD FILTRATE SAMPLE TEMPERATURE
 RMC .OHMM           1.75:   RESISTIVITY MUD CAKE
 MCST.F                60:   MUD CAKE SAMPLE TEMPERATURE
 MFSS.                MUD:   MUD FILTRATE SAMPLE SOURCE
 MCSS.              PRESS:   MUD CAKE SAMPLE SOURCE
 RMB .OHMM            1.4:   RESISTIVITY MUD AT BHT
 BHT .F                72:   BOTTOM HOLE TEMPERATURE
 MRT .F                72:   MAXIMUM RECORDED TEMPERATURE
 LUN .             C-4474:   LOGGING UNIT NUMBER
 LUL .             CASPER:   LOGGING UNIT LOCATION
 ENGI.      NELSON/GRIGGS:   RECORDING ENGINEER
 WITN.   JORGENSEN/HUDSON:   WITNESSED BY
 CLNT.            A2DTECH:   CLIENT CODE
 ORIG.       2", 5" PRINT:   ORIGIN OF DATA
 UWI .       490250643300:   UNIQUE WELL ID
 DICO. A2D Technologies, Inc.:   DIGITIZING COMPANY
~OTHER INFORMATION
~A   DEPT     CILD          ILD        ASN      SPR   
# ...
  435.0000   192.8504     5.7239     5.9486   -41.5687
  435.5000   192.5733     5.7765     5.9582   -41.1436
  436.0000   189.5814     5.8330     5.9677   -40.9886
  436.5000   186.7922     5.8877     6.0630   -41.0718
  437.0000   184.0031     5.9436     6.2231   -41.1022
  437.5000   181.2139     5.9983     6.3655   -41.1914
  438.0000   179.5432     6.0547     6.5174   -41.4958
  438.5000   178.7462     6.0921     6.6532   -41.8279
  439.0000   177.9493     6.1130     6.7442   -42.1370
  439.5000   177.1524     6.1370     6.8295   -42.4825
  440.0000   176.3955     6.1581     6.9016   -42.6858
  440.5000   177.1486     6.1737     6.9002   -42.0966
  441.0000   177.8658     6.1424     6.8832   -41.4161
  441.5000   180.4684     6.0921     6.7836   -40.8516
  442.0000   184.6522     6.0342     6.6876   -40.7852
  442.5000   188.8359     6.0033     6.5367   -40.6816
  443.0000   196.1684     5.8959     6.3374   -40.6096
  443.5000   204.8295     5.5925     6.1402   -40.6961
  444.0000   221.6126     5.3033     5.9671   -40.8426
  444.5000   245.8187     5.0052     5.6161   -40.9873
  445.0000   270.0248     4.7139     5.1051   -41.1259
  445.5000   294.2310     4.4162     4.6179   -41.2811
  446.0000   318.9044     4.1638     4.1254   -41.3272
  446.5000   344.0071     3.7667     3.6386   -41.0977
  447.0000   369.1097     3.3612     3.1045   -40.8610
  447.5000   394.2124     2.9275     2.5990   -40.6203
  448.0000   420.8609     2.7234     2.4263   -40.3855
  448.5000   415.0833     2.7582     2.4391   -40.1422
  449.0000   403.7274     2.8481     2.4873   -39.9180
  449.5000   392.3714     2.9548     2.7284   -39.7160
  450.0000   368.7323     3.1260     3.0166   -39.6165
  450.5000   332.8713     3.6424     4.1064   -40.1020
  451.0000   297.0104     4.1804     5.1963   -40.7196
  451.5000   260.8799     4.7303     6.2943   -41.0110
  452.0000   229.5595     5.2102     7.0253   -40.9593
  452.5000   198.0019     5.6231     7.7711   -41.1146
  453.0000   177.2547     6.0431     8.1377   -41.4126
  453.5000   167.9308     6.4709     8.4087   -41.6756
  454.0000   158.4201     6.8527     8.5649   -41.7375
  454.5000   162.0151     6.9406     8.5253   -41.7675
  455.0000   165.8099     6.9755     8.4169   -41.8046
  455.5000   173.7790     6.7503     7.9766   -41.8410
  456.0000   181.7481     6.5723     7.5234   -41.8614
  456.5000   189.7172     6.2918     7.0010   -41.7029
  457.0000   197.9659     5.7257     6.4056   -41.5260
  457.5000   199.7635     5.2174     5.7979   -41.3371
  458.0000   199.7635     5.2722     5.2118   -41.1806
  458.5000   192.7261     5.5602     5.3479   -40.9432
  459.0000   188.9782     5.7972     5.5471   -40.8341
  459.5000   175.7702     6.0975     6.0322   -40.9164
  460.0000   161.9381     6.6366     6.8144   -41.3657
  460.5000   148.1060     7.2579     7.6288   -42.4768
  461.0000   138.8448     7.8146     8.1208   -42.9833
  461.5000   135.0932     7.9645     8.5757   -42.9312
  462.0000   131.5497     8.1383     8.9139   -42.8313
  462.5000   127.9993     8.3197     9.2502   -42.3688
  463.0000   124.4297     8.4981     9.6463   -42.5442
  463.5000   120.8529     8.6788    10.0912   -43.4083
  464.0000   117.8370     8.8569    10.7992   -44.1658
  464.5000   115.5729     9.0400    10.9205   -45.0274
  465.0000   113.3263     9.2380    11.1080   -45.5828
  465.5000   111.0443     9.4615    11.2893   -45.4811
  466.0000   108.7622     9.6827    11.3985   -45.1180
  466.5000   106.2914     9.9184    11.5289   -44.7651
  467.0000   105.4690    10.1219    11.6678   -44.4002
  467.5000   104.5725    10.1583    11.8092   -44.2477
  468.0000   103.6760    10.1888    11.9534   -44.0884
  468.5000   102.7794    10.2174    12.0986   -44.0591
  469.0000   101.8801    10.2483    12.2373   -44.2048
  469.5000   100.9851    10.2752    12.3974   -44.3259
  470.0000   100.0909    10.3280    12.4749   -44.4599
  470.5000    99.1970    10.6267    12.5090   -44.5886
  471.0000    98.3017    10.6820    12.6256   -44.7086
  471.5000    97.4065    10.7485    12.7280   -44.5780
  472.0000    96.5101    10.8351    12.8386   -44.3915
  472.5000    95.5123    10.9333    12.9461   -44.2159
  473.0000    93.6502    11.1659    13.0955   -44.0637
  473.5000    91.5583    11.3842    13.2463   -44.5617
  474.0000    89.4664    11.6145    13.4138   -45.2105
  474.5000    87.3745    11.8324    13.5760   -45.6159
  475.0000    85.2826    12.0722    13.7430   -45.7454
  475.5000    82.9234    12.2847    13.9050   -45.4777
  476.0000    82.3547    12.3556    14.0853   -45.2934
  476.5000    81.7027    12.4322    14.2695   -45.0148
  477.0000    81.0507    12.5053    14.4752   -45.0700
  477.5000    80.3986    12.5804    14.6795   -45.5982
  478.0000    79.7466    12.6543    14.8856   -46.0493
  478.5000    78.5104    12.7492    15.0890   -46.6018
  479.0000    76.2283    13.0852    15.2961   -46.9797
  479.5000    73.9463    13.4993    15.5338   -47.2681
  480.0000    71.6642    13.9126    16.1399   -47.2872
  480.5000    69.3822    14.3077    16.8641   -46.8190
  481.0000    66.7455    14.7572    17.5826   -46.4037
  481.5000    65.8801    15.0531    18.2258   -46.3192
  482.0000    64.8555    15.1247    18.7249   -46.3621
  482.5000    63.8309    15.2420    19.2239   -46.2101
  483.0000    63.1504    15.3427    19.7229   -45.8724
  483.5000    64.9922    15.3431    20.3957   -45.4704
  484.0000    67.1990    15.0345    20.3057   -45.2836
  484.5000    69.4059    14.6139    19.9985   -45.4346
  485.0000    71.6127    14.2368    19.3181   -45.5379
  485.5000    73.8195    13.7888    18.6359   -45.6653
  486.0000    76.0263    13.5164    17.9587   -45.7954
  486.5000    76.9600    13.3698    17.2917   -45.9612
  487.0000    75.8362    13.0620    16.6298   -46.1696
  487.5000    76.1622    12.9100    15.8316   -46.3516
  488.0000    76.4882    12.8889    15.6989   -46.5880
  488.5000    76.8142    12.8391    15.5279   -46.5569
  489.0000    77.1402    12.7942    15.3759   -45.9427
  489.5000    77.5307    12.7555    15.2239   -45.5894
  490.0000    79.1485    12.6564    15.0719   -45.7563
  490.5000    83.5175    12.3632    14.9199   -46.1515
  491.0000    85.5098    12.0722    14.7227   -46.5398
  491.5000    87.5021    11.9184    14.5800   -46.9890
  492.0000    89.4944    11.6060    14.3626   -47.2399
  492.5000    91.9111    11.2475    13.9478   -46.6464
  493.0000    93.7925    10.9644    13.3260   -45.8763
  493.5000    97.4866    10.6090    12.7985   -45.1209
  494.0000   104.4795    10.1324    11.9098   -44.3591
  494.5000   111.4724     9.5367    10.7621   -43.5989
  495.0000   118.4652     8.9582     9.8126   -42.8399
  495.5000   125.4581     8.3080     9.2187   -42.0736
  496.0000   132.4615     7.9385     8.5176   -41.3247
  496.5000   139.4956     7.5623     7.8562   -40.5434
  497.0000   146.5493     7.1790     7.3214   -39.8244
  497.5000   153.6071     6.7491     7.1327   -38.9591
  498.0000   160.6491     6.5087     6.9440   -38.4347
  498.5000   165.8544     6.4324     6.7064   -38.6473
  499.0000   168.0060     6.4345     6.6905   -38.8271
  499.5000   170.8329     6.4187     6.7251   -39.0454
  500.0000   172.7506     6.4073     6.8571   -39.2432
  500.5000   172.5518     6.3915     6.9985   -39.4494
  501.0000   172.3531     6.3808     7.0241   -39.6561
  501.5000   172.1543     6.3624     6.9195   -39.8493
  502.0000   171.9556     6.3588     6.8335   -39.9328
  502.5000   171.7569     6.2797     6.7410   -39.7616
  503.0000   171.5581     6.1588     6.6543   -39.4944
  503.5000   171.3594     6.0752     6.5598   -39.2699
  504.0000   171.1606     6.1507     6.4931   -39.0220
  504.5000   171.0028     6.2870     6.4594   -38.7960
  505.0000   168.8458     6.3980     6.4841   -38.5453
  505.5000   167.0572     6.4613     6.5290   -38.5516
  506.0000   165.6102     6.4887     6.5966   -38.7074
  506.5000   166.4217     6.5185     6.6866   -38.8261
  507.0000   167.1030     6.5331     6.7689   -38.9604
  507.5000   167.7844     6.4935     6.8315   -39.0896
