~VERSION INFORMATION
 VERS.                2.0:   CWLS LOG ASCII STANDARD - VERSION 2.0
 WRAP.                 NO:   ONE LINE PER DEPTH STEP
~WELL INFORMATION
#MNEM.UNIT      DATA TYPE    INFORMATION
#----------   ------------   ------------------------------
 STRT.F           14.0000:   START DEPTH
 STOP.F          632.0000:   STOP DEPTH
 STEP.F            0.5000:   STEP LENGTH
 NULL.          -999.2500:   NO VALUE
 COMP. LAWRENCE/ALLISON INC:   COMPANY
 WELL.    17-61 SX #11-11:   WELL
 FLD .             TEAPOT:   FIELD
 LOC .      S11 T38N R78W:   LOCATION
 CNTY.            NATRONA:   COUNTY
 STAT.            WYOMING:   STATE
 CTRY. UNITED STATES OF AMERICA:   COUNTRY
 SRVC.           Gearhart:   SERVICE COMPANY
 DATE.        12-JUN-1986:   LOGDATE
 API .       490251109800:   API NUMBER
~CURVE INFORMATION
#MNEM.UNIT       API CODE    CURVE DESCRIPTION
#----------   ------------   ------------------------------
 DEPT.F                  :   
 GRR .GAPI   07 310 01 00:   GAMMA RAY FROM RES. LOG.
 ILM .OHMM   07 120 44 00:   INDUCTION LOG MEDIUM
 ILD .OHMM   07 120 46 00:   INDUCTION LOG DEEP
~PARAMETER INFORMATION
#MNEM.UNIT          VALUE    DESCRIPTION
#----------   ------------   ------------------------------
 PD  .                 GL:   PERMANENT DATUM
 EPD .F              5193:   ELEVATION PERMANENT DATUM
 LMF .                 KB:   LOG MEASURED FROM
 DAPD.F                 5:   FEET ABOVE PERMANENT DATUM
 DMF .                 KB:   DRILLING MEASURED FROM
 EKB .F              5198:   KELLING BUSHING
 EGL .F              5193:   GROUND LEVEL
 DATE.            6-12-86:   RUN DATE
 RUN .                  1:   RUN NUMBER
 DD  .F               648:   DEPTH DRILLER
 DL  .F               639:   DEPTH LOGGER
 BLI .F               632:   BOTTOM LOG INTERVAL
 TLI .F                15:   TOP LOG INTERVAL
 CS  .IN            8.625:   CASING SIZE
 CBD .F                42:   CASING BOTTOM DRILLER
 CBL .F                42:   CASING BOTTOM LOGGER
 BS  .IN             7.87:   BIT SIZE
 BSD .F               648:   BIT SIZE AT DEPTH
 DFT .               FOAM:   DRILLING FLUID TYPE
 MSS .               TANK:   MUD SAMPLE SOURCE
 RMS .OHMM           2.02:   RESISTIVITY MUD SAMPLE
 MST .F                65:   MUD SAMPLE TEMPERATURE
 RMB .OHMM           1.84:   RESISTIVITY MUD AT BHT
 BHT .F                72:   BOTTOM HOLE TEMPERATURE
 TCS .HRS            0830:   TIME CURCULATED STOPPED
 TLAB.HRS            1000:   TIME LOGGER AT BOTTOM
 MRT .F                72:   MAXIMUM RECORDED TEMPERATURE
 LUN .               7609:   LOGGING UNIT NUMBER
 LUL .           GILLETTE:   LOGGING UNIT LOCATION
 ENGI.              BAUER:   RECORDING ENGINEER
 WITN.             STRONG:   WITNESSED BY
 CLNT.            A2DTECH:   CLIENT CODE
 ORIG.       2", 5" PRINT:   ORIGIN OF DATA
 UWI .       490251109800:   UNIQUE WELL ID
 DICO. A2D Technologies, Inc.:   DIGITIZING COMPANY
~OTHER INFORMATION
~A   DEPT       GRR       ILM        ILD   
# ...
  469.0000    87.3893    11.7952    12.1336
  469.5000    88.6550    11.8456    12.1337
  470.0000    88.3012    11.9100    12.1340
  470.5000    87.7846    11.9087    12.1335
  471.0000    87.2570    11.8215    12.0438
  471.5000    86.7129    11.7317    11.9518
  472.0000    86.8423    11.6430    11.8608
  472.5000    87.1401    11.5550    11.7193
  473.0000    87.4415    11.4676    11.4668
  473.5000    87.7423    11.3809    11.2199
  474.0000    88.4648    11.2948    10.9782
  474.5000    89.3478    11.2094    10.8274
  475.0000    90.3317    11.1247    10.7839
  475.5000    93.5661    11.0516    10.7462
  476.0000    96.8443    11.1858    10.7462
  476.5000    98.1269    11.4340    10.8470
  477.0000    93.5298    11.6730    12.0217
  477.5000    90.6472    11.8841    13.3130
  478.0000    91.4785    13.3417    14.7431
  478.5000    93.6206    15.1708    16.3269
  479.0000    93.5235    17.2506    18.0807
  479.5000    92.0807    19.6155    20.0233
  480.0000    89.5693    22.3047    22.1759
  480.5000    87.2061    25.1339    24.5478
  481.0000    81.4331    27.7211    27.1280
  481.5000    74.8544    28.8501    28.6432
  482.0000    69.7954    29.5011    28.3134
  482.5000    69.2393    29.7543    27.7030
  483.0000    71.7260    29.7512    26.9130
  483.5000    74.7486    29.2878    26.1209
  484.0000    77.5773    27.7970    25.3498
  484.5000    75.5622    26.3856    24.6016
  485.0000    70.6068    25.0459    23.8756
  485.5000    68.0056    23.7742    23.1710
  486.0000    69.1973    22.7692    22.4873
  486.5000    71.4887    22.3078    21.8237
  487.0000    72.3999    21.8558    21.3194
  487.5000    72.4086    21.4129    20.8756
  488.0000    72.7110    20.9790    20.4410
  488.5000    74.6894    20.6661    20.0154
  489.0000    76.7824    20.5683    19.7217
  489.5000    76.5636    20.4248    19.6804
  490.0000    76.1787    20.2822    19.6348
  490.5000    77.4107    20.2035    19.5898
  491.0000    79.5317    20.0090    19.5446
  491.5000    79.0655    19.9068    19.5382
  492.0000    77.5709    19.9068    19.5384
  492.5000    76.1101    19.9068    19.5384
  493.0000    76.5129    19.9068    19.5385
  493.5000    78.4260    19.9070    19.5384
  494.0000    80.3916    19.9084    19.5249
  494.5000    80.6117    19.8543    19.4648
  495.0000    80.1609    19.7944    19.3871
  495.5000    79.7673    19.7346    19.5541
  496.0000    81.1384    19.6750    19.5268
  496.5000    82.5989    19.6195    19.4526
  497.0000    84.0305    19.5623    19.3567
  497.5000    83.7120    19.0391    19.1767
  498.0000    82.6478    18.7241    18.9343
  498.5000    80.5294    18.4286    18.5636
  499.0000    78.4261    18.1378    18.2002
  499.5000    76.4659    17.8516    17.8439
  500.0000    76.0581    17.5699    17.4946
  500.5000    77.7005    17.2927    17.1521
  501.0000    79.5441    17.0198    16.8162
  501.5000    81.2434    16.7512    16.4870
  502.0000    79.7040    16.4869    16.1642
  502.5000    78.0444    16.2268    15.8478
  503.0000    76.8510    15.9707    15.5375
  503.5000    78.8424    15.7187    15.2333
  504.0000    82.6478    15.4700    14.9019
  504.5000    84.0727    15.2272    15.1285
  505.0000    81.5547    15.0430    15.5232
  505.5000    79.5754    15.3939    15.9283
  506.0000    80.4234    15.6857    16.2361
  506.5000    84.5792    15.9831    16.4996
  507.0000    88.7297    16.2557    16.7682
  507.5000    90.5923    16.6165    17.0390
  508.0000    91.3756    16.8259    17.1469
  508.5000    91.5287    16.5951    16.9456
  509.0000    90.3020    16.3767    16.7173
  509.5000    84.8059    16.1612    16.4907
  510.0000    77.8673    15.9485    16.2676
  510.5000    72.9074    15.7386    16.0475
  511.0000    71.9964    15.5314    15.8304
  511.5000    73.2552    15.3270    15.6162
  512.0000    76.3227    15.1253    15.4050
  512.5000    81.4688    14.9262    15.1965
  513.0000    84.1594    14.7298    14.9909
  513.5000    85.0741    14.5359    14.7881
  514.0000    83.1679    14.3446    14.5881
  514.5000    82.2562    14.1558    14.3907
  515.0000    83.3361    13.9695    14.1960
  515.5000    85.0306    13.7856    14.0040
  516.0000    85.7946    13.6042    13.8533
  516.5000    86.3249    13.4252    13.6699
  517.0000    86.8393    13.2485    13.4890
  517.5000    87.8224    13.0741    13.3105
  518.0000    89.0023    12.9020    13.1344
  518.5000    88.5894    12.7322    12.9606
  519.0000    85.3115    12.5681    12.7891
  519.5000    82.1607    12.4214    12.6198
  520.0000    80.5815    12.2763    12.4528
  520.5000    79.8658    12.1329    12.2880
  521.0000    83.4562    11.9913    12.1254
  521.5000    86.9105    11.8512    12.0208
  522.0000    89.5155    11.7128    12.0208
  522.5000    88.6446    11.5800    12.0207
  523.0000    87.3232    11.6003    12.0208
  523.5000    87.7541    11.6247    12.0209
  524.0000    88.4569    11.6491    12.0210
  524.5000    88.8286    11.6734    12.0221
  525.0000    87.3414    11.6889    11.9972
  525.5000    86.5343    11.6898    11.9346
  526.0000    88.3792    11.6160    11.8728
  526.5000    90.2485    11.5571    11.8113
  527.0000    89.8380    11.4985    11.7501
  527.5000    88.6805    11.4402    11.6892
  528.0000    87.5092    11.3822    11.6287
  528.5000    86.5818    11.3245    11.5685
  529.0000    86.5365    11.2670    11.5085
  529.5000    89.1528    11.2175    11.4489
  530.0000    91.3940    11.1692    11.3896
  530.5000    90.7051    11.1212    11.3307
  531.0000    88.3614    11.0733    11.2720
  531.5000    86.6916    11.0257    11.2136
  532.0000    86.9111    10.9782    11.1555
  532.5000    89.0684    10.9310    11.0977
  533.0000    90.9977    10.8840    11.0402
  533.5000    89.9668    10.8371    10.9827
  534.0000    88.9767    10.7905    10.9489
  534.5000    88.1689    10.7462    10.9487
  535.0000    89.1818    10.7619    10.9488
  535.5000    92.5383    10.7804    10.9488
  536.0000    95.8222    10.7991    10.9488
  536.5000    99.1117    10.8178    10.9488
  537.0000   100.4481    10.8364    10.9487
  537.5000    98.1949    10.8467    10.9503
  538.0000    95.4889    10.8485    10.9111
  538.5000    92.9749    10.7595    10.8542
  539.0000    92.6829    10.7002    10.7977
  539.5000    92.6895    10.6414    10.7415
  540.0000    92.9365    10.5828    10.6857
  540.5000    94.6269    10.5246    10.6307
  541.0000    97.9754    10.4666    10.5746
  541.5000    98.9577    10.3579    10.4492
  542.0000    97.6867    10.2285    10.3868
  542.5000    96.0327    10.1007    10.2717
  543.0000    97.1925     9.9746    10.1579
  543.5000    99.5214     9.8500    10.0452
  544.0000   101.6487     9.7269     9.9339
  544.5000   101.9117     9.6054     9.8238
  545.0000   100.0380     9.4855     9.7149
  545.5000    98.3378     9.3670     9.6066
  546.0000    98.6468     9.2500     9.3537
  546.5000   100.3108     9.1344     9.1748
  547.0000   101.9679     9.0204     8.9993
  547.5000   103.6602     8.9089     8.7336
  548.0000   104.1034     8.7959     8.1889
  548.5000   101.5836     8.3786     7.6783
  549.0000    97.4341     7.7671     7.2006
  549.5000    93.4519     7.2024     6.7937
  550.0000    93.1854     6.6787     6.4206
  550.5000    95.4999     6.1931     6.0673
  551.0000    99.3442     5.8867     5.7334
  551.5000   102.2178     5.6413     5.4848
  552.0000   103.2226     5.4061     5.4844
  552.5000   102.2085     5.3333     5.4829
  553.0000   101.2496     5.5758     5.7705
  553.5000   102.1640     5.8555     6.1546
  554.0000   108.3372     6.2723     6.7238
  554.5000   115.9975     6.7214     7.1579
  555.0000   120.5406     7.2027     7.6201
  555.5000   117.8396     7.6029     8.1122
  556.0000   110.9711     8.0530     8.5582
  556.5000   100.5339     8.5081     8.8183
  557.0000    93.8868     8.7176     9.0864
  557.5000    93.3090     8.8973     9.2485
  558.0000    96.6282     9.0808     9.4082
  558.5000   100.2715     9.2680     9.5707
  559.0000   102.8521     9.4591     9.7360
  559.5000   104.2143     9.6542     9.9042
