~VERSION INFORMATION
 VERS.                2.0:   CWLS LOG ASCII STANDARD - VERSION 2.0
 WRAP.                 NO:   ONE LINE PER DEPTH STEP
~WELL INFORMATION
#MNEM.UNIT      DATA TYPE    INFORMATION
#----------   ------------   ------------------------------
 STRT.F           20.0000:   START DEPTH
 STOP.F          500.0000:   STOP DEPTH
 STEP.F            0.5000:   STEP LENGTH
 NULL.          -999.2500:   NO VALUE
 COMP.    FENIX & SCISSON:   COMPANY
 WELL. RES 3 TEAPOT DOM #81SX10-10:   WELL
 FLD .             TEAPOT:   FIELD
 LOC .      S10 T38N R78W:   LOCATION
 CNTY.            NATRONA:   COUNTY
 STAT.            WYOMING:   STATE
 CTRY. UNITED STATES OF AMERICA:   COUNTRY
 SRVC.           BIRDWELL:   SERVICE COMPANY
 DATE.        22-NOV-1978:   LOGDATE
 API .       490251075100:   API NUMBER
~CURVE INFORMATION
#MNEM.UNIT       API CODE    CURVE DESCRIPTION
#----------   ------------   ------------------------------
 DEPT.F                  :   
 ILD .OHMM   05 120 46 00:   INDUCTION LOG DEEP
 SN  .OHMM   05 040 16 00:   SHORT NORMAL 16"
 SPR .MV     05 010 01 00:   SPONTANEOUS POTENTIAL FROM RES.
 CALD.IN     45 280 60 00:   CALIPER FROM DENSITY LOG
 CORR.G/C3   45 356 01 00:   DENSITY CORRECTION
 DPHI.DEC    45 890 10 00:   DENSITY POROSITY LIMESTONE
 GRD .GAPI   45 310 01 00:   GAMMA RAY FROM DENSITY LOG
 RHOB.G/C3   45 350 01 00:   BULK DENSITY
~PARAMETER INFORMATION
#MNEM.UNIT          VALUE    DESCRIPTION
#----------   ------------   ------------------------------
 PD  .                 GL:   PERMANENT DATUM
 EPD .F              5129:   ELEVATION PERMANENT DATUM
 LMF .                 KB:   LOG MEASURED FROM
 DAPD.F                 4:   FEET ABOVE PERMANENT DATUM
 DMF .                 KB:   DRILLING MEASURED FROM
 EKB .F              5133:   KELLING BUSHING
 EGL .F              5129:   GROUND LEVEL
 DATE.        22-NOV-1978:   RUN DATE
 RUN .                  1:   RUN NUMBER
 DD  .F               500:   DEPTH DRILLER
 DL  .F               500:   DEPTH LOGGER
 BLI .F               500:   BOTTOM LOG INTERVAL
 TLI .F                20:   TOP LOG INTERVAL
 CS  .IN            8.625:   CASING SIZE
 CBD .F                40:   CASING BOTTOM DRILLER
 CBL .F                40:   CASING BOTTOM LOGGER
 BS  .IN            7.875:   BIT SIZE
 BSD .F               500:   BIT SIZE AT DEPTH
 DFT .                KCL:   DRILLING FLUID TYPE
 DFD .                8.7:   DRILLING FLUID DENSITY
 DFV .                 36:   DRILLING FLUID VISCOSITY
 DFPH.               11.2:   DRILLING FLUID PH
 DFL .                 94:   DRILLING FLUID LOSS
 MSS .            MUD PIT:   MUD SAMPLE SOURCE
 RMS .OHMM           0.28:   RESISTIVITY MUD SAMPLE
 MST .F                62:   MUD SAMPLE TEMPERATURE
 RMF .OHMM           0.24:   RESISTIVITY MUD FILTRATE SAMPLE
 MFST.F                66:   MUD FILTRATE SAMPLE TEMPERATURE
 RMC .OHMM           0.31:   RESISTIVITY MUD CAKE
 MCST.F                66:   MUD CAKE SAMPLE TEMPERATURE
 MFSS.               MEAS:   MUD FILTRATE SAMPLE SOURCE
 MCSS.               MEAS:   MUD CAKE SAMPLE SOURCE
 RMB .OHMM            0.3:   RESISTIVITY MUD AT BHT
 BHT .F                58:   BOTTOM HOLE TEMPERATURE
 TCS .HRS               1:   TIME CURCULATED STOPPED
 MRT .F                58:   MAXIMUM RECORDED TEMPERATURE
 LUN .               3029:   LOGGING UNIT NUMBER
 LUL .               CASP:   LOGGING UNIT LOCATION
 ENGI.           REYNOLDS:   RECORDING ENGINEER
 WITN.              AMEND:   WITNESSED BY
 CLNT.            A2DTECH:   CLIENT CODE
 ORIG.           5" PRINT:   ORIGIN OF DATA
 UWI .       490251075100:   UNIQUE WELL ID
 DICO. A2D Technologies, Inc.:   DIGITIZING COMPANY
~OTHER INFORMATION
~A   DEPT      ILD         SN        SPR       CALD       CORR       DPHI         GRD      RHOB   
# ...
  141.5000    10.0218    10.8382   -39.7791     7.7202     0.0279     0.1333    94.5712     2.4615
  142.0000     9.9849    10.7647   -39.9347     7.7197     0.0265     0.1387    97.5475     2.4540
  142.5000     9.9856    10.7558   -39.9410     7.6894     0.0250     0.1342    99.3480     2.4578
  143.0000     9.9863    10.6928   -39.9460     7.6740     0.0280     0.1291    98.1500     2.4660
  143.5000     9.9870    10.6946   -39.9520     7.6734     0.0310     0.1330    96.2024     2.4675
  144.0000     9.9877    10.6576   -39.8078     7.6580     0.0281     0.1351   101.1935     2.4630
  144.5000     9.9884    10.6161   -39.3652     7.6726     0.0296     0.1357   105.5010     2.4608
  145.0000     9.9892    10.4786   -39.2920     7.6721     0.0356     0.1260   105.9522     2.4679
  145.5000     9.9897    10.4803   -39.2253     7.6867     0.0402     0.1212   106.4034     2.4773
  146.0000     9.9904    10.4407   -39.5323     7.6712     0.0417     0.1218   106.5547     2.4819
  146.5000     9.9911    10.4106   -40.0025     7.6708     0.0417     0.1239   102.6585     2.4766
  147.0000     9.9919    10.4120   -40.5937     7.6703     0.0402     0.1257    95.1636     2.4721
  147.5000     9.9925    10.2700   -40.8171     7.6699     0.0358     0.1263    98.7633     2.4721
  148.0000     9.9932    10.1302   -41.2059     7.6694     0.0313     0.1282   100.5638     2.4684
  148.5000     9.9939    10.1315   -41.5115     7.6689     0.0299     0.1452   101.0150     2.4467
  149.0000     9.9946    10.1329   -41.6672     7.6685     0.0284     0.1362    99.5175     2.4557
  149.5000     9.9954    10.1342   -41.8231     7.6681     0.0329     0.1326    98.9189     2.4643
  150.0000     9.9960    10.0655   -41.9779     7.6677     0.0464     0.1320   102.2188     2.4760
  150.5000     9.9967    10.0669   -42.1305     7.6674     0.0285     0.1395   105.3658     2.4564
  151.0000     9.3833     9.6514   -42.2819     7.6676     0.0195     0.1416   105.8141     2.4556
  151.5000     9.1322     9.3930   -42.2836     7.6679     0.0166     0.1419   102.6639     2.4586
  152.0000     9.1316     9.4591   -41.9050     7.6681     0.0181     0.1358    93.5170     2.4631
  152.5000     9.1310     9.5615   -41.6864     7.6683     0.0196     0.1310    93.6659     2.4661
  153.0000     9.1304     9.7266   -41.6882     7.6685     0.0166     0.1298    93.9639     2.4683
  153.5000     9.1548     9.7273   -41.6899     7.6688     0.0107     0.1334    98.9100     2.4653
  154.0000     9.1927     9.7279   -42.1411     7.6690     0.0047     0.1358   100.4079     2.4561
  154.5000     9.1724     9.7285   -42.2924     7.6692     0.0048     0.1385    97.4076     2.4554
  155.0000     9.1278     9.6592   -42.2939     7.6695     0.0048     0.1418    95.0073     2.4547
  155.5000     9.0610     9.5296   -42.1454     7.6697     0.0003     0.1439    94.1063     2.4479
  156.0000     8.9385     9.5104   -41.9970     7.6699    -0.0011     0.1442    96.2039     2.4463
  156.5000     8.9379     9.4649   -41.8486     7.6701     0.0004     0.1445    98.3434     2.4456
  157.0000     8.8756     9.4657   -42.0001     7.6704     0.0019     0.1442    99.3494     2.4448
  157.5000     8.8750     9.4609   -42.3014     7.6706     0.0049     0.1435    97.5485     2.4553
  158.0000     8.8744     9.4015   -43.2224     7.6708     0.0065     0.1334    95.7480     2.4612
  158.5000     8.6910     9.3371   -43.8038     7.6711     0.0110     0.1322    97.2458     2.4650
  159.0000     8.5707     9.2445   -44.1051     7.6713     0.0110     0.1313   102.3699     2.4702
  159.5000     8.3709     9.2024   -44.2561     7.6712     0.0066     0.1313   103.9896     2.4658
  160.0000     8.2203     9.0104   -43.8081     7.6857     0.0021     0.1407    98.8903     2.4513
  160.5000     8.0503     8.9253   -43.5097     7.7000    -0.0009     0.1478    98.4395     2.4416
  161.0000     7.9942     8.7146   -44.1111     7.6994     0.0007     0.1502   101.5861     2.4378
  161.5000     7.9383     8.6550   -44.7123     7.6988     0.0054     0.1454   105.4827     2.4438
  162.0000     7.9379     8.5363   -45.3134     7.6981     0.0127     0.1406   105.1554     2.4536
  162.5000     7.9661     8.4779   -45.5460     7.6975     0.0157     0.1406   102.0312     2.4550
  163.0000     7.9921     8.4785   -45.7661     7.6970     0.0143     0.1415   102.9294     2.4504
  163.5000     8.0471     8.4791   -45.7676     7.6964     0.0113     0.1397   106.0764     2.4519
  164.0000     8.0671     8.4807   -45.6192     7.6808     0.0128     0.1334   108.7736     2.4586
  164.5000     8.1020     8.5394   -45.4708     7.6801     0.0188     0.1322   110.5712     2.4668
  165.0000     8.0454     8.5399   -45.3223     7.6646     0.0204     0.1349   108.4705     2.4638
  165.5000     7.9892     8.6114   -45.1452     7.6641     0.0189     0.1358   106.0703     2.4578
  166.0000     7.9887     8.7206   -44.8516     7.6785     0.0144     0.1340   105.1693     2.4638
  166.5000     7.9881     8.7213   -44.7271     7.6778     0.0160     0.1295   107.4167     2.4720
  167.0000     7.9876     8.7219   -44.5787     7.6772     0.0222     0.1283   109.3723     2.4728
  167.5000     8.0192     8.7224   -44.1302     7.6766     0.0235     0.1319   113.5604     2.4688
  168.0000     8.1300     8.7231   -44.1321     7.6760     0.0235     0.1322   114.7584     2.4644
  168.5000     8.1628     8.7237   -43.9833     7.6754     0.0221     0.1321   112.7001     2.4644
  169.0000     8.2671     8.7430   -43.8351     7.6748     0.0191     0.1321   111.4572     2.4666
  169.5000     8.3241     8.7857   -43.8366     7.6743     0.0176     0.1330   112.0555     2.4688
  170.0000     8.3815     8.8037   -43.8631     7.6737     0.0207     0.1357   112.9536     2.4635
  170.5000     8.5001     8.9096   -44.1394     7.6731     0.0132     0.1360   109.2037     2.4575
  171.0000     8.6205     8.9536   -44.4409     7.6724     0.0132     0.1345   106.9533     2.4582
  171.5000     8.7463     8.9729   -44.7421     7.6718     0.0133     0.1348   108.0014     2.4627
  172.0000     8.8572     9.0526   -45.2534     7.6486     0.0178     0.1354   111.8980     2.4619
  172.5000     8.8566     9.1727   -45.5260     7.6407     0.0238     0.1354   113.2459     2.4611
  173.0000     8.8559     9.2271   -45.7962     7.6400     0.0238     0.1381   111.2951     2.4603
  173.5000     8.8553     9.2921   -45.7977     7.6245     0.0239     0.1418   110.0943     2.4565
  174.0000     8.8547     9.4225   -45.6492     7.6240     0.0204     0.1483   110.6925     2.4483
  174.5000     8.7928     9.4887   -45.5224     7.6234     0.0179     0.1492   116.8380     2.4392
  175.0000     8.7670     9.4893   -45.3148     7.6228     0.0180     0.1435   122.6837     2.4452
  175.5000     8.7299     9.4900   -44.7542     7.6221     0.0120     0.1414   122.5319     2.4459
  176.0000     8.6700     9.4907   -44.3059     7.6215     0.0090     0.1402   117.1332     2.4436
  176.5000     8.6095     9.4840   -44.1462     7.6209     0.0076     0.1399   111.5845     2.4459
  177.0000     8.6088     9.4263   -43.8589     7.6353     0.0076     0.1381   102.2878     2.4548
  177.5000     8.6083     9.3618   -44.1606     7.6347     0.0106     0.1369    99.2878     2.4571
  178.0000     8.6076     9.2978   -44.6118     7.6514     0.0107     0.1357   104.2100     2.4540
  178.5000     8.6670     9.2343   -44.7631     7.6785     0.0092     0.1396   108.7299     2.4507
  179.0000     8.6663     9.2348   -44.5797     7.6928     0.0062     0.1443   111.7270     2.4457
  179.5000     8.6658     9.2354   -44.0167     7.7072     0.0018     0.1465   113.3747     2.4457
  180.0000     8.6651     9.2361   -43.5680     7.7216     0.0003     0.1465   114.8725     2.4464
  180.5000     8.6646     9.2368   -43.2699     7.7210     0.0003     0.1447   111.0351     2.4479
  181.0000     8.6640     9.1102   -44.9505     7.7204     0.0004     0.1417   107.0732     2.4517
  181.5000     8.6634     9.0477   -45.5220     7.7197     0.0004     0.1386   106.6223     2.4576
