~VERSION INFORMATION
 VERS.                2.0:   CWLS LOG ASCII STANDARD - VERSION 2.0
 WRAP.                 NO:   ONE LINE PER DEPTH STEP
~WELL INFORMATION
#MNEM.UNIT      DATA TYPE    INFORMATION
#----------   ------------   ------------------------------
 STRT.F            6.0000:   START DEPTH
 STOP.F          606.0000:   STOP DEPTH
 STEP.F            0.5000:   STEP LENGTH
 NULL.          -999.2500:   NO VALUE
 COMP. LAWRENCE/ALLISON INC:   COMPANY
 WELL.       61 STX #15-3:   WELL
 FLD .             TEAPOT:   FIELD
 LOC .       S3 T38N R78W:   LOCATION
 CNTY.            NATRONA:   COUNTY
 STAT.            WYOMING:   STATE
 CTRY. UNITED STATES OF AMERICA:   COUNTRY
 SRVC.      Dresser Atlas:   SERVICE COMPANY
 DATE.        23-SEP-1987:   LOGDATE
 API .       490251115900:   API NUMBER
~CURVE INFORMATION
#MNEM.UNIT       API CODE    CURVE DESCRIPTION
#----------   ------------   ------------------------------
 DEPT.F                  :   
 GRR .GAPI   07 310 01 00:   GAMMA RAY
 RILD.OHMM   07 120 46 00:   INDUCTION LOG DEEP RESISTIVITY
 RILM.OHMM   07 120 44 00:   INDUCTION LOG MEDIUM RESISTIVITY
~PARAMETER INFORMATION
#MNEM.UNIT          VALUE    DESCRIPTION
#----------   ------------   ------------------------------
 PD  .                 GL:   PERMANENT DATUM
 EPD .F              5230:   ELEVATION PERMANENT DATUM
 LMF .                 KB:   LOG MEASURED FROM
 DAPD.F                 8:   FEET ABOVE PERMANENT DATUM
 DMF .                 KB:   DRILLING MEASURED FROM
 EKB .F              5238:   KELLING BUSHING
 EGL .F              5230:   GROUND LEVEL
 DATE.        23-SEP-1987:   RUN DATE
 RUN .                  1:   RUN NUMBER
 DD  .F               618:   DEPTH DRILLER
 DL  .F               614:   DEPTH LOGGER
 BLI .F               612:   BOTTOM LOG INTERVAL
 TLI .F                 8:   TOP LOG INTERVAL
 CS  .IN            9.625:   CASING SIZE
 CBD .F                50:   CASING BOTTOM DRILLER
 CBL .F                49:   CASING BOTTOM LOGGER
 BS  .IN             8.75:   BIT SIZE
 BSD .F               618:   BIT SIZE AT DEPTH
 DFT .                AIR:   DRILLING FLUID TYPE
 TCS .HRS               1:   TIME CURCULATED STOPPED
 LUN .            HL-6274:   LOGGING UNIT NUMBER
 LUL .           GILLETTE:   LOGGING UNIT LOCATION
 ENGI.            PANASUK:   RECORDING ENGINEER
 WITN.             STRONG:   WITNESSED BY
 CLNT.            A2DTECH:   CLIENT CODE
 ORIG.       2", 5" PRINT:   ORIGIN OF DATA
 UWI .       490251115900:   UNIQUE WELL ID
 DICO. A2D Technologies, Inc.:   DIGITIZING COMPANY
~OTHER INFORMATION
~A    DEPT      GRR      RILD       RILM   
# ...
  370.0000   109.1157    14.9874    16.6644
  370.5000    93.8445    16.6343    19.4137
  371.0000    83.9664    19.1141    22.1523
  371.5000    78.8108    21.5101    24.9338
  372.0000    72.5309    24.0394    27.4842
  372.5000    63.3316    26.1326    29.2661
  373.0000    58.1761    28.0209    30.5236
  373.5000    55.0446    29.0206    31.1862
  374.0000    55.2864    29.8486    31.4209
  374.5000    61.1546    30.0698    31.2227
  375.0000    65.6693    30.2955    31.0256
  375.5000    68.8346    30.0969    30.4109
  376.0000    68.3988    29.9058    30.2146
  376.5000    68.1938    29.3051    30.2366
  377.0000    70.6887    28.9188    30.2545
  377.5000    72.7295    28.9319    30.2764
  378.0000    75.2474    28.9450    30.2941
  378.5000    77.0405    28.9615    30.3118
  379.0000    73.4592    28.9746    29.9130
  379.5000    71.0023    28.7846    29.7242
  380.0000    69.6552    28.6024    29.1353
  380.5000    71.7150    27.8373    28.7513
  381.0000    73.0812    27.4641    28.1553
  381.5000    73.5437    26.7295    27.2404
  382.0000    70.1500    26.1803    26.5128
  382.5000    69.5338    25.4916    25.9836
  383.0000    70.2296    25.1498    25.6418
  383.5000    71.8207    24.8182    25.3044
  384.0000    74.1949    24.6583    25.1447
  384.5000    78.1556    24.6723    25.3377
  385.0000    80.6462    25.0275    25.7093
  385.5000    82.0125    25.5641    26.4457
  386.0000    80.5818    26.2965    27.3920
  386.5000    76.8781    26.8603    28.3722
  387.0000    72.1709    27.2470    29.1892
  387.5000    68.3690    27.4486    29.2063
  388.0000    68.1568    27.2748    28.8220
  388.5000    71.5512    26.7266    27.8551
  389.0000    76.3089    26.0088    26.7462
  389.5000    79.9101    25.4744    26.2124
  390.0000    82.1759    24.6332    25.5122
  390.5000    84.4417    23.9716    24.8207
  391.0000    86.9534    23.1669    24.0045
  391.5000    87.3990    22.3690    23.3633
  392.0000    84.7215    21.6401    22.7525
  392.5000    83.3891    21.0589    22.0366
  393.0000    82.9400    20.3520    21.3207
  393.5000    83.2022    19.5354    20.6047
  394.0000    84.3436    19.0107    19.9912
  394.5000    86.6094    18.6264    19.5894
  395.0000    88.9205    18.2541    19.3316
  395.5000    90.4705    18.0134    19.2124
  396.0000    90.4874    18.0216    19.0912
  396.5000    90.5043    17.9034    18.9708
  397.0000    90.5212    17.9220    18.9846
  397.5000    86.9441    18.0482    18.9958
  398.0000    85.8366    18.0564    19.1415
  398.5000    86.3033    18.3164    19.2856
  399.0000    89.2480    18.3250    19.2968
  399.5000    92.4133    18.2778    19.4423
  400.0000    94.4542    18.2162    19.4563
  400.5000    95.3876    18.6089    19.4677
  401.0000    90.2194    18.7467    19.4791
  401.5000    87.0659    19.0165    19.4908
  402.0000    88.8785    19.0253    19.5047
  402.5000    89.7883    19.1682    19.5161
  403.0000    89.1242    19.0425    19.3926
  403.5000    88.9072    19.0533    19.4776
  404.0000    91.4244    18.9134    19.5407
  404.5000    96.5799    18.5500    19.4161
  405.0000    97.7149    18.3033    18.8987
  405.5000    97.2757    17.8137    18.3927
  406.0000    93.2024    17.4577    17.9003
  406.5000    90.7751    17.3581    17.5442
  407.0000    90.5608    17.0125    17.4301
  407.5000    90.5740    16.7874    17.4414
  408.0000    88.9985    16.5674    17.4506
  408.5000    87.8991    16.4596    17.4603
  409.0000    87.6822    16.3567    17.4709
  409.5000    87.6954    16.3674    17.4800
  410.0000    87.0165    16.3759    17.3686
  410.5000    86.5921    16.3844    17.2601
  411.0000    87.7298    16.3930    17.2691
  411.5000    90.4390    16.2904    17.1568
  412.0000    93.6342    16.2989    17.1682
  412.5000    93.1614    16.1928    17.1791
  413.0000    90.9231    16.2033    17.1881
  413.5000    90.7062    16.1000    17.0785
  414.0000    91.6192    16.4484    17.2062
  414.5000    90.9575    16.6863    17.3366
  415.0000    89.1690    16.9436    17.6229
  415.5000    83.7822    17.5349    17.8414
  416.0000    81.9937    17.9121    18.0995
  416.5000    83.3563    17.9214    18.1110
  417.0000    85.3908    17.8070    17.9956
  417.5000    87.4254    17.4525    17.7577
  418.0000    89.0644    17.1006    17.3880
  418.5000    91.4972    16.6446    16.9384
  419.0000    93.3068    16.0890    16.3713
  419.5000    94.4418    15.6579    15.9330
  420.0000    92.5636    15.1333    15.5999
  420.5000    90.4177    14.8301    15.3034
  421.0000    89.9758    14.5329    15.0910
  421.5000    91.5632    14.1454    14.7986
  422.0000    92.9235    13.7664    14.4881
  422.5000    93.3861    13.4875    14.3107
  423.0000    92.4972    13.2219    14.1234
  423.5000    90.7086    13.2288    14.0334
  424.0000    89.1477    13.1427    13.9439
  424.5000    88.9307    13.0606    13.8550
  425.0000    90.2932    13.0691    13.7667
  425.5000    93.4522    12.9840    13.7757
  426.0000    95.0370    12.9026    13.6896
  426.5000    93.2511    12.8205    13.5814
  427.0000    92.8093    12.6509    13.4208
  427.5000    94.1718    12.4835    13.3369
  428.0000    96.6588    12.4053    13.2520
  428.5000    98.0187    12.3263    13.1675
  429.0000    99.3786    12.3343    13.1761
  429.5000    98.9394    12.3407    13.1829
  430.0000    94.9020    12.3472    13.1901
  430.5000    95.5899    12.3552    13.2899
  431.0000    96.9498    12.4662    13.2969
  431.5000    97.4102    12.6479    13.3961
  432.0000    96.0740    12.8101    13.5915
  432.5000    94.7353    12.9971    13.6920
  433.0000    94.0686    13.0941    13.7946
  433.5000    95.4311    13.1919    13.8023
  434.0000    96.7936    13.2904    13.8112
  434.5000    96.5793    13.2991    13.8184
  435.0000    95.4655    13.3060    13.7286
  435.5000    92.3276    13.2194    13.6428
  436.0000    88.7426    12.8668    13.4625
  436.5000    88.3008    12.5237    13.1947
  437.0000    90.3380    12.1881    13.0185
  437.5000    93.4970    11.8616    12.6716
  438.0000    96.2089    11.6239    12.2474
  438.5000    96.6692    11.4701    12.0037
  439.0000    96.9047    11.4776    11.9257
  439.5000    99.6229    11.4835    11.9334
  440.0000   103.0004    11.5802    12.0240
  440.5000   104.3603    11.9017    12.1978
  441.0000   103.2465    12.4127    12.5464
  441.5000   101.2153    13.2172    13.1805
  442.0000    96.7485    14.6724    14.6250
  442.5000    91.3618    16.0618    16.0088
  443.0000    87.9991    17.7049    18.5203
  443.5000    84.1327    19.2281    22.2236
  444.0000    79.9269    20.9026    25.8405
  444.5000    78.8130    22.5771    26.7635
  445.0000    77.9241    24.2595    27.1503
  445.5000    76.8102    26.1584    27.1644
  446.0000    78.3976    26.5368    26.6240
  446.5000    81.5566    26.3641    26.2686
  447.0000    83.1414    25.8392    26.1012
  447.5000    84.0667    25.4973    25.7478
  448.0000    84.7394    24.9897    25.5952
  448.5000    85.1998    24.6586    25.6119
  449.0000    84.5357    24.3327    25.6252
  449.5000    82.7472    24.3485    25.6388
  450.0000    82.9853    24.3612    25.6552
  450.5000    82.7683    24.3739    25.8467
  451.0000    81.6571    24.3897    26.4022
  451.5000    80.5225    24.4024    26.7841
  452.0000    78.5325    24.5846    26.9871
  452.5000    76.9688    24.4278    26.2646
  453.0000    76.3047    24.2751    25.2103
  453.5000    76.6365    23.9539    25.0497
  454.0000    81.0512    23.6369    25.0660
  454.5000    81.0617    23.3242    24.9062
  455.0000    81.7470    23.0186    24.5769
  455.5000    82.4595    22.5574    24.0455
  456.0000    83.6233    22.1054    22.9618
  456.5000    84.5379    21.8060    21.8882
  457.0000    86.6086    21.2312    21.3019
  457.5000    88.3950    21.0930    21.0205
  458.0000    85.4866    20.8166    20.7453
  458.5000    83.9275    20.5412    20.6131
  459.0000    83.7139    20.4101    20.4814
  459.5000    85.7568    20.2826    20.3512
  460.0000    88.7256    20.2931    20.3644
  460.5000    90.5134    20.3040    20.3750
