~VERSION INFORMATION
 VERS.                2.0:   CWLS LOG ASCII STANDARD - VERSION 2.0
 WRAP.                 NO:   ONE LINE PER DEPTH STEP
~WELL INFORMATION
#MNEM.UNIT      DATA TYPE    INFORMATION
#----------   ------------   ------------------------------
 STRT.F           30.0000:   START DEPTH
 STOP.F          655.5000:   STOP DEPTH
 STEP.F            0.5000:   STEP LENGTH
 NULL.          -999.2500:   NO VALUE
 COMP. FENIX & SCISSON INC:   COMPANY
 WELL.    NPR-3 SX #52-15:   WELL
 FLD .             TEAPOT:   FIELD
 LOC .      S15 T38N R78W:   LOCATION
 CNTY.            NATRONA:   COUNTY
 STAT.            WYOMING:   STATE
 CTRY. UNITED STATES OF AMERICA:   COUNTRY
 SRVC.            Unknown:   SERVICE COMPANY
 DATE.        27-MAY-1978:   LOGDATE
 API .       490251062200:   API NUMBER
~CURVE INFORMATION
#MNEM.UNIT       API CODE    CURVE DESCRIPTION
#----------   ------------   ------------------------------
 DEPT.F                  :   
 GRD .GAPI   45 310 01 00:   GAMMA RAY FROM DENSITY LOG
 CALD.IN     45 280 60 00:   CALIPER
 RHOB.G/C3   45 350 01 00:   BULK DENSITY
 DPHI.DEC    45 890 12 00:   DENSITY POROSITY SANDSTONE
 CORR.G/C3   45 356 01 00:   DENSITY CORRECTION
 SN  .OHMM   05 040 16 00:   SHORT NORMAL 16"
 IL  .OHMM   05 120 00 00:   INDUCTION LOG
 SPR .MV     05 010 01 00:   SPONTANEOUS POTENTIAL FROM RES.
~PARAMETER INFORMATION
#MNEM.UNIT          VALUE    DESCRIPTION
#----------   ------------   ------------------------------
 PD  .                 GL:   PERMANENT DATUM
 EPD .F              5240:   ELEVATION PERMANENT DATUM
 LMF .                 KB:   LOG MEASURED FROM
 DAPD.F                 4:   FEET ABOVE PERMANENT DATUM
 DMF .                 GL:   DRILLING MEASURED FROM
 EKB .F              5244:   KELLING BUSHING
 EGL .F              5240:   GROUND LEVEL
 DATE.          5-27-1978:   RUN DATE
 RUN .                  1:   RUN NUMBER
 DD  .F               645:   DEPTH DRILLER
 DL  .F               655:   DEPTH LOGGER
 BLI .F               650:   BOTTOM LOG INTERVAL
 TLI .F                50:   TOP LOG INTERVAL
 CS  .IN            8.625:   CASING SIZE
 CBD .F                40:   CASING BOTTOM DRILLER
 CBL .F                40:   CASING BOTTOM LOGGER
 BS  .IN            7.875:   BIT SIZE
 BSD .F               645:   BIT SIZE AT DEPTH
 DFT .                KCL:   DRILLING FLUID TYPE
 DFD .                8.6:   DRILLING FLUID DENSITY
 DFV .                 32:   DRILLING FLUID VISCOSITY
 DFPH.               10.5:   DRILLING FLUID PH
 DFL .                7.4:   DRILLING FLUID LOSS
 MSS .           FLOWLINE:   MUD SAMPLE SOURCE
 RMS .OHMM            .30:   RESISTIVITY MUD SAMPLE
 MST .F                66:   MUD SAMPLE TEMPERATURE
 RMF .OHMM            .32:   RESISTIVITY MUD FILTRATE SAMPLE
 MFST.F                64:   MUD FILTRATE SAMPLE TEMPERATURE
 RMC .OHMM            .50:   RESISTIVITY MUD CAKE
 MCST.F                64:   MUD CAKE SAMPLE TEMPERATURE
 MFSS.           MEASURED:   MUD FILTRATE SAMPLE SOURCE
 BHT .F                68:   BOTTOM HOLE TEMPERATURE
 TCS .HRS               2:   TIME CURCULATED STOPPED
 MRT .F                68:   MAXIMUM RECORDED TEMPERATURE
 LUN .               2958:   LOGGING UNIT NUMBER
 LUL .              CASP.:   LOGGING UNIT LOCATION
 ENGI.            POINTER:   RECORDING ENGINEER
 WITN.           MCGINLEY:   WITNESSED BY
 CLNT.            A2DTECH:   CLIENT CODE
 ORIG.      2" , 5" PRINT:   ORIGIN OF DATA
 UWI .       490251062200:   UNIQUE WELL ID
 DICO. A2D Technologies, Inc.:   DIGITIZING COMPANY
~OTHER INFORMATION
~A   DEPT       GRD      CALD       RHOB       DPHI       CORR         SN         IL        SPR   
# ...
  151.5000    92.1794     7.4382     2.4905     0.1081     0.0550     8.1993     8.5971   -21.4143
  152.0000    93.4379     7.4989     2.4997     0.1102     0.0573     8.3776     8.7769   -21.4143
  152.5000    92.0091     7.5348     2.5081     0.1092     0.0595     8.5599     8.9603   -21.4143
  153.0000    87.6181     7.5718     2.5045     0.1082     0.0679     8.7467     9.1476   -21.4143
  153.5000    85.0863     7.5697     2.5005     0.1072     0.0937     8.9332     9.3398   -21.4142
  154.0000    86.5671     7.5466     2.5020     0.1023     0.1078     8.8944     9.5282   -21.4127
  154.5000    88.9104     7.5252     2.5099     0.0906     0.1182     8.8543     9.4735   -21.4721
  155.0000    90.8324     7.5248     2.5249     0.0970     0.1178     8.8146     9.3704   -21.5419
  155.5000    91.6366     7.5249     2.5379     0.1063     0.1141     8.7754     9.2158   -21.6119
  156.0000    92.4317     7.5250     2.5317     0.1156     0.0881     8.6537     9.0638   -21.6824
  156.5000    92.3033     7.5250     2.5131     0.1249     0.0537     8.4849     8.9142   -21.7527
  157.0000    90.8362     7.5249     2.4947     0.1343     0.0364     8.3194     8.7672   -21.7857
  157.5000    89.3265     7.5208     2.4766     0.1359     0.0343     8.1571     8.6225   -21.5436
  158.0000    87.8134     7.5100     2.4656     0.1317     0.0351     7.9980     8.4803   -21.3014
  158.5000    86.3024     7.4993     2.4556     0.1297     0.0359     7.8419     8.3404   -21.0588
  159.0000    84.7890     7.4886     2.4594     0.1304     0.0367     7.6890     8.1476   -20.8236
  159.5000    83.2759     7.4779     2.4655     0.1278     0.0375     7.5689     8.2681   -20.8350
  160.0000    82.0265     7.4671     2.4687     0.1256     0.0382     7.6503     8.3827   -20.8617
  160.5000    83.7055     7.4563     2.4712     0.1243     0.0390     7.7188     8.4988   -20.8873
  161.0000    86.7024     7.4458     2.4746     0.1249     0.0398     7.7879     8.6166   -20.9126
  161.5000    88.4944     7.4575     2.4773     0.1254     0.0405     7.8576     8.7360   -20.9379
  162.0000    89.2680     7.4709     2.4753     0.1261     0.0413     7.9279     8.8570   -20.9633
  162.5000    91.0262     7.4842     2.4734     0.1277     0.0421     7.9989     8.9798   -20.9892
  163.0000    93.4154     7.4973     2.4715     0.1292     0.0448     8.0705     9.0453   -21.0140
  163.5000    94.9923     7.5002     2.4695     0.1248     0.0475     8.1476     9.1027   -20.9268
  164.0000    95.4588     7.4888     2.4675     0.1169     0.0551     8.1476     9.1605   -20.8284
  164.5000    94.9588     7.4774     2.4685     0.1128     0.0636     8.1476     9.2185   -20.7303
  165.0000    92.7097     7.4657     2.4910     0.1135     0.0682     8.1476     9.2770   -20.6323
  165.5000    90.3240     7.4740     2.5136     0.1091     0.0712     8.1915     9.3359   -20.5340
  166.0000    90.6516     7.4851     2.5079     0.1045     0.0852     8.4328     9.3951   -20.4334
  166.5000    92.1630     7.5191     2.5018     0.1105     0.1028     8.6783     9.4688   -20.4680
  167.0000    92.7303     7.5556     2.5142     0.1111     0.1153     8.7720     9.5927   -20.5292
  167.5000    92.6533     7.5920     2.5050     0.1136     0.1186     8.7706     9.7182   -20.5909
  168.0000    92.6793     7.6284     2.4994     0.1117     0.1359     8.7706     9.8453   -20.6519
  168.5000    92.8891     7.6644     2.4959     0.1037     0.1538     8.7706     9.8862   -20.7149
  169.0000    92.7786     7.6762     2.4943     0.0957     0.1716     8.7708     9.6760   -20.7815
  169.5000    89.0889     7.6569     2.5123     0.0934     0.1894     8.7712     9.5369   -21.0282
  170.0000    83.7031     7.6381     2.5156     0.0915     0.2010     8.6941     9.3997   -20.9924
  170.5000    85.9821     7.6205     2.5185     0.0869     0.2062     8.6267     9.2646   -20.9656
  171.0000    89.5453     7.6073     2.5292     0.0798     0.2056     8.5597     9.1314   -20.9425
  171.5000    92.8185     7.5940     2.5409     0.0766     0.1992     8.4932     9.0001   -20.9189
  172.0000    93.4526     7.5807     2.5525     0.0828     0.1919     8.4272     8.8707   -20.8954
  172.5000    93.5374     7.5672     2.5598     0.0947     0.1625     8.3617     8.7706   -20.8719
  173.0000    94.8193     7.5649     2.5524     0.1078     0.1317     8.2968     8.7950   -20.8483
  173.5000    96.3446     7.5648     2.5393     0.1175     0.1009     8.2323     8.8151   -20.8249
  174.0000    97.8813     7.5649     2.5194     0.1160     0.0702     8.1476     8.8352   -20.7962
  174.5000    99.4057     7.5649     2.5001     0.1179     0.0424     8.1660     8.8554   -20.7654
  175.0000    99.6166     7.5649     2.4914     0.1175     0.0418     8.1933     8.8757   -20.7344
  175.5000    98.0665     7.5652     2.4894     0.1166     0.0417     8.2207     8.8960   -20.7034
  176.0000    95.0633     7.5638     2.4895     0.1162     0.0415     8.2482     8.9163   -20.6725
  176.5000    92.1170     7.4994     2.4903     0.1188     0.0413     8.2759     8.9417   -20.6415
  177.0000    92.4447     7.4810     2.4919     0.1214     0.0412     8.3036     8.9971   -20.6105
  177.5000    93.0564     7.4754     2.4904     0.1225     0.0410     8.3314     9.0529   -20.5795
  178.0000    95.8215     7.4700     2.4868     0.1199     0.0408     8.3592     9.1090   -20.5485
  178.5000    98.6614     7.4659     2.4837     0.1174     0.0406     8.3872     9.1655   -20.5176
  179.0000   100.7664     7.4860     2.4874     0.1174     0.0404     8.4153     9.2223   -20.4866
  179.5000   100.4846     7.5066     2.4897     0.1116     0.0402     8.4435     9.2795   -20.4556
  180.0000    98.7802     7.5269     2.4902     0.1054     0.0394     8.4717     9.3370   -20.4246
  180.5000    96.5439     7.5473     2.4966     0.1050     0.0365     8.5001     9.3949   -20.3937
  181.0000    95.0045     7.5678     2.5030     0.1100     0.0339     8.5286     9.4529   -20.3627
  181.5000    93.4055     7.5881     2.5053     0.1174     0.0340     8.5571     9.5123   -20.3317
  182.0000    91.8551     7.6032     2.5017     0.1105     0.0398     8.5856     9.5448   -20.3007
  182.5000    93.1841     7.5901     2.4990     0.1046     0.0454     8.6160     9.5770   -20.2696
  183.0000    96.2439     7.5781     2.5023     0.1053     0.0512     8.6542     9.6091   -20.2391
  183.5000    98.3219     7.5594     2.5056     0.1075     0.0515     8.6929     9.6412   -20.2292
  184.0000    96.6957     7.4167     2.5088     0.1114     0.0507     8.7318     9.6735   -20.2587
  184.5000    96.3560     7.2878     2.5091     0.1153     0.0503     8.7708     9.7058   -20.2875
  185.0000    96.4147     7.3241     2.5027     0.1191     0.0540     8.8099     9.7648   -20.3164
  185.5000    93.1075     7.5190     2.4965     0.1214     0.0576     8.8493     9.8239   -20.3455
  186.0000    91.6185     7.7142     2.4903     0.1214     0.0599     8.8889     9.8834   -20.3744
  186.5000    95.6800     7.7277     2.4841     0.1202     0.0589     8.9279     9.9432   -20.4024
  187.0000    99.2886     7.7325     2.4814     0.1117     0.0584     9.0004    10.0035   -20.3726
  187.5000   101.9066     7.7375     2.4869     0.1082     0.0672     9.0769    10.0640   -20.2757
  188.0000   100.3409     7.7428     2.5002     0.1038     0.0767     9.1545    10.1518   -20.1793
  188.5000    98.7341     7.7361     2.5135     0.0978     0.0773     9.2327    10.2433   -20.0846
  189.0000   100.7118     7.7229     2.5266     0.1065     0.0709     9.3116    10.3356   -20.0639
  189.5000   102.5395     7.7095     2.5331     0.1092     0.0671     9.3911    10.4288   -20.2017
  190.0000   102.9678     7.6962     2.5164     0.1088     0.0717     9.4713    10.5228   -20.3342
  190.5000    94.1011     7.6887     2.5043     0.1077     0.0761     9.5523    10.6176   -20.3598
  191.0000    94.2152     7.7273     2.5057     0.1073     0.0782     9.6339    10.7134   -20.2018
  191.5000    94.9145     7.7358     2.5069     0.1069     0.0784     9.7162    10.8099   -20.0464
