~VERSION INFORMATION
 VERS.                2.0:   CWLS LOG ASCII STANDARD - VERSION 2.0
 WRAP.                 NO:   ONE LINE PER DEPTH STEP
~WELL INFORMATION
#MNEM.UNIT      DATA TYPE    INFORMATION
#----------   ------------   ------------------------------
 STRT.F            4.0000:   START DEPTH
 STOP.F          544.0000:   STOP DEPTH
 STEP.F            0.5000:   STEP LENGTH
 NULL.          -999.2500:   NO VALUE
 COMP. LAWRENCE/ALLISON INC:   COMPANY
 WELL.    72-15 SX #10-10:   WELL
 FLD .             NPR #3:   FIELD
 LOC .      S10 T38N R78W:   LOCATION
 CNTY.            NATRONA:   COUNTY
 STAT.            WYOMING:   STATE
 CTRY. UNITED STATES OF AMERICA:   COUNTRY
 SRVC.           Gearhart:   SERVICE COMPANY
 DATE.        09-JUN-1986:   LOGDATE
 API .       490251107600:   API NUMBER
~CURVE INFORMATION
#MNEM.UNIT       API CODE    CURVE DESCRIPTION
#----------   ------------   ------------------------------
 DEPT.F                  :   
 ILD .OHMM   07 120 46 00:   INDUCTION LOG DEEP
 ILM .OHMM   07 120 44 00:   INDUCTION LOG MEDIUM
 GRR .GAPI   07 310 01 00:   GAMMA RAY FROM RES. LOG.
~PARAMETER INFORMATION
#MNEM.UNIT          VALUE    DESCRIPTION
#----------   ------------   ------------------------------
 PD  .                 GL:   PERMANENT DATUM
 EPD .F              5172:   ELEVATION PERMANENT DATUM
 LMF .                 KB:   LOG MEASURED FROM
 DMF .                 KB:   DRILLING MEASURED FROM
 EGL .F              5172:   GROUND LEVEL
 DATE.             6-9-86:   RUN DATE
 RUN .                  1:   RUN NUMBER
 DD  .F               530:   DEPTH DRILLER
 DL  .F               552:   DEPTH LOGGER
 BLI .F               543:   BOTTOM LOG INTERVAL
 TLI .F                42:   TOP LOG INTERVAL
 CS  .IN            8.625:   CASING SIZE
 CBD .F                42:   CASING BOTTOM DRILLER
 CBL .F                42:   CASING BOTTOM LOGGER
 BS  .IN            7.875:   BIT SIZE
 BSD .F               530:   BIT SIZE AT DEPTH
 DFT .               FOAM:   DRILLING FLUID TYPE
 MSS .               TANK:   MUD SAMPLE SOURCE
 RMB .OHMM            .26:   RESISTIVITY MUD AT BHT
 BHT .F                70:   BOTTOM HOLE TEMPERATURE
 TCS .HRS            0200:   TIME CURCULATED STOPPED
 TLAB.HRS            0327:   TIME LOGGER AT BOTTOM
 MRT .F                70:   MAXIMUM RECORDED TEMPERATURE
 LUN .               7609:   LOGGING UNIT NUMBER
 LUL .           GILLETTE:   LOGGING UNIT LOCATION
 ENGI.         WEATHERMON:   RECORDING ENGINEER
 WITN.              FIVAS:   WITNESSED BY
 CLNT.            A2DTECH:   CLIENT CODE
 ORIG.       2", 5" PRINT:   ORIGIN OF DATA
 UWI .       490251107600:   UNIQUE WELL ID
 DICO. A2D Technologies, Inc.:   DIGITIZING COMPANY
~OTHER INFORMATION
~A    DEPT     ILD        ILM         GRR  
# ...
  277.0000    51.8699    48.8038    72.4098
  277.5000    52.1017    48.8042    76.4770
  278.0000    51.2829    48.8047    80.2347
  278.5000    50.6619    48.5654    81.3480
  279.0000    50.0483    48.0908    81.3423
  279.5000    49.4422    47.6188    80.9518
  280.0000    48.6218    47.1528    79.5797
  280.5000    47.7232    45.8891    78.2330
  281.0000    46.8409    44.3286    77.2638
  281.5000    45.3851    42.8212    77.2812
  282.0000    43.7315    41.3651    77.2829
  282.5000    42.1385    39.9584    76.9422
  283.0000    40.6042    38.5496    76.0718
  283.5000    39.1258    37.0780    74.7045
  284.0000    37.7001    35.6627    73.3263
  284.5000    36.3272    34.3008    75.4791
  285.0000    35.4631    33.0071    78.9346
  285.5000    34.6697    31.7706    82.4122
  286.0000    33.8935    30.8976    85.8790
  286.5000    33.1346    30.3611    86.9461
  287.0000    32.3920    30.2319    85.4871
  287.5000    31.6658    30.1235    83.8560
  288.0000    31.1601    30.0106    82.2284
  288.5000    31.0852    29.8553    80.5907
  289.0000    31.0089    29.7008    79.6754
  289.5000    30.9327    29.5470    82.1319
  290.0000    30.8796    29.3941    85.5586
  290.5000    30.6947    29.2417    88.6648
  291.0000    30.6093    29.1279    86.5147
  291.5000    30.8451    28.9923    83.4401
  292.0000    31.0154    28.9320    81.5644
  292.5000    31.1865    29.0376    82.6940
  293.0000    31.3583    29.1133    83.8185
  293.5000    31.5311    29.1966    82.1411
  294.0000    31.7397    29.1233    79.8261
  294.5000    31.3885    28.9781    77.5247
  295.0000    30.8692    28.8335    78.1614
  295.5000    30.3586    28.6896    79.9421
  296.0000    29.8564    28.5463    81.7204
  296.5000    29.3625    28.4049    83.2742
  297.0000    28.9250    27.8923    83.3671
  297.5000    28.4805    27.3491    82.8143
  298.0000    27.9946    26.8159    82.2198
  298.5000    27.5170    26.2227    83.5325
  299.0000    27.0761    25.6989    84.0273
  299.5000    26.8952    25.1360    84.5257
  300.0000    26.7147    24.5854    83.9169
  300.5000    26.5904    23.7728    85.4523
  301.0000    26.6494    23.8060    87.7859
  301.5000    26.7020    23.8718    89.9461
  302.0000    26.7543    23.9377    89.1239
  302.5000    26.8068    24.0185    86.9203
  303.0000    26.8617    24.2064    84.6970
  303.5000    27.0196    24.3966    85.8210
  304.0000    27.1784    24.5881    89.1684
  304.5000    27.3382    24.7811    92.5749
  305.0000    27.4989    24.9755    91.3594
  305.5000    27.6051    25.1432    89.4466
  306.0000    27.6051    24.9058    88.8099
  306.5000    27.6051    24.6568    90.1673
  307.0000    27.1265    24.4103    90.9376
  307.5000    26.8345    24.1662    90.4820
  308.0000    26.5457    23.9246    90.0511
  308.5000    26.2586    23.6854    89.3346
  309.0000    25.9846    23.4486    88.4071
  309.5000    25.6189    23.2142    87.1988
  310.0000    25.1327    23.0195    85.4838
  310.5000    24.4928    22.7676    83.8318
  311.0000    23.8692    22.5181    83.9834
  311.5000    23.2569    22.2678    84.5061
  312.0000    22.7872    21.7859    86.3582
  312.5000    22.1774    21.3104    87.5831
  313.0000    21.5891    20.8453    85.9558
  313.5000    21.2216    20.4342    84.4163
  314.0000    21.0758    20.3229    84.3946
  314.5000    20.9310    20.1932    87.0129
  315.0000    20.7871    19.9855    89.5609
  315.5000    20.6443    19.7783    90.4712
  316.0000    20.5024    19.5733    88.9600
  316.5000    20.3615    19.3704    87.5771
  317.0000    20.0402    19.1696    87.8031
  317.5000    19.8147    18.9708    88.1783
  318.0000    19.5917    18.7742    87.4937
  318.5000    19.3712    18.5796    88.6136
  319.0000    19.1531    18.3605    89.7754
  319.5000    18.9376    18.1123    90.9280
  320.0000    18.6808    17.8674    92.0744
  320.5000    18.3767    17.6258    92.5895
  321.0000    18.0776    17.3874    92.3722
  321.5000    17.7833    17.1523    90.5330
  322.0000    17.5870    16.9183    89.6137
  322.5000    17.4956    16.6820    90.3132
  323.0000    17.4046    16.4489    90.4005
  323.5000    17.3142    16.2192    89.8359
  324.0000    17.2344    16.0105    89.1855
  324.5000    17.1432    15.8421    91.0189
  325.0000    17.2002    15.7593    93.8139
  325.5000    17.2521    15.8619    96.7132
  326.0000    17.3045    15.9561    96.0227
  326.5000    17.3568    16.0581    93.6682
  327.0000    17.4096    16.2082    92.3532
  327.5000    17.4665    16.3743    92.7132
  328.0000    17.6560    16.5420    93.1897
  328.5000    17.8642    16.7115    93.2400
  329.0000    18.0749    16.9211    91.0464
  329.5000    18.1315    17.2121    88.8515
  330.0000    18.1315    17.4665    86.7401
  330.5000    18.1315    17.2565    86.2838
  331.0000    18.1315    17.2060    86.5028
  331.5000    18.0886    17.1556    86.2300
  332.0000    17.8105    16.7215    85.5369
  332.5000    17.5249    16.1775    85.4774
  333.0000    17.1437    15.6462    86.5403
  333.5000    16.6819    15.2774    88.5631
  334.0000    16.2439    14.9935    92.3842
  334.5000    15.9892    14.7633    96.2454
  335.0000    15.8756    14.5670    95.5131
  335.5000    15.7615    14.4913    94.4242
  336.0000    15.9157    14.4160    93.3277
  336.5000    16.0735    14.3553    92.2977
  337.0000    16.2123    14.6363    91.2794
  337.5000    17.2867    14.9251    90.7020
  338.0000    18.4517    15.5816    92.0226
  338.5000    20.0337    16.5145    93.4178
  339.0000    22.3090    18.5129    94.4318
  339.5000    24.8428    20.7343    90.7993
  340.0000    27.6051    23.9623    86.4493
  340.5000    32.6353    28.1257    82.0848
  341.0000    38.4561    32.8755    79.6557
  341.5000    43.0126    38.2876    77.6160
  342.0000    46.6546    44.5908    75.5972
  342.5000    50.6051    47.5371    74.4035
  343.0000    53.1085    50.5558    76.5122
  343.5000    54.7172    53.5893    79.6321
  344.0000    55.7292    54.5536    81.1581
  344.5000    55.9628    55.6223    80.7105
  345.0000    56.1329    54.4382    78.3792
  345.5000    54.2541    53.0877    76.0727
  346.0000    53.0000    51.7710    74.4797
  346.5000    51.8187    50.4861    75.9964
  347.0000    50.7878    49.2299    79.3484
  347.5000    49.7648    48.3501    82.3115
  348.0000    48.4693    46.8758    81.2505
  348.5000    47.2076    45.2559    79.4127
  349.0000    45.8447    43.9448    77.9527
  349.5000    44.4230    42.9286    76.8327
  350.0000    43.0282    41.9360    75.7168
  350.5000    41.6786    40.9663    74.5697
  351.0000    40.3735    40.0191    73.2903
  351.5000    39.7372    39.0937    76.1568
  352.0000    39.7379    38.1912    79.4847
  352.5000    38.9858    37.3096    79.3605
  353.0000    37.9245    36.4484    76.9960
  353.5000    38.3202    35.8879    75.4928
  354.0000    39.1240    35.2836    76.7000
  354.5000    39.9446    34.8123    77.6730
  355.0000    40.7834    34.2746    77.7168
  355.5000    41.6392    33.7451    78.9508
  356.0000    42.4202    33.5878    81.7604
  356.5000    42.3672    34.2746    81.0553
  357.0000    42.3165    34.9481    78.8239
  357.5000    42.2659    35.7738    76.5508
  358.0000    42.2153    36.6191    74.9835
  358.5000    42.1647    37.4852    78.0853
  359.0000    42.1142    38.3721    80.1528
  359.5000    42.0634    39.0051    79.3516
  360.0000    42.0053    39.0024    77.5003
  360.5000    41.7610    39.0024    76.0169
  361.0000    41.5404    38.5871    76.3515
  361.5000    40.5552    37.7711    78.2544
  362.0000    39.5953    36.9701    80.4726
  362.5000    38.6582    36.1871    81.3320
  363.0000    37.7433    35.4205    80.7295
  363.5000    36.8500    34.8791    79.7307
  364.0000    35.9779    34.2581    78.7183
  364.5000    35.1264    33.6482    77.7813
  365.0000    34.3814    32.4846    77.9530
  365.5000    33.1824    31.3871    80.5386
  366.0000    32.0649    30.3267    83.8046
  366.5000    30.9850    29.3021    87.1594
  367.0000    30.1465    28.3122    87.9411
  367.5000    29.3527    27.3557    88.1676
