~VERSION INFORMATION
 VERS.                2.0:   CWLS LOG ASCII STANDARD - VERSION 2.0
 WRAP.                 NO:   ONE LINE PER DEPTH STEP
~WELL INFORMATION
#MNEM.UNIT      DATA TYPE    INFORMATION
#----------   ------------   ------------------------------
 STRT.F           40.0000:   START DEPTH
 STOP.F          459.0000:   STOP DEPTH
 STEP.F            0.5000:   STEP LENGTH
 NULL.          -999.2500:   NO VALUE
 COMP. BROWN JOHN E&C INC:   COMPANY
 WELL. NPR 3 63-34  X 10 #63-10:   WELL
 FLD .             TEAPOT:   FIELD
 LOC .      S10 T38N R78W:   LOCATION
 CNTY.            NATRONA:   COUNTY
 STAT.            WYOMING:   STATE
 CTRY. UNITED STATES OF AMERICA:   COUNTRY
 SRVC.       Schlumberger:   SERVICE COMPANY
 DATE.        25-SEP-1990:   LOGDATE
 API .       490251132100:   API NUMBER
~CURVE INFORMATION
#MNEM.UNIT       API CODE    CURVE DESCRIPTION
#----------   ------------   ------------------------------
 DEPT.F                  :   
 GRR .GAPI   07 310 01 00:   GAMMA RAY FROM RES. LOG.
 ILD .OHMM   07 120 46 00:   INDUCTION LOG DEEP
 ILM .OHMM   07 120 44 00:   INDUCTION LOG MEDIUM
~PARAMETER INFORMATION
#MNEM.UNIT          VALUE    DESCRIPTION
#----------   ------------   ------------------------------
 PD  .                 GL:   PERMANENT DATUM
 EPD .F              5178:   ELEVATION PERMANENT DATUM
 LMF .                 KB:   LOG MEASURED FROM
 DAPD.F                10:   FEET ABOVE PERMANENT DATUM
 DMF .                 KB:   DRILLING MEASURED FROM
 EKB .F              5188:   KELLING BUSHING
 EDF .F              5187:   DRILLING FLOOR
 EGL .F              5178:   GROUND LEVEL
 DATE.          9-25-1990:   RUN DATE
 RUN .                  1:   RUN NUMBER
 DD  .F               464:   DEPTH DRILLER
 DL  .F               465:   DEPTH LOGGER
 BLI .F               459:   BOTTOM LOG INTERVAL
 TLI .F                40:   TOP LOG INTERVAL
 CS  .IN            8.625:   CASING SIZE
 CBD .F                48:   CASING BOTTOM DRILLER
 CBL .F                46:   CASING BOTTOM LOGGER
 BS  .IN            7.875:   BIT SIZE
 BSD .F               464:   BIT SIZE AT DEPTH
 DFT .                AIR:   DRILLING FLUID TYPE
 TLAB.HRS            2200:   TIME LOGGER AT BOTTOM
 LUN .               5882:   LOGGING UNIT NUMBER
 LUL .               CODY:   LOGGING UNIT LOCATION
 ENGI.             FISHER:   RECORDING ENGINEER
 WITN.             STRONG:   WITNESSED BY
 CLNT.            A2DTECH:   CLIENT CODE
 ORIG.       2", 5" PRINT:   ORIGIN OF DATA
 UWI .       490251132100:   UNIQUE WELL ID
 DICO. A2D Technologies, Inc.:   DIGITIZING COMPANY
~OTHER INFORMATION
~A   DEPT       GRR       ILD        ILM   
   40.0000    79.3939  -999.2500  -999.2500
   40.5000    76.1616  -999.2500  -999.2500
   41.0000    77.5806  -999.2500  -999.2500
   41.5000    76.1447  -999.2500  -999.2500
   42.0000    78.1594  -999.2500  -999.2500
   42.5000    82.6345  -999.2500  -999.2500
   43.0000    83.0218  -999.2500  -999.2500
   43.5000    83.4883  -999.2500  -999.2500
   44.0000    81.3217  -999.2500  -999.2500
   44.5000    78.6398  -999.2500  -999.2500
   45.0000    78.1387  -999.2500  -999.2500
   45.5000    82.1542  -999.2500  -999.2500
   46.0000    90.2572  1052.5884  1893.3042
   46.5000    98.2112  1162.5621  1893.2820
   47.0000   104.4386  1411.4850  1894.5594
   47.5000   109.6116  1713.7061  1897.8712
   48.0000   118.3962  1946.9797  1907.3765
   48.5000   132.9147   460.9840  1875.7433
   49.0000   138.9309   518.0629   704.2570
   49.5000   140.4966     1.1345   126.9365
   50.0000   138.9084     4.6353     7.0634
   50.5000   136.1180    45.9670    11.2525
   51.0000   133.1615  1493.7654     9.6964
   51.5000   131.4505  1452.9679    22.5485
   52.0000   131.7841  1548.9861    78.9203
   52.5000   134.9140    38.0574    85.8247
   53.0000   137.9456     6.9330    23.7271
   53.5000   140.7815     9.9713     7.5036
   54.0000   142.6163     8.0505     7.8194
   54.5000   143.1784     6.4349    26.2810
   55.0000   142.1125     7.2023    26.2810
   55.5000   141.0213     8.3793    16.5375
   56.0000   140.8109     8.5901     9.9442
   56.5000   140.7760     6.7418     6.9715
   57.0000   140.0736     6.7038     6.8869
   57.5000   140.4461     6.5475     6.5200
   58.0000   141.1059     6.3143     6.1000
   58.5000   140.3965     6.4805     5.9726
   59.0000   137.1259     6.5798     6.4153
   59.5000   132.3000     6.6490     6.5569
   60.0000   129.4234     6.7190     6.6374
   60.5000   127.2028     6.8426     6.7194
   61.0000   128.5813     6.9947     6.8037
   61.5000   132.5669     7.1501     6.9310
   62.0000   137.6393     7.3089     7.0977
   62.5000   140.0604     7.4713     7.2691
   63.0000   139.6502     7.6373     7.4446
   63.5000   136.7152     7.8070     7.6242
   64.0000   134.4808     7.9748     7.8082
   64.5000   130.4010     8.1735     7.9967
   65.0000   128.8551     8.3743     8.2758
   65.5000   129.4205     8.6871     8.2006
   66.0000   130.6541     8.9998     8.0682
   66.5000   133.5349     8.5566     7.9730
   67.0000   135.2502     8.2758     7.9729
   67.5000   135.2993     8.2758     7.9727
   68.0000   135.5314     8.2250     7.9722
   68.5000   134.9627     8.1409     8.0303
   69.0000   134.0228     8.0576     8.1199
   69.5000   131.3568     7.9730     8.2105
   70.0000   129.5096     7.9891     8.3022
   70.5000   129.7858     8.0096     8.3581
   71.0000   131.6215     8.0302     8.3766
   71.5000   133.4032     8.0733     8.3952
   72.0000   133.6841     8.2393     8.4139
   72.5000   129.7357     8.4086     8.4315
   73.0000   128.2854     8.5513     8.6456
   73.5000   127.2755     8.6916     8.8369
   74.0000   126.8728     8.8342     9.0325
   74.5000   127.3181     9.0092     9.2324
   75.0000   128.7701     9.2256     9.4367
   75.5000   130.0190     9.4486     9.6455
   76.0000   129.5267     9.6766     9.6964
   76.5000   128.4082     9.9102     9.8242
   77.0000   128.7466    10.1493    10.0358
   77.5000   129.4006    10.3943    10.2519
   78.0000   128.1651    10.6451    10.4727
   78.5000   126.0784    10.8436    10.6982
   79.0000   123.7705    11.0767    10.9286
   79.5000   121.4382    11.3068    11.1640
   80.0000   119.1162    11.5417    11.4044
   80.5000   117.1711    11.7765    11.6500
   81.0000   117.2152    12.0094    11.9009
   81.5000   117.5507    12.2441    12.1266
   82.0000   117.3034    12.3997    12.2401
   82.5000   115.0215    12.5193    12.3704
   83.0000   111.2342    12.5871    12.5060
   83.5000   107.5520    12.4511    12.6380
   84.0000   107.1085    12.3581    12.7118
   84.5000   109.0931    12.2654    12.4608
   85.0000   111.4602    12.1751    12.3354
   85.5000   111.9688    12.0379    12.2092
   86.0000   113.6356    11.8568    12.0843
   86.5000   116.6469    11.6785    11.9607
   87.0000   119.7166    11.5028    11.8384
   87.5000   119.4273    11.3299    11.7174
   88.0000   118.4400    11.1511    11.6630
   88.5000   118.9988    11.2331    11.6031
   89.0000   121.7255    11.3441    11.5438
   89.5000   121.9770    11.4562    11.4839
   90.0000   121.2846    11.5740    11.4528
   90.5000   117.7287    11.6032    11.4319
   91.0000   114.1056    11.6326    11.4112
   91.5000   112.3342    11.6630    11.3906
   92.0000   111.1756    11.6829    11.3700
   92.5000   110.9131    11.5651    11.3171
   93.0000   111.5166    11.4762    11.2384
   93.5000   113.5281    11.3879    11.1603
   94.0000   114.6297    11.3005    11.0646
   94.5000   115.9462    11.2137    10.9406
   95.0000   117.7453    11.1276    10.8028
   95.5000   119.8565    11.0476    10.6102
   96.0000   118.1612    10.8578    10.4210
   96.5000   115.6933    10.6825    10.2352
   97.0000   116.0767    10.5447    10.1402
   97.5000   117.3064    10.4153    10.0927
   98.0000   118.0795    10.2527    10.0454
   98.5000   115.6801    10.2547     9.9983
   99.0000   112.3412    10.2540     9.9515
   99.5000   109.0904    10.2546     9.9049
  100.0000   105.7872    10.2129     9.8585
  100.5000   106.8892    10.1502     9.8123
  101.0000   108.8872    10.0610     9.7663
  101.5000   111.2047     9.9670     9.7205
  102.0000   113.7861     9.9748     9.6964
  102.5000   116.4409     9.9704     9.6964
  103.0000   116.8303     9.9713     9.6964
  103.5000   115.5632     9.9713     9.6964
  104.0000   111.6534     9.9713     9.6964
  104.5000   107.8375     9.9713     9.6964
  105.0000   108.2800     9.9714     9.6964
  105.5000   109.9663     9.9724     9.6962
  106.0000   112.4350     9.9757     9.6976
  106.5000   113.5824     9.8722     9.7247
  107.0000   112.5176     9.8865     9.7521
  107.5000   111.6116     9.4508     9.7861
  108.0000   111.3816     9.1710     9.5872
  108.5000   113.2082     9.0396     9.2572
  109.0000   116.4824     8.8937     9.0579
  109.5000   120.0886     8.7714     8.8509
  110.0000   123.7145     8.6150     8.6466
  110.5000   127.3676     8.4614     8.4315
  111.0000   129.2119     8.3106     8.2826
  111.5000   129.7367     8.2270     8.1230
  112.0000   129.2623     8.1635     8.0812
  112.5000   125.8678     8.1012     8.0398
  113.0000   123.8982     8.0479     7.9986
  113.5000   123.5387     8.1833     7.9730
  114.0000   122.0361     8.3325     8.0842
  114.5000   117.9339     8.5105     8.2685
  115.0000   113.9675     8.5105     8.4569
  115.5000   111.0767     8.5105     8.6497
  116.0000   110.9403     8.5105     8.8468
  116.5000   113.9501     8.5176     8.9255
  117.0000   115.7927     8.5458     8.9453
  117.5000   118.5638     8.5740     8.9652
  118.0000   122.2819     8.6155     8.9852
  118.5000   125.9216     8.7332     9.0080
  119.0000   123.8084     8.8524     9.0410
  119.5000   120.9051     8.9998     9.0738
  120.0000   118.9571     8.9900     9.1067
  120.5000   121.0755     8.9775     9.1397
  121.0000   124.0392     8.9650     9.1692
  121.5000   127.0178     8.9525     9.1195
  122.0000   129.0392     8.9400     9.0751
  122.5000   128.5495     8.9275     9.0309
  123.0000   125.4891     8.9080     8.9998
  123.5000   122.0283     8.8268     9.0647
  124.0000   120.8052     8.7463     9.1239
  124.5000   123.3716     8.6706     9.1692
  125.0000   124.6604     8.7493     9.1161
  125.5000   124.4574     8.8251     9.0659
  126.0000   124.3078     8.9014     9.0159
  126.5000   123.0386     8.9643     8.9662
  127.0000   120.3285     9.0242     8.9167
  127.5000   118.5900     9.0845     8.8676
  128.0000   119.5430     9.1692     8.8187
  128.5000   121.9454     9.1274     8.7701
  129.0000   125.6268     9.0591     8.7217
  129.5000   126.5003     8.9913     8.6706
  130.0000   125.9156     8.9240     8.6069
  130.5000   124.2019     8.8575     8.5394
