~VERSION INFORMATION
 VERS.                2.0:   CWLS LOG ASCII STANDARD - VERSION 2.0
 WRAP.                 NO:   ONE LINE PER DEPTH STEP
~WELL INFORMATION
#MNEM.UNIT      DATA TYPE    INFORMATION
#----------   ------------   ------------------------------
 STRT.F           30.0000:   START DEPTH
 STOP.F          620.0000:   STOP DEPTH
 STEP.F            0.5000:   STEP LENGTH
 NULL.          -999.2500:   NO VALUE
 COMP. FENIX & SCISSON INC:   COMPANY
 WELL.       NPR-3 #62-15:   WELL
 FLD .             TEAPOT:   FIELD
 LOC .      S15 T38N R78W:   LOCATION
 CNTY.            NATRONA:   COUNTY
 STAT.            WYOMING:   STATE
 CTRY. UNITED STATES OF AMERICA:   COUNTRY
 SRVC.           BIRDWELL:   SERVICE COMPANY
 DATE.        08-JUN-1978:   LOGDATE
 API .       490251063700:   API NUMBER
~CURVE INFORMATION
#MNEM.UNIT       API CODE    CURVE DESCRIPTION
#----------   ------------   ------------------------------
 DEPT.F                  :   
 SPR .MV     05 010 01 00:   SPONTANEOUS POTENTIAL FROM RES.
 SN  .OHMM   05 040 16 00:   SHORT NORMAL 16"
 ILD .OHMM   05 120 46 00:   INDUCTION LOG DEEP
 CALD.IN     45 280 60 00:   CALIPER FROM DENSITY LOG
 GRD .GAPI   45 310 01 00:   GAMMA RAY FROM DENSITY LOG
 CORR.G/C3   45 356 01 00:   DENSITY CORRECTION
 DPHI.DEC    45 890 12 00:   DENSITY POROSITY SANDSTONE
 DEN .G/C3   45 350 01 00:   DENSITY
~PARAMETER INFORMATION
#MNEM.UNIT          VALUE    DESCRIPTION
#----------   ------------   ------------------------------
 PD  .                 GL:   PERMANENT DATUM
 EPD .F              5246:   ELEVATION PERMANENT DATUM
 LMF .                 KB:   LOG MEASURED FROM
 DAPD.F                 4:   FEET ABOVE PERMANENT DATUM
 DMF .                 KB:   DRILLING MEASURED FROM
 EKB .F              5250:   KELLING BUSHING
 EGL .F              5246:   GROUND LEVEL
 DATE.        08-JUN-1978:   RUN DATE
 RUN .                  1:   RUN NUMBER
 DD  .F               620:   DEPTH DRILLER
 DL  .F               627:   DEPTH LOGGER
 BLI .F               620:   BOTTOM LOG INTERVAL
 TLI .F                42:   TOP LOG INTERVAL
 CS  .IN            8.625:   CASING SIZE
 CBD .F                40:   CASING BOTTOM DRILLER
 CBL .F                42:   CASING BOTTOM LOGGER
 BS  .IN            7.875:   BIT SIZE
 BSD .F               620:   BIT SIZE AT DEPTH
 DFT .                KCL:   DRILLING FLUID TYPE
 DFD .                8.7:   DRILLING FLUID DENSITY
 DFV .                 31:   DRILLING FLUID VISCOSITY
 DFPH.               10.5:   DRILLING FLUID PH
 DFL .                 10:   DRILLING FLUID LOSS
 MSS .           FLOWLINE:   MUD SAMPLE SOURCE
 RMS .OHMM            .26:   RESISTIVITY MUD SAMPLE
 MST .F                76:   MUD SAMPLE TEMPERATURE
 RMF .OHMM            .28:   RESISTIVITY MUD FILTRATE SAMPLE
 MFST.F                76:   MUD FILTRATE SAMPLE TEMPERATURE
 RMC .OHMM            .40:   RESISTIVITY MUD CAKE
 MCST.F                77:   MUD CAKE SAMPLE TEMPERATURE
 MFSS.               MEAS:   MUD FILTRATE SAMPLE SOURCE
 MCSS.               MEAS:   MUD CAKE SAMPLE SOURCE
 RMB .OHMM            .28:   RESISTIVITY MUD AT BHT
 BHT .F                70:   BOTTOM HOLE TEMPERATURE
 TCS .HRS            0400:   TIME CURCULATED STOPPED
 MRT .F                70:   MAXIMUM RECORDED TEMPERATURE
 LUN .               2958:   LOGGING UNIT NUMBER
 LUL .               CASP:   LOGGING UNIT LOCATION
 ENGI.             MILLER:   RECORDING ENGINEER
 WITN.           MCGINLEY:   WITNESSED BY
 CLNT.            A2DTECH:   CLIENT CODE
 ORIG.           5" PRINT:   ORIGIN OF DATA
 UWI .       490251063700:   UNIQUE WELL ID
 DICO. A2D Technologies, Inc.:   DIGITIZING COMPANY
~OTHER INFORMATION
~A   DEPT      SPR         SN        ILD       CALD        GRD       CORR       DPHI        DEN   
# ...
  354.0000   -40.5719     3.7351     2.6933     7.5668    89.8612     0.0664     0.1203     2.4474
  354.5000   -40.5543     3.8953     3.0719     7.4754    92.4006     0.0633     0.1334     2.4518
  355.0000   -40.5367     4.5372     3.6270     7.4443    92.8315     0.0647     0.1100     2.4465
  355.5000   -40.5191     5.3956     4.0020     7.4884    92.8106     0.0406     0.1082     2.4570
  356.0000   -40.5015     5.8248     4.2543     7.5781    94.3273     0.0240     0.1298     2.4749
  356.5000   -40.9330     6.1172     4.3146     7.5595    94.1019     0.0119     0.1251     2.4544
  357.0000   -41.5142     6.2483     4.3454     7.4664    93.8012     0.0058     0.1254     2.4598
  357.5000   -41.9457     6.2958     4.2577     7.4239    93.9319     0.0057     0.1269     2.4635
  358.0000   -42.2275     6.2992     4.1142     7.4227    94.6588     0.0071     0.1278     2.4619
  358.5000   -42.5214     6.2161     4.0032     7.4367    99.7583     0.0114     0.1309     2.4603
  359.0000   -42.7912     6.1341     3.8951     7.4507    99.2856     0.0128     0.1378     2.4565
  359.5000   -42.7692     6.0115     3.7899     7.4798    98.6623     0.0112     0.1481     2.4407
  360.0000   -42.7516     5.9314     3.6876     7.4941    99.8463     0.0096     0.1605     2.4144
  360.5000   -42.7340     5.7736     3.6355     7.4627   104.6446     0.0095     0.1622     2.3993
  361.0000   -42.7164     5.6581     3.5646     7.3863   103.5695     0.0198     0.1501     2.4023
  361.5000   -42.3994     5.5451     3.5407     7.3100    94.8137     0.0392     0.1471     2.4202
  362.0000   -41.9327     5.5099     3.5665     7.2487    87.1121     0.0271     0.1484     2.4292
  362.5000   -41.4660     5.6291     3.6422     7.2929    80.3141     0.0359     0.1509     2.4216
  363.0000   -40.9993     5.8705     3.7712     7.3521    79.0884     0.0508     0.1313     2.4283
  363.5000   -40.8320     6.1223     3.9319     7.4113    84.1880     0.0536     0.1215     2.4537
  364.0000   -40.3653     6.2972     4.1279     7.4855    94.5586     0.0445     0.1311     2.4649
  364.5000   -40.1851     6.4326     4.3939     7.5297    99.2064     0.0444     0.1276     2.4506
  365.0000   -40.0299     6.5256     4.6448     7.5592    96.3241     0.0563     0.1186     2.4663
  365.5000   -40.0087     6.6659     4.8797     7.5878    92.5381     0.0651     0.1127     2.4775
  366.0000   -40.1452     6.8092     5.0494     7.5845    87.5474     0.0650     0.1153     2.4849
  366.5000   -40.2729     7.0561     5.1211     7.5554    88.4301     0.0649     0.1156     2.4916
  367.0000   -40.4050     7.3558     5.1580     7.5393    93.8309     0.0648     0.1041     2.4991
  367.5000   -40.5415     7.5139     5.1235     7.5232    93.0570     0.0647     0.0989     2.5080
  368.0000   -40.6736     7.5180     5.1252     7.5374    89.5722     0.0645     0.0992     2.5155
  368.5000   -40.6516     7.5220     5.1266     7.5663    88.6477     0.0599     0.1013     2.5169
  369.0000   -40.7866     7.5261     5.1280     7.5956    89.5391     0.0463     0.1062     2.5078
  369.5000   -40.7661     7.4773     5.1294     7.6546    90.4710     0.0387     0.1110     2.4988
  370.0000   -40.7485     7.4298     5.0954     7.6987    91.9177     0.0341     0.1134     2.4920
  370.5000   -40.7305     7.3835     5.0234     7.7730    92.1786     0.0340     0.1135     2.4889
  371.0000   -40.7126     7.3367     4.9592     7.8324    92.0019     0.0369     0.1108     2.4881
  371.5000   -40.8454     7.2901     4.9267     7.8763    91.6798     0.0412     0.1108     2.4895
  372.0000   -40.8234     7.2438     4.8938     7.8301    90.6047     0.0426     0.1111     2.4895
  372.5000   -40.8058     7.1492     4.8614     7.6935    92.6922     0.0440     0.1114     2.4894
  373.0000   -40.7882     7.0549     4.7633     7.7376    96.7376     0.0424     0.1124     2.4893
  373.5000   -40.7706     6.9609     4.6668     7.7818   100.4818     0.0408     0.1133     2.4847
  374.0000   -40.7530     6.8227     4.5408     7.6745   102.4187     0.0406     0.1148     2.4802
  374.5000   -40.7354     6.7318     4.3576     7.5806   103.4572     0.0390     0.1164     2.4787
  375.0000   -40.7164     6.5527     4.2108     7.5528    99.0637     0.0389     0.1186     2.4786
  375.5000   -40.7002     6.4217     4.0661     7.6418    99.1986     0.0373     0.1224     2.4733
  376.0000   -40.6826     6.2483     4.0419     7.7010    99.0219     0.0372     0.1344     2.4665
  376.5000   -40.8147     6.0829     4.1280     7.7602    97.9485     0.0386     0.1446     2.4574
  377.0000   -40.7964     6.0027     4.1866     7.8194    96.8734     0.0429     0.1474     2.4461
  377.5000   -40.9292     6.0484     4.2754     7.8786    96.4006     0.0488     0.1389     2.4318
  378.0000   -40.9072     6.2643     4.3661     7.9080    97.7750     0.0651     0.1205     2.4677
  378.5000   -40.8896     6.5783     4.5208     7.9067    99.9734     0.0755     0.1056     2.4962
  379.0000   -41.0261     7.0042     4.7461     7.8906    99.1797     0.0679     0.1006     2.5044
  379.5000   -41.0042     7.4062     4.9827     7.8594    98.5507     0.0558     0.1021     2.5043
  380.0000   -40.9866     7.7239     5.1592     7.8282   102.4657     0.0437     0.1133     2.4975
  380.5000   -41.1231     7.8356     5.2324     7.7971   101.9930     0.0361     0.1076     2.4885
  381.0000   -40.8017     7.8942     5.2342     7.7509   100.6167     0.0420     0.1079     2.4899
  381.5000   -40.1853     8.0085     5.2356     7.6896   100.4504     0.0448     0.1089     2.4936
  382.0000   -39.5689     8.0137     5.2370     7.6283   102.0809     0.0417     0.1092     2.4958
  382.5000   -39.3887     8.0736     5.2384     7.5969   102.3665     0.0386     0.1086     2.4965
  383.0000   -39.2335     8.0780     5.2034     7.5509   101.2861     0.0400     0.1077     2.4972
  383.5000   -39.2123     8.0823     5.1690     7.5197    99.3074     0.0384     0.1072     2.4956
  384.0000   -39.1947     8.0867     5.1707     7.5036    95.5215     0.0353     0.1141     2.4880
  384.5000   -39.1771     8.0910     5.1364     7.5024    94.6022     0.0292     0.1135     2.4856
  385.0000   -39.1595     8.1515     5.1025     7.4863    94.8825     0.0230     0.1111     2.4872
  385.5000   -39.1419     8.1559     5.1039     7.4852    94.4046     0.0259     0.1091     2.4894
  386.0000   -39.1243     8.1604     5.1056     7.4995    92.7270     0.0288     0.1076     2.4916
  386.5000   -39.1067     8.1658     5.1070     7.4982    94.3628     0.0257     0.1064     2.4937
  387.0000   -39.0891     8.1702     5.1083     7.4972    97.5045     0.0196     0.1064     2.4945
  387.5000   -39.0715     8.1746     5.1097     7.5114    98.9897     0.0165     0.1125     2.4959
  388.0000   -38.9042     8.1227     5.1111     7.5553    97.9146     0.0163     0.1167     2.4901
  388.5000   -38.8862     8.1271     5.1125     7.5696    95.6346     0.0147     0.1167     2.4746
  389.0000   -38.8683     8.1315     5.1138     7.5231    96.3667     0.0131     0.1212     2.4732
  389.5000   -38.8470     8.1358     5.1152     7.4468    98.4543     0.0115     0.1204     2.4724
  390.0000   -38.8294     8.0842     5.0814     7.4156    98.9258     0.0114     0.1204     2.4723
  390.5000   -38.8118     8.0886     5.0828     7.3995    93.5932     0.0112     0.1222     2.4745
  391.0000   -38.9483     8.0930     5.0845     7.3834    90.1044     0.0096     0.1249     2.4714
  391.5000   -38.9263     8.0983     5.0505     7.3668    88.7322     0.0170     0.1228     2.4669
  392.0000   -39.0584     8.1027     5.0522     7.2717    94.1025     0.0244     0.1217     2.4661
  392.5000   -39.0394     8.1071     5.0535     7.0873    98.5317     0.0272     0.1229     2.4675
  393.0000   -39.0232     8.1114     5.0549     6.7917   101.8052     0.0256     0.1241     2.4667
  393.5000   -39.0056     8.0588     5.0913     6.8960   106.1385     0.0255     0.1187     2.4659
  394.0000   -39.1377     8.0077     5.0927     7.0305   107.8996     0.0269     0.1107     2.4748
