~VERSION INFORMATION
 VERS.                2.0:   CWLS LOG ASCII STANDARD - VERSION 2.0
 WRAP.                 NO:   ONE LINE PER DEPTH STEP
~WELL INFORMATION
#MNEM.UNIT      DATA TYPE    INFORMATION
#----------   ------------   ------------------------------
 STRT.F           84.0000:   START DEPTH
 STOP.F         1141.0000:   STOP DEPTH
 STEP.F            0.5000:   STEP LENGTH
 NULL.          -999.2500:   NO VALUE
 COMP.           U S NAVY:   COMPANY
 WELL.     NPR#3 #78-S-11:   WELL
 FLD .             TEAPOT:   FIELD
 LOC .      S11 T38N R78W:   LOCATION
 CNTY.            NATRONA:   COUNTY
 STAT.            WYOMING:   STATE
 CTRY. UNITED STATES OF AMERICA:   COUNTRY
 SRVC.       Schlumberger:   SERVICE COMPANY
 DATE.        28-AUG-1966:   LOGDATE
 API .       490250970700:   API NUMBER
~CURVE INFORMATION
#MNEM.UNIT       API CODE    CURVE DESCRIPTION
#----------   ------------   ------------------------------
 DEPT.F                  :   
 SPR .MV     05 010 01 00:   SPONTANEOUS POTENTIAL FROM RES.
 ASN .OHMM   05 041 16 00:   AMPLIFIED SHORT NORMAL 16"
 ILD .OHMM   05 120 46 00:   INDUCTION LOG DEEP
 CILD.MMHO   05 110 46 00:   CONDUCTIVITY INDUCTION LOG DEEP
 GRD .GAPI   45 310 01 00:   GAMMA RAY FROM DENSITY LOG
 CALD.IN     45 280 60 00:   CALIPER FROM DENSITY LOG
 DPHI.DEC    45 890 12 00:   DENSITY POROSITY SANDSTONE
 RHOB.G/C3   45 350 01 00:   BULK DENSITY
~PARAMETER INFORMATION
#MNEM.UNIT          VALUE    DESCRIPTION
#----------   ------------   ------------------------------
 PD  .                 GL:   PERMANENT DATUM
 EPD .F              5245:   ELEVATION PERMANENT DATUM
 LMF .                 KB:   LOG MEASURED FROM
 DAPD.F                 5:   FEET ABOVE PERMANENT DATUM
 DMF .                 KB:   DRILLING MEASURED FROM
 EKB .F              5250:   KELLING BUSHING
 EGL .F              5245:   GROUND LEVEL
 DATE.            8-28-66:   RUN DATE
 RUN .                  1:   RUN NUMBER
 DD  .F              1142:   DEPTH DRILLER
 DL  .F              1142:   DEPTH LOGGER
 BLI .F              1141:   BOTTOM LOG INTERVAL
 TLI .F                85:   TOP LOG INTERVAL
 CS  .IN            8.625:   CASING SIZE
 CBD .F                10:   CASING BOTTOM DRILLER
 BS  .IN             6.75:   BIT SIZE
 BSD .F              1142:   BIT SIZE AT DEPTH
 DFT .           CHEM GEL:   DRILLING FLUID TYPE
 DFD .               10.7:   DRILLING FLUID DENSITY
 DFV .                 40:   DRILLING FLUID VISCOSITY
 MSS .          FLOW LINE:   MUD SAMPLE SOURCE
 RMS .OHMM           1.58:   RESISTIVITY MUD SAMPLE
 MST .F                70:   MUD SAMPLE TEMPERATURE
 RMF .OHMM            .93:   RESISTIVITY MUD FILTRATE SAMPLE
 MFST.F                70:   MUD FILTRATE SAMPLE TEMPERATURE
 MFSS.                  M:   MUD FILTRATE SAMPLE SOURCE
 RMB .OHMM           1.19:   RESISTIVITY MUD AT BHT
 BHT .F                94:   BOTTOM HOLE TEMPERATURE
 TCS .HRS               1:   TIME CURCULATED STOPPED
 MRT .F                94:   MAXIMUM RECORDED TEMPERATURE
 LUN .               4507:   LOGGING UNIT NUMBER
 LUL .               CSPR:   LOGGING UNIT LOCATION
 ENGI.             KNOBEL:   RECORDING ENGINEER
 WITN.         MAY/TUTTLE:   WITNESSED BY
 CLNT.            A2DTECH:   CLIENT CODE
 ORIG.           5" PRINT:   ORIGIN OF DATA
 UWI .       490250970700:   UNIQUE WELL ID
 DICO. A2D Technologies, Inc.:   DIGITIZING COMPANY
~OTHER INFORMATION
~A   DEPT      SPR          ASN        ILD      CILD       GRD       CALD       DPHI       RHOB   
# ...
 1015.5000   -37.1509    12.3072    10.0886   101.5564    79.8214     7.3423     0.1631     2.3801
 1016.0000   -37.1524    12.2343    10.1622   101.5339    81.6071     7.3419     0.1667     2.3704
 1016.5000   -37.1539    12.1615    10.1604   100.6816    82.6786     7.3414     0.1655     2.3817
 1017.0000   -37.3063    12.0136    10.1589    99.8900    82.1429     7.3410     0.1571     2.3966
 1017.5000   -36.8553    11.9407    10.2328    99.2106    81.2500     7.3405     0.1502     2.4064
 1018.0000   -36.5551    11.8679    10.3060    98.4361    80.5357     7.3401     0.1484     2.4042
 1018.5000   -36.2550    11.7951    10.3046    97.6572    79.8214     7.3396     0.1532     2.4139
 1019.0000   -36.1055    11.7222    10.3031    97.6347    80.9119     7.3541     0.1322     2.4259
 1019.5000   -35.9562    11.6494    10.3770    97.6123    83.5714     7.3536     0.1271     2.4372
 1020.0000   -35.6561    11.6466    10.3752    98.3474    83.5714     7.3531     0.1253     2.4439
 1020.5000   -35.5068    11.5037    10.2986    98.3193    82.5784     7.3527     0.1271     2.4305
 1021.0000   -35.5083    11.4309    10.3722    98.2969    80.5357     7.3522     0.1330     2.4171
 1021.5000   -35.5098    11.3580    10.3707    98.2745    80.3571     7.3518     0.1387     2.4119
 1022.0000   -35.3605    11.2852    10.3692    98.2521    81.4286     7.3514     0.1432     2.4067
 1022.5000   -34.9095    11.2129    10.3677    98.2296    83.5714     7.3509     0.1459     2.4000
 1023.0000   -34.7602    11.2151    10.3662    98.9591    84.1071     7.3505     0.1486     2.4061
 1023.5000   -34.7617    11.1418    10.3647    98.9367    84.2857     7.3500     0.1443     2.4173
 1024.0000   -34.9140    11.0695    10.3632    99.6717    83.3929     7.3496     0.1327     2.4286
 1024.5000   -34.3122    11.0714    10.3617   101.1531    81.7857     7.3492     0.1252     2.4391
 1025.0000   -33.7104    11.0739    10.3602   102.6288    80.3571     7.3487     0.1198     2.4510
 1025.5000   -33.2594    11.0005    10.2837   104.1101    79.8214     7.3483     0.1230     2.4522
 1026.0000   -33.1101    11.0033     9.8317   104.8452    80.3571     7.3478     0.1350     2.4280
 1026.5000   -32.9608    11.0056     9.6801   105.5746    81.9643     7.3474     0.1361     2.4149
 1027.0000   -33.1131    11.0829     9.6786   107.0504    83.5714     7.3469     0.1263     2.4370
 1027.5000   -33.1146    11.0851     9.7522   107.7854    83.5714     7.3465     0.1275     2.4475
 1028.0000   -32.9532    11.1624     9.7507   108.5149    83.3929     7.3461     0.1332     2.4273
 1028.5000   -32.3495    11.3899    10.1996   105.4793    82.8427     7.3455     0.1207     2.4483
 1029.0000   -31.8966    11.5423    10.6486   102.4494    81.2334     7.3451     0.1024     2.4702
 1029.5000   -31.2926    12.0701    10.8723    99.4194    80.3048     7.3595     0.0909     2.5042
 1030.0000   -30.2564    12.6729    10.7958    96.3895    79.1071     7.3591     0.0870     2.5075
 1030.5000   -30.2579    13.2757    10.8694    94.8633    78.0357     7.3438     0.0973     2.4909
 1031.0000   -30.5611    13.2780    10.8679    95.5984    80.1786     7.2837     0.0989     2.4804
 1031.5000   -30.7396    12.9799    10.7913    97.8316    82.6786     7.1640     0.1013     2.4830
 1032.0000   -31.1675    12.6818    10.7147    99.3073    84.8214     7.2083     0.0968     2.5024
 1032.5000   -31.3201    12.3087    10.6382   101.5405    86.2500     7.2824     0.1013     2.4658
 1033.0000   -31.6232    11.7854    10.4724   103.0218    87.3214     7.3268     0.1130     2.4375
 1033.5000   -31.9264    11.4874    10.0255   105.2551    88.5714     7.3412     0.1205     2.4308
 1034.0000   -32.0787    11.1892     9.7968   109.7439    89.2857     7.3407     0.1201     2.4480
 1034.5000   -32.5327    11.1915     9.7312   111.2255    88.3929     7.3402     0.1246     2.4301
 1035.0000   -32.8359    11.1938     9.6544   112.7068    85.8929     7.3249     0.1333     2.4219
 1035.5000   -33.2899    11.1960     9.6529   111.9323    85.1786     7.3244     0.1432     2.4279
 1036.0000   -33.1402    11.1982     9.6514   111.1579    87.8571     7.3240     0.1315     2.4511
 1036.5000   -32.5383    11.2007     9.6499   111.1353    89.2857     7.3235     0.1171     2.4571
 1037.0000   -31.4844    11.2027     9.6484   110.3609    90.0000     7.3230     0.1192     2.4460
 1037.5000   -30.8822    11.2050     9.6469   109.5864    90.5357     7.3226     0.1192     2.4497
 1038.0000   -30.7329    11.2092     9.6454   107.3083    89.9714     7.3221     0.1159     2.4595
 1038.5000   -30.8856    11.2845     9.6439   106.5339    88.5142     7.3367     0.1128     2.4648
 1039.0000   -30.8871    11.2867     9.6424   105.6442    88.0357     7.3362     0.1048     2.4842
 1039.5000   -30.8886    11.2971     9.6409   104.8521    90.0000     7.3357     0.1020     2.4970
 1040.0000   -30.7389    11.3664     9.5644   104.2060    90.5357     7.3353     0.1122     2.4746
 1040.5000   -30.5896    11.3686     9.5629   104.1836    89.1071     7.3498     0.1149     2.4612
 1041.0000   -30.4406    11.2818     9.5614   105.6649    86.7857     7.3493     0.1188     2.4552
 1041.5000   -30.2909    11.1483     9.5599   107.1519    85.8929     7.3488     0.1224     2.4463
 1042.0000   -29.9912    11.0755     9.5584   109.3795    85.1786     7.3484     0.1158     2.4643
 1042.5000   -29.5402    11.0021     9.4818   110.8608    86.0714     7.3480     0.1172     2.4613
 1043.0000   -29.0888    11.0049     9.4803   112.3478    86.9643     7.3475     0.1202     2.4494
 1043.5000   -29.0907    10.9315     9.4788   113.8235    87.6786     7.3471     0.1181     2.4562
 1044.0000   -28.9410    10.9343     9.4774   115.3104    87.1429     7.3317     0.1124     2.4674
 1044.5000   -28.7917    10.9365     9.4008   116.0399    86.2500     7.3313     0.1151     2.4682
 1045.0000   -28.3410    10.8631     9.3993   116.7693    89.1071     7.3308     0.1178     2.4585
 1045.5000   -28.3426    10.8659     9.3978   116.7413    88.9286     7.3304     0.1202     2.4488
 1046.0000   -28.3441    10.9432     9.3963   116.7189    88.0357     7.3299     0.1226     2.4414
 1046.5000   -28.3456    10.9455     9.3948   116.6965    87.8571     7.3294     0.1212     2.4459
 1047.0000   -28.3471    10.9477     9.3933   116.6740    87.3190     7.3290     0.1176     2.4527
 1047.5000   -28.4994    11.0250     9.3918   115.8997    86.9643     7.3285     0.1118     2.4677
 1048.0000   -28.6517    11.1023     9.3904   115.8773    86.7857     7.3281     0.1087     2.4812
 1048.5000   -28.9549    11.2547     9.3889   115.1030    87.1738     7.3277     0.1180     2.4558
 1049.0000   -29.2581    11.3320     9.3874   115.0806    88.0357     7.3272     0.1225     2.4466
 1049.5000   -29.8629    11.4844     9.3859   113.5544    89.1071     7.3268     0.1117     2.4618
 1050.0000   -30.3534    11.5948     9.4595   113.3810    89.8197     7.3263     0.1176     2.4589
 1050.5000   -30.5758    11.7981     9.6094   112.4350    90.8909     7.3180     0.1311     2.4342
 1051.0000   -30.7757    12.0013     9.7568   111.4889    92.1392     7.3056     0.1278     2.4313
 1051.5000   -30.6271    12.2045    10.0031   108.2105    90.7088     7.2949     0.1254     2.4425
 1052.0000   -30.7817    12.4078    10.5146   104.4311    88.2071     7.3092     0.1269     2.4335
 1052.5000   -31.0863    12.6110    10.9033   100.5889    84.9910     7.3084     0.1326     2.4171
 1053.0000   -31.8434    12.7718    11.4772    95.3683    82.3107     7.3079     0.1422     2.4081
 1053.5000   -35.3155    13.1487    12.1514    89.3334    81.7374     7.3073     0.1479     2.4021
 1054.0000   -38.0334    13.6006    12.6754    84.7018    83.3785     7.3067     0.1429     2.3977
 1054.5000   -41.6563    14.0526    13.1994    80.2706    82.8411     7.2912     0.1517     2.3968
 1055.0000   -41.8101    14.5796    13.5733    74.9875    81.4107     7.2459     0.1542     2.4104
 1055.5000   -42.1148    15.7823    13.8721    70.3180    77.1053     7.2006     0.1481     2.4104
