~VERSION INFORMATION
 VERS.                2.0:   CWLS LOG ASCII STANDARD - VERSION 2.0
 WRAP.                 NO:   ONE LINE PER DEPTH STEP
~WELL INFORMATION
#MNEM.UNIT      DATA TYPE    INFORMATION
#----------   ------------   ------------------------------
 STRT.F           20.0000:   START DEPTH
 STOP.F          805.5000:   STOP DEPTH
 STEP.F            0.5000:   STEP LENGTH
 NULL.          -999.2500:   NO VALUE
 COMP. FENIX & SCISSON INC:   COMPANY
 WELL.    16-SX-14 #16-14:   WELL
 FLD .             TEAPOT:   FIELD
 LOC .      S14 T38N R78W:   LOCATION
 CNTY.            NATRONA:   COUNTY
 STAT.            WYOMING:   STATE
 CTRY. UNITED STATES OF AMERICA:   COUNTRY
 SRVC.            Unknown:   SERVICE COMPANY
 DATE.        23-MAY-1978:   LOGDATE
 API .       490251063200:   API NUMBER
~CURVE INFORMATION
#MNEM.UNIT       API CODE    CURVE DESCRIPTION
#----------   ------------   ------------------------------
 DEPT.F                  :   
 SN  .OHMM   05 040 16 00:   SHORT NORMAL 16"
 ILD .OHMM   05 120 46 00:   INDUCTION LOG DEEP
 SPR .MV     05 010 01 00:   SPONTANEOUS POTENTIAL FROM RES.
 RHOB.G/C3   45 350 01 00:   BULK DENSITY
 DPOR.DEC    45 890 12 00:   DENSITY POROSITY SANDSTONE
 CORR.G/C3   45 356 01 00:   DENSITY CORRECTION
 GRD .GAPI   45 310 01 00:   GAMMA RAY FROM DENSITY LOG
 CALD.IN     45 280 60 00:   CALIPER FROM DENSITY LOG
~PARAMETER INFORMATION
#MNEM.UNIT          VALUE    DESCRIPTION
#----------   ------------   ------------------------------
 PD  .                 GL:   PERMANENT DATUM
 EPD .F              5246:   ELEVATION PERMANENT DATUM
 LMF .                 KB:   LOG MEASURED FROM
 DAPD.F                 4:   FEET ABOVE PERMANENT DATUM
 DMF .                 KB:   DRILLING MEASURED FROM
 EKB .F              5250:   KELLING BUSHING
 EGL .F              5246:   GROUND LEVEL
 DATE.          5-23-1978:   RUN DATE
 RUN .                  1:   RUN NUMBER
 DD  .F               825:   DEPTH DRILLER
 DL  .F               812:   DEPTH LOGGER
 BLI .F               805:   BOTTOM LOG INTERVAL
 TLI .F                40:   TOP LOG INTERVAL
 CS  .IN            8.625:   CASING SIZE
 CBD .F                40:   CASING BOTTOM DRILLER
 BS  .IN            7.875:   BIT SIZE
 BSD .F               825:   BIT SIZE AT DEPTH
 DFT .                KCL:   DRILLING FLUID TYPE
 DFD .                8.6:   DRILLING FLUID DENSITY
 DFV .                 30:   DRILLING FLUID VISCOSITY
 DFPH.                 11:   DRILLING FLUID PH
 DFL .                 14:   DRILLING FLUID LOSS
 MSS .            MUD PIT:   MUD SAMPLE SOURCE
 RMS .OHMM            .32:   RESISTIVITY MUD SAMPLE
 MST .F                72:   MUD SAMPLE TEMPERATURE
 RMF .OHMM            .28:   RESISTIVITY MUD FILTRATE SAMPLE
 MFST.F                72:   MUD FILTRATE SAMPLE TEMPERATURE
 RMC .OHMM            .50:   RESISTIVITY MUD CAKE
 MCST.F                82:   MUD CAKE SAMPLE TEMPERATURE
 MFSS.               MEAS:   MUD FILTRATE SAMPLE SOURCE
 RMB .OHMM            .31:   RESISTIVITY MUD AT BHT
 BHT .F                75:   BOTTOM HOLE TEMPERATURE
 TCS .HRS               2:   TIME CURCULATED STOPPED
 MRT .F                75:   MAXIMUM RECORDED TEMPERATURE
 LUN .               2958:   LOGGING UNIT NUMBER
 LUL .              CSPR.:   LOGGING UNIT LOCATION
 ENGI.             MILLER:   RECORDING ENGINEER
 WITN.            RHOADES:   WITNESSED BY
 CLNT.            A2DTECH:   CLIENT CODE
 ORIG.    1" , 2.5" PRINT:   ORIGIN OF DATA
 UWI .       490251063200:   UNIQUE WELL ID
 DICO. A2D Technologies, Inc.:   DIGITIZING COMPANY
~OTHER INFORMATION
~A   DEPT       SN        ILD        SPR       RHOB       DPOR       CORR         GRD      CALD   
# ...
  506.0000     5.7136     4.5214   -29.9297     2.3806     0.1673     0.0430    84.5616     7.1142
  506.5000     5.3803     4.3131   -29.9167     2.4141     0.1493     0.0363    83.4300     7.0241
  507.0000     5.0638     4.1403   -29.8949     2.4462     0.1228     0.0290    83.9249     6.8735
  507.5000     4.7688     4.1403   -29.5272     2.4738     0.1249     0.0223    86.8997     6.6728
  508.0000     4.5397     4.1403   -29.2210     2.4708     0.1308     0.0231    88.0567     6.5933
  508.5000     4.6682     4.1403   -28.8918     2.4675     0.1281     0.0239    86.3104     6.6541
  509.0000     4.7977     4.1403   -28.5628     2.4683     0.1220     0.0250    85.1930     6.6894
  509.5000     5.0254     4.3408   -28.2536     2.4697     0.1242     0.0261    86.1124     7.6285
  510.0000     5.3121     4.5932   -27.9317     2.4708     0.1284     0.0312    86.5616     7.4630
  510.5000     5.6151     4.8600   -28.0077     2.4713     0.1267     0.0372    85.9606     6.9083
  511.0000     5.9355     5.1424   -28.0895     2.4718     0.1216     0.0419    84.3764     7.2244
  511.5000     6.2741     5.4413   -28.1867     2.4832     0.1165     0.0419    83.2212     7.1672
  512.0000     6.6320     5.7656   -28.2978     2.4935     0.1108     0.0421    85.0215     7.0018
  512.5000     6.9347     5.8103   -28.1702     2.4994     0.1108     0.0421    88.8182     6.8156
  513.0000     6.9047     5.8567   -27.9102     2.4979     0.1108     0.0418    90.9900     6.6192
  513.5000     6.8797     5.9046   -27.6720     2.4967     0.1108     0.0452    88.9967     6.4040
  514.0000     6.8548     5.9512   -27.4413     2.4958     0.1108     0.0521    86.3037     6.2822
  514.5000     6.8300     5.9981   -27.1842     2.4968     0.1066     0.0589    84.6957     6.3916
  515.0000     6.8102     6.0455   -27.1829     2.5042     0.1025     0.0622    85.6544     6.7210
  515.5000     6.9716     6.0932   -27.3476     2.5104     0.0993     0.0618    86.6488     7.0461
  516.0000     7.1188     6.1413   -27.4953     2.5159     0.1011     0.0559    85.1833     6.9287
  516.5000     7.2689     6.1897   -27.6394     2.5158     0.1055     0.0500    83.4661     6.7747
  517.0000     7.3292     6.2386   -27.7904     2.5109     0.1099     0.0426    82.4220     7.2021
  517.5000     7.3284     6.2875   -27.9366     2.5025     0.1140     0.0496    82.0138     7.4461
  518.0000     7.3841     6.3370   -28.0842     2.4941     0.1129     0.0580    82.5344     7.4627
  518.5000     7.4713     6.3869   -28.2380     2.4943     0.1089     0.0655    82.9873     7.4893
  519.0000     7.5598     6.4416   -28.3459     2.5024     0.1050     0.0599    83.0478     7.5205
  519.5000     7.6494     6.4417   -28.4010     2.5097     0.1011     0.0551    82.8248     7.5309
  520.0000     7.7438     6.4418   -28.4621     2.5169     0.0996     0.0498    82.8683     7.4346
  520.5000     7.6876     6.4419   -28.5236     2.5139     0.1013     0.0443    85.0133     7.2634
  521.0000     7.6297     6.4420   -28.5835     2.5085     0.1031     0.0429    87.9654     6.9159
  521.5000     7.5722     6.4421   -28.6444     2.5050     0.1044     0.0454    87.4121     6.5378
  522.0000     7.5151     6.4420   -28.7051     2.5031     0.1044     0.0478    89.6974     6.2470
  522.5000     7.4584     6.4419   -28.7656     2.5031     0.1044     0.0503    89.7822     6.5579
  523.0000     7.4018     6.4418   -28.8264     2.5030     0.1048     0.0571    88.2274     6.8113
  523.5000     7.3458     6.4418   -28.8871     2.5028     0.1066     0.0639    88.5879     7.0987
  524.0000     7.2901     6.3629   -28.9478     2.5002     0.1084     0.0712    89.9775     7.2270
  524.5000     7.2349     6.2791   -29.0085     2.4979     0.1085     0.0735    89.1953     7.2789
  525.0000     7.1800     6.1965   -29.0692     2.5007     0.1071     0.0715    88.6826     7.3370
  525.5000     7.1256     6.1150   -29.1291     2.5065     0.1069     0.0675    87.3833     7.3405
  526.0000     7.0637     6.0344   -29.1894     2.5029     0.1111     0.0575    85.5070     7.3413
  526.5000     6.9615     5.9549   -29.2512     2.4973     0.1152     0.0466    83.6684     7.3407
  527.0000     6.8431     5.8765   -29.3073     2.4939     0.1194     0.0436    82.9660     7.3408
  527.5000     6.7267     5.7990   -29.3727     2.4781     0.1212     0.0404    83.0700     7.3656
  528.0000     6.6124     5.7226   -29.4372     2.4731     0.1197     0.0378    83.9645     7.4006
  528.5000     6.5407     5.6472   -29.4645     2.4729     0.1252     0.0349    85.1951     7.4365
  529.0000     6.5021     5.5728   -29.8315     2.4727     0.1325     0.0336    90.7559     7.4511
  529.5000     6.4636     5.4994   -30.4427     2.4592     0.1446     0.0331    97.6238     7.4201
  530.0000     6.3552     5.3811   -31.0188     2.4417     0.1577     0.0326    96.4786     7.3902
  530.5000     6.1590     5.2064   -31.5228     2.4227     0.1701     0.0321    93.2355     7.3555
  531.0000     5.9845     5.0373   -31.7914     2.4030     0.1842     0.0316    90.7960     7.3549
  531.5000     5.6535     4.8737   -32.0298     2.3837     0.2005     0.0309    89.2803     7.4033
  532.0000     5.3649     4.5666   -32.2732     2.3565     0.2169     0.0307    87.5720     7.4111
  532.5000     5.0911     4.1556   -32.5047     2.3209     0.2333     0.0305    85.8619     7.3804
  533.0000     4.7245     3.7143   -32.7188     2.2868     0.2498     0.0430    84.1594     7.3584
  533.5000     4.3112     3.2754   -32.5970     2.2515     0.2655     0.0567    82.1535     7.3016
  534.0000     3.9341     2.8884   -32.4704     2.2344     0.2591     0.0652    79.8310     7.1409
  534.5000     3.5900     2.5471   -32.3293     2.2574     0.2335     0.0694    77.4897     6.8155
  535.0000     3.2759     2.2132   -31.9385     2.3036     0.2079     0.0608    74.9493     6.4806
  535.5000     2.9894     2.2132   -31.5090     2.3449     0.1825     0.0612    72.8198     6.3525
  536.0000     2.7104     2.2132   -30.6769     2.3840     0.1570     0.0682    70.8362     6.5230
  536.5000     2.7104     2.2295   -29.8116     2.4308     0.1272     0.0748    79.1657     6.7257
  537.0000     2.7221     2.2461   -29.4638     2.4500     0.1223     0.0814    86.8771     6.8176
  537.5000     2.7608     2.3812   -29.4306     2.4703     0.1159     0.0860    91.0884     6.7884
  538.0000     3.0259     2.6460   -29.3810     2.4925     0.1165     0.0860    89.7993     6.7690
  538.5000     3.3912     2.8909   -29.3242     2.4880     0.1177     0.0861    88.4426     6.7453
  539.0000     3.8005     3.1588   -29.2761     2.4767     0.1189     0.0843    91.9374     6.7761
  539.5000     4.2593     3.4515   -29.2211     2.4761     0.1200     0.0759    95.4695     6.8513
  540.0000     4.7101     3.7708   -29.1763     2.4757     0.1257     0.0694    98.1602     6.9023
  540.5000     4.9388     4.0755   -29.1245     2.4691     0.1337     0.0676    98.5105     6.9059
  541.0000     5.1529     4.4569   -29.2969     2.4562     0.1417     0.0641    98.9254     6.9128
  541.5000     5.4897     4.4212   -29.5005     2.4441     0.1497     0.0579    99.2610     6.9180
  542.0000     5.4620     4.3296   -29.7093     2.4319     0.1577     0.0461    99.6844     6.9233
  542.5000     5.4031     4.2398   -29.9207     2.4200     0.1660     0.0388    99.8780     6.9290
  543.0000     5.3318     4.1518   -30.1192     2.4092     0.1639     0.0347    97.9203     6.9339
  543.5000     5.2614     4.0657   -30.3051     2.4116     0.1594     0.0423    93.9495     6.9394
  544.0000     5.1919     3.9814   -30.1491     2.4135     0.1550     0.0499    90.8831     6.9303
  544.5000     5.1234     3.8988   -29.9956     2.4231     0.1468     0.0570    90.8040     6.9219
  545.0000     5.0559     3.8462   -29.8267     2.4355     0.1375     0.0653    90.8494     6.9129
  545.5000     4.9894     3.9177   -29.6646     2.4514     0.1282     0.0589    91.8577     6.8986
  546.0000     4.9752     4.0161   -29.5014     2.4663     0.1181     0.0508    96.2634     6.9420
