~VERSION INFORMATION
 VERS.                2.0:   CWLS LOG ASCII STANDARD - VERSION 2.0
 WRAP.                 NO:   ONE LINE PER DEPTH STEP
~WELL INFORMATION
#MNEM.UNIT      DATA TYPE    INFORMATION
#----------   ------------   ------------------------------
 STRT.F          350.0000:   START DEPTH
 STOP.F         2259.0000:   STOP DEPTH
 STEP.F            0.5000:   STEP LENGTH
 NULL.          -999.2500:   NO VALUE
 COMP. LAWRENCE/ALLISON INC:   COMPANY
 WELL.        45 X #33-33:   WELL
 FLD .             TEAPOT:   FIELD
 LOC .      S33 T39N R78W:   LOCATION
 CNTY.            NATRONA:   COUNTY
 STAT.            WYOMING:   STATE
 CTRY. UNITED STATES OF AMERICA:   COUNTRY
 SRVC.      NL McCullough:   SERVICE COMPANY
 DATE.        19-MAY-1988:   LOGDATE
 API .       490251119400:   API NUMBER
~CURVE INFORMATION
#MNEM.UNIT       API CODE    CURVE DESCRIPTION
#----------   ------------   ------------------------------
 DEPT.F                  :   
 ROP .MIN/FT 91 810 01 00:   RATE OF DRILLING PENETRATION
 GR  .GAPI   81 310 01 00:   GAMMA RAY
 TGAS.UNITS  91 830 01 00:   TOTAL GAS FROM HOTWIRE
~PARAMETER INFORMATION
#MNEM.UNIT          VALUE    DESCRIPTION
#----------   ------------   ------------------------------
 PD  .                 GL:   PERMANENT DATUM
 EPD .F              5198:   ELEVATION PERMANENT DATUM
 LMF .                 KB:   LOG MEASURED FROM
 DAPD.F                11:   FEET ABOVE PERMANENT DATUM
 DMF .                 KB:   DRILLING MEASURED FROM
 EKB .F              5209:   KELLING BUSHING
 EGL .F              5198:   GROUND LEVEL
 DATE.            5-19-88:   RUN DATE
 RUN .                  1:   RUN NUMBER
 DD  .F              2232:   DEPTH DRILLER
 DL  .F               750:   DEPTH LOGGER
 BLI .F               746:   BOTTOM LOG INTERVAL
 TLI .F               350:   TOP LOG INTERVAL
 CS  .IN                7:   CASING SIZE
 CBD .F               808:   CASING BOTTOM DRILLER
 DFT .              WATER:   DRILLING FLUID TYPE
 TCS .HRS            0830:   TIME CURCULATED STOPPED
 TLAB.HRS            0930:   TIME LOGGER AT BOTTOM
 ENGI.          SANGERTER:   RECORDING ENGINEER
 WITN.             NORMAN:   WITNESSED BY
 CLNT.            A2DTECH:   CLIENT CODE
 ORIG.           5" PRINT:   ORIGIN OF DATA
 UWI .       490251119400:   UNIQUE WELL ID
 DICO. A2D Technologies, Inc.:   DIGITIZING COMPANY
~OTHER INFORMATION
~A   DEPT      ROP          GR      TGAS   
# ...
 1897.0000     0.9953  -999.2500     3.7433
 1897.5000     1.0582  -999.2500     3.7539
 1898.0000     1.0898  -999.2500     3.7646
 1898.5000     1.1110  -999.2500     3.7752
 1899.0000     1.0903  -999.2500     3.7858
 1899.5000     1.0488  -999.2500     3.7964
 1900.0000     1.0073  -999.2500     3.8071
 1900.5000     0.9032  -999.2500     3.8177
 1901.0000     0.8304  -999.2500     3.8283
 1901.5000     0.7472  -999.2500     3.8363
 1902.0000     0.6743  -999.2500     3.8394
 1902.5000     0.6641  -999.2500     3.8424
 1903.0000     0.6435  -999.2500     3.8455
 1903.5000     0.6438  -999.2500     3.8486
 1904.0000     0.6441  -999.2500     3.8516
 1904.5000     0.6757  -999.2500     3.8547
 1905.0000     0.7281  -999.2500     3.8578
 1905.5000     0.7597  -999.2500     3.8608
 1906.0000     0.6524  -999.2500     3.8639
 1906.5000     0.5376  -999.2500     3.8670
 1907.0000     0.4854  -999.2500     3.8701
 1907.5000     0.4332  -999.2500     3.8731
 1908.0000     0.4019  -999.2500     3.8762
 1908.5000     0.4019  -999.2500     3.8793
 1909.0000     0.3706  -999.2500     3.8823
 1909.5000     0.3706  -999.2500     3.8854
 1910.0000     0.3601  -999.2500     3.8885
 1910.5000     0.3601  -999.2500     3.8915
 1911.0000     0.3601  -999.2500     3.8946
 1911.5000     0.3601  -999.2500     3.8977
 1912.0000     0.3601  -999.2500     3.9008
 1912.5000     0.3601  -999.2500     3.9038
 1913.0000     0.3601  -999.2500     3.9069
 1913.5000     0.3601  -999.2500     3.9100
 1914.0000     0.3601  -999.2500     3.9130
 1914.5000     0.3601  -999.2500     3.9161
 1915.0000     0.3601  -999.2500     3.9192
 1915.5000     0.3601  -999.2500     3.9222
 1916.0000     0.3601  -999.2500     3.9253
 1916.5000     0.3601  -999.2500     3.9284
 1917.0000     0.3601  -999.2500     3.9315
 1917.5000     0.3601  -999.2500     3.9345
 1918.0000     0.3601  -999.2500     3.9376
 1918.5000     0.3601  -999.2500     3.9407
 1919.0000     0.3601  -999.2500     3.9437
 1919.5000     0.3601  -999.2500     3.9468
 1920.0000     0.3706  -999.2500     3.9499
 1920.5000     0.3706  -999.2500     3.9529
 1921.0000     0.3706  -999.2500     3.9560
 1921.5000     0.3706  -999.2500     3.9591
 1922.0000     0.3601  -999.2500     3.9621
 1922.5000     0.3601  -999.2500     3.9652
 1923.0000     0.3706  -999.2500     3.9683
 1923.5000     0.3706  -999.2500     3.9714
 1924.0000     0.3706  -999.2500     3.9744
 1924.5000     0.3706  -999.2500     3.9775
 1925.0000     0.3810  -999.2500     3.9806
 1925.5000     0.3914  -999.2500     3.9836
 1926.0000     0.4019  -999.2500     3.9867
 1926.5000     0.4019  -999.2500     3.9898
 1927.0000     0.4019  -999.2500     3.9928
 1927.5000     0.4019  -999.2500     3.9959
 1928.0000     0.4019  -999.2500     3.9990
 1928.5000     0.4019  -999.2500     4.0021
 1929.0000     0.4019  -999.2500     4.0051
 1929.5000     0.4019  -999.2500     4.0082
 1930.0000     0.4019  -999.2500     4.0113
 1930.5000     0.3914  -999.2500     4.0143
 1931.0000     0.4019  -999.2500     4.0174
 1931.5000     0.3914  -999.2500     4.0205
 1932.0000     0.3706  -999.2500     4.0235
 1932.5000     0.3706  -999.2500     4.0266
 1933.0000     0.3706  -999.2500     4.0297
 1933.5000     0.3706  -999.2500     4.0328
 1934.0000     0.3914  -999.2500     4.0358
 1934.5000     0.3810  -999.2500     4.0389
 1935.0000     0.3810  -999.2500     4.0420
 1935.5000     0.3914  -999.2500     4.0450
 1936.0000     0.4019  -999.2500     4.0481
 1936.5000     0.4123  -999.2500     4.0512
 1937.0000     0.4436  -999.2500     4.0542
 1937.5000     0.4958  -999.2500     4.0573
 1938.0000     0.5689  -999.2500     4.0604
 1938.5000     0.6106  -999.2500     4.0635
 1939.0000     0.6524  -999.2500     4.0665
 1939.5000     0.6106  -999.2500     4.0696
 1940.0000     0.5376  -999.2500     4.0727
 1940.5000     0.4541  -999.2500     4.0757
 1941.0000     0.4019  -999.2500     4.0788
 1941.5000     0.3706  -999.2500     4.0819
 1942.0000     0.3497  -999.2500     4.0849
 1942.5000     0.3288  -999.2500     4.0880
 1943.0000     0.3184  -999.2500     4.0911
 1943.5000     0.3079  -999.2500     4.0942
 1944.0000     0.2975  -999.2500     4.0972
 1944.5000     0.2871  -999.2500     4.1003
 1945.0000     0.2871  -999.2500     4.1034
 1945.5000     0.2871  -999.2500     4.1064
 1946.0000     0.2975  -999.2500     4.1095
 1946.5000     0.3079  -999.2500     4.1126
 1947.0000     0.3184  -999.2500     4.1156
 1947.5000     0.3288  -999.2500     4.1187
 1948.0000     0.3601  -999.2500     4.1218
 1948.5000     0.4019  -999.2500     4.1249
 1949.0000     0.4436  -999.2500     4.1279
 1949.5000     0.4541  -999.2500     4.1310
 1950.0000     0.4749  -999.2500     4.1341
 1950.5000     0.4854  -999.2500     4.1371
 1951.0000     0.4854  -999.2500     4.1402
 1951.5000     0.4958  -999.2500     4.1433
 1952.0000     0.5480  -999.2500     4.1463
 1952.5000     0.5898  -999.2500     4.1494
 1953.0000     0.6211  -999.2500     4.1525
 1953.5000     0.6524  -999.2500     4.1556
 1954.0000     0.5793  -999.2500     4.1586
 1954.5000     0.5063  -999.2500     4.1617
 1955.0000     0.4332  -999.2500     4.1648
 1955.5000     0.3914  -999.2500     4.1678
 1956.0000     0.3601  -999.2500     4.1709
 1956.5000     0.3601  -999.2500     4.1740
 1957.0000     0.3601  -999.2500     4.1770
 1957.5000     0.3601  -999.2500     4.1801
 1958.0000     0.3601  -999.2500     4.1832
 1958.5000     0.3706  -999.2500     4.1863
 1959.0000     0.3914  -999.2500     4.1893
 1959.5000     0.4332  -999.2500     4.6177
 1960.0000     0.4749  -999.2500     5.4690
 1960.5000     0.4958  -999.2500     5.8996
 1961.0000     0.5271  -999.2500     7.1723
 1961.5000     0.4019  -999.2500     8.0235
 1962.0000     0.3601  -999.2500    11.3990
 1962.5000     0.3288  -999.2500    17.7175
 1963.0000     0.3184  -999.2500    24.4574
 1963.5000     0.3184  -999.2500    29.9348
 1964.0000     0.2975  -999.2500    36.2542
 1964.5000     0.2871  -999.2500    41.3110
 1965.0000     0.2766  -999.2500    48.0510
 1965.5000     0.2871  -999.2500    53.5284
 1966.0000     0.3184  -999.2500    60.2683
 1966.5000     0.3601  -999.2500    66.5868
 1967.0000     0.4019  -999.2500    73.3267
 1967.5000     0.4436  -999.2500    78.8042
 1968.0000     0.4436  -999.2500    85.1235
 1968.5000     0.3914  -999.2500    91.8626
 1969.0000     0.3497  -999.2500   109.1166
 1969.5000     0.3288  -999.2500   115.4351
 1970.0000     0.3601  -999.2500   120.4919
 1970.5000     0.4228  -999.2500   152.7357
 1971.0000     0.4541  -999.2500   121.3020
 1971.5000     0.4854  -999.2500   121.2296
 1972.0000     0.4854  -999.2500   121.1571
 1972.5000     0.4541  -999.2500   121.0847
 1973.0000     0.4332  -999.2500   121.0123
 1973.5000     0.4019  -999.2500   120.9398
 1974.0000     0.4019  -999.2500   120.8674
 1974.5000     0.3706  -999.2500   120.7949
 1975.0000     0.3706  -999.2500   120.7225
 1975.5000     0.3601  -999.2500   120.6500
 1976.0000     0.3497  -999.2500   120.5776
 1976.5000     0.3288  -999.2500   120.5052
 1977.0000     0.3184  -999.2500   120.4327
 1977.5000     0.3184  -999.2500   120.3603
 1978.0000     0.3079  -999.2500   120.2878
 1978.5000     0.2871  -999.2500   120.2154
 1979.0000     0.2871  -999.2500   120.1430
 1979.5000     0.2871  -999.2500   120.0705
 1980.0000     0.2871  -999.2500   119.9981
 1980.5000     0.2871  -999.2500   119.9256
 1981.0000     0.2766  -999.2500   119.8532
 1981.5000     0.2871  -999.2500   119.7807
 1982.0000     0.2871  -999.2500   119.7083
 1982.5000     0.2871  -999.2500   119.6359
 1983.0000     0.3079  -999.2500   119.5634
 1983.5000     0.3184  -999.2500   119.4910
 1984.0000     0.3392  -999.2500   119.4185
 1984.5000     0.3706  -999.2500   119.3461
 1985.0000     0.4123  -999.2500   119.2737
 1985.5000     0.4749  -999.2500   119.2012
 1986.0000     0.5167  -999.2500   119.1288
 1986.5000     0.5271  -999.2500   119.0563
 1987.0000     0.5376  -999.2500   118.9839
 1987.5000     0.5271  -999.2500   118.9115
