~VERSION INFORMATION
 VERS.                2.0:   CWLS LOG ASCII STANDARD - VERSION 2.0
 WRAP.                 NO:   ONE LINE PER DEPTH STEP
~WELL INFORMATION
#MNEM.UNIT      DATA TYPE    INFORMATION
#----------   ------------   ------------------------------
 STRT.F           52.5000:   START DEPTH
 STOP.F         2929.0000:   STOP DEPTH
 STEP.F            0.5000:   STEP LENGTH
 NULL.          -999.2500:   NO VALUE
 COMP.   FLUOR DANIEL INC:   COMPANY
 WELL. NAVAL PETROLEUM RESERVE 3 X-23 #52-23:   WELL
 FLD .            WILDCAT:   FIELD
 LOC .      S23 T38N R78W:   LOCATION
 CNTY.            NATRONA:   COUNTY
 STAT.            WYOMING:   STATE
 CTRY. UNITED STATES OF AMERICA:   COUNTRY
 SRVC.            Unknown:   SERVICE COMPANY
 DATE.        23-APR-1995:   LOGDATE
 API .       490252271500:   API NUMBER
~CURVE INFORMATION
#MNEM.UNIT       API CODE    CURVE DESCRIPTION
#----------   ------------   ------------------------------
 DEPT.F                  :   
 ROP .MIN/FT 91 810 01 00:   RAT OF DRILLING PENETRATION
 TGAS.UNITS  91 830 01 00:   TOTAL GAS FROM HOTWIRE
~PARAMETER INFORMATION
#MNEM.UNIT          VALUE    DESCRIPTION
#----------   ------------   ------------------------------
 EKB .F              5344:   KELLING BUSHING
 EGL .F              5334:   GROUND LEVEL
 DATE.            4-23-95:   RUN DATE
 DD  .F              2929:   DEPTH DRILLER
 CS  .IN            9.625:   CASING SIZE
 CBD .F                53:   CASING BOTTOM DRILLER
 BS  .IN             8.75:   BIT SIZE
 BSD .F              2929:   BIT SIZE AT DEPTH
 ENGI.              TOWER:   RECORDING ENGINEER
 WITN.               HUSK:   WITNESSED BY
 CLNT.            A2DTECH:   CLIENT CODE
 ORIG.           5" PRINT:   ORIGIN OF DATA
 UWI .       490252271500:   UNIQUE WELL ID
 DICO. A2D Technologies, Inc.:   DIGITIZING COMPANY
~OTHER INFORMATION
~A   DEPT        ROP     TGAS   
# ...
 1875.0000     0.3915     1.8874
 1875.5000     0.3912     1.9107
 1876.0000     0.3909     1.9332
 1876.5000     0.3907     1.9332
 1877.0000     0.3904     1.9332
 1877.5000     0.3901     1.9332
 1878.0000     0.3898     1.9332
 1878.5000     0.3896     1.9332
 1879.0000     0.3893     1.9332
 1879.5000     0.3890     1.9332
 1880.0000     0.3888     1.9332
 1880.5000     0.3885     1.9332
 1881.0000     0.3882     1.9332
 1881.5000     0.3880     2.3628
 1882.0000     0.3877     3.0072
 1882.5000     0.5062     3.8663
 1883.0000     0.5059     4.2959
 1883.5000     0.5057     4.7255
 1884.0000     0.5053     5.1551
 1884.5000     0.5051     5.7995
 1885.0000     0.5048     6.6587
 1885.5000     0.5046     7.5179
 1886.0000     0.5043     8.1623
 1886.5000     0.5040     8.1623
 1887.0000     0.5037     8.1623
 1887.5000     0.5035     8.1623
 1888.0000     0.5032     8.1623
 1888.5000     0.6326     7.7327
 1889.0000     0.6323     7.7327
 1889.5000     0.6320     7.5179
 1890.0000     0.6317     7.5179
 1890.5000     0.6314     7.3031
 1891.0000     0.6312     7.3031
 1891.5000     0.6309     6.8735
 1892.0000     0.6306     6.4439
 1892.5000     0.6304     6.0143
 1893.0000     0.6320     6.0143
 1893.5000     0.6341     6.0143
 1894.0000     0.6363     5.7995
 1894.5000     0.6384     5.3699
 1895.0000     0.6406     5.1551
 1895.5000     0.6427     4.7255
 1896.0000     0.6449     4.7255
 1896.5000     0.6470     4.5107
 1897.0000     0.6490     4.2959
 1897.5000     0.6506     4.2959
 1898.0000     0.6523     4.2959
 1898.5000     0.6539     4.0811
 1899.0000     0.6555     3.8663
 1899.5000     0.6571     3.6516
 1900.0000     0.6587     3.4368
 1900.5000     0.6604     3.4368
 1901.0000     0.6620     3.2220
 1901.5000     0.6636     2.7924
 1902.0000     0.6652     2.3628
 1902.5000     0.4940     1.9332
 1903.0000     0.4958     1.5036
 1903.5000     0.4974     0.8592
 1904.0000     0.4991     0.8592
 1904.5000     0.5008     0.8592
 1905.0000     0.5024     0.8592
 1905.5000     0.5041     0.8592
 1906.0000     0.5054     1.0740
 1906.5000     0.5073     1.2888
 1907.0000     0.5089     1.2888
 1907.5000     0.5105     1.2888
 1908.0000     0.5114     1.5036
 1908.5000     0.5110     1.5036
 1909.0000     0.5105     1.5036
 1909.5000     0.5100     1.5036
 1910.0000     0.5095     1.5036
 1910.5000     0.5091     1.7184
 1911.0000     0.5086     1.5036
 1911.5000     0.5081     1.2812
 1912.0000     0.5076     1.2561
 1912.5000     0.5070     1.2310
 1913.0000     0.5063     1.2059
 1913.5000     0.5056     1.1808
 1914.0000     0.5049     1.1557
 1914.5000     0.5042     1.1306
 1915.0000     0.5035     1.1055
 1915.5000     0.5028     1.0804
 1916.0000     0.5021     1.0826
 1916.5000     0.5014     1.0942
 1917.0000     0.5007     1.1058
 1917.5000     0.5000     1.1175
 1918.0000     0.4993     1.1291
 1918.5000     0.4986     1.1407
 1919.0000     0.4979     1.1523
 1919.5000     0.4972     1.1639
 1920.0000     0.4966     1.1755
 1920.5000     0.4960     1.1871
 1921.0000     0.4954     1.1987
 1921.5000     0.4948     1.2103
 1922.0000     0.4943     1.2219
 1922.5000     0.4937     1.2335
 1923.0000     0.4931     1.2451
 1923.5000     0.4925     1.2567
 1924.0000     0.4920     1.2684
 1924.5000     0.4914     1.2800
 1925.0000     0.4908     1.2888
 1925.5000     0.4903     1.2888
 1926.0000     0.4897     1.2888
 1926.5000     0.4891     1.2888
 1927.0000     0.4885     1.2888
 1927.5000     0.4880     1.2888
 1928.0000     0.4874     1.2888
 1928.5000     0.4868     1.2888
 1929.0000     0.4862     1.2888
 1929.5000     0.4848     1.2888
 1930.0000     0.4827     1.2888
 1930.5000     0.4805     1.2888
 1931.0000     0.4784     1.2888
 1931.5000     0.4763     1.2888
 1932.0000     0.4742     1.2888
 1932.5000     0.4720     1.2888
 1933.0000     0.4699     1.2888
 1933.5000     0.4681     1.2888
 1934.0000     0.4680     1.2888
 1934.5000     0.4680     1.2888
 1935.0000     0.4680     1.2888
 1935.5000     0.4680     1.2888
 1936.0000     0.4679     1.2888
 1936.5000     0.4679     1.2888
 1937.0000     0.4679     1.2888
 1937.5000     0.4678     1.2888
 1938.0000     0.4678     1.2888
 1938.5000     0.4678     1.2888
 1939.0000     0.4678     1.2888
 1939.5000     0.4677     1.2888
 1940.0000     0.4677     1.2888
 1940.5000     0.4677     1.2888
 1941.0000     0.4676     1.2888
 1941.5000     0.4676     1.2888
 1942.0000     0.4676     1.2750
 1942.5000     0.4676     1.2321
 1943.0000     0.4675     1.1892
 1943.5000     0.4676     1.1462
 1944.0000     0.4677     1.1033
 1944.5000     0.4678     1.0603
 1945.0000     0.4679     1.0174
 1945.5000     0.4680     0.9745
 1946.0000     0.4681     0.9315
 1946.5000     0.4682     0.8886
 1947.0000     0.4683     0.8634
 1947.5000     0.4684     0.8766
 1948.0000     0.4685     0.8898
 1948.5000     0.4686     0.9029
 1949.0000     0.4687     0.9161
 1949.5000     0.4688     0.9293
 1950.0000     0.4689     0.9425
 1950.5000     0.4690     0.9557
 1951.0000     0.4691     0.9689
 1951.5000     0.4692     0.9821
 1952.0000     0.4693     0.9953
 1952.5000     0.4694     1.0085
 1953.0000     0.4695     1.0217
 1953.5000     0.4696     1.0349
 1954.0000     0.4697     1.0481
 1954.5000     0.4698     1.0613
 1955.0000     0.4699     1.0766
 1955.5000     0.4685     1.1406
 1956.0000     0.4667     1.2047
 1956.5000     0.4648     1.2688
 1957.0000     0.4630     1.3329
 1957.5000     0.4612     1.3969
 1958.0000     0.4593     1.4610
 1958.5000     0.4575     1.5251
 1959.0000     0.4557     1.5892
 1959.5000     0.4538     1.6533
 1960.0000     0.4520     1.7173
 1960.5000     0.4501     1.7814
 1961.0000     0.4483     1.8455
 1961.5000     0.4465     1.9096
 1962.0000     0.4446     1.9736
 1962.5000     0.4428     2.0377
 1963.0000     0.4460     2.1018
 1963.5000     0.4492     2.1353
 1964.0000     0.4525     2.0900
 1964.5000     0.5724     2.0447
 1965.0000     0.5724     1.9995
 1965.5000     0.5724     1.9542
 1966.0000     0.5724     1.9332
 1966.5000     0.5724     1.9332
 1967.0000     0.5724     1.9332
 1967.5000     0.5724     1.9332
 1968.0000     0.5724     1.9332
 1968.5000     0.5724     1.9332
 1969.0000     0.5724     1.9332
 1969.5000     0.5724     1.9332
 1970.0000     0.5724     1.9332
 1970.5000     0.5724     1.9332
 1971.0000     0.5724     1.9332
 1971.5000     0.5724     1.9332
 1972.0000     0.5724     1.9332
 1972.5000     0.5724     1.9332
 1973.0000     0.5724     1.9332
 1973.5000     0.5724     1.9332
 1974.0000     0.5724     1.9332
 1974.5000     0.5724     1.9332
 1975.0000     0.5724     1.9332
 1975.5000     0.5724     1.9332
 1976.0000     0.5724     1.9332
 1976.5000     0.5724     1.9332
 1977.0000     0.5724     1.9332
 1977.5000     0.5724     1.9332
 1978.0000     0.5724     1.9332
 1978.5000     0.5724     1.9332
 1979.0000     0.5724     1.9332
 1979.5000     0.5724     1.9332
 1980.0000     0.5724     1.9332
 1980.5000     0.5724     1.9332
 1981.0000     0.5724     1.9332
 1981.5000     0.5724     1.9029
 1982.0000     0.5724     1.8557
 1982.5000     0.6587     1.8085
 1983.0000     0.6587     1.7613
 1983.5000     0.6587     1.7142
 1984.0000     0.6587     1.6670
 1984.5000     0.6587     1.6198
 1985.0000     0.6587     1.5726
 1985.5000     0.6587     1.5254
 1986.0000     0.6587     1.4783
 1986.5000     0.6587     1.4311
 1987.0000     0.6587     1.3839
 1987.5000     0.6587     1.3367
 1988.0000     0.6587     1.2888
 1988.5000     0.6587     1.2508
 1989.0000     0.6587     1.2123
 1989.5000     0.6587     1.1737
 1990.0000     0.6544     1.1351
 1990.5000     0.6491     1.0965
 1991.0000     0.5832     1.0579
 1991.5000     0.5832     1.0194
 1992.0000     0.5832     0.9808
 1992.5000     0.5832     0.9422
 1993.0000     0.5832     0.9036
 1993.5000     0.5832     0.8592
 1994.0000     0.5832     0.8592
 1994.5000     0.5832     0.8592
 1995.0000     0.5832     0.8592
 1995.5000     0.5832     0.8592
 1996.0000     0.5832     0.8592
