~VERSION INFORMATION
 VERS.                2.0:   CWLS LOG ASCII STANDARD - VERSION 2.0
 WRAP.                 NO:   ONE LINE PER DEPTH STEP
~WELL INFORMATION
#MNEM.UNIT      DATA TYPE    INFORMATION
#----------   ------------   ------------------------------
 STRT.F            8.0000:   START DEPTH
 STOP.F          508.0000:   STOP DEPTH
 STEP.F            0.1000:   STEP LENGTH
 NULL.          -999.2500:   NO VALUE
 COMP. LAWRENCE/ALLISON INC:   COMPANY
 WELL. NPR 3 47-12 SX #3-3:   WELL
 FLD .             TEAPOT:   FIELD
 LOC .       S3 T38N R78W:   LOCATION
 CNTY.            NATRONA:   COUNTY
 STAT.            WYOMING:   STATE
 CTRY. UNITED STATES OF AMERICA:   COUNTRY
 SRVC.           Gearhart:   SERVICE COMPANY
 DATE.        12-AUG-1988:   LOGDATE
 API .       490251124100:   API NUMBER
~CURVE INFORMATION
#MNEM.UNIT       API CODE    CURVE DESCRIPTION
#----------   ------------   ------------------------------
 DEPT.F                  :   
 GRR .GAPI   07 310 01 00:   GAMMA RAY
 RILD.OHMM   07 120 46 00:   INDUCTION LOG DEEP RESISTIVITY
 RILM.OHMM   07 120 44 00:   INDUCTION LOG MEDIUM RESISTIVITY
~PARAMETER INFORMATION
#MNEM.UNIT          VALUE    DESCRIPTION
#----------   ------------   ------------------------------
 PD  .                 GL:   PERMANENT DATUM
 EPD .F              5208:   ELEVATION PERMANENT DATUM
 LMF .                 KB:   LOG MEASURED FROM
 DAPD.F                10:   FEET ABOVE PERMANENT DATUM
 DMF .                 KB:   DRILLING MEASURED FROM
 EKB .F              5218:   KELLING BUSHING
 EDF .F              5216:   DRILLING FLOOR
 EGL .F              5208:   GROUND LEVEL
 DATE.        12-AUG-1988:   RUN DATE
 RUN .                  1:   RUN NUMBER
 DD  .F               515:   DEPTH DRILLER
 DL  .F               516:   DEPTH LOGGER
 BLI .F               508:   BOTTOM LOG INTERVAL
 TLI .F                50:   TOP LOG INTERVAL
 CS  .IN            9.625:   CASING SIZE
 CBD .F                50:   CASING BOTTOM DRILLER
 CBL .F                50:   CASING BOTTOM LOGGER
 BS  .IN             8.75:   BIT SIZE
 BSD .F               515:   BIT SIZE AT DEPTH
 DFT .                AIR:   DRILLING FLUID TYPE
 TCS .HRS            1500:   TIME CURCULATED STOPPED
 TLAB.HRS            1640:   TIME LOGGER AT BOTTOM
 MRT .F                70:   MAXIMUM RECORDED TEMPERATURE
 LUN .               7597:   LOGGING UNIT NUMBER
 LUL .           GILLETTE:   LOGGING UNIT LOCATION
 ENGI.         WEATHERMON:   RECORDING ENGINEER
 WITN.             STRONG:   WITNESSED BY
 CLNT.            A2DTECH:   CLIENT CODE
 ORIG.       2", 5" PRINT:   ORIGIN OF DATA
 UWI .       490251124100:   UNIQUE WELL ID
 DICO. A2D Technologies, Inc.:   DIGITIZING COMPANY
~OTHER INFORMATION
~A    DEPT      GRR      RILD       RILM   
# ...
  281.0000   142.6121     6.1375     5.5138
  281.1000   142.1182     6.1722     5.5547
  281.2000   141.7650     6.2256     5.6364
  281.3000   141.5179     6.2752     5.6686
  281.4000   141.2709     6.2831     5.7654
  281.5000   140.9985     6.4068     5.8648
  281.6000   140.7767     6.4378     5.9468
  281.7000   140.6959     6.5212     6.0146
  281.8000   140.8068     6.6019     6.0793
  281.9000   141.0539     6.6538     6.1175
  282.0000   141.3011     6.7715     6.1801
  282.1000   141.5480     6.8462     6.2750
  282.2000   141.9868     6.9539     6.3496
  282.3000   142.4812     7.0520     6.4029
  282.4000   142.8947     7.1324     6.5123
  282.5000   143.1921     7.2168     6.5868
  282.6000   144.0242     7.3582     6.6621
  282.7000   144.2411     7.3940     6.7382
  282.8000   144.3268     7.4905     6.8151
  282.9000   144.3268     7.6007     6.8984
  283.0000   144.3268     7.6873     7.0267
  283.1000   144.3268     7.7771     7.1380
  283.2000   144.0847     7.8200     7.2317
  283.3000   143.8375     7.8981     7.3346
  283.4000   143.3281     7.9639     7.4607
  283.5000   142.4356     8.0089     7.5870
  283.6000   141.2099     8.0543     7.6893
  283.7000   140.0981     8.1060     7.7615
  283.8000   138.9862     8.1861     7.8501
  283.9000   137.8743     8.2490     7.9224
  284.0000   136.7625     8.2757     7.9674
  284.1000   135.7745     8.2945     8.0151
  284.2000   134.4028     8.3907     8.0580
  284.3000   133.4644     8.3904     8.1038
  284.4000   133.1316     8.4629     8.1498
  284.5000   133.1316     8.5070     8.1960
  284.6000   133.1316     8.5220     8.2424
  284.7000   133.1316     8.5702     8.2965
  284.8000   133.1316     8.6249     8.3363
  284.9000   133.1316     8.6676     8.3836
  285.0000   133.0813     8.7167     8.4312
  285.1000   132.8290     8.7445     8.4790
  285.2000   132.5870     8.7545     8.5286
  285.3000   132.3398     8.8047     8.5755
  285.4000   132.0927     8.8044     8.5875
  285.5000   131.8457     8.8425     8.5871
  285.6000   131.5580     8.8650     8.6019
  285.7000   130.7110     8.8809     8.6463
  285.8000   130.0755     8.9261     8.6458
  285.9000   129.1779     8.9256     8.6885
  286.0000   128.0887     8.9253     8.7055
  286.1000   126.8530     8.9249     8.7051
  286.2000   125.5673     8.9246     8.7152
  286.3000   125.0932     8.9352     8.7651
  286.4000   124.7807     8.9860     8.7647
  286.5000   124.6596     8.9857     8.7643
  286.6000   124.5890     8.9853     8.7640
  286.7000   124.3570     8.9849     8.7804
  286.8000   124.3570     8.9845     8.8244
  286.9000   124.3570     8.9896     8.8240
  287.0000   124.3570     9.0463     8.8236
  287.1000   124.4529     9.0460     8.8233
  287.2000   124.6999     9.0800     8.8229
  287.3000   124.9622     9.1083     8.8225
  287.4000   125.4261     9.1194     8.8222
  287.5000   125.7438     9.1710     8.8218
  287.6000   126.2330     9.1707     8.8214
  287.7000   126.8431     9.1703     8.8211
  287.8000   127.1106     9.1990     8.8208
  287.9000   127.9879     9.2334     8.8204
  288.0000   128.5930     9.2331     8.8200
  288.1000   129.4805     9.2326     8.8196
  288.2000   130.2873     9.2322     8.8193
  288.3000   130.8170     9.2319     8.8189
  288.4000   131.6188     9.2315     8.8316
  288.5000   132.2997     9.2311     8.8797
  288.6000   132.8695     9.2307     8.8792
  288.7000   133.3637     9.2303     8.9206
  288.8000   133.7973     9.2299     8.9405
  288.9000   134.0393     9.2296     8.9401
  289.0000   134.0393     9.2292     8.9397
  289.1000   134.0393     9.2288     8.9393
  289.2000   134.0393     9.2284     8.9390
  289.3000   133.9536     9.2280     8.9386
  289.4000   133.6764     9.2276     8.9382
  289.5000   133.1316     9.2273     8.9379
  289.6000   132.6880     9.2269     8.9375
  289.7000   132.1937     9.2265     8.9371
  289.8000   131.6995     9.2261     8.9368
  289.9000   131.2608     9.2257     8.9364
  290.0000   131.0136     9.2253     8.9568
  290.1000   130.7666     9.2250     8.9980
  290.2000   130.7110     9.2245     8.9976
  290.3000   131.1196     9.2241     8.9972
  290.4000   131.9418     9.2238     8.9969
  290.5000   132.9046     9.2234     8.9965
  290.6000   133.7368     9.2230     8.9961
  290.7000   134.1704     9.2226     8.9911
  290.8000   134.8262     9.2223     8.9330
  290.9000   135.5675     9.2219     8.9326
  291.0000   136.2580     9.2215     8.9323
  291.1000   136.7625     9.2211     8.9319
  291.2000   137.4886     9.2207     8.9315
  291.3000   138.0435     9.2203     8.9312
  291.4000   138.4065     9.2199     8.9308
  291.5000   138.6536     9.2195     8.9304
  291.6000   138.8805     9.2192     8.9300
  291.7000   138.8805     9.2188     8.9128
  291.8000   138.8805     9.2314     8.8675
  291.9000   138.7241     9.2837     8.8670
  292.0000   138.1745     9.3465     8.8667
  292.1000   137.0041     9.3462     8.8663
  292.2000   134.9471     9.3769     8.8660
  292.3000   133.5248     9.4106     8.8656
  292.4000   131.6794     9.4177     8.8652
  292.5000   129.9547     9.4753     8.8649
  292.6000   128.6131     9.4749     8.8645
  292.7000   127.6401     9.5122     8.8641
  292.8000   126.7776     9.5402     8.8638
  292.9000   126.3642     9.5536     8.8634
  293.0000   126.0212     9.6059     8.8630
  293.1000   125.8699     9.6054     8.8626
  293.2000   125.8699     9.6496     8.8977
  293.3000   125.8699     9.6717     8.9237
  293.4000   126.3338     9.6915     8.9366
  293.5000   126.8281     9.7383     8.9873
  293.6000   127.4433     9.7378     9.0474
  293.7000   128.3155     9.7374     9.1324
  293.8000   129.5515     9.7761     9.2050
  293.9000   131.0136     9.8045     9.2776
  294.0000   132.0222     9.8041     9.3747
  294.1000   133.1114     9.8059     9.4308
  294.2000   133.9182     9.8715     9.4813
  294.3000   134.3419     9.8712     9.5351
  294.4000   134.3419     9.8708     9.5617
  294.5000   134.3419     9.8703     9.5613
  294.6000   134.1704     9.8699     9.5609
  294.7000   133.9233     9.8695     9.5604
  294.8000   133.6763     9.8691     9.5601
  294.9000   133.4290     9.8687     9.5597
  295.0000   133.1820     9.8683     9.5373
  295.1000   132.7384     9.8530     9.4927
  295.2000   132.2442     9.7992     9.4923
  295.3000   131.7498     9.7987     9.4397
  295.4000   131.2558     9.7526     9.3459
  295.5000   130.7110     9.7302     9.2673
  295.6000   130.0455     9.7087     9.1982
  295.7000   129.4706     9.6532     9.0890
  295.8000   128.8655     9.5947     8.9144
  295.9000   128.2351     9.4423     8.8263
  296.0000   127.9879     9.2824     8.6620
  296.1000   127.7409     9.1505     8.5075
  296.2000   127.4938     9.0465     8.4007
  296.3000   127.3828     8.9411     8.2565
  296.4000   127.3828     8.7640     8.1176
  296.5000   127.3828     8.6409     8.0499
  296.6000   127.3828     8.5236     7.9539
  296.7000   127.3828     8.4085     7.8481
  296.8000   127.5442     8.2735     7.8032
  296.9000   127.6853     8.1743     7.7538
  297.0000   127.7357     8.0868     7.6750
  297.1000   127.9879     7.9950     7.6169
  297.2000   128.2299     7.9043     7.5537
  297.3000   128.4771     7.8269     7.4480
  297.4000   128.9866     7.7797     7.2788
  297.5000   129.6521     7.6770     7.0745
  297.6000   130.1870     7.6042     6.8451
  297.7000   131.3162     7.5441     6.6576
  297.8000   132.5873     7.5010     6.5202
  297.9000   133.9134     7.4582     6.4093
  298.0000   135.3505     7.4134     6.2914
  298.1000   137.0806     7.3731     6.1612
  298.2000   138.8805     7.3615     6.0941
  298.3000   140.0657     7.3400     6.0925
  298.4000   141.1194     7.3099     6.1179
  298.5000   142.1078     7.3097     6.1177
  298.6000   143.0257     7.3093     6.1174
  298.7000   143.7367     7.3090     6.1171
  298.8000   144.0242     7.3087     6.1379
  298.9000   144.0242     7.3251     6.1728
  299.0000   144.0242     7.3591     6.2077
  299.1000   144.0242     7.3587     6.2450
