~VERSION INFORMATION
 VERS.                2.0:   CWLS LOG ASCII STANDARD - VERSION 2.0
 WRAP.                 NO:   ONE LINE PER DEPTH STEP
~WELL INFORMATION
#MNEM.UNIT      DATA TYPE    INFORMATION
#----------   ------------   ------------------------------
 STRT.F          520.5000:   START DEPTH
 STOP.F         3119.5000:   STOP DEPTH
 STEP.F            0.5000:   STEP LENGTH
 NULL.          -999.2500:   NO VALUE
 COMP.   FLUOR DANIEL INC:   COMPANY
 WELL. NAVAL PETROLEUM RESERVE 3 X-10 #52-10:   WELL
 FLD .            WILDCAT:   FIELD
 LOC .      S10 T38N R78W:   LOCATION
 CNTY.            NATRONA:   COUNTY
 STAT.            WYOMING:   STATE
 CTRY. UNITED STATES OF AMERICA:   COUNTRY
 SRVC.            Unknown:   SERVICE COMPANY
 DATE.        16-AUG-1995:   LOGDATE
 API .       490252275200:   API NUMBER
~CURVE INFORMATION
#MNEM.UNIT       API CODE    CURVE DESCRIPTION
#----------   ------------   ------------------------------
 DEPT.F                  :   
 ROP .MIN/FT 91 810 01 00:   RAT OF DRILLING PENETRATION
 TGAS.UNITS  91 830 01 00:   TOTAL GAS FROM HOTWIRE
~PARAMETER INFORMATION
#MNEM.UNIT          VALUE    DESCRIPTION
#----------   ------------   ------------------------------
 EKB .F              5206:   KELLING BUSHING
 EGL .F              5196:   GROUND LEVEL
 DATE.            8-16-95:   RUN DATE
 DD  .F              3120:   DEPTH DRILLER
 CS  .IN            9.625:   CASING SIZE
 CBD .F               508:   CASING BOTTOM DRILLER
 BS  .IN             8.75:   BIT SIZE
 BSD .F              3120:   BIT SIZE AT DEPTH
 ENGI.               HUSK:   RECORDING ENGINEER
 WITN.              TOWER:   WITNESSED BY
 CLNT.            A2DTECH:   CLIENT CODE
 ORIG.           5" PRINT:   ORIGIN OF DATA
 UWI .       490252275200:   UNIQUE WELL ID
 DICO. A2D Technologies, Inc.:   DIGITIZING COMPANY
~OTHER INFORMATION
~A   DEPT        ROP     TGAS   
  520.5000     0.4371  -999.2500
  521.0000     0.4264     1.6981
  521.5000     0.4264     1.7043
  522.0000     0.4158     1.9104
  522.5000     0.4051     1.6981
  523.0000     0.4051     1.6981
  523.5000     0.4046     1.6985
  524.0000     0.3945     1.7048
  524.5000     0.3928     1.7110
  525.0000     0.3838     1.7172
  525.5000     0.3838     1.7234
  526.0000     0.3945     1.7297
  526.5000     0.3945     1.7359
  527.0000     0.3945     1.7421
  527.5000     0.3945     1.7484
  528.0000     0.4051     1.7546
  528.5000     0.4051     1.7608
  529.0000     0.4051     1.7670
  529.5000     0.3945     1.7733
  530.0000     0.3945     1.7795
  530.5000     0.3945     1.7857
  531.0000     0.4051     1.7919
  531.5000     0.4051     1.7982
  532.0000     0.3945     1.8044
  532.5000     0.5224     1.8106
  533.0000     0.5224     1.8169
  533.5000     0.5224     1.8231
  534.0000     0.5224     1.8293
  534.5000     0.5224     1.8355
  535.0000     0.5224     1.8418
  535.5000     0.5224     1.8480
  536.0000     0.5224     1.8542
  536.5000     0.5224     1.8604
  537.0000     0.5224     1.8667
  537.5000     0.5224     1.8729
  538.0000     0.5224     1.8791
  538.5000     0.5224     1.8854
  539.0000     0.5224     1.8916
  539.5000     0.5117     1.8978
  540.0000     0.5224     1.9040
  540.5000     0.5224     1.9104
  541.0000     0.5224     1.9007
  541.5000     0.5224     1.8908
  542.0000     0.5224     1.8810
  542.5000     0.5224     1.8711
  543.0000     0.5224     1.8613
  543.5000     0.5224     1.8514
  544.0000     0.5224     1.8416
  544.5000     0.5224     1.8317
  545.0000     0.5224     1.8219
  545.5000     0.5224     1.8120
  546.0000     0.5224     1.8022
  546.5000     0.5224     1.7923
  547.0000     0.5224     1.7824
  547.5000     0.5224     1.7726
  548.0000     0.5224     1.7627
  548.5000     0.5224     1.7529
  549.0000     0.5224     1.7430
  549.5000     0.5224     1.7332
  550.0000     0.5224     1.7233
  550.5000     0.5224     1.7135
  551.0000     0.5224     1.7036
  551.5000     0.5224     1.6991
  552.0000     0.5224     1.7015
  552.5000     0.5224     1.7038
  553.0000     0.5224     1.7062
  553.5000     0.5224     1.7085
  554.0000     0.5224     1.7109
  554.5000     0.5224     1.7132
  555.0000     0.5224     1.7155
  555.5000     0.5224     1.7179
  556.0000     0.5224     1.7202
  556.5000     0.5224     1.7226
  557.0000     0.5224     1.7249
  557.5000     0.5224     1.7272
  558.0000     0.5117     1.7296
  558.5000     0.7463     1.7319
  559.0000     0.7569     1.7343
  559.5000     0.7676     1.7366
  560.0000     0.7249     1.7389
  560.5000     0.6614     1.7413
  561.0000     0.6725     1.7436
  561.5000     0.6729     1.7460
  562.0000     0.6733     1.7483
  562.5000     0.6737     1.7508
  563.0000     0.6741     1.7559
  563.5000     0.6745     1.7614
  564.0000     0.6749     1.7669
  564.5000     0.6753     1.7724
  565.0000     0.6756     1.7779
  565.5000     0.6760     1.7834
  566.0000     0.6764     1.7889
  566.5000     0.6876     1.7944
  567.0000     0.6880     1.7999
  567.5000     0.6990     1.8054
  568.0000     0.6994     1.8108
  568.5000     0.4120     1.8163
  569.0000     0.4230     1.8218
  569.5000     0.4341     1.8273
  570.0000     0.4451     1.8328
  570.5000     0.4455     1.8383
  571.0000     0.4566     1.8438
  571.5000     0.4570     1.8493
  572.0000     0.4574     1.8548
  572.5000     0.4685     1.8603
  573.0000     0.4689     1.8657
  573.5000     0.4799     1.8712
  574.0000     0.4803     1.8767
  574.5000     0.4807     1.8822
  575.0000     0.4918     1.8877
  575.5000     0.4922     1.8932
  576.0000     0.4925     1.8987
  576.5000     0.4929     1.9042
  577.0000     0.4921     1.9097
  577.5000     0.4831     1.9152
  578.0000     0.4728     1.9206
  578.5000     0.4306     1.9261
  579.0000     0.4310     1.9316
  579.5000     0.4314     1.9371
  580.0000     0.4211     1.9426
  580.5000     0.4216     1.9475
  581.0000     0.4220     1.9487
  581.5000     0.4223     1.9499
  582.0000     0.4334     1.9511
  582.5000     0.4338     1.9523
  583.0000     0.4342     1.9535
  583.5000     0.4452     1.9547
  584.0000     0.4456     1.9559
  584.5000     0.4443     1.9571
  585.0000     0.4357     1.9582
  585.5000     0.4362     1.9594
  586.0000     0.4366     1.9606
  586.5000     0.4263     1.9618
  587.0000     0.4267     1.9630
  587.5000     0.4271     1.9642
  588.0000     0.4275     1.9654
  588.5000     0.4279     1.9666
  589.0000     0.4283     1.9678
  589.5000     0.4287     1.9690
  590.0000     0.4291     1.9702
  590.5000     0.4402     1.9714
  591.0000     0.4406     1.9726
  591.5000     0.4410     1.9738
  592.0000     0.4414     1.9750
  592.5000     0.4525     1.9761
  593.0000     0.4529     1.9773
  593.5000     0.4532     1.9785
  594.0000     0.4536     1.9797
  594.5000     0.4540     2.2670
  595.0000     0.4651     9.0207
  595.5000     0.4655    36.7797
  596.0000     0.4660    36.7132
  596.5000     0.4663    36.2721
  597.0000     0.4667    35.8309
  597.5000     0.4671    35.3446
  598.0000     0.4675    34.7363
  598.5000     0.4786    34.3505
  599.0000     0.4790    34.0663
  599.5000     0.4900    33.4938
  600.0000     0.3945    32.6179
  600.5000     0.3842    31.7420
  601.0000     0.3847    31.0404
  601.5000     0.3949    30.4769
  602.0000     0.3950    29.5981
  602.5000     0.3951    28.8892
  603.0000     0.3953    28.3564
  603.5000     0.3954    27.6963
  604.0000     0.3955    27.1401
  604.5000     0.3850    26.8090
  605.0000     0.3851    26.5861
  605.5000     0.3853    26.2401
  606.0000     0.3854    25.7986
  606.5000     0.3855    25.3571
  607.0000     0.3857    24.9156
  607.5000     0.3858    24.4741
  608.0000     0.3966    24.0325
  608.5000     0.3967    23.7524
  609.0000     0.4075    23.6071
  609.5000     0.4183    23.4853
  610.0000     0.4291    23.3636
  610.5000     0.4293    23.2419
  611.0000     0.4294    23.1202
  611.5000     0.4402    23.0392
  612.0000     0.4403    22.8708
  612.5000     0.4511    22.6314
  613.0000     0.4619    22.6896
  613.5000     0.4727    22.7478
  614.0000     0.4835    22.8061
  614.5000     0.4836    22.8643
  615.0000     0.4731    22.9225
  615.5000     0.4732    22.9807
  616.0000     0.4734    22.7349
  616.5000     0.4628    22.5722
  617.0000     0.4523    22.4222
  617.5000     0.4524    22.1993
  618.0000     0.4419    21.9764
  618.5000     0.4420    21.7535
  619.0000     0.4422    21.7011
  619.5000     0.4423    21.6970
  620.0000     0.4424    21.6616
  620.5000     0.4426    21.6196
  621.0000     0.4427    21.5776
  621.5000     0.4428    21.5356
  622.0000     0.4430    21.4937
  622.5000     0.4431    21.4517
  623.0000     0.4326    21.4097
  623.5000     0.4327    21.3677
  624.0000     0.4329    21.3257
  624.5000     0.4330    21.2837
  625.0000     0.4438    21.2417
  625.5000     0.4439    21.2222
  626.0000     0.4440    21.2283
  626.5000     0.4442    21.2406
  627.0000     0.4443    21.2529
  627.5000     0.4444    21.2652
  628.0000     0.4446    21.2775
  628.5000     0.4447    21.2898
  629.0000     0.4449    21.3021
  629.5000     0.4450    21.3144
  630.0000     0.4451    21.3267
  630.5000     0.4452    21.3390
  631.0000     0.4454    21.3513
  631.5000     0.4455    21.3636
  632.0000     0.4456    21.3759
  632.5000     0.4458    21.3883
  633.0000     0.4459    21.4006
  633.5000     0.4460    21.4129
  634.0000     0.4462    21.4252
  634.5000     0.4463    21.4375
  635.0000     0.4465    21.4498
  635.5000     0.4466    21.4621
  636.0000     0.4467    21.4744
  636.5000     0.4468    21.4867
  637.0000     0.4470    21.4990
  637.5000     0.4471    21.5113
  638.0000     0.4472    21.5236
  638.5000     0.4367    21.5362
  639.0000     0.4475    21.5388
  639.5000     0.4476    21.5414
  640.0000     0.4478    21.5441
  640.5000     0.4162    21.5467
  641.0000     0.4167    21.5494
  641.5000     0.4063    21.5520
