~VERSION INFORMATION
 VERS.                2.0:   CWLS LOG ASCII STANDARD - VERSION 2.0
 WRAP.                 NO:   ONE LINE PER DEPTH STEP
~WELL INFORMATION
#MNEM.UNIT      DATA TYPE    INFORMATION
#----------   ------------   ------------------------------
 STRT.F           35.0000:   START DEPTH
 STOP.F          601.0000:   STOP DEPTH
 STEP.F            0.5000:   STEP LENGTH
 NULL.          -999.2500:   NO VALUE
 COMP. FENIX & SCISSON INC:   COMPANY
 WELL. NPR #3 71SX #71-15:   WELL
 FLD .             TEAPOT:   FIELD
 LOC .      S15 T38N R78W:   LOCATION
 CNTY.            NATRONA:   COUNTY
 STAT.            WYOMING:   STATE
 CTRY. UNITED STATES OF AMERICA:   COUNTRY
 SRVC.              Welex:   SERVICE COMPANY
 DATE.        10-MAR-1977:   LOGDATE
 API .       490251031200:   API NUMBER
~CURVE INFORMATION
#MNEM.UNIT       API CODE    CURVE DESCRIPTION
#----------   ------------   ------------------------------
 DEPT.F                  :   
 SPR .MV     07 010 01 00:   SPONTANEOUS POTENTIAL
 SGRD.OHMM   07 220 05 00:   SHALLOW RESISTIVITY
 DRES.OHMM   07 120 46 00:   INDUCTION LOG DEEP
 MRES.OHMM   07 120 44 00:   INDUCTION LOG MEDIUM
 GRD .GAPI   45 310 01 00:   GAMMA RAY FROM DENSITY LOG
 CALD.IN     45 280 60 00:   CALIPER
 RHOB.G/C3   45 350 01 00:   BULK DENSITY
 DPHI.DEC    45 890 12 00:   DENSITY POROSITY
 CORR.G/C3   45 356 01 00:   DENSITY CORRECTION
~PARAMETER INFORMATION
#MNEM.UNIT          VALUE    DESCRIPTION
#----------   ------------   ------------------------------
 PD  .                 GL:   PERMANENT DATUM
 EPD .F              5241:   ELEVATION PERMANENT DATUM
 LMF .                 GL:   LOG MEASURED FROM
 DMF .                 GL:   DRILLING MEASURED FROM
 EGL .F              5241:   GROUND LEVEL
 DATE.            3-10-77:   RUN DATE
 RUN .                  1:   RUN NUMBER
 DD  .F               600:   DEPTH DRILLER
 DL  .F               603:   DEPTH LOGGER
 BLI .F               601:   BOTTOM LOG INTERVAL
 TLI .F                35:   TOP LOG INTERVAL
 CS  .IN            8.625:   CASING SIZE
 CBD .F                40:   CASING BOTTOM DRILLER
 CBL .F                40:   CASING BOTTOM LOGGER
 BS  .IN            7.875:   BIT SIZE
 BSD .F               600:   BIT SIZE AT DEPTH
 DFT .            KCL MUD:   DRILLING FLUID TYPE
 DFD .                8.6:   DRILLING FLUID DENSITY
 DFV .                 10:   DRILLING FLUID VISCOSITY
 DFPH.                7.2:   DRILLING FLUID PH
 DFL .                  8:   DRILLING FLUID LOSS
 MSS .            MUD PIT:   MUD SAMPLE SOURCE
 RMS .OHMM            .36:   RESISTIVITY MUD SAMPLE
 MST .F                47:   MUD SAMPLE TEMPERATURE
 RMF .OHMM            .35:   RESISTIVITY MUD FILTRATE SAMPLE
 MFST.F                47:   MUD FILTRATE SAMPLE TEMPERATURE
 RMC .OHMM            .40:   RESISTIVITY MUD CAKE
 MCST.F                47:   MUD CAKE SAMPLE TEMPERATURE
 MFSS.           FANN KIT:   MUD FILTRATE SAMPLE SOURCE
 MCSS.           FANN KIT:   MUD CAKE SAMPLE SOURCE
 RMB .OHMM            .31:   RESISTIVITY MUD AT BHT
 BHT .F                53:   BOTTOM HOLE TEMPERATURE
 TCS .HRS             1.5:   TIME CURCULATED STOPPED
 MRT .F                53:   MAXIMUM RECORDED TEMPERATURE
 LUN .               8611:   LOGGING UNIT NUMBER
 LUL .           GILLETTE:   LOGGING UNIT LOCATION
 ENGI.               DOAK:   RECORDING ENGINEER
 WITN.         STUEBINGER:   WITNESSED BY
 CLNT.            A2DTECH:   CLIENT CODE
 ORIG.       2", 5" PRINT:   ORIGIN OF DATA
 UWI .       490251031200:   UNIQUE WELL ID
 DICO. A2D Technologies, Inc.:   DIGITIZING COMPANY
~OTHER INFORMATION
~A   DEPT      SPR       SGRD       DRES       MRES         GRD      CALD       RHOB       DPHI       CORR   
# ...
  108.0000   -36.2300    11.8753     7.8669     9.2154   113.6070     7.9404     2.4387     0.1212     0.0420
  108.5000   -36.1911    12.2572     7.9051     9.2903   114.1985     7.9401     2.4504     0.1162     0.0440
  109.0000   -36.1521    12.2309     7.9726     9.2628   115.9013     7.9397     2.4620     0.1111     0.0460
  109.5000   -36.1130    12.2035     8.0406     9.2140   116.5292     7.9394     2.4632     0.1074     0.0480
  110.0000   -36.0741    12.1763     8.1099     9.1653   116.1347     7.9390     2.4583     0.1113     0.0457
  110.5000   -36.0368    12.1491     8.1804     9.1169   114.7294     7.9387     2.4532     0.1144     0.0427
  111.0000   -35.9699    12.1220     8.2275     9.0687   114.1657     7.9383     2.4481     0.1175     0.0397
  111.5000   -35.8993    12.0949     8.1658     9.0362   113.7740     7.9380     2.4432     0.1199     0.0367
  112.0000   -35.8281    12.0679     8.1644     9.1880   115.2223     7.9377     2.4443     0.1191     0.0367
  112.5000   -35.7570    12.0328     8.1635     9.3258   117.1958     7.9373     2.4486     0.1178     0.0372
  113.0000   -35.6861    12.1877     8.1639     9.4657   118.7933     7.9370     2.4529     0.1164     0.0378
  113.5000   -35.6151    12.4127     8.1621     9.6077   118.7746     7.9366     2.4490     0.1162     0.0381
  114.0000   -35.5440    12.6431     8.3611     9.7519   115.6507     7.9363     2.4415     0.1199     0.0337
  114.5000   -35.4730    12.8780     8.5182     9.8982   112.5227     7.9359     2.4300     0.1244     0.0292
  115.0000   -35.4021    13.2251     8.6782    10.0465   110.7009     7.9356     2.4186     0.1289     0.0248
  115.5000   -35.3311    13.6378     8.8413    10.1895   111.9172     7.9353     2.4072     0.1334     0.0204
  116.0000   -35.2601    13.9440     9.0074    10.2559   112.5363     7.9349     2.3965     0.1383     0.0163
  116.5000   -35.1890    13.6742     9.1766    10.3345   110.8034     7.9346     2.4047     0.1356     0.0183
  117.0000   -35.1180    13.4449     9.2637    10.4137   109.5871     7.9342     2.4288     0.1287     0.0286
  117.5000   -35.0471    13.5024     9.3575    10.4936   110.0774     7.9339     2.4528     0.1172     0.0385
  118.0000   -34.9761    13.6396     9.4520    10.5730   110.6167     7.9335     2.4619     0.1088     0.0425
  118.5000   -34.9050    13.7777     9.5475    10.7311   111.1259     7.9332     2.4629     0.1114     0.0451
  119.0000   -34.8340    13.9180     9.6440    10.8896   111.2670     7.9329     2.4645     0.1084     0.0478
  119.5000   -34.7631    14.2771     9.7415    11.0505   111.8878     7.9325     2.4691     0.1052     0.0499
  120.0000   -34.6920    14.7029     9.8400    11.2137   113.2185     7.9322     2.4733     0.1020     0.0519
  120.5000   -34.6209    15.1541     9.9394    11.3840   114.5063     7.9318     2.4702     0.1043     0.0517
  121.0000   -34.5498    14.6025    10.0007    11.3269   114.1869     7.9315     2.4670     0.1078     0.0510
  121.5000   -34.4796    14.3646     9.9774    11.2685   113.4185     7.9311     2.4655     0.1074     0.0503
  122.0000   -34.4420    14.2258     9.9587    11.2104   113.0956     7.9308     2.4714     0.1034     0.0496
  122.5000   -34.4856    14.0871     9.9401    11.1525   113.5120     7.9305     2.4770     0.0991     0.0490
  123.0000   -34.5267    13.9496     9.9216    11.0949   115.1452     7.9301     2.4806     0.0954     0.0482
  123.5000   -34.5677    13.8134     9.9030    11.0377   117.4580     7.9298     2.4749     0.0993     0.0459
  124.0000   -34.6088    13.6942     9.8846    10.9808   118.6712     7.9294     2.4697     0.1031     0.0435
  124.5000   -34.6499    13.6942     9.8661    10.9241   117.9972     7.9291     2.4673     0.1070     0.0411
  125.0000   -34.6909    13.6940     9.8476    10.8677   113.8419     7.9288     2.4671     0.1071     0.0387
  125.5000   -34.7320    13.6938     9.8292    10.8117   112.5383     7.9284     2.4667     0.1072     0.0382
  126.0000   -34.7731    13.6945     9.7852    10.7559   114.4358     7.9281     2.4665     0.1073     0.0382
  126.5000   -34.8142    13.6933     9.7147    10.7004   115.4370     7.9277     2.4665     0.1061     0.0388
  127.0000   -34.8553    13.9310     9.6446    10.6712   115.5133     7.9274     2.4729     0.1027     0.0403
  127.5000   -34.8963    14.3217     9.5751    10.6919   113.6436     7.9270     2.4835     0.0993     0.0433
  128.0000   -34.9374    14.1856     9.5061    10.7082   110.9163     7.9267     2.4846     0.0962     0.0464
  128.5000   -34.9785    14.0062     9.4376    10.7246   108.1418     7.9264     2.4866     0.0940     0.0485
  129.0000   -35.0196    13.8291     9.3695    10.7410   105.5800     7.9257     2.4926     0.0918     0.0489
  129.5000   -35.0606    13.6942     9.3020    10.7574   106.6117     7.9243     2.4858     0.0957     0.0494
  130.0000   -35.1017    16.1500     9.2349    10.7702   107.9454     7.9230     2.4878     0.0961     0.0499
  130.5000   -35.1428    19.4533     9.1684    10.6673   109.4248     7.9218     2.4879     0.0954     0.0503
  131.0000   -35.1838    15.0529     9.1023    10.5840   112.1037     7.9205     2.4782     0.1001     0.0508
  131.5000   -35.2249    13.2361     9.0366    10.5011   115.4004     7.9192     2.4689     0.1050     0.0513
  132.0000   -35.2660    12.4858     8.9715    10.4188   117.8632     7.9179     2.4726     0.1037     0.0518
  132.5000   -35.3071    12.9815     8.9068    10.3371   117.9435     7.9166     2.4755     0.1021     0.0523
  133.0000   -35.3480    13.4118     8.8426    10.2565   116.7280     7.9153     2.4755     0.1005     0.0544
  133.5000   -35.3886    13.6858     8.7789    10.1895   119.9838     7.9140     2.4765     0.0989     0.0567
  134.0000   -35.4318    13.5945     8.7156    10.1895   124.1096     7.9127     2.4793     0.0991     0.0589
  134.5000   -35.5442    13.5211     8.6528    10.1895   122.7925     7.9114     2.4736     0.1045     0.0599
  135.0000   -35.6573    13.4437     8.5904    10.1895   120.3086     7.9101     2.4618     0.1099     0.0586
  135.5000   -35.7699    13.1766     8.5124    10.1892   118.8574     7.9088     2.4498     0.1153     0.0560
  136.0000   -35.8824    12.8989     8.4034    10.1885   120.5282     7.9075     2.4378     0.1196     0.0529
  136.5000   -35.9949    12.6035     8.2958    10.1899   122.2947     7.9062     2.4380     0.1225     0.0498
  137.0000   -36.1075    12.6774     8.1895    10.1446   122.0251     7.9049     2.4350     0.1239     0.0468
  137.5000   -36.2200    12.7607     8.0847    10.0013   121.2054     7.9036     2.4290     0.1296     0.0437
  138.0000   -36.3326    12.8445     7.9812     9.8601   120.3562     7.9023     2.4228     0.1353     0.0407
  138.5000   -36.4451    12.9558     7.8790     9.7209   119.5116     7.9010     2.4225     0.1391     0.0376
  139.0000   -36.5572    12.7551     7.7682     9.5836   119.6075     7.8997     2.4298     0.1306     0.0369
  139.5000   -36.6286    12.3322     7.6248     9.4483   120.5275     7.8984     2.4372     0.1286     0.0380
  140.0000   -36.6303    11.7799     7.4841     9.3149   121.4476     7.8971     2.4446     0.1264     0.0392
  140.5000   -36.6331    11.2523     7.3459     9.1834   121.7379     7.8958     2.4519     0.1233     0.0403
  141.0000   -36.6357    10.7702     7.2100     9.0537   120.8227     7.8945     2.4591     0.1190     0.0415
  141.5000   -36.6383    10.8379     7.0764     8.9259   119.9037     7.8932     2.4545     0.1182     0.0420
  142.0000   -36.6409    10.7998     6.9775     8.7999   119.2049     7.8919     2.4488     0.1242     0.0411
  142.5000   -36.6436    10.7702     7.0840     8.6448   118.9829     7.8906     2.4464     0.1242     0.0402
  143.0000   -36.6462    10.8374     7.1737     8.7823   118.0743     7.8893     2.4425     0.1247     0.0394
  143.5000   -36.6488    10.9804     7.2641     9.0374   116.5576     7.8880     2.4321     0.1281     0.0385
  144.0000   -36.6515    11.5330     7.3555     9.3000   116.5735     7.8867     2.4244     0.1315     0.0377
