~VERSION INFORMATION
 VERS.                2.0:   CWLS LOG ASCII STANDARD - VERSION 2.0
 WRAP.                 NO:   ONE LINE PER DEPTH STEP
~WELL INFORMATION
#MNEM.UNIT      DATA TYPE    INFORMATION
#----------   ------------   ------------------------------
 STRT.F           30.0000:   START DEPTH
 STOP.F          656.5000:   STOP DEPTH
 STEP.F            0.5000:   STEP LENGTH
 NULL.          -999.2500:   NO VALUE
 COMP. BROWN JOHN E&C INC:   COMPANY
 WELL. NPR 3 SHX-18-25 #25-11:   WELL
 FLD .              NPR 3:   FIELD
 LOC .      S11 T38N R78W:   LOCATION
 CNTY.            NATRONA:   COUNTY
 STAT.            WYOMING:   STATE
 CTRY. UNITED STATES OF AMERICA:   COUNTRY
 SRVC.           Gearhart:   SERVICE COMPANY
 DATE.        09-JUL-1987:   LOGDATE
 API .       490251114100:   API NUMBER
~CURVE INFORMATION
#MNEM.UNIT       API CODE    CURVE DESCRIPTION
#----------   ------------   ------------------------------
 DEPT.F                  :   
 GRR .GAPI   07 310 01 00:   GAMMA RAY FROM RES. LOG.
 RILM.OHMM   07 120 44 00:   INDUCTION LOG MEDIUM RESISTIVITY
 RILD.OHMM   07 120 46 00:   INDUCTION LOG DEEP RESISTIVITY
~PARAMETER INFORMATION
#MNEM.UNIT          VALUE    DESCRIPTION
#----------   ------------   ------------------------------
 PD  .                 GL:   PERMANENT DATUM
 EPD .F              5222:   ELEVATION PERMANENT DATUM
 LMF .                 KB:   LOG MEASURED FROM
 DAPD.F                 8:   FEET ABOVE PERMANENT DATUM
 DMF .                 KB:   DRILLING MEASURED FROM
 EKB .F              5230:   KELLING BUSHING
 EDF .F              5228:   DRILLING FLOOR
 EGL .F              5222:   GROUND LEVEL
 DATE.             7-9-87:   RUN DATE
 RUN .                  1:   RUN NUMBER
 DD  .F               662:   DEPTH DRILLER
 DL  .F               664:   DEPTH LOGGER
 BLI .F               662:   BOTTOM LOG INTERVAL
 TLI .F                30:   TOP LOG INTERVAL
 CS  .IN            8.625:   CASING SIZE
 CBD .F                48:   CASING BOTTOM DRILLER
 CBL .F                48:   CASING BOTTOM LOGGER
 BS  .IN            7.875:   BIT SIZE
 BSD .F               662:   BIT SIZE AT DEPTH
 DFT .                AIR:   DRILLING FLUID TYPE
 TLAB.HRS            1552:   TIME LOGGER AT BOTTOM
 MRT .F                80:   MAXIMUM RECORDED TEMPERATURE
 LUN .               7597:   LOGGING UNIT NUMBER
 LUL .           GILLETTE:   LOGGING UNIT LOCATION
 ENGI.         WEATHERMON:   RECORDING ENGINEER
 WITN.             STRONG:   WITNESSED BY
 CLNT.            A2DTECH:   CLIENT CODE
 ORIG.       2", 5" PRINT:   ORIGIN OF DATA
 UWI .       490251114100:   UNIQUE WELL ID
 DICO. A2D Technologies, Inc.:   DIGITIZING COMPANY
~OTHER INFORMATION
~A   DEPT       GRR      RILM       RILD   
# ...
  485.0000    88.8815    14.0091    14.3058
  485.5000    88.6522    13.8074    14.1782
  486.0000    89.3373    13.6318    14.0513
  486.5000    89.6414    13.4584    13.9614
  487.0000    89.3590    13.2873    13.8892
  487.5000    89.0720    13.1181    13.8175
  488.0000    90.0373    12.9504    13.7462
  488.5000    91.7481    12.7718    13.6753
  489.0000    91.4327    12.8904    13.6047
  489.5000    91.0261    12.7702    13.5345
  490.0000    90.5903    12.5645    13.4647
  490.5000    91.8093    12.4220    13.3765
  491.0000    93.3239    12.4699    13.4253
  491.5000    94.8437    12.5134    13.4927
  492.0000    96.3869    12.5571    13.5609
  492.5000    95.8637    12.6008    13.6293
  493.0000    94.9943    12.6446    13.6981
  493.5000    94.1231    12.7064    13.7672
  494.0000    93.2521    12.7734    13.8366
  494.5000    92.6450    12.8408    13.9064
  495.0000    92.2052    12.9085    13.9766
  495.5000    93.3797    12.9765    14.0471
  496.0000    94.9487    13.0449    14.1321
  496.5000    96.5088    13.1310    13.9927
  497.0000    97.6115    12.9797    13.7844
  497.5000    96.1355    12.7804    13.5795
  498.0000    94.4084    12.5840    13.3777
  498.5000    92.2877    12.3914    13.1790
  499.0000    90.1806    12.2136    12.9832
  499.5000    88.0275    12.0505    12.7898
  500.0000    88.3520    11.8890    12.6430
  500.5000    89.8100    11.7296    12.6041
  501.0000    91.0076    11.5724    12.5658
  501.5000    91.9263    11.4303    12.5273
  502.0000    93.5145    11.4303    12.4889
  502.5000    95.3731    11.4300    12.4506
  503.0000    97.3312    11.4279    12.4223
  503.5000    97.4523    11.4339    13.4326
  504.0000    96.6868    11.4216    14.2939
  504.5000    93.4146    12.5074    15.4842
  505.0000    87.6395    13.5905    17.1730
  505.5000    82.2627    16.2214    19.0459
  506.0000    79.4015    19.3615    21.1231
  506.5000    74.6621    23.1096    23.4269
  507.0000    73.5365    26.6702    25.9834
  507.5000    72.5843    29.6951    28.8200
  508.0000    71.8281    33.0631    31.9736
  508.5000    70.9298    36.3133    33.7246
  509.0000    70.1598    35.2937    32.6189
  509.5000    72.1287    34.1750    31.8811
  510.0000    74.2058    32.9751    31.1637
  510.5000    76.2692    31.5568    30.4662
  511.0000    78.2196    30.1994    29.8158
  511.5000    79.2935    28.9005    29.3475
  512.0000    80.3670    27.6574    28.8836
  512.5000    81.2744    27.5159    28.4298
  513.0000    80.3194    26.8819    27.9085
  513.5000    79.3625    25.7937    26.9060
  514.0000    78.5809    24.7496    25.9381
  514.5000    79.9099    23.7478    25.0049
  515.0000    81.2320    23.2551    24.1054
  515.5000    82.6102    22.9135    23.0823
  516.0000    82.1354    22.5810    23.1175
  516.5000    81.2985    22.2526    23.1596
  517.0000    84.3665    22.0314    23.2039
  517.5000    89.6138    21.9834    23.2476
  518.0000    91.5387    21.9352    23.2912
  518.5000    90.8783    21.8874    23.2971
  519.0000    89.6607    21.8368    23.2964
  519.5000    88.4412    21.8363    23.2967
  520.0000    87.2272    21.8368    23.1445
  520.5000    85.9870    21.8339    22.9253
  521.0000    85.5554    21.8268    22.7081
  521.5000    85.3113    22.6553    22.4931
  522.0000    85.0790    22.2647    22.2800
  522.5000    85.3456    21.7861    22.0690
  523.0000    87.4514    21.3161    21.8600
  523.5000    86.7089    20.8563    21.6355
  524.0000    85.6737    20.6579    21.4444
  524.5000    84.6366    20.6579    21.2377
  525.0000    83.5665    20.6579    21.0333
  525.5000    83.3362    20.2145    20.8307
  526.0000    83.8482    19.8154    20.5592
  526.5000    85.5695    19.4242    19.8907
  527.0000    87.2643    18.8519    19.2439
  527.5000    88.2031    17.9998    18.6182
  528.0000    88.3050    17.1845    18.0128
  528.5000    88.4092    16.4075    17.4271
  529.0000    88.5081    15.6647    16.8604
  529.5000    89.0249    15.3629    16.5463
  530.0000    89.8296    15.1785    16.5845
  530.5000    90.6424    15.0848    16.6112
  531.0000    91.4452    15.3103    16.6380
  531.5000    92.2780    15.4845    16.6648
  532.0000    90.6537    15.6608    16.6917
  532.5000    87.5517    15.8390    16.7185
  533.0000    86.2121    16.0193    16.7455
  533.5000    86.3531    16.2431    16.7725
  534.0000    87.4224    16.1834    16.7996
  534.5000    88.0756    16.1066    16.8265
  535.0000    87.7927    16.0301    16.8552
  535.5000    88.7470    15.9540    16.7873
  536.0000    89.7112    15.8783    16.6997
  536.5000    89.2052    15.8029    16.6132
  537.0000    88.5856    15.7279    16.5452
  537.5000    87.9717    15.6532    16.4163
  538.0000    87.3730    15.9617    16.2934
  538.5000    87.1488    16.1015    16.1720
  539.0000    87.8435    16.2431    16.0515
  539.5000    88.5213    15.8841    15.9320
  540.0000    89.2396    15.5317    15.8133
  540.5000    88.4838    15.3211    15.6955
  541.0000    87.3586    15.1911    15.5786
  541.5000    86.7059    15.0623    15.4628
  542.0000    87.4594    14.9345    15.3455
  542.5000    88.1602    14.8078    15.2229
  543.0000    88.4353    14.6821    15.1007
  543.5000    88.1668    14.5576    14.9796
  544.0000    87.9134    14.4340    14.8595
  544.5000    88.0655    14.3031    14.7403
  545.0000    88.0082    14.1697    14.6221
  545.5000    86.4767    14.0378    14.5048
  546.0000    84.9767    13.9073    14.3885
  546.5000    83.4416    13.7779    14.2731
  547.0000    84.1257    13.7202    14.1586
  547.5000    85.7178    13.6485    14.0091
  548.0000    87.2943    13.5773    14.0218
  548.5000    87.0725    13.5004    14.0405
  549.0000    88.3812    13.5352    14.0591
  549.5000    90.8557    13.5826    14.0779
  550.0000    93.3470    13.6258    14.0967
  550.5000    95.3818    13.6468    14.1154
  551.0000    94.9868    13.6661    14.1383
  551.5000    94.6875    13.6854    14.0926
  552.0000    92.3867    13.7048    14.0285
  552.5000    90.4905    13.7244    13.9647
  553.0000    92.9009    13.7510    13.9013
  553.5000    95.8519    13.7063    13.8381
  554.0000    96.0153    13.6220    13.7752
  554.5000    94.9923    13.5383    13.7126
  555.0000    95.7209    13.4551    13.6503
  555.5000    97.2134    13.3724    13.5883
  556.0000    96.7228    13.2902    13.5265
  556.5000    94.9797    13.2085    13.4651
  557.0000    93.1278    13.1274    13.4039
  557.5000    95.9250    13.0467    13.3613
  558.0000    99.3758    12.9664    13.3342
  558.5000   101.5663    12.8868    13.3071
  559.0000   100.6287    12.7718    13.2800
  559.5000   100.8771    12.8161    13.2530
  560.0000   102.6778    12.8977    13.2261
  560.5000   104.5677    12.9801    13.1992
  561.0000   103.5191    13.0630    13.1724
  561.5000   102.5105    13.1462    13.1456
  562.0000   101.5018    13.2530    13.1189
  562.5000   100.6375    13.1696    13.0922
  563.0000   101.2662    13.0557    13.0656
  563.5000   101.8930    12.9429    13.0391
  564.0000   102.5069    12.8309    13.0102
  564.5000   103.1254    12.7200    12.9165
  565.0000   102.2380    12.6101    12.8144
  565.5000   100.0515    12.5006    12.7129
  566.0000    97.8502    12.3977    12.6122
  566.5000    96.2733    12.3049    12.5124
  567.0000    96.1687    12.2139    12.4134
  567.5000    96.9854    12.1234    12.3151
  568.0000    98.2980    12.0335    12.2176
  568.5000    99.6294    11.9443    12.1209
  569.0000   100.9525    11.8556    12.0250
  569.5000   101.0099    11.7691    11.9298
  570.0000   101.0179    11.5604    11.7845
  570.5000   101.7953    11.3317    11.5081
  571.0000   103.7863    11.1067    11.2382
  571.5000   104.8014    10.8864    10.8803
  572.0000   104.2046    10.6704    10.4207
  572.5000   103.6004    10.4583    10.2613
  573.0000   104.5422    10.3544    10.0888
  573.5000   106.2546    10.2783     9.5254
  574.0000   108.8625     9.9332     8.8583
  574.5000   111.4888     9.3105     8.2371
  575.0000   113.8512     8.6312     7.6597
  575.5000   114.1418     7.8962     7.1230
