~VERSION INFORMATION
 VERS.                2.0:   CWLS LOG ASCII STANDARD - VERSION 2.0
 WRAP.                 NO:   ONE LINE PER DEPTH STEP
~WELL INFORMATION
#MNEM.UNIT      DATA TYPE    INFORMATION
#----------   ------------   ------------------------------
 STRT.F           32.0000:   START DEPTH
 STOP.F          662.0000:   STOP DEPTH
 STEP.F            0.5000:   STEP LENGTH
 NULL.          -999.2500:   NO VALUE
 COMP.    FENIX & SCISSON:   COMPANY
 WELL.   NPR 67SX34 #3-34:   WELL
 FLD .             TEAPOT:   FIELD
 LOC .      S34 T39N R78W:   LOCATION
 CNTY.            NATRONA:   COUNTY
 STAT.            WYOMING:   STATE
 CTRY. UNITED STATES OF AMERICA:   COUNTRY
 SRVC.            Unknown:   SERVICE COMPANY
 DATE.        03-SEP-1978:   LOGDATE
 API .       490251070500:   API NUMBER
~CURVE INFORMATION
#MNEM.UNIT       API CODE    CURVE DESCRIPTION
#----------   ------------   ------------------------------
 DEPT.F                  :   
 ILD .OHMM   05 120 46 00:   INDUCTION LOG DEEP
 SN  .OHMM   05 040 00 00:   SHORT NORMAL
 SPR .MV     05 010 01 00:   SPONTANEOUS POTENTIAL FROM RES.
 CALD.IN     45 280 60 00:   CALIPER FROM DENSITY LOG
 DEN .G/C3   45 350 01 00:   COMPENSATED BULK DENSTIY
 DPHI.DEC    45 890 12 00:   DENSITY POROSITY SANDSTONE
 DRHO.G/C3   45 356 01 00:   DENSITY CORRECTION
 GRD .GAPI   45 310 01 00:   GAMMA RAY FROM DENSITY LOG
~PARAMETER INFORMATION
#MNEM.UNIT          VALUE    DESCRIPTION
#----------   ------------   ------------------------------
 PD  .                 GL:   PERMANENT DATUM
 EPD .F              5076:   ELEVATION PERMANENT DATUM
 LMF .                 KB:   LOG MEASURED FROM
 DAPD.F                 4:   FEET ABOVE PERMANENT DATUM
 DMF .                 KB:   DRILLING MEASURED FROM
 EKB .F              5080:   KELLING BUSHING
 EGL .F              5076:   GROUND LEVEL
 DATE.        03-SEP-1978:   RUN DATE
 RUN .                  1:   RUN NUMBER
 DD  .F               660:   DEPTH DRILLER
 DL  .F               662:   DEPTH LOGGER
 BLI .F               662:   BOTTOM LOG INTERVAL
 TLI .F                40:   TOP LOG INTERVAL
 CS  .IN            8.625:   CASING SIZE
 CBD .F                40:   CASING BOTTOM DRILLER
 BS  .IN            7.875:   BIT SIZE
 BSD .F               660:   BIT SIZE AT DEPTH
 DFT .                KCL:   DRILLING FLUID TYPE
 DFD .                9.0:   DRILLING FLUID DENSITY
 DFV .                 34:   DRILLING FLUID VISCOSITY
 MSS .           FLOWLINE:   MUD SAMPLE SOURCE
 RMS .OHMM            1.4:   RESISTIVITY MUD SAMPLE
 MST .F                65:   MUD SAMPLE TEMPERATURE
 RMF .OHMM            3.2:   RESISTIVITY MUD FILTRATE SAMPLE
 MFST.F                77:   MUD FILTRATE SAMPLE TEMPERATURE
 RMC .OHMM            2.1:   RESISTIVITY MUD CAKE
 MCST.F                78:   MUD CAKE SAMPLE TEMPERATURE
 MFSS.               MEAS:   MUD FILTRATE SAMPLE SOURCE
 TCS .HRS               1:   TIME CURCULATED STOPPED
 LUN .               3006:   LOGGING UNIT NUMBER
 LUL .               CASP:   LOGGING UNIT LOCATION
 ENGI.             MILLER:   RECORDING ENGINEER
 WITN.           MCGINLEY:   WITNESSED BY
 CLNT.            A2DTECH:   CLIENT CODE
 ORIG.        2" 5" PRINT:   ORIGIN OF DATA
 UWI .       490251070500:   UNIQUE WELL ID
 DICO. A2D Technologies, Inc.:   DIGITIZING COMPANY
~OTHER INFORMATION
~A   DEPT      ILD         SN        SPR       CALD        DEN       DPHI       DRHO         GRD  
# ...
  639.5000     7.4405     7.9193   -13.8662     7.9695     2.5279     0.1116     0.0420    85.7228
  640.0000     7.4336     7.8637   -13.8647     7.9702     2.5077     0.1080     0.0420    87.0641
  640.5000     7.3383     7.8085   -13.8629     7.9709     2.5129     0.1218     0.0405    84.3815
  641.0000     7.2877     7.7001   -13.8615     7.9716     2.5054     0.1214     0.0405    80.6557
  641.5000     7.2375     7.6991   -13.8601     7.9725     2.4949     0.1140     0.0435    78.1222
  642.0000     7.2375     7.6981   -13.7083     7.9880     2.4973     0.1074     0.0480    79.1654
  642.5000     7.1381     7.6441   -13.5561     7.9589     2.5076     0.1059     0.0495    80.5067
  643.0000     7.0401     7.4345   -13.5547     7.9447     2.5166     0.1113     0.0480    83.0402
  643.5000     6.9434     7.3315   -13.4029     7.9455     2.5114     0.1125     0.0450    85.2757
  644.0000     6.8442     7.1802   -13.4015     7.9368     2.5061     0.1146     0.0420    85.4247
  644.5000     6.7074     7.1792   -13.4000     7.9321     2.5046     0.1214     0.0390    89.4486
  645.0000     6.6153     7.1287   -13.3982     7.9330     2.5038     0.1313     0.0360    90.7899
  645.5000     6.5697     7.1774   -13.3969     7.9337     2.4950     0.1382     0.0315    89.1505
  646.0000     6.6177     7.2260   -13.3955     7.9344     2.4685     0.1485     0.0300    89.1505
  646.5000     6.7540     7.3256   -13.3937     7.9351     2.4528     0.1451     0.0345    89.7466
  647.0000     6.9916     7.5296   -13.2419     7.9359     2.4467     0.1364     0.0465    90.1937
  647.5000     7.2375     7.6863   -13.0901     7.9366     2.4497     0.1247     0.0481    89.0015
  648.0000     7.4949     7.9555   -13.0887     7.9522     2.4978     0.1064     0.0341    88.2563
  648.5000     7.7557     8.2911   -13.0870     7.9681     2.4955     0.1022     0.0315    88.4054
  649.0000     7.9182     8.7609   -13.3866     7.9837     2.5009     0.0992     0.0420    89.4486
  649.5000     7.9182     8.7598   -13.6860     7.9844     2.5210     0.0941     0.0511    90.7899
  650.0000     7.9182     8.8196   -13.9850     7.9851     2.5255     0.0938     0.0556    86.1699
  650.5000     7.8637     8.8182   -14.4347     7.9558     2.5300     0.0915     0.0646    86.4898
  651.0000     7.7022     8.8170   -14.5836     7.9418     2.5353     0.0891     0.0661    89.4486
  651.5000     7.6491     8.8156   -14.7326     7.9425     2.5405     0.0888     0.0631    90.0447
  652.0000     7.5441     8.8146   -14.8812     7.9583     2.5473     0.0855     0.0601    90.0447
  652.5000  -999.2500  -999.2500  -999.2500     7.9591     2.5510     0.0822     0.0556    90.7899
  653.0000  -999.2500  -999.2500  -999.2500     7.9747     2.5565     0.0858     0.0537    89.0240
  653.5000  -999.2500  -999.2500  -999.2500     7.9904     2.5532     0.0882     0.0511  -999.2500
  654.0000  -999.2500  -999.2500  -999.2500     7.9761     2.5502     0.0906     0.0480  -999.2500
  654.5000  -999.2500  -999.2500  -999.2500     7.9769     2.5487     0.0987     0.0465  -999.2500
  655.0000  -999.2500  -999.2500  -999.2500     7.9776     2.5382     0.1044     0.0434  -999.2500
  655.5000  -999.2500  -999.2500  -999.2500     7.9785     2.5247     0.1080     0.0390  -999.2500
  656.0000  -999.2500  -999.2500  -999.2500     7.9792     2.5194     0.1142     0.0360  -999.2500
  656.5000  -999.2500  -999.2500  -999.2500     7.9650     2.5171     0.1170     0.0345  -999.2500
  657.0000  -999.2500  -999.2500  -999.2500     7.9657     2.5089     0.1038     0.0360  -999.2500
  657.5000  -999.2500  -999.2500  -999.2500     7.9515     2.5074     0.0987     0.0360  -999.2500
  658.0000  -999.2500  -999.2500  -999.2500     7.9373     2.5186     0.1017     0.0375  -999.2500
  658.5000  -999.2500  -999.2500  -999.2500     7.9178     2.5171     0.1053     0.0390  -999.2500
  659.0000  -999.2500  -999.2500  -999.2500     7.8958     2.5164     0.1062     0.0390  -999.2500
  659.5000  -999.2500  -999.2500  -999.2500     7.8739     2.5164     0.1077     0.0390  -999.2500
  660.0000  -999.2500  -999.2500  -999.2500     7.8514     2.5156     0.1152     0.0390  -999.2500
  660.5000  -999.2500  -999.2500  -999.2500  -999.2500     2.5096     0.1116     0.0390  -999.2500
  661.0000  -999.2500  -999.2500  -999.2500  -999.2500     2.5058     0.1053     0.0405  -999.2500
  661.5000  -999.2500  -999.2500  -999.2500  -999.2500     2.5118     0.1146     0.0405  -999.2500
  662.0000  -999.2500  -999.2500  -999.2500  -999.2500     2.5148     0.1129     0.0422  -999.2500
