~VERSION INFORMATION
 VERS.                2.0:   CWLS LOG ASCII STANDARD - VERSION 2.0
 WRAP.                 NO:   ONE LINE PER DEPTH STEP
~WELL INFORMATION
#MNEM.UNIT      DATA TYPE    INFORMATION
#----------   ------------   ------------------------------
 STRT.F           90.0000:   START DEPTH
 STOP.F         1312.0000:   STOP DEPTH
 STEP.F            0.5000:   STEP LENGTH
 NULL.          -999.2500:   NO VALUE
 COMP. US NAVY/ INTEX OIL CO:   COMPANY
 WELL. RES 3 TEAPOT DOME NPR "S' #42-2:   WELL
 FLD .             TEAPOT:   FIELD
 LOC .       S2 T38N R78W:   LOCATION
 CNTY.            NATRONA:   COUNTY
 STAT.            WYOMING:   STATE
 CTRY. UNITED STATES OF AMERICA:   COUNTRY
 SRVC. Schlumberger Well Surveying Corp:   SERVICE COMPANY
 DATE.        17-JUL-1964:   LOGDATE
 API .       490250646400:   API NUMBER
~CURVE INFORMATION
#MNEM.UNIT       API CODE    CURVE DESCRIPTION
#----------   ------------   ------------------------------
 DEPT.F                  :   
 GR  .GAPI   30 310 01 00:   GAMMA RAY
 CALS.IN     60 280 50 00:   CALIPER FROM SONIC LOG
 DT  .US/F   60 520 32 00:   INTERVAL TRANSIT TIME
 SPR .MV     05 010 01 00:   SPONTANEOUS POTENTIAL FROM RES.
 CILD.MMHO   05 110 46 00:   CONDUCTIVITY INDUCTION LOG DEEP
 ILD .OHMM   05 120 46 00:   INDUCTION LOG DEEP
 ASN .OHMM   05 040 16 00:   AMPLIFIED SHORT NORMAL 16"
~PARAMETER INFORMATION
#MNEM.UNIT          VALUE    DESCRIPTION
#----------   ------------   ------------------------------
 PD  .                 GL:   PERMANENT DATUM
 EPD .F              5142:   ELEVATION PERMANENT DATUM
 LMF .                 KB:   LOG MEASURED FROM
 DAPD.F                 8:   FEET ABOVE PERMANENT DATUM
 DMF .                 KB:   DRILLING MEASURED FROM
 EKB .F              5150:   KELLING BUSHING
 EGL .F              5142:   GROUND LEVEL
 DATE.          7-17-1964:   RUN DATE
 RUN .                  1:   RUN NUMBER
 DD  .F              1300:   DEPTH DRILLER
 DL  .F              1310:   DEPTH LOGGER
 BLI .F              1309:   BOTTOM LOG INTERVAL
 TLI .F               107:   TOP LOG INTERVAL
 CS  .IN            12.25:   CASING SIZE
 CBD .F                10:   CASING BOTTOM DRILLER
 BS  .IN               11:   BIT SIZE
 BSD .F              1300:   BIT SIZE AT DEPTH
 DFT .            GEL-OIL:   DRILLING FLUID TYPE
 DFD .                9.6:   DRILLING FLUID DENSITY
 DFV .                 63:   DRILLING FLUID VISCOSITY
 DFPH.                  8:   DRILLING FLUID PH
 DFL .                9.6:   DRILLING FLUID LOSS
 MSS .           FLOWLINE:   MUD SAMPLE SOURCE
 RMS .OHMM           2.07:   RESISTIVITY MUD SAMPLE
 MST .F                92:   MUD SAMPLE TEMPERATURE
 RMF .OHMM           1.42:   RESISTIVITY MUD FILTRATE SAMPLE
 MFST.F                92:   MUD FILTRATE SAMPLE TEMPERATURE
 RMC .OHMM           2.33:   RESISTIVITY MUD CAKE
 MCST.F                92:   MUD CAKE SAMPLE TEMPERATURE
 MFSS.                 FP:   MUD FILTRATE SAMPLE SOURCE
 MCSS.                 FP:   MUD CAKE SAMPLE SOURCE
 TCS .HRS               1:   TIME CURCULATED STOPPED
 LUN .               4507:   LOGGING UNIT NUMBER
 LUL .              CSPR.:   LOGGING UNIT LOCATION
 ENGI.             DANNER:   RECORDING ENGINEER
 WITN.          JORGENSEN:   WITNESSED BY
 CLNT.            A2DTECH:   CLIENT CODE
 ORIG.        2" 5" PRINT:   ORIGIN OF DATA
 UWI .       490250646400:   UNIQUE WELL ID
 DICO. A2D Technologies, Inc.:   DIGITIZING COMPANY
~OTHER INFORMATION
~A   DEPT       GR       CALS         DT        SPR        CILD         ILD        ASN 
# ...
  317.5000  -999.2500    11.0141    75.4133   -48.5880   364.6084     3.2997     3.2785
  318.0000  -999.2500    11.0084    75.4844   -48.5559   364.1041     3.4239     3.3252
  318.5000  -999.2500    10.9882    75.0891   -48.5058   355.4154     3.5309     3.3783
  319.0000  -999.2500    10.8455    74.6939   -48.5548   339.2793     3.6457     3.4439
  319.5000  -999.2500    10.8019    74.5482   -48.7207   313.7304     3.7585     3.6189
  320.0000  -999.2500    10.9305    86.3798   -48.8704   280.1135     3.9150     3.8029
  320.5000  -999.2500    11.0650   120.9439   -49.0302   246.4965     4.0706     3.9836
  321.0000  -999.2500    11.1504   142.6325   -49.1823   230.6006     4.2265     4.1682
  321.5000  -999.2500    10.2692   150.4841   -49.3434   228.5836     4.3817     4.3316
  322.0000  -999.2500    10.7096   150.2898   -49.4704   226.7267     4.5379     4.4138
  322.5000  -999.2500    10.5750   150.1906   -49.2902   226.7267     4.6906     4.4867
  323.0000  -999.2500    10.5660   150.1011   -49.0648   227.7277     4.8363     4.5209
  323.5000  -999.2500    10.5573   150.0682   -48.8427   238.7638     4.8645     4.5116
  324.0000  -999.2500    10.5799   150.1139   -48.6286   248.8488     4.8335     4.5213
  324.5000  -999.2500    10.9404   150.1373   -48.3919   257.7578     4.6346     4.3980
  325.0000  -999.2500    11.0385   150.0703   -48.2990   264.0641     4.4295     4.2078
  325.5000  -999.2500    11.0367   150.0032   -48.3525   269.7117     4.2291     4.0336
  326.0000  -999.2500    11.0322   150.0266   -48.3813   285.6828     4.0250     3.8634
  326.5000  -999.2500    11.0282   150.2510   -48.4221   307.2357     3.8259     3.6957
  327.0000  -999.2500    11.0245   149.9498   -48.4582   329.2140     3.6175     3.5517
  327.5000  -999.2500    11.0209   132.3487   -48.4879   347.6474     3.4591     3.5291
  328.0000  -999.2500    11.0139   125.3159   -48.4505   348.6531     3.4398     3.4468
  328.5000  -999.2500    11.0058   125.2143   -48.4065   340.3606     3.4295     3.3280
  329.0000  -999.2500    11.0056   125.1256   -48.3636   334.5485     3.4197     3.2615
  329.5000  -999.2500    11.1442   125.0368   -48.3201   334.5162     3.4088     3.2089
  330.0000  -999.2500    11.2835   124.9498   -48.2769   343.2380     3.3995     3.1618
  330.5000  -999.2500    11.2994   122.4859   -48.2335   355.7060     3.3869     3.1103
  331.0000  -999.2500    11.1763   100.1506   -48.1902   360.6114     3.3804     3.0765
  331.5000  -999.2500    10.9749    99.9498   -48.1469   362.4450     3.3630     3.1034
  332.0000  -999.2500    11.0022    99.9617   -48.1035   364.4946     3.3671     3.1206
  332.5000  -999.2500    11.0341    99.9897   -48.0604   377.3092     3.2090     3.1548
  333.0000  -999.2500    11.0667   100.0176   -48.0167   403.9296     2.9009     3.0700
  333.5000  -999.2500    11.0991   100.0456   -47.9739   434.1372     2.7264     2.9117
  334.0000  -999.2500    11.1328   100.3999   -47.9289   474.6447     2.6836     2.7919
  334.5000  -999.2500    11.1409   100.3323   -47.8935   538.8889     2.6201     2.6348
  335.0000  -999.2500    11.1412    95.3715   -47.8894   554.5546     2.5626     2.5322
  335.5000  -999.2500    11.1404    75.2510   -47.8920   534.9725     2.6181     2.4837
  336.0000  -999.2500    11.0984    74.5482   -47.8863   504.5045     2.7159     2.4583
  336.5000  -999.2500    11.0507    74.9143   -47.9120   498.9990     2.8060     2.5060
  337.0000  -999.2500    11.0376    75.0149   -48.1143   471.0644     2.8972     2.5579
  337.5000  -999.2500    11.0338    75.1155   -48.3178   434.3451     2.9952     2.6360
  338.0000  -999.2500    11.0303    75.2161   -48.5196   393.7166     3.0867     2.7814
  338.5000  -999.2500    11.0268    75.3320   -48.7228   353.0881     3.1696     3.0521
  339.0000  -999.2500    11.0233    75.4474   -48.9234   305.8058     3.2622     3.3169
  339.5000  -999.2500    11.0131    75.2228   -49.1287   276.7768     3.3511     3.6184
  340.0000  -999.2500    10.9564    66.5135   -49.3256   263.7638     3.4472     3.6988
  340.5000  -999.2500    10.7694    50.1243   -49.5394   267.4446     3.5197     3.6664
  341.0000  -999.2500    10.7482    49.9766   -49.6733   277.8178     3.5935     3.6555
  341.5000  -999.2500    10.7504    49.6971   -49.5100   288.1910     3.6737     3.6341
  342.0000  -999.2500    10.7817    49.5352   -49.3443   299.7998     3.7292     3.6124
  342.5000  -999.2500    10.8102    49.6426   -49.1785   314.7247     3.5188     3.5254
  343.0000  -999.2500    10.9428    49.3154   -49.0130   331.6677     3.2035     3.4195
  343.5000  -999.2500    10.9867    70.3519   -48.8476   353.5260     3.0067     3.3177
  344.0000  -999.2500    10.9611    99.6787   -48.6813   382.7728     2.9363     3.2111
  344.5000  -999.2500    10.9745   100.0355   -48.5168   428.7362     2.8410     3.1029
  345.0000  -999.2500    10.9890   100.0099   -48.3492   483.6461     2.7659     2.9946
  345.5000  -999.2500    11.0035    99.9300   -48.1871   514.5145     2.8177     2.8740
  346.0000  -999.2500    11.0180    99.8767   -48.0141   514.5145     2.8980     2.7852
  346.5000  -999.2500    11.0324    99.8237   -47.9010   497.9980     2.9716     2.6740
  347.0000  -999.2500    11.0375    99.7706   -47.9745   482.0654     3.0519     2.6677
  347.5000  -999.2500    11.0315    99.7099   -48.0320   460.1643     3.1482     2.7772
  348.0000  -999.2500    11.0256    99.6649   -48.1155   432.2623     3.2482     2.8718
  348.5000  -999.2500    11.0199    99.8966   -48.2364   404.3602     3.3642     2.9697
  349.0000  -999.2500    11.0152   114.5522   -48.4871   366.8640     3.6344     3.0909
  349.5000    85.1316    11.0105   127.9619   -48.8286   319.4199     3.9204     3.4262
  350.0000    86.2726    11.0059   120.5713   -49.1161   271.6176     4.2193     3.7965
  350.5000    91.5156    11.0011   118.0221   -49.4613   224.1370     4.4139     4.1402
  351.0000    94.8083    11.0021   118.9926   -49.5793   221.1113     4.5026     4.3114
  351.5000    94.6447    11.0050   120.3588   -49.6845   220.0302     4.6087     4.4065
  352.0000    88.4706    11.0080   121.3209   -49.7038   223.3352     4.7076     4.4889
  352.5000    85.3071    11.0110   121.6366   -49.6983   220.3187     4.8076     4.6199
  353.0000    83.3814    11.0139   121.4073   -49.7008   213.6925     4.9124     4.7969
  353.5000    82.4225    11.0169   120.9856   -49.6990   207.1028     5.0029     4.9633
  354.0000    83.8111    11.0198   120.4730   -49.6995   200.5360     5.1701     5.1330
  354.5000    83.1560    11.0228   119.4926   -49.6988   193.9825     5.4084     5.3024
  355.0000    80.0158    11.0257   118.5122   -49.6988   187.4093     5.6248     5.4718
  355.5000    75.9803    11.0287   117.5201   -49.6986   183.4742     5.8580     5.6416
  356.0000    73.0216    11.0316   116.0701   -49.6984   181.6359     6.0432     5.7938
  356.5000    71.0268    11.0346   114.6084   -49.6984   181.6423     6.0627     5.8718
  357.0000    75.8766    11.0375   114.3181   -49.6982   181.6449     6.0691     5.9368
  357.5000    75.6068    11.0405   114.5698   -49.6981   181.6817     6.0771     5.9595
  358.0000    74.5669    11.0435   115.1770   -49.7021   182.2333     6.0846     5.9451
  358.5000    77.3901    11.0464   115.7737   -49.7854   183.1298     6.0922     5.9235
  359.0000    80.7438    11.0494   116.5602   -49.8964   184.0262     6.0997     5.9041
  359.5000    83.2896    11.0523   117.5201   -50.0037   184.9227     6.1074     5.8826
  360.0000    84.7048    11.0554   117.9857   -50.1104   185.8192     6.1150     5.8808
  360.5000    83.8366    11.0583   118.2317   -50.2216   186.7156     6.1227     5.8936
  361.0000    80.5382    11.0492   117.4631   -50.3227   187.6121     6.1305     5.9016
  361.5000    80.1226    10.9954   117.1248   -50.4467   188.5085     6.1383     5.9143
  362.0000    79.2641    10.8805   116.8372   -50.4770   189.4050     6.1460     5.9029
  362.5000    79.0358    10.7469   116.0551   -50.3767   190.7220     6.1536     5.8777
