~VERSION INFORMATION
 VERS.                2.0:   CWLS LOG ASCII STANDARD - VERSION 2.0
 WRAP.                 NO:   ONE LINE PER DEPTH STEP
~WELL INFORMATION
#MNEM.UNIT      DATA TYPE    INFORMATION
#----------   ------------   ------------------------------
 STRT.F            7.5000:   START DEPTH
 STOP.F         2886.0000:   STOP DEPTH
 STEP.F            0.5000:   STEP LENGTH
 NULL.          -999.2500:   NO VALUE
 COMP. LAWRENCE/ALLISON INC:   COMPANY
 WELL.     16-1 AX #21-21:   WELL
 FLD .             TEAPOT:   FIELD
 LOC .      S21 T39N R78W:   LOCATION
 CNTY.            NATRONA:   COUNTY
 STAT.            WYOMING:   STATE
 CTRY. UNITED STATES OF AMERICA:   COUNTRY
 SRVC.      Dresser Atlas:   SERVICE COMPANY
 DATE.        05-DEC-1986:   LOGDATE
 API .       490251111900:   API NUMBER
~CURVE INFORMATION
#MNEM.UNIT       API CODE    CURVE DESCRIPTION
#----------   ------------   ------------------------------
 DEPT.F                  :   
 GRR .GAPI   07 310 01 00:   GAMMA RAY FROM RES. LOG.
 SPR .MV     07 010 01 00:   SPONTANEOUS POTENTIAL
 RFOC.OHMM   07 220 04 00:   RESISTIVITY FOCUSED LOG
 RILM.OHMM   07 120 44 00:   INDUCTION LOG MEDIUM RESISTIVITY
 RILD.OHMM   07 120 46 00:   INDUCTION LOG DEEP RESISTIVITY
 CALD.IN     45 280 60 00:   CALIPER
 DEN .G/C3   45 350 01 00:   BULK DENSITY
 CORR.G/C3   45 356 01 00:   DENSITY CORRECTION
 CNC .DEC    42 890 03 00:   NEUTRON POROSITY SANDSTONE
 PORD.DEC    45 890 12 00:   DENSITY POROSITY SANDSTONE
~PARAMETER INFORMATION
#MNEM.UNIT          VALUE    DESCRIPTION
#----------   ------------   ------------------------------
 PD  .                 GL:   PERMANENT DATUM
 EPD .F              4992:   ELEVATION PERMANENT DATUM
 LMF .                 KB:   LOG MEASURED FROM
 DAPD.F                12:   FEET ABOVE PERMANENT DATUM
 DMF .                 KB:   DRILLING MEASURED FROM
 EKB .F              5004:   KELLING BUSHING
 EGL .F              4992:   GROUND LEVEL
 DATE.            12-5-86:   RUN DATE
 RUN .                  1:   RUN NUMBER
 DD  .F              2905:   DEPTH DRILLER
 DL  .F              2890:   DEPTH LOGGER
 BLI .F              2884:   BOTTOM LOG INTERVAL
 TLI .F              2200:   TOP LOG INTERVAL
 CS  .IN            8.625:   CASING SIZE
 CBD .F               300:   CASING BOTTOM DRILLER
 CBL .F               300:   CASING BOTTOM LOGGER
 BS  .IN            7.875:   BIT SIZE
 BSD .F              2905:   BIT SIZE AT DEPTH
 DFT .        KCL POLYMER:   DRILLING FLUID TYPE
 DFD .                  9:   DRILLING FLUID DENSITY
 DFV .                 36:   DRILLING FLUID VISCOSITY
 DFPH.                9.5:   DRILLING FLUID PH
 DFL .               11.8:   DRILLING FLUID LOSS
 MSS .            MUDTANK:   MUD SAMPLE SOURCE
 RMS .OHMM            .43:   RESISTIVITY MUD SAMPLE
 MST .F                63:   MUD SAMPLE TEMPERATURE
 RMF .OHMM           .348:   RESISTIVITY MUD FILTRATE SAMPLE
 MFST.F                63:   MUD FILTRATE SAMPLE TEMPERATURE
 RMC .OHMM           .538:   RESISTIVITY MUD CAKE
 MCST.F                63:   MUD CAKE SAMPLE TEMPERATURE
 MFSS.               MEAS:   MUD FILTRATE SAMPLE SOURCE
 MCSS.               CALC:   MUD CAKE SAMPLE SOURCE
 RMB .OHMM           .233:   RESISTIVITY MUD AT BHT
 BHT .F               116:   BOTTOM HOLE TEMPERATURE
 TCS .HRS             3.5:   TIME CURCULATED STOPPED
 MRT .F               116:   MAXIMUM RECORDED TEMPERATURE
 LUN .            HL-6274:   LOGGING UNIT NUMBER
 LUL .           GILLETTE:   LOGGING UNIT LOCATION
 ENGI.             RAUTIO:   RECORDING ENGINEER
 WITN.             STRONG:   WITNESSED BY
 CLNT.            A2DTECH:   CLIENT CODE
 ORIG.       2", 5" PRINT:   ORIGIN OF DATA
 UWI .       490251111900:   UNIQUE WELL ID
 DICO. A2D Technologies, Inc.:   DIGITIZING COMPANY
~OTHER INFORMATION
~A    DEPT     GRR        SPR       RFOC       RILM       RILD       CALD        DEN       CORR        CNC       PORD   
# ...
  543.5000    84.0226   -44.0215     9.1437     9.4208     9.8689  -999.2500  -999.2500  -999.2500  -999.2500  -999.2500
  544.0000    83.7146   -44.0564     9.1558     9.4208     9.8690  -999.2500  -999.2500  -999.2500  -999.2500  -999.2500
  544.5000    84.4068   -43.8851     9.1617     9.4208     9.8689  -999.2500  -999.2500  -999.2500  -999.2500  -999.2500
  545.0000    85.3082   -43.7098     9.1205     9.4208     9.8689  -999.2500  -999.2500  -999.2500  -999.2500  -999.2500
  545.5000    84.7593   -43.6754     9.0901     9.4208     9.8689  -999.2500  -999.2500  -999.2500  -999.2500  -999.2500
  546.0000    83.7697   -43.7219     9.0768     9.4208     9.8689  -999.2500  -999.2500  -999.2500  -999.2500  -999.2500
  546.5000    83.8196   -43.8507     9.0770     9.4208     9.8689  -999.2500  -999.2500  -999.2500  -999.2500  -999.2500
  547.0000    84.3494   -43.9780     9.0770     9.4208     9.8689  -999.2500  -999.2500  -999.2500  -999.2500  -999.2500
  547.5000    83.7748   -44.1050     9.0770     9.4208     9.8689  -999.2500  -999.2500  -999.2500  -999.2500  -999.2500
  548.0000    81.0357   -44.2348     9.0770     9.4208     9.8689  -999.2500  -999.2500  -999.2500  -999.2500  -999.2500
  548.5000    81.5251   -44.2061     9.0770     9.4208     9.8689  -999.2500  -999.2500  -999.2500  -999.2500  -999.2500
  549.0000    83.7585   -44.1007     9.0770     9.4208     9.8689  -999.2500  -999.2500  -999.2500  -999.2500  -999.2500
  549.5000    84.4452   -43.9924     9.0770     9.4209     9.8689  -999.2500  -999.2500  -999.2500  -999.2500  -999.2500
  550.0000    83.3835   -43.8812     9.0770     9.4207     9.8693  -999.2500  -999.2500  -999.2500  -999.2500  -999.2500
  550.5000    84.5602   -43.8746     9.0770     9.4045     9.8484  -999.2500  -999.2500  -999.2500  -999.2500  -999.2500
  551.0000    87.0333   -43.8753     9.0770     9.3864     9.8195  -999.2500  -999.2500  -999.2500  -999.2500  -999.2500
  551.5000    88.5024   -43.8755     9.0771     9.3684     9.7906  -999.2500  -999.2500  -999.2500  -999.2500  -999.2500
  552.0000    87.3647   -43.8751     9.0767     9.3504     9.7618  -999.2500  -999.2500  -999.2500  -999.2500  -999.2500
  552.5000    85.7684   -43.8735     9.0584     9.3324     9.7331  -999.2500  -999.2500  -999.2500  -999.2500  -999.2500
  553.0000    87.6622   -43.8836     9.0390     9.3145     9.7045  -999.2500  -999.2500  -999.2500  -999.2500  -999.2500
  553.5000    90.3158   -44.1823     9.0197     9.2966     9.6760  -999.2500  -999.2500  -999.2500  -999.2500  -999.2500
  554.0000    90.1571   -44.4943     9.0004     9.2787     9.6475  -999.2500  -999.2500  -999.2500  -999.2500  -999.2500
  554.5000    86.0409   -44.6234     8.9811     9.2608     9.6192  -999.2500  -999.2500  -999.2500  -999.2500  -999.2500
  555.0000    82.4301   -44.4830     8.9619     9.2472     9.5974  -999.2500  -999.2500  -999.2500  -999.2500  -999.2500
  555.5000    81.5043   -44.3461     8.9427     9.2473     9.5975  -999.2500  -999.2500  -999.2500  -999.2500  -999.2500
  556.0000    82.8915   -44.2082     8.9237     9.2473     9.5975  -999.2500  -999.2500  -999.2500  -999.2500  -999.2500
  556.5000    84.0558   -44.0706     8.9101     9.2473     9.5976  -999.2500  -999.2500  -999.2500  -999.2500  -999.2500
  557.0000    81.8868   -43.9325     8.9588     9.2473     9.5976  -999.2500  -999.2500  -999.2500  -999.2500  -999.2500
  557.5000    79.2397   -43.7948     8.9972     9.2473     9.5976  -999.2500  -999.2500  -999.2500  -999.2500  -999.2500
  558.0000    76.7643   -43.6788     9.0358     9.2473     9.5976  -999.2500  -999.2500  -999.2500  -999.2500  -999.2500
  558.5000    77.0872   -43.7450     9.0770     9.2473     9.5976  -999.2500  -999.2500  -999.2500  -999.2500  -999.2500
  559.0000    78.9282   -43.8083     9.0574     9.2473     9.5976  -999.2500  -999.2500  -999.2500  -999.2500  -999.2500
  559.5000    79.4970   -43.8797     9.0366     9.2473     9.5976  -999.2500  -999.2500  -999.2500  -999.2500  -999.2500
  560.0000    78.1375   -44.1850     9.0159     9.2473     9.5976  -999.2500  -999.2500  -999.2500  -999.2500  -999.2500
  560.5000    76.7434   -44.5081     8.9952     9.2473     9.5976  -999.2500  -999.2500  -999.2500  -999.2500  -999.2500
  561.0000    76.9825   -44.8300     8.9745     9.2473     9.5976  -999.2500  -999.2500  -999.2500  -999.2500  -999.2500
  561.5000    80.4410   -45.0902     8.9539     9.2473     9.5976  -999.2500  -999.2500  -999.2500  -999.2500  -999.2500
  562.0000    83.9572   -45.0612     8.9334     9.2473     9.5976  -999.2500  -999.2500  -999.2500  -999.2500  -999.2500
  562.5000    85.3087   -44.5553     8.9101     9.2472     9.5976  -999.2500  -999.2500  -999.2500  -999.2500  -999.2500
  563.0000    84.1462   -44.0876     8.9477     9.2470     9.5975  -999.2500  -999.2500  -999.2500  -999.2500  -999.2500
  563.5000    82.5256   -43.9258     8.9920     9.2489     9.5975  -999.2500  -999.2500  -999.2500  -999.2500  -999.2500
  564.0000    83.7211   -43.8343     9.0368     9.1601     9.5976  -999.2500  -999.2500  -999.2500  -999.2500  -999.2500
  564.5000    85.4277   -43.7741     9.0807     9.0921     9.6498  -999.2500  -999.2500  -999.2500  -999.2500  -999.2500
  565.0000    87.0629   -43.7163     9.1165     9.0248     9.7553  -999.2500  -999.2500  -999.2500  -999.2500  -999.2500
  565.5000    87.6356   -43.7510     9.1523     8.9930     9.8689  -999.2500  -999.2500  -999.2500  -999.2500  -999.2500
  566.0000    88.4293   -43.9971     9.3628     8.9929     9.8328  -999.2500  -999.2500  -999.2500  -999.2500  -999.2500
  566.5000    89.6157   -44.2402     9.6439     8.9930     9.7942  -999.2500  -999.2500  -999.2500  -999.2500  -999.2500
  567.0000    89.1444   -44.4822     9.9277     8.9927     9.6764  -999.2500  -999.2500  -999.2500  -999.2500  -999.2500
  567.5000    89.2990   -44.6609    10.1535     8.9635     9.5007  -999.2500  -999.2500  -999.2500  -999.2500  -999.2500
  568.0000    90.2169   -44.5186    10.1516     8.9122     9.3281  -999.2500  -999.2500  -999.2500  -999.2500  -999.2500
  568.5000    90.3571   -44.3819     9.4664     8.8614     9.1617  -999.2500  -999.2500  -999.2500  -999.2500  -999.2500
  569.0000    90.5962   -44.2459     9.0770     8.8109     9.1242  -999.2500  -999.2500  -999.2500  -999.2500  -999.2500
  569.5000    91.6349   -44.1095     9.0893     8.7607     9.0874  -999.2500  -999.2500  -999.2500  -999.2500  -999.2500
  570.0000    91.5740   -43.9756     9.1012     8.7108     9.0508  -999.2500  -999.2500  -999.2500  -999.2500  -999.2500
  570.5000    86.7663   -43.9202     9.1131     8.6647     9.0143  -999.2500  -999.2500  -999.2500  -999.2500  -999.2500
  571.0000    83.0278   -44.0660     9.1250     8.6552     8.9780  -999.2500  -999.2500  -999.2500  -999.2500  -999.2500
  571.5000    83.5827   -44.0076     9.1370     8.6464     8.9418  -999.2500  -999.2500  -999.2500  -999.2500  -999.2500
  572.0000    86.0318   -43.9538     9.1489     8.6376     8.9083  -999.2500  -999.2500  -999.2500  -999.2500  -999.2500
  572.5000    85.8687   -43.9008     9.1615     8.6288     8.9006  -999.2500  -999.2500  -999.2500  -999.2500  -999.2500
  573.0000    84.5781   -43.9260     9.1766     8.6199     8.8924  -999.2500  -999.2500  -999.2500  -999.2500  -999.2500
  573.5000    83.7566   -44.0802     9.1927     8.6111     8.8842  -999.2500  -999.2500  -999.2500  -999.2500  -999.2500
  574.0000    85.3569   -44.2329     9.2088     8.6023     8.8760  -999.2500  -999.2500  -999.2500  -999.2500  -999.2500
  574.5000    87.0674   -44.3839     9.2250     8.5935     8.8678  -999.2500  -999.2500  -999.2500  -999.2500  -999.2500
  575.0000    87.4249   -44.4396     9.2467     8.5847     8.8596  -999.2500  -999.2500  -999.2500  -999.2500  -999.2500
  575.5000    85.6235   -44.3357     9.2221     8.5759     8.8515  -999.2500  -999.2500  -999.2500  -999.2500  -999.2500
  576.0000    83.8382   -44.2343     9.1799     8.5671     8.8433  -999.2500  -999.2500  -999.2500  -999.2500  -999.2500
  576.5000    82.1022   -44.1322     9.1381     8.5583     8.8351  -999.2500  -999.2500  -999.2500  -999.2500  -999.2500
