~VERSION INFORMATION
 VERS.                2.0:   CWLS LOG ASCII STANDARD - VERSION 2.0
 WRAP.                 NO:   ONE LINE PER DEPTH STEP
~WELL INFORMATION
#MNEM.UNIT      DATA TYPE    INFORMATION
#----------   ------------   ------------------------------
 STRT.F           30.0000:   START DEPTH
 STOP.F          634.0000:   STOP DEPTH
 STEP.F            0.5000:   STEP LENGTH
 NULL.          -999.2500:   NO VALUE
 COMP. FENIX & SCISSON INC:   COMPANY
 WELL.     26-S-11 #26-11:   WELL
 FLD .             TEAPOT:   FIELD
 LOC .      S11 T38N R78W:   LOCATION
 CNTY.            NATRONA:   COUNTY
 STAT.            WYOMING:   STATE
 CTRY. UNITED STATES OF AMERICA:   COUNTRY
 SRVC.              Welex:   SERVICE COMPANY
 DATE.        26-APR-1977:   LOGDATE
 API .       490251034300:   API NUMBER
~CURVE INFORMATION
#MNEM.UNIT       API CODE    CURVE DESCRIPTION
#----------   ------------   ------------------------------
 DEPT.F                  :   
 SPR .MV     07 010 01 00:   SPONTANEOUS POTENTIAL
 ILD .OHMM   07 120 46 00:   INDUCTION LOG DEEP
 ILM .OHMM   07 120 44 00:   INDUCTION LOG MEDIUM
 SGRD.OHMM   07 221 05 00:   SHALLOW SHORT GUARD RESISTIVITY
 CALD.IN     45 280 60 00:   CALIPER FROM DENSITY LOG
 GRD .GAPI   45 310 01 00:   GAMMA RAY FROM DENSITY LOG
 CORR.G/C3   45 356 01 00:   DENSITY CORRECTION
 DPHI.DEC    45 890 12 00:   DENSITY POROSITY SANDSTONE
 RHOB.G/C3   45 350 01 00:   BULK DENSITY
~PARAMETER INFORMATION
#MNEM.UNIT          VALUE    DESCRIPTION
#----------   ------------   ------------------------------
 PD  .                 GL:   PERMANENT DATUM
 EPD .F              5179:   ELEVATION PERMANENT DATUM
 LMF .                 GL:   LOG MEASURED FROM
 DMF .                 GL:   DRILLING MEASURED FROM
 EGL .F              5179:   GROUND LEVEL
 DATE.          4-24-1977:   RUN DATE
 RUN .                  1:   RUN NUMBER
 DD  .F               645:   DEPTH DRILLER
 DL  .F               634:   DEPTH LOGGER
 BLI .F               632:   BOTTOM LOG INTERVAL
 TLI .F                40:   TOP LOG INTERVAL
 CS  .IN            8.625:   CASING SIZE
 CBD .F                40:   CASING BOTTOM DRILLER
 CBL .F                42:   CASING BOTTOM LOGGER
 BS  .IN            7.875:   BIT SIZE
 BSD .F               645:   BIT SIZE AT DEPTH
 DFT .            KCL MUD:   DRILLING FLUID TYPE
 DFD .                8.8:   DRILLING FLUID DENSITY
 DFV .                 33:   DRILLING FLUID VISCOSITY
 DFPH.                7.5:   DRILLING FLUID PH
 DFL .                 96:   DRILLING FLUID LOSS
 MSS .           FLOWLINE:   MUD SAMPLE SOURCE
 RMS .OHMM            .17:   RESISTIVITY MUD SAMPLE
 MST .F                81:   MUD SAMPLE TEMPERATURE
 RMF .OHMM            .16:   RESISTIVITY MUD FILTRATE SAMPLE
 MFST.F                81:   MUD FILTRATE SAMPLE TEMPERATURE
 RMC .OHMM            .21:   RESISTIVITY MUD CAKE
 MCST.F                81:   MUD CAKE SAMPLE TEMPERATURE
 MFSS.           FANN KIT:   MUD FILTRATE SAMPLE SOURCE
 MCSS.           FANN KIT:   MUD CAKE SAMPLE SOURCE
 RMB .OHMM            .19:   RESISTIVITY MUD AT BHT
 BHT .F                72:   BOTTOM HOLE TEMPERATURE
 TCS .HRS             1.5:   TIME CURCULATED STOPPED
 MRT .F                72:   MAXIMUM RECORDED TEMPERATURE
 LUN .                861:   LOGGING UNIT NUMBER
 LUL .           GILLETTE:   LOGGING UNIT LOCATION
 ENGI.             JOYNER:   RECORDING ENGINEER
 WITN.           ROB LYON:   WITNESSED BY
 CLNT.            A2DTECH:   CLIENT CODE
 ORIG.         2.5" PRINT:   ORIGIN OF DATA
 UWI .       490251034300:   UNIQUE WELL ID
 DICO. A2D Technologies, Inc.:   DIGITIZING COMPANY
~OTHER INFORMATION
~A   DEPT      SPR        ILD        ILM       SGRD       CALD        GRD       CORR       DPHI       RHOB   
# ...
  358.5000   -35.1707     4.7143     5.2129     7.4602     7.9314   120.3314     0.0136     0.1233     2.4365
  359.0000   -35.4713     4.6483     5.0687     6.8156     7.9316   123.7097     0.0135     0.1280     2.4291
  359.5000   -35.4698     4.6480     4.9984     6.2216     7.9319   127.5010     0.0134     0.1304     2.4202
  360.0000   -35.4683     4.6477     5.0701     6.4741     7.9321   127.9668     0.0133     0.1387     2.4112
  360.5000   -35.1646     4.6474     5.1429     7.2586     7.9323   125.0660     0.0103     0.1419     2.3964
  361.0000   -35.1631     4.6471     5.2908     7.0320     7.9326   124.2434     0.0102     0.1334     2.4126
  361.5000   -35.1616     4.6467     5.4429     6.8742     7.9328   125.6828     0.0072     0.1269     2.4318
  362.0000   -34.8580     4.7510     5.5994     7.6660     7.9331   125.3372     0.0071     0.1222     2.4466
  362.5000   -34.5544     4.8856     5.7605     8.0932     7.9333   122.8495     0.0041     0.1192     2.4540
  363.0000   -34.5529     4.9540     5.9261     8.0932     7.9336   121.6696     0.0040     0.1175     2.4584
  363.5000   -34.2492     5.1661     6.0965     8.1676     7.9338   120.6496     0.0039     0.1181     2.4568
  364.0000   -34.2477     5.3557     6.2718     8.6644     7.9341   123.6852     0.0009     0.1222     2.4479
  364.5000   -33.9441     5.6636     6.3618     9.1892     7.9343   126.5870     0.0008     0.1240     2.4422
  365.0000   -33.9426     5.8588     6.5448     9.5284     7.9346   128.6071     0.0007     0.1229     2.4375
  365.5000   -33.9411     6.0247     6.7330     9.7030     7.9348   128.5118     0.0007     0.1193     2.4493
  366.0000   -33.6375     6.1090     6.8296     9.8359     7.9351   127.0381     0.0036     0.1190     2.4537
  366.5000   -33.6360     6.1462     6.9276     9.9254     7.9353   125.8900     0.0035     0.1224     2.4433
  367.0000   -33.6344     6.2326     7.0270     9.9254     7.9356   125.7537     0.0034     0.1253     2.4349
  367.5000   -33.6329     6.2321     7.0280     9.9254     7.9358   127.1530     0.0033     0.1271     2.4299
  368.0000   -33.6314     6.2317     7.0290     9.9254     7.9361   127.3020     0.0033     0.1224     2.4422
  368.5000   -33.6299     6.2313     7.0299     9.9254     7.9363   124.9126     0.0032     0.1201     2.4506
  369.0000   -33.6284     6.1840     6.9323     9.7471     7.9366   121.8807     0.0061     0.1195     2.4535
  369.5000   -33.6269     6.1437     6.8363     9.4855     7.9368   121.0323     0.0060     0.1189     2.4534
  370.0000   -33.6254     6.0577     6.7414     9.2309     7.9371   120.7331     0.0059     0.1189     2.4539
  370.5000   -33.6239     5.9289     6.5550     9.0238     7.9373   120.4340     0.0088     0.1178     2.4553
  371.0000   -33.6224     5.7648     6.5559     8.9018     7.9376   120.8886     0.0087     0.1178     2.4583
  371.5000   -33.6208     5.5647     6.3743     8.7420     7.9378   122.2238     0.0146     0.1172     2.4612
  372.0000   -33.6193     5.3357     6.2859     8.5458     7.9381   123.3490     0.0145     0.1166     2.4626
  372.5000   -33.6178     5.1161     6.1987     8.4303     7.9383   123.4678     0.0174     0.1155     2.4636
  373.0000   -33.9184     4.9405     6.0273     8.2790     7.9386   122.1193     0.0174     0.1155     2.4616
  373.5000   -33.9169     4.7370     5.9436     8.1671     7.9388   122.1726     0.0203     0.1185     2.4566
  374.0000   -33.9154     4.6386     5.8611     7.9479     7.9391   124.6686     0.0202     0.1203     2.4526
  374.5000   -33.9139     4.5737     5.7322     7.6300     7.9393   125.2498     0.0201     0.1209     2.4501
  375.0000   -33.9124     4.5416     5.6532     7.1619     7.9396   126.4663     0.0230     0.1203     2.4520
  375.5000   -33.9109     4.5094     5.5752     6.6909     7.9398   128.6862     0.0229     0.1180     2.4555
  376.0000   -33.6073     4.5728     5.5427     6.2786     7.9401   130.6843     0.0228     0.1168     2.4594
  376.5000   -33.6057     4.6691     5.6337     6.0820     7.9403   131.8524     0.0228     0.1139     2.4650
  377.0000   -33.3021     4.8690     5.9130     6.9425     7.9406   131.8622     0.0227     0.1062     2.4662
  377.5000   -33.3006     5.0413     6.1312     8.5078     7.9408   128.9882     0.0226     0.0937     2.4824
  378.0000   -32.9970     5.4065     6.4361     8.9425     7.9411   126.6882     0.0225     0.0908     2.5001
  378.5000   -32.6934     5.6378     6.6208     9.3150     7.9413   124.6276     0.0207     0.0920     2.5001
  379.0000   -32.6918     5.8397     6.8636     9.5284     7.9416   123.2669     0.0185     0.0944     2.4986
  379.5000   -32.6903     6.0050     7.0060     9.4855     7.9418   125.1358     0.0164     0.0974     2.4926
  380.0000   -32.6888     6.0891     7.1060     9.3574     7.9418   127.3595     0.0134     0.1021     2.4837
  380.5000   -32.6873     6.1743     7.1538     9.2727     7.9417   128.5267     0.0101     0.1057     2.4778
  381.0000   -32.3837     6.2607     7.1548     9.3579     7.9416   129.4006     0.0043     0.1075     2.4733
  381.5000   -32.3822     6.3484     7.1558     9.7030     7.9415   130.2745     0.0042     0.1087     2.4673
  382.0000   -32.0785     6.3963     7.1568     9.9254     7.9414   130.8551     0.0071     0.1093     2.4777
  382.5000   -32.0770     6.4365     7.1578    10.0613     7.9413   131.1437     0.0102     0.1106     2.4821
  383.0000   -32.0755     6.4857     7.1588    10.0613     7.9412   130.5502     0.0129     0.1094     2.4702
  383.5000   -32.0740     6.4853     7.1599    10.0613     7.9411   129.0780     0.0160     0.1053     2.4657
  384.0000   -32.0725     6.4848     7.1609    10.0613     7.9410   127.3126     0.0189     0.1011     2.4820
  384.5000   -31.7689     6.3941     7.1619    10.0613     7.9409   125.5473     0.0216     0.0994     2.4864
  385.0000   -31.7674     6.3936     7.1629    10.0613     7.9408   125.8347     0.0245     0.0976     2.4878
  385.5000   -31.7659     6.3932     7.1639    10.0613     7.9407   127.5883     0.0214     0.0970     2.4892
  386.0000   -31.7644     6.3927     7.1649    10.0613     7.9406   128.7555     0.0214     0.0959     2.4907
  386.5000   -31.7628     6.3923     7.1659    10.0160     7.9405   129.6294     0.0212     0.0959     2.4877
  387.0000   -31.7613     6.3919     7.1669     9.7912     7.9404   128.7438     0.0182     0.0971     2.4862
  387.5000   -32.0619     6.3914     7.1679     9.7912     7.9403   128.4091     0.0182     0.0989     2.4861
  388.0000   -32.0604     6.3910     7.1690     9.6589     7.9402   132.2511     0.0181     0.1043     2.4876
  388.5000   -32.0589     6.3905     7.1700     9.7912     7.9401   132.5396     0.0180     0.1072     2.4861
  389.0000   -32.0574     6.3901     7.1710     9.7912     7.9400   132.2394     0.0180     0.1090     2.4786
  389.5000   -32.3580     6.3896     7.1720     9.7912     7.9399   131.3538     0.0179     0.1097     2.4697
  390.0000   -32.6586     6.3892     7.0725     9.7912     7.9398   130.1749     0.0178     0.1097     2.4726
  390.5000   -32.6571     6.2998     7.0311     9.6589     7.9397   126.9432     0.0177     0.1044     2.4770
  391.0000   -32.9577     6.2648     6.9341     9.5284     7.9396   123.4183     0.0177     0.1026     2.4800
  391.5000   -32.9562     6.2112     6.7824     9.5284     7.9394   121.3596     0.0176     0.1020     2.4814
  392.0000   -33.2568     6.0913     6.6496     9.3997     7.9393   119.5943     0.0145     0.1003     2.4814
  392.5000   -33.2553     5.9746     6.5207     9.2727     7.9392   120.7614     0.0175     0.0979     2.4843
  393.0000   -33.2538     5.7589     6.3768     9.1062     7.9391   123.3948     0.0204     0.0973     2.4902
  393.5000   -33.2523     5.5996     6.2354     8.9831     7.9390   125.4418     0.0262     0.0968     2.4931
  394.0000   -33.5529     5.4446     6.1152     8.3226     7.9389   125.4359     0.0261     0.0998     2.4886
  394.5000   -33.5514     5.2940     6.0636     7.5269     7.9388   125.7233     0.0231     0.1045     2.4827
