~VERSION INFORMATION
 VERS.                2.0:   CWLS LOG ASCII STANDARD - VERSION 2.0
 WRAP.                 NO:   ONE LINE PER DEPTH STEP
~WELL INFORMATION
#MNEM.UNIT      DATA TYPE    INFORMATION
#----------   ------------   ------------------------------
 STRT.F           31.0000:   START DEPTH
 STOP.F          590.0000:   STOP DEPTH
 STEP.F            0.1000:   STEP LENGTH
 NULL.          -999.2500:   NO VALUE
 COMP. LAWRENCE/ALLISON INC:   COMPANY
 WELL. NPR 3 73-61 SX #3-3:   WELL
 FLD .             TEAPOT:   FIELD
 LOC .       S3 T38N R78W:   LOCATION
 CNTY.            NATRONA:   COUNTY
 STAT.            WYOMING:   STATE
 CTRY. UNITED STATES OF AMERICA:   COUNTRY
 SRVC.           Gearhart:   SERVICE COMPANY
 DATE.        14-AUG-1988:   LOGDATE
 API .       490251124200:   API NUMBER
~CURVE INFORMATION
#MNEM.UNIT       API CODE    CURVE DESCRIPTION
#----------   ------------   ------------------------------
 DEPT.F                  :   
 GRR .GAPI   07 310 01 00:   GAMMA RAY
 RILD.OHMM   07 120 46 00:   INDUCTION LOG DEEP RESISTIVITY
 RILM.OHMM   07 120 44 00:   INDUCTION LOG MEDIUM RESISTIVITY
~PARAMETER INFORMATION
#MNEM.UNIT          VALUE    DESCRIPTION
#----------   ------------   ------------------------------
 PD  .                 GL:   PERMANENT DATUM
 EPD .F              5136:   ELEVATION PERMANENT DATUM
 LMF .                 KB:   LOG MEASURED FROM
 DAPD.F                10:   FEET ABOVE PERMANENT DATUM
 DMF .                 KB:   DRILLING MEASURED FROM
 EKB .F              5146:   KELLING BUSHING
 EDF .F              5144:   DRILLING FLOOR
 EGL .F              5136:   GROUND LEVEL
 DATE.        14-AUG-1988:   RUN DATE
 RUN .                  1:   RUN NUMBER
 DD  .F               597:   DEPTH DRILLER
 DL  .F               598:   DEPTH LOGGER
 BLI .F               590:   BOTTOM LOG INTERVAL
 TLI .F                50:   TOP LOG INTERVAL
 CS  .IN            9.625:   CASING SIZE
 CBD .F                50:   CASING BOTTOM DRILLER
 CBL .F                50:   CASING BOTTOM LOGGER
 BS  .IN             8.75:   BIT SIZE
 BSD .F               597:   BIT SIZE AT DEPTH
 DFT .                AIR:   DRILLING FLUID TYPE
 TCS .HRS            1930:   TIME CURCULATED STOPPED
 TLAB.HRS            2030:   TIME LOGGER AT BOTTOM
 MRT .F                70:   MAXIMUM RECORDED TEMPERATURE
 LUN .               7597:   LOGGING UNIT NUMBER
 LUL .           GILLETTE:   LOGGING UNIT LOCATION
 ENGI.         WEATHERMON:   RECORDING ENGINEER
 WITN.             STRONG:   WITNESSED BY
 CLNT.            A2DTECH:   CLIENT CODE
 ORIG.           5" PRINT:   ORIGIN OF DATA
 UWI .       490251124200:   UNIQUE WELL ID
 DICO. A2D Technologies, Inc.:   DIGITIZING COMPANY
~OTHER INFORMATION
~A   DEPT       GRR      RILD       RILM   
# ...
  577.0000  -999.2500    12.6894    12.6893
  577.1000  -999.2500    12.6881    12.6882
  577.2000  -999.2500    12.6870    12.6868
  577.3000  -999.2500    12.6859    12.6858
  577.4000  -999.2500    12.6479    12.6847
  577.5000  -999.2500    12.5958    12.6835
  577.6000  -999.2500    12.5947    12.6823
  577.7000  -999.2500    12.5934    12.6811
  577.8000  -999.2500    12.5924    12.6800
  577.9000  -999.2500    12.5416    12.6227
  578.0000  -999.2500    12.5030    12.5900
  578.1000  -999.2500    12.5019    12.5889
  578.2000  -999.2500    12.5007    12.5876
  578.3000  -999.2500    12.4994    12.5864
  578.4000  -999.2500    12.4984    12.5181
  578.5000  -999.2500    12.4972    12.4973
  578.6000  -999.2500    12.4632    12.4961
  578.7000  -999.2500    12.4085    12.4949
  578.8000  -999.2500    12.4073    12.4869
  578.9000  -999.2500    12.4061    12.4061
  579.0000  -999.2500    12.4051    12.4051
  579.1000  -999.2500    12.4040    12.4039
  579.2000  -999.2500    12.4028    12.4028
  579.3000  -999.2500    12.4016    12.3834
  579.4000  -999.2500    12.3988    12.3148
  579.5000  -999.2500    12.3135    12.3135
  579.6000  -999.2500    12.3125    12.2535
  579.7000  -999.2500    12.3114    12.2263
  579.8000  -999.2500    12.3102    12.1959
  579.9000  -999.2500    12.2946    12.1396
  580.0000  -999.2500    12.2229    12.1384
  580.1000  -999.2500    12.2212    12.1735
  580.2000  -999.2500    12.2195    12.2085
  580.3000  -999.2500    12.2021    12.2204
  580.4000  -999.2500    12.1272    12.1858
  580.5000  -999.2500    11.9627    12.1342
  580.6000  -999.2500    11.8448    12.1251
  580.7000  -999.2500    11.7503    12.0486
  580.8000  -999.2500    11.6805    11.9812
  580.9000  -999.2500    11.6109    11.9100
  581.0000  -999.2500    11.5419    11.8391
  581.1000  -999.2500    11.4656    11.7687
  581.2000  -999.2500    11.4051    11.6988
  581.3000  -999.2500    11.3372    11.6291
  581.4000  -999.2500    11.2698    11.5519
  581.5000  -999.2500    11.2028    11.4318
  581.6000  -999.2500    11.1361    11.3913
  581.7000  -999.2500    11.0657    11.3550
  581.8000  -999.2500    11.0041    11.2875
  581.9000  -999.2500    10.9387    11.2204
  582.0000  -999.2500    10.8736    11.1536
  582.1000  -999.2500    10.8089    11.0756
  582.2000  -999.2500    10.7555    11.0214
  582.3000  -999.2500    10.7540    10.9977
  582.4000  -999.2500    10.6911    10.9363
  582.5000  -999.2500    10.6276    10.8260
  582.6000  -999.2500    10.5644    10.7690
  582.7000  -999.2500    10.5268    10.7682
  582.8000  -999.2500    10.5117    10.7079
  582.9000  -999.2500    10.4512    10.5966
  583.0000  -999.2500    10.4494    10.5443
  583.1000  -999.2500    10.3972    10.5181
  583.2000  -999.2500    10.3746    10.4699
  583.3000  -999.2500    10.3454    10.4656
  583.4000  -999.2500    10.3000    10.3961
  583.5000  -999.2500    10.2986    10.3954
  583.6000  -999.2500    10.2970    10.3516
  583.7000  -999.2500    10.2426    10.3221
  583.8000  -999.2500    10.2231    10.3215
  583.9000  -999.2500    10.1916    10.3208
  584.0000  -999.2500    10.1310    10.3200
  584.1000  -999.2500    10.0781    10.2479
  584.2000  -999.2500    10.0766    10.2473
  584.3000  -999.2500    10.0753    10.2466
  584.4000  -999.2500    10.0739    10.2459
  584.5000  -999.2500    10.0400    10.2452
  584.6000  -999.2500     9.9803    10.2444
  584.7000  -999.2500     9.9311    10.2437
  584.8000  -999.2500     9.9296    10.2430
  584.9000  -999.2500     9.9283    10.2423
  585.0000  -999.2500     9.9269    10.2062
  585.1000  -999.2500     9.9255    10.1701
  585.2000  -999.2500     9.9241    10.1694
  585.3000  -999.2500     9.9228    10.1687
  585.4000  -999.2500     9.9214    10.1679
  585.5000  -999.2500     9.9198    10.1673
  585.6000  -999.2500     9.9186    10.1666
  585.7000  -999.2500     9.9172    10.1658
  585.8000  -999.2500     9.9159    10.1652
  585.9000  -999.2500     9.9145    10.1540
  586.0000  -999.2500     9.9116    10.0935
  586.1000  -999.2500  -999.2500    10.0927
  586.2000  -999.2500  -999.2500    10.0921
  586.3000  -999.2500  -999.2500    10.0914
  586.4000  -999.2500  -999.2500    10.0907
  586.5000  -999.2500  -999.2500    10.0900
  586.6000  -999.2500  -999.2500    10.0824
  586.7000  -999.2500  -999.2500    10.0188
  586.8000  -999.2500  -999.2500    10.0182
  586.9000  -999.2500  -999.2500    10.0175
  587.0000  -999.2500  -999.2500    10.0168
  587.1000  -999.2500  -999.2500    10.0161
  587.2000  -999.2500  -999.2500    10.0154
  587.3000  -999.2500  -999.2500    10.0148
  587.4000  -999.2500  -999.2500    10.0139
  587.5000  -999.2500  -999.2500     9.9614
  587.6000  -999.2500  -999.2500     9.9434
  587.7000  -999.2500  -999.2500     9.9118
  587.8000  -999.2500  -999.2500     9.8734
  587.9000  -999.2500  -999.2500     9.8727
  588.0000  -999.2500  -999.2500     9.8720
  588.1000  -999.2500  -999.2500     9.8712
  588.2000  -999.2500  -999.2500     9.8706
  588.3000  -999.2500  -999.2500     9.8324
  588.4000  -999.2500  -999.2500     9.8010
  588.5000  -999.2500  -999.2500     9.7834
  588.6000  -999.2500  -999.2500     9.7319
  588.7000  -999.2500  -999.2500     9.7312
  588.8000  -999.2500  -999.2500     9.7306
  588.9000  -999.2500  -999.2500     9.6862
  589.0000  -999.2500  -999.2500     9.6620
  589.1000  -999.2500  -999.2500     9.6379
  589.2000  -999.2500  -999.2500     9.5806
  589.3000  -999.2500  -999.2500     9.5236
  589.4000  -999.2500  -999.2500     9.4603
  589.5000  -999.2500  -999.2500     9.4107
  589.6000  -999.2500  -999.2500     9.3548
  589.7000  -999.2500  -999.2500     9.2991
  589.8000  -999.2500  -999.2500     9.2438
  589.9000  -999.2500  -999.2500     9.1793
  590.0000  -999.2500  -999.2500     9.0710
