~VERSION INFORMATION
 VERS.                2.0:   CWLS LOG ASCII STANDARD - VERSION 2.0
 WRAP.                 NO:   ONE LINE PER DEPTH STEP
~WELL INFORMATION
#MNEM.UNIT      DATA TYPE    INFORMATION
#----------   ------------   ------------------------------
 STRT.F           27.0000:   START DEPTH
 STOP.F          760.0000:   STOP DEPTH
 STEP.F            0.5000:   STEP LENGTH
 NULL.          -999.2500:   NO VALUE
 COMP. FENIX & SCISSON INC:   COMPANY
 WELL.    NPR #3 #33-S-14:   WELL
 FLD .             TEAPOT:   FIELD
 LOC .      S14 T38N R78W:   LOCATION
 CNTY.            NATRONA:   COUNTY
 STAT.            WYOMING:   STATE
 CTRY. UNITED STATES OF AMERICA:   COUNTRY
 SRVC.              Welex:   SERVICE COMPANY
 DATE.        02-FEB-1977:   LOGDATE
 API .       490251027700:   API NUMBER
~CURVE INFORMATION
#MNEM.UNIT       API CODE    CURVE DESCRIPTION
#----------   ------------   ------------------------------
 DEPT.F                  :   
 SPR .MV     07 010 01 00:   SPONTANEOUS POTENTIAL
 SGRD.OHMM   07 220 05 00:   SHALLOW RESISTIVITY
 ILD .OHMM   07 120 46 00:   INDUCTION LOG DEEP
 ILM .OHMM   07 120 44 00:   INDUCTION LOG MEDIUM
 GRD .GAPI   45 310 01 00:   GAMMA RAY FROM DENSITY LOG
 CALD.IN     45 280 60 00:   CALIPER
 RHOB.G/C3   45 350 01 00:   BULK DENSITY
 CORR.G/C3   45 356 01 00:   DENSITY CORRECTION
 DPHI.DEC    45 890 00 00:   DENSITY POROSITY
~PARAMETER INFORMATION
#MNEM.UNIT          VALUE    DESCRIPTION
#----------   ------------   ------------------------------
 PD  .                 GL:   PERMANENT DATUM
 EPD .F              5219:   ELEVATION PERMANENT DATUM
 LMF .                 GL:   LOG MEASURED FROM
 DMF .                 GL:   DRILLING MEASURED FROM
 EKB .F              5224:   KELLING BUSHING
 EGL .F              5219:   GROUND LEVEL
 DATE.           2-2-1977:   RUN DATE
 RUN .                  1:   RUN NUMBER
 DD  .F               761:   DEPTH DRILLER
 DL  .F               762:   DEPTH LOGGER
 BLI .F               760:   BOTTOM LOG INTERVAL
 TLI .F                25:   TOP LOG INTERVAL
 CS  .IN            8.625:   CASING SIZE
 CBD .F              42.5:   CASING BOTTOM DRILLER
 CBL .F                46:   CASING BOTTOM LOGGER
 BS  .IN            7.875:   BIT SIZE
 BSD .F               761:   BIT SIZE AT DEPTH
 DFT .           CHEM-GEL:   DRILLING FLUID TYPE
 DFD .                8.9:   DRILLING FLUID DENSITY
 DFV .                 37:   DRILLING FLUID VISCOSITY
 DFPH.                  7:   DRILLING FLUID PH
 DFL .                8.4:   DRILLING FLUID LOSS
 MSS .          FLOW LINE:   MUD SAMPLE SOURCE
 RMS .OHMM           .231:   RESISTIVITY MUD SAMPLE
 MST .F                45:   MUD SAMPLE TEMPERATURE
 RMF .OHMM           .322:   RESISTIVITY MUD FILTRATE SAMPLE
 MFST.F                45:   MUD FILTRATE SAMPLE TEMPERATURE
 RMC .OHMM           .439:   RESISTIVITY MUD CAKE
 MCST.F                45:   MUD CAKE SAMPLE TEMPERATURE
 MFSS.           MEASURED:   MUD FILTRATE SAMPLE SOURCE
 MCSS.           MEASURED:   MUD CAKE SAMPLE SOURCE
 RMB .OHMM           .182:   RESISTIVITY MUD AT BHT
 BHT .F                57:   BOTTOM HOLE TEMPERATURE
 TCS .HRS             5.5:   TIME CURCULATED STOPPED
 MRT .F                57:   MAXIMUM RECORDED TEMPERATURE
 LUN .               8611:   LOGGING UNIT NUMBER
 LUL .           GILLETTE:   LOGGING UNIT LOCATION
 ENGI.             LAWSON:   RECORDING ENGINEER
 WITN. VOORHEES/RHOADES/JAPP/PETTINGILL/STUEBINGER:   WITNESSED BY
 CLNT.            A2DTECH:   CLIENT CODE
 ORIG.     1", 2.5" PRINT:   ORIGIN OF DATA
 UWI .       490251027700:   UNIQUE WELL ID
 DICO. A2D Technologies, Inc.:   DIGITIZING COMPANY
~OTHER INFORMATION
~A   DEPT      SPR       SGRD        ILD        ILM        GRD       CALD         RHOB      CORR      DPHI   
# ...
  720.5000   -19.0700    14.4562    10.9492    13.0582    91.2618     7.9674     2.4471     0.0610     0.1205
  721.0000   -19.1230    14.3942    10.8502    12.9183    93.3026     7.9694     2.4590     0.0679     0.1141
  721.5000   -19.1756    14.3326    10.8072    12.7085    95.3852     7.9714     2.4657     0.0747     0.1077
  722.0000   -19.2203    14.2710    10.7577    12.4994    95.7122     7.9735     2.4641     0.0816     0.1018
  722.5000   -19.3184    14.2090    10.7083    12.2960    93.3616     7.9755     2.4632     0.0885     0.1053
  723.0000   -19.4534    14.1468    10.6592    12.0958    91.7361     7.9775     2.4666     0.0939     0.1056
  723.5000   -19.5807    14.0652    10.6104    11.9036    90.1149     7.9788     2.4701     0.0904     0.1028
  724.0000   -19.7070    14.1147    10.5617    12.0938    89.2608     7.9788     2.4708     0.0871     0.1010
  724.5000   -19.8355    14.1998    10.5132    12.4066    90.0730     7.9788     2.4649     0.0837     0.1048
  725.0000   -19.9627    14.2857    10.4650    12.7274    91.1581     7.9788     2.4592     0.0804     0.1093
  725.5000   -20.0902    14.3721    10.4170    13.0593    92.2066     7.9788     2.4534     0.0770     0.1141
  726.0000   -20.2174    14.4591    10.3693    12.6632    93.2504     7.9788     2.4507     0.0737     0.1129
  726.5000   -20.3456    14.5467    10.3217    12.2843    94.2950     7.9788     2.4565     0.0704     0.1085
  727.0000   -20.4723    14.6347    10.2744    11.9172    94.8395     7.9788     2.4617     0.0690     0.1106
  727.5000   -20.5988    14.7232    10.2634    11.5609    93.5208     7.9788     2.4598     0.0719     0.1127
  728.0000   -20.7320    14.8670    10.2634    11.2670    92.1952     7.9788     2.4565     0.0747     0.1108
  728.5000   -20.8330    14.8525    10.2630    11.6738    90.8897     7.9788     2.4559     0.0774     0.1083
  729.0000   -21.0808    14.8017    10.2629    12.0372    90.2673     7.9788     2.4653     0.0802     0.1058
  729.5000   -21.3498    14.7510    10.2629    12.5841    91.7736     7.9788     2.4769     0.0830     0.1032
  730.0000   -21.5623    14.7004    10.2631    12.4763    93.4495     7.9788     2.4883     0.0858     0.0972
  730.5000   -21.7726    14.6502    10.1747    12.2732    95.1302     7.9788     2.4999     0.0881     0.0869
  731.0000   -21.9855    14.6000    10.0525    12.0734    96.8078     7.9788     2.5029     0.0836     0.0861
  731.5000   -22.1969    14.5504     9.9315    11.8768    98.4922     7.9788     2.4921     0.0792     0.0900
  732.0000   -22.4087    14.5009     9.8120    11.6835   100.1624     7.9788     2.4832     0.0748     0.0969
  732.5000   -22.6206    14.4516     9.6948    11.4705   101.1494     7.9788     2.4743     0.0705     0.1038
  733.0000   -22.8322    14.4025     9.5785    11.6139    99.4780     7.9788     2.4654     0.0665     0.1089
  733.5000   -23.0439    14.3536     9.4635    11.7823    98.3502     7.9788     2.4563     0.0667     0.1076
  734.0000   -23.2557    14.2668     9.3561    11.9501    99.8135     7.9788     2.4621     0.0670     0.1059
  734.5000   -23.4675    14.1362     9.4183    12.1204   100.6299     7.9790     2.4692     0.0673     0.1041
  735.0000   -23.6795    14.0049     9.4773    12.3503    98.7853     7.9807     2.4756     0.0676     0.1023
  735.5000   -23.8912    13.8748     9.5365    12.2662    96.8294     7.9823     2.4744     0.0678     0.1005
  736.0000   -24.1030    13.7450     9.5962    12.1257    95.4264     7.9839     2.4713     0.0681     0.0988
  736.5000   -24.3157    13.5615     9.6563    11.9866    96.6153     7.9856     2.4683     0.0684     0.0970
  737.0000   -24.5253    13.7554     9.7170    11.8491    98.5443     7.9872     2.4659     0.0686     0.0966
  737.5000   -24.7369    14.2894     9.7781    11.7121   100.0611     7.9888     2.4697     0.0689     0.0982
  738.0000   -24.8311    14.8476     9.8396    11.7844    99.1937     7.9904     2.4734     0.0692     0.1006
  738.5000   -24.8695    14.5063     9.8900    11.9100    98.3416     7.9921     2.4762     0.0695     0.1035
  739.0000   -24.9084    14.0641     9.8900    12.0370    97.5552     7.9937     2.4682     0.0697     0.1059
  739.5000   -24.9483    14.4391     9.8900    12.1654    97.9717     7.9953     2.4608     0.0700     0.1093
  740.0000   -24.9870    15.1182     9.8904    12.3531    98.5275     7.9969     2.4532     0.0703     0.1126
  740.5000   -25.0274    15.8293     9.8903    12.1650    99.0437     7.9986     2.4463     0.0706     0.1159
  741.0000   -25.0648    14.3272     9.8902    11.6850    96.3754     8.0002     2.4511     0.0708     0.1148
  741.5000   -25.1055    14.2681     9.8905    11.7021    88.6223     8.0018     2.4562     0.0711     0.1118
  742.0000   -25.1478    14.2058     9.8911    11.7338    80.7359     8.0034     2.4599     0.0714     0.1085
  742.5000   -25.1711    14.1438     9.8903    11.7655  -999.2500     8.0051     2.4590     0.0716     0.1106
  743.0000   -25.3370    14.0820     9.8879    11.7974  -999.2500     8.0067     2.4566     0.0719     0.1135
  743.5000   -25.5893    14.0205     9.8944    11.8293  -999.2500     8.0083     2.4541     0.0722     0.1121
  744.0000   -25.8242    13.9593     9.7758    11.8614  -999.2500     8.0099     2.4532     0.0724     0.1082
  744.5000   -26.0565    13.8983     9.6736    11.9036  -999.2500     8.0116     2.4599     0.0727     0.1058
  745.0000   -26.2937    13.8376     9.5724    11.6256  -999.2500     8.0132     2.4665     0.0730     0.1070
  745.5000   -26.5304    13.7306     9.4723    11.2317  -999.2500     8.0148     2.4719     0.0733     0.1068
  746.0000   -26.7622    13.5738     9.3733    10.8512  -999.2500     8.0164     2.4701     0.0735     0.1033
  746.5000   -26.9991    13.4187     9.2753    10.6229  -999.2500     8.0174     2.4720     0.0738     0.0998
  747.0000   -27.3111    13.2654     9.1783    10.5620  -999.2500     8.0174     2.4798     0.0740     0.0962
  747.5000   -27.8736    13.1138     9.0823    10.5015  -999.2500     8.0174     2.4875     0.0744     0.0927
  748.0000   -28.4663    12.9210     8.9874    10.4413  -999.2500     8.0174     2.4953     0.0772     0.0883
  748.5000   -28.8339    12.7068     8.8934    10.3815  -999.2500     8.0174     2.4919     0.0854     0.0936
  749.0000   -28.8882    12.4962     8.8004    10.3221  -999.2500     8.0174     2.4806     0.0871     0.1005
  749.5000   -28.9844    12.2891     8.7084    10.2634  -999.2500     8.0174     2.4692     0.0790     0.1061
  750.0000   -29.0784    12.0296     8.6173     9.8465  -999.2500     8.0174     2.4714     0.0709     0.1038
  750.5000   -29.1446    11.5615     8.5272     9.4497  -999.2500     8.0174     2.4779     0.0726     0.1000
  751.0000   -29.3171    11.1116     8.1016     9.0688  -999.2500     8.0174     2.4820     0.0751     0.1008
  751.5000   -29.7324    10.7885     7.6972     8.7034  -999.2500     8.0173     2.4675     0.0775     0.1033
  752.0000   -30.3042    10.6358     7.3130     8.3526  -999.2500     8.0104     2.4536     0.0800     0.1059
  752.5000   -30.8710    10.4852     6.9479     8.0160  -999.2500     7.9956     2.4557     0.0824     0.1084
  753.0000   -31.4431    10.3368     6.6011     7.6929  -999.2500     7.9810     2.4585     0.0848     0.1109
  753.5000   -32.0230    10.1905     6.2716     7.4621  -999.2500     7.9662     2.4531     0.0873     0.1134
  754.0000   -32.5854     9.6904     5.9585     7.0586  -999.2500     7.9515     2.4453     0.0897     0.1160
  754.5000   -33.1117     7.9741     5.7098     6.6768  -999.2500     7.9368     2.4391     0.0922     0.1165
  755.0000   -33.1332     6.5655     5.5423     6.3158  -999.2500     7.9221     2.4636     0.0946     0.1062
  755.5000   -33.1434     4.8974     5.3796     6.0075  -999.2500     7.9074     2.4940     0.0970     0.0946
  756.0000   -33.1330     5.1136     5.2217     5.7622  -999.2500     7.8927     2.5243     0.0994     0.0830
  756.5000   -33.1516     8.4367     5.0685     5.5269  -999.2500     7.8781     2.5461     0.1079     0.0714
