~VERSION INFORMATION
 VERS.                2.0:   CWLS LOG ASCII STANDARD - VERSION 2.0
 WRAP.                 NO:   ONE LINE PER DEPTH STEP
~WELL INFORMATION
#MNEM.UNIT      DATA TYPE    INFORMATION
#----------   ------------   ------------------------------
 STRT.F           25.0000:   START DEPTH
 STOP.F          867.0000:   STOP DEPTH
 STEP.F            0.5000:   STEP LENGTH
 NULL.          -999.2500:   NO VALUE
 COMP. LAWRENCE/ALLISON INC:   COMPANY
 WELL.    38-11 SX #35-35:   WELL
 FLD .             TEAPOT:   FIELD
 LOC .      S35 T39N R78W:   LOCATION
 CNTY.            NATRONA:   COUNTY
 STAT.            WYOMING:   STATE
 CTRY. UNITED STATES OF AMERICA:   COUNTRY
 SRVC.      Dresser Atlas:   SERVICE COMPANY
 DATE.        07-AUG-1985:   LOGDATE
 API .       490251104100:   API NUMBER
~CURVE INFORMATION
#MNEM.UNIT       API CODE    CURVE DESCRIPTION
#----------   ------------   ------------------------------
 DEPT.F                  :   
 SPR .MV     07 010 01 00:   SPONTANEOUS POTENTIAL
 RILD.OHMM   07 120 46 00:   INDUCTION LOG DEEP RESISTIVITY
 RILM.OHMM   07 120 44 00:   INDUCTION LOG MEDIUM RESISTIVITY
 RFOC.OHMM   07 220 04 00:   RESISTIVITY FOCUSED LOG
 PORD.DEC    45 890 12 00:   POROSITY DENSITY SANDSTONE
 CNC .DEC    42 890 03 00:   NEUTRON POROSITY SANDSTONE
 GRD .GAPI   45 310 01 00:   GAMMA RAY FROM DENSITY LOG
 CALD.IN     45 280 60 00:   CALIPER FROM DENSITY LOG
 CORR.G/C3   45 356 01 00:   DENSITY CORRECTION
 DEN .G/C3   45 350 01 00:   COMPENSATED BULK DENSTIY
~PARAMETER INFORMATION
#MNEM.UNIT          VALUE    DESCRIPTION
#----------   ------------   ------------------------------
 PD  .                 GL:   PERMANENT DATUM
 EPD .F              5110:   ELEVATION PERMANENT DATUM
 LMF .                 GL:   LOG MEASURED FROM
 DMF .                 GL:   DRILLING MEASURED FROM
 EGL .F              5110:   GROUND LEVEL
 DATE.             8-7-85:   RUN DATE
 RUN .                  1:   RUN NUMBER
 DD  .F               900:   DEPTH DRILLER
 DL  .F               869:   DEPTH LOGGER
 BLI .F               867:   BOTTOM LOG INTERVAL
 TLI .F                40:   TOP LOG INTERVAL
 CS  .IN            8.625:   CASING SIZE
 CBD .F                40:   CASING BOTTOM DRILLER
 CBL .F                40:   CASING BOTTOM LOGGER
 BS  .IN            7.875:   BIT SIZE
 BSD .F               900:   BIT SIZE AT DEPTH
 DFT .             4% KCL:   DRILLING FLUID TYPE
 MSS .           FLOWLINE:   MUD SAMPLE SOURCE
 RMS .OHMM           .222:   RESISTIVITY MUD SAMPLE
 MST .F                71:   MUD SAMPLE TEMPERATURE
 TCS .HRS               2:   TIME CURCULATED STOPPED
 MRT .F               100:   MAXIMUM RECORDED TEMPERATURE
 LUN .               6264:   LOGGING UNIT NUMBER
 LUL .               GLTE:   LOGGING UNIT LOCATION
 ENGI.           FAHLSING:   RECORDING ENGINEER
 WITN.              FIVAS:   WITNESSED BY
 CLNT.            A2DTECH:   CLIENT CODE
 ORIG.       2", 5" PRINT:   ORIGIN OF DATA
 UWI .       490251104100:   UNIQUE WELL ID
 DICO. A2D Technologies, Inc.:   DIGITIZING COMPANY
~OTHER INFORMATION
~A   DEPT      SPR       RILD       RILM       RFOC       PORD          CNC      GRD       CALD       CORR        DEN   
# ...
  494.0000   -69.5345     6.8106     7.3477     7.5799     0.1130     0.3339   112.3842     8.0926     0.1135     2.4870
  494.5000   -69.5419     6.8092     7.2956     7.5257     0.1136     0.3375   112.4108     8.0932     0.1208     2.4887
  495.0000   -69.5493     6.8079     7.3446     7.4719     0.1091     0.3135   113.6332     8.0786     0.1078     2.4940
  495.5000   -69.5567     6.8536     7.3431     7.5216     0.1055     0.3075   113.6598     8.0943     0.0789     2.5007
  496.0000   -69.5641     6.9474     7.3925     7.5716     0.1034     0.3132   108.9031     8.0949     0.0565     2.5067
  496.5000   -69.4199     6.9941     7.4936     7.6220     0.1079     0.3246   102.9468     8.1106     0.0506     2.5015
  497.0000   -69.2782     7.0416     7.5962     7.6733     0.1126     0.3327   101.7814     8.1112     0.0506     2.4941
  497.5000   -69.2857     7.1901     7.7002     7.7778     0.1166     0.3332   103.3934     8.0967     0.0537     2.4829
  498.0000   -69.1427     7.2912     7.8135     7.8834     0.1210     0.3288   105.5544     8.0520     0.0672     2.4770
  498.5000   -69.1504     7.4449     8.0219     7.9908     0.1210     0.3216   108.1459     8.0222     0.0792     2.4770
  499.0000   -69.0071     7.6421     8.0762     8.0996     0.1201     0.3267   109.0627     8.0683     0.0628     2.4793
  499.5000   -69.0164     7.6939     8.0186     8.1535     0.1198     0.3317   104.9106     8.1142     0.0524     2.4771
  500.0000   -69.0035     7.7456     7.9560     8.2077     0.1216     0.3467    98.2680     8.1148     0.0396     2.4712
  500.5000   -68.7803     7.7427     7.8798     8.2630     0.1263     0.3329    94.7830     8.1374     0.0150     2.4653
  501.0000   -68.5571     7.7400     7.7409     8.3207     0.1250     0.3254    96.0698     8.1469    -0.0028     2.4705
  501.5000   -68.5897     7.7369     7.6856     8.4943     0.1208     0.3237    97.2078     8.1478    -0.0029     2.4751
  502.0000   -68.4451     7.6811     7.6835     8.4352     0.1200     0.3305    94.8308     8.1336     0.0407     2.4796
  502.5000   -68.6015     7.6785     7.6814     8.3161     0.1206     0.3353    95.1445     8.1345     0.0453     2.4811
  503.0000   -68.7579     7.6231     7.7330     8.1479     0.1239     0.3320    97.5509     8.1505     0.0409     2.4752
  503.5000   -68.9343     7.5161     7.7840     8.0912     0.1272     0.3374   100.5551     8.1514     0.0454     2.4699
  504.0000   -69.2222     7.3596     7.7283     7.9797     0.1299     0.3482   104.7552     8.1523     0.0515     2.4647
  504.5000   -69.3785     7.2064     7.5679     7.9791     0.1308     0.3530   110.4500     8.1532     0.0621     2.4610
  505.0000   -69.3844     7.1052     7.4075     7.9786     0.1304     0.3269   114.0522     8.1541     0.0786     2.4611
  505.5000   -69.3904     7.0055     7.3579     7.8686     0.1292     0.3183   115.8606     8.1701     0.0861     2.4634
  506.0000   -69.6970     6.9550     7.4069     7.8140     0.1292     0.3231   114.6795     8.1710     0.0758     2.4672
  506.5000   -69.8533     6.8573     7.3029     7.7063     0.1292     0.3338   111.4057     8.1568     0.0624     2.4665
  507.0000   -70.0096     6.8079     7.1514     7.6001     0.1286     0.3277   107.8330     8.1577     0.0415     2.4657
  507.5000   -70.3163     6.7123     6.9070     7.4953     0.1277     0.3147   106.9357     8.1588     0.0371     2.4680
  508.0000   -70.6229     6.6181     6.7172     7.4433     0.1253     0.3049   113.8493     8.1748     0.0281     2.4696
  508.5000   -70.9296     6.5703     6.6233     7.3407     0.1211     0.3132   115.6502     8.1603     0.0162     2.4756
  509.0000   -71.2363     6.5228     6.5760     7.2897     0.1154     0.3296   111.4442     8.1615     0.0198     2.4891
  509.5000   -71.2422     6.4753     6.5295     7.2390     0.1076     0.3458   101.9312     8.1624     0.0329     2.4996
  510.0000   -71.2481     6.4731     6.6642     7.2384     0.1055     0.3377    95.0700     8.1784     0.0374     2.5049
  510.5000   -71.2541     6.5163     6.7546     7.2379     0.1056     0.3292    98.9711     8.1639     0.0420     2.5071
  511.0000   -71.1096     6.6040     6.9417     7.3889     0.1093     0.3217   104.6659     8.1650     0.0526     2.4990
  511.5000   -70.8147     6.6481     7.1350     7.4912     0.1115     0.3171   106.5093     8.1659     0.0706     2.4938
  512.0000   -70.3710     6.7842     7.2812     7.6476     0.1073     0.3240   105.8924     8.1668     0.0871     2.4930
  512.5000   -70.0747     6.8289     7.2791     7.7534     0.1064     0.3296    98.7322     8.1677     0.0992     2.4998
  513.0000   -69.9302     6.8744     7.3276     7.8066     0.1132     0.3240    97.8464     8.1686     0.0888     2.5021
  513.5000   -69.7858     6.9675     7.4783     7.7522     0.1183     0.3153    99.6585     8.1695     0.0784     2.4892
  514.0000   -69.7932     7.1601     7.5802     7.7517     0.1198     0.3075    99.9722     8.1553     0.0710     2.4826
  514.5000   -69.6472     7.3068     7.6839     7.7511     0.1183     0.2997   102.3785     8.1562     0.0605     2.4820
  515.0000   -69.6546     7.3549     7.7886     7.8584     0.1180     0.3005   105.6817     8.1571     0.0496     2.4836
  515.5000   -69.5087     7.4544     7.7859     7.9695     0.1156     0.3096   108.3870     8.1582     0.0398     2.4881
  516.0000   -69.5161     7.5035     7.7836     8.0840     0.1105     0.3111   112.2869     8.1591     0.0428     2.4933
  516.5000   -69.5220     7.5008     7.7817     8.1327     0.1075     0.3033   107.4653     8.1600     0.0489     2.4979
  517.0000   -69.5279     7.5503     7.7796     8.1885     0.1045     0.2997   104.7512     8.1609     0.0549     2.5017
  517.5000   -69.5338     7.4952     7.7240     8.2447     0.1045     0.3060   103.6614     8.1769     0.0535     2.5054
  518.0000   -69.5399     7.4412     7.6688     8.2440     0.1045     0.3135   104.2740     8.1778     0.0521     2.5077
  518.5000   -69.5459     7.3875     7.5097     8.1304     0.1048     0.3078   102.4987     8.2089     0.0597     2.5062
  519.0000   -69.4012     7.3342     7.4499     7.8540     0.1059     0.2964    99.8228     8.2098     0.0657     2.5025
  519.5000   -69.2568     7.2813     7.3008     7.6925     0.1080     0.2763   101.0333     8.1953     0.0733     2.4996
  520.0000   -69.2641     7.1791     7.1988     7.7452     0.1072     0.2823   101.9449     8.1964     0.0719     2.4989
  520.5000   -69.1182     7.0783     7.1474     7.7447     0.1008     0.2994   102.2586     8.1820     0.0704     2.5056
  521.0000   -68.9737     6.9789     7.1949     7.6909     0.0960     0.3084   102.5723     8.1680     0.0802     2.5117
  521.5000   -68.8293     6.9286     7.2433     7.6375     0.0969     0.3087   100.4943     8.1689     0.0990     2.5177
  522.0000   -68.6848     6.8786     7.1911     7.6390     0.1020     0.3003    97.8148     8.1698     0.1066     2.5177
  522.5000   -68.6922     6.8763     7.1397     7.8025     0.1089     0.2985    98.7300     8.1556     0.0842     2.5079
  523.0000   -68.5463     6.9695     7.2369     7.8497     0.1167     0.3027   101.1363     8.1565     0.0618     2.4951
  523.5000   -68.4018     7.1128     7.3355     7.7951     0.1235     0.3093   102.6458     8.1423     0.0380     2.4868
  524.0000   -68.2588     7.2092     7.4355     7.6876     0.1304     0.3280   102.6606     8.1585     0.0395     2.4685
  524.5000   -68.1143     7.3069     7.5888     7.7405     0.1310     0.3347   102.9746     8.1745     0.0351     2.4603
  525.0000   -67.8195     7.4059     7.7454     7.9018     0.1304     0.3213   102.9397     8.1754     0.0277     2.4596
  525.5000   -67.6652     7.5062     7.8548     8.1788     0.1292     0.3030    99.7188     8.1763     0.0218     2.4641
  526.0000   -67.3803     7.6079     8.0684     8.3494     0.1248     0.2991    97.0393     8.1772     0.0308     2.4702
  526.5000   -67.2358     7.7110     8.2343     8.4650     0.1195     0.3207    98.5524     8.1781     0.0594     2.4769
  527.0000   -66.9424     7.8148     8.3465     8.5232     0.1190     0.3293   100.0619     8.1789     0.0517     2.4822
