~VERSION INFORMATION
 VERS.                2.0:   CWLS LOG ASCII STANDARD - VERSION 2.0
 WRAP.                 NO:   ONE LINE PER DEPTH STEP
~WELL INFORMATION
#MNEM.UNIT      DATA TYPE    INFORMATION
#----------   ------------   ------------------------------
 STRT.F          714.0000:   START DEPTH
 STOP.F         1640.0000:   STOP DEPTH
 STEP.F            0.5000:   STEP LENGTH
 NULL.          -999.2500:   NO VALUE
 COMP. BROWN JOHN E&C INC:   COMPANY
 WELL. NPR 3 STX-15 #83-15:   WELL
 FLD .             TEAPOT:   FIELD
 LOC .      S15 T38N R78W:   LOCATION
 CNTY.            NATRONA:   COUNTY
 STAT.            WYOMING:   STATE
 CTRY. UNITED STATES OF AMERICA:   COUNTRY
 SRVC.            Unknown:   SERVICE COMPANY
 DATE.        30-AUG-1991:   LOGDATE
 API .       490251111300:   API NUMBER
~CURVE INFORMATION
#MNEM.UNIT       API CODE    CURVE DESCRIPTION
#----------   ------------   ------------------------------
 DEPT.F                  :   
 TGAS.UNITS  91 830 01 00:   TOTAL GAS FROM HOTWIRE
 C1  .VF     91 831 01 00:   METHANE
 C2  .VF     91 832 01 00:   ETHANE
 C3  .VF     91 833 01 00:   PROPANE
 C4  .VF     91 834 01 00:   BUTANE
 ROP .MIN/FT 91 810 01 00:   RAT OF DRILLING PENETRATION
~PARAMETER INFORMATION
#MNEM.UNIT          VALUE    DESCRIPTION
#----------   ------------   ------------------------------
 EKB .F              5265:   KELLING BUSHING
 EGL .F              5255:   GROUND LEVEL
 DATE.            5-30-91:   RUN DATE
 DD  .F              1626:   DEPTH DRILLER
 TCS .HRS            1200:   TIME CURCULATED STOPPED
 TLAB.HRS            1815:   TIME LOGGER AT BOTTOM
 ENGI.               HUSK:   RECORDING ENGINEER
 WITN.              TOWER:   WITNESSED BY
 CLNT.            A2DTECH:   CLIENT CODE
 ORIG.           5" PRINT:   ORIGIN OF DATA
 UWI .       490251111300:   UNIQUE WELL ID
 DICO. A2D Technologies, Inc.:   DIGITIZING COMPANY
~OTHER INFORMATION
~A   DEPT     TGAS         C1         C2         C3         C4          ROP 
# ...
 1078.0000   677.2087   419.6046  -999.2500     7.5143     1.3919     0.7980
 1078.5000   677.1336   419.7431  -999.2500     7.5092     1.3731     0.7987
 1079.0000   677.0584   419.8816  -999.2500     7.5040     1.3620     0.7994
 1079.5000   676.9833   420.0200  -999.2500     7.4989     1.3503     0.8001
 1080.0000   676.9081   420.1585  -999.2500     7.4937     1.3386     0.8007
 1080.5000   676.8329   420.2969  -999.2500     7.4886     1.3270     0.8014
 1081.0000   676.7578   420.4354  -999.2500     7.4834     1.3153     0.8021
 1081.5000   676.6826   420.5739  -999.2500     7.4782     1.3036     0.8028
 1082.0000   676.6074   420.7123  -999.2500     7.4731     1.2919     0.8034
 1082.5000   676.5323   420.8508  -999.2500     7.4679     1.2803     0.8041
 1083.0000   676.4571   420.9893  -999.2500     7.4628     1.2686     0.8048
 1083.5000   676.3819   421.1277  -999.2500     7.4576     1.2569     0.8055
 1084.0000   676.3068   421.2662  -999.2500     7.4525     1.2452     0.8061
 1084.5000   676.2316   421.4047  -999.2500     7.4473     1.2336     0.8068
 1085.0000   676.1564   421.5435  -999.2500     7.4422     1.2219     0.8076
 1085.5000   676.0812   421.6817  -999.2500     7.4371     1.2102     0.8084
 1086.0000   676.0061   421.7979  -999.2500     7.4321     1.1985     0.8009
 1086.5000   675.9309   421.7953  -999.2500     7.4272     1.1869     0.7263
 1087.0000   675.8558   421.7949  -999.2500     7.4222     1.1752     0.6507
 1087.5000   675.7806   421.7949  -999.2500     7.4173     1.1635     0.5753
 1088.0000   675.7053   421.7949  -999.2500     7.4123     1.1518     0.5083
 1088.5000   675.6274   421.7949  -999.2500     7.4074     1.1401     0.5084
 1089.0000   675.6099   421.7949  -999.2500     7.4024     1.1280     0.5095
 1089.5000   675.6096   421.7949  -999.2500     7.3975     1.1436     0.5104
 1090.0000   675.6097   421.7949  -999.2500     7.3925     1.1698     0.5112
 1090.5000   675.6097   421.7949  -999.2500     7.3876     1.1963     0.5120
 1091.0000   675.6097   421.7949  -999.2500     7.3826     1.2227     0.5129
 1091.5000   675.6097   421.7949  -999.2500     7.3777     1.2491     0.5137
 1092.0000   675.6097   421.7949  -999.2500     7.3727     1.2755     0.5145
 1092.5000   675.6097   421.7949  -999.2500     7.3678     1.3019     0.5153
 1093.0000   675.6097   421.7948  -999.2500     7.3629     1.3283     0.5162
 1093.5000   675.6097   421.7954  -999.2500     7.3579     1.3548     0.5170
 1094.0000   675.6097   421.7564  -999.2500     7.3530     1.3812     0.5178
 1094.5000   675.6097   421.6962  -999.2500     7.3480     1.4076     0.5186
 1095.0000   675.6097   421.6355  -999.2500     7.3431     1.4340     0.5190
 1095.5000   675.6097   421.5747  -999.2500     7.3381     1.4604     0.5207
 1096.0000   675.6097   421.5140  -999.2500     7.3332     1.4868     0.6091
 1096.5000   675.6097   421.4532  -999.2500     7.3282     1.5132     0.7083
 1097.0000   675.6097   421.3925  -999.2500     7.3233     1.5396     0.8075
 1097.5000   675.6097   421.3318  -999.2500     7.3183     1.5660     0.9065
 1098.0000   675.6097   421.2711  -999.2500     7.3134     1.5924     1.0063
 1098.5000   675.6097   421.2104  -999.2500     7.3084     1.6188     1.0337
 1099.0000   675.6097   421.1497  -999.2500     7.3035     1.6452     1.0335
 1099.5000   675.6097   421.0890  -999.2500     7.2985     1.6717     1.0326
 1100.0000   675.6097   421.0282  -999.2500     7.2936     1.6981     1.0319
 1100.5000   675.6097   420.9675  -999.2500     7.2886     1.7245     1.0312
 1101.0000   675.6097   420.9068  -999.2500     7.2837     1.7509     1.0305
 1101.5000   675.6097   420.8461  -999.2500     7.2787     1.7773     1.0298
 1102.0000   675.6097   420.7854  -999.2500     7.2738     1.8037     1.0291
 1102.5000   675.6097   420.7246  -999.2500     7.2688     1.8302     1.0284
 1103.0000   675.6097   420.6639  -999.2500     7.2639     1.8564     1.0277
 1103.5000   675.6097   420.6032  -999.2500     7.2590     1.8724     1.0270
 1104.0000   675.6097   420.5425  -999.2500     7.2540     1.8616     1.0263
 1104.5000   675.6097   420.4818  -999.2500     7.2491     1.8513     1.0256
 1105.0000   675.6097   420.4211  -999.2500     7.2441     1.8409     1.0249
 1105.5000   675.6097   420.3604  -999.2500     7.2392     1.8306     1.0242
 1106.0000   675.6097   420.2996  -999.2500     7.2342     1.8203     1.0236
 1106.5000   675.6097   420.2389  -999.2500     7.2293     1.8099     1.0229
 1107.0000   675.6097   420.1782  -999.2500     7.2243     1.7996     1.0222
 1107.5000   675.6097   420.1175  -999.2500     7.2194     1.7893     1.0215
 1108.0000   675.6097   420.0568  -999.2500     7.2144     1.7789     1.0208
 1108.5000   675.6097   419.9961  -999.2500     7.2095     1.7686     1.0201
 1109.0000   675.6097   419.9353  -999.2500     7.2045     1.7583     1.0194
 1109.5000   675.6097   419.8746  -999.2500     7.1994     1.7479     1.0187
 1110.0000   675.6097   419.8139  -999.2500     7.1962     1.7376     1.0180
 1110.5000   675.6097   419.7532  -999.2500     7.2155     1.7273     1.0173
 1111.0000   675.6097   419.6925  -999.2500     7.2343     1.7169     1.0166
 1111.5000   675.6097   419.6317  -999.2500     7.2530     1.7066     1.0159
 1112.0000   675.6097   419.5710  -999.2500     7.2717     1.6963     1.0152
 1112.5000   675.6097   419.5103  -999.2500     7.2904     1.6860     1.0145
 1113.0000   675.6097   419.4496  -999.2500     7.3091     1.6756     1.0138
 1113.5000   675.6097   419.3888  -999.2500     7.3278     1.6653     1.0131
 1114.0000   675.6097   419.3281  -999.2500     7.3465     1.6550     1.0124
 1114.5000   675.6097   419.2678  -999.2500     7.3652     1.6446     1.0117
 1115.0000   675.6097   419.2303  -999.2500     7.3839     1.6343     1.0110
 1115.5000   675.6097   419.2308  -999.2500     7.4026     1.6250     1.0103
 1116.0000   675.6069   419.2307  -999.2500     7.4212     1.6250     1.0087
 1116.5000   675.5478   419.2308  -999.2500     7.4399     1.6250     1.0557
 1117.0000   675.1776   419.2308  -999.2500     7.4586     1.6250     1.1212
 1117.5000   691.3093   419.2308  -999.2500     7.4773     1.6250     1.1874
 1118.0000   709.9733   419.2308  -999.2500     7.4960     1.6250     1.2536
 1118.5000   728.7114   419.2308  -999.2500     7.5147     1.6250     1.2994
 1119.0000   747.3881   419.2308  -999.2500     7.5334     1.6250     1.1997
 1119.5000   766.1285   419.2308  -999.2500     7.5521     1.6250     1.0977
 1120.0000   783.2753   419.2308  -999.2500     7.5708     1.6250     1.0418
 1120.5000   787.8450   419.2308  -999.2500     7.5895     1.6250     1.0360
 1121.0000   787.8296   419.2308  -999.2500     7.6082     1.6250     1.0418
 1121.5000   787.8133   419.2308  -999.2500     7.6269     1.6250     1.0476
 1122.0000   787.8049   419.2308  -999.2500     7.6455     1.6250     1.0533
 1122.5000   787.8049   419.2308  -999.2500     7.6642     1.6250     1.0590
 1123.0000   787.8049   419.2308  -999.2500     7.6829     1.6250     1.0647
 1123.5000   787.8049   419.2308  -999.2500     7.7016     1.6250     1.0704
 1124.0000   787.8049   419.2308  -999.2500     7.7203     1.6250     1.0761
 1124.5000   787.8049   419.2308  -999.2500     7.7390     1.6250     1.0818
 1125.0000   787.8049   419.2308  -999.2500     7.7577     1.6250     1.0875
 1125.5000   787.8049   419.2308  -999.2500     7.7764     1.6250     1.0932
 1126.0000   787.8049   419.2308  -999.2500     7.7951     1.6250     1.0989
 1126.5000   787.8049   419.2308  -999.2500     7.8137     1.6250     1.1046
 1127.0000   787.8049   419.2308  -999.2500     7.8324     1.6250     1.1085
 1127.5000   787.8049   419.2308  -999.2500     7.8511     1.6250     1.0976
 1128.0000   787.8049   419.2308  -999.2500     7.8698     1.6250     1.0865
 1128.5000   787.8049   419.2308  -999.2500     7.8885     1.6250     1.0752
 1129.0000   787.8049   419.2308  -999.2500     7.9072     1.6250     1.0722
 1129.5000   787.8049   419.2308  -999.2500     7.9259     1.6250     1.0826
