~VERSION INFORMATION
 VERS.                2.0:   CWLS LOG ASCII STANDARD - VERSION 2.0
 WRAP.                 NO:   ONE LINE PER DEPTH STEP
~WELL INFORMATION
#MNEM.UNIT      DATA TYPE    INFORMATION
#----------   ------------   ------------------------------
 STRT.F           70.0000:   START DEPTH
 STOP.F          960.0000:   STOP DEPTH
 STEP.F            0.5000:   STEP LENGTH
 NULL.          -999.2500:   NO VALUE
 COMP. U S NAVY/INTEX OIL CO:   COMPANY
 WELL.      NPR 3 #26S-35:   WELL
 FLD .             TEAPOT:   FIELD
 LOC .      S35 T39N R78W:   LOCATION
 CNTY.            NATRONA:   COUNTY
 STAT.            WYOMING:   STATE
 CTRY. UNITED STATES OF AMERICA:   COUNTRY
 SRVC.         Lane Wells:   SERVICE COMPANY
 DATE.        19-MAR-1960:   LOGDATE
 API .       490250651600:   API NUMBER
~CURVE INFORMATION
#MNEM.UNIT       API CODE    CURVE DESCRIPTION
#----------   ------------   ------------------------------
 DEPT.F                  :   
 ASN .OHMM   05 041 16 00:   AMPLIFIED SHORT NORMAL 16"
 ILD .OHMM   05 120 46 00:   INDUCTION LOG DEEP
 CILD.MMHO   05 110 00 00:   CONDUCTIVITY INDUCTION LOG
 SPR .MV     05 010 01 00:   SPONTANEOUS POTENTIAL FROM RES.
~PARAMETER INFORMATION
#MNEM.UNIT          VALUE    DESCRIPTION
#----------   ------------   ------------------------------
 PD  .                 GL:   PERMANENT DATUM
 EPD .F              5095:   ELEVATION PERMANENT DATUM
 LMF .                 KB:   LOG MEASURED FROM
 DAPD.F                 5:   FEET ABOVE PERMANENT DATUM
 DMF .                 KB:   DRILLING MEASURED FROM
 EKB .F              5101:   KELLING BUSHING
 EGL .F              9096:   GROUND LEVEL
 DATE.          3-19-1960:   RUN DATE
 RUN .                  1:   RUN NUMBER
 DD  .F               977:   DEPTH DRILLER
 DL  .F               959:   DEPTH LOGGER
 BLI .F               957:   BOTTOM LOG INTERVAL
 TLI .F                70:   TOP LOG INTERVAL
 CS  .IN            8.625:   CASING SIZE
 CBD .F                12:   CASING BOTTOM DRILLER
 BS  .IN            7.875:   BIT SIZE
 BSD .F               977:   BIT SIZE AT DEPTH
 DFT .   GEL-OIL EMULSION:   DRILLING FLUID TYPE
 DFD .                9.4:   DRILLING FLUID DENSITY
 DFV .                 40:   DRILLING FLUID VISCOSITY
 DFPH.                7.5:   DRILLING FLUID PH
 DFL .                8.2:   DRILLING FLUID LOSS
 MSS .           FLOWLINE:   MUD SAMPLE SOURCE
 RMS .OHMM            2.2:   RESISTIVITY MUD SAMPLE
 MST .F                64:   MUD SAMPLE TEMPERATURE
 RMF .OHMM            1.5:   RESISTIVITY MUD FILTRATE SAMPLE
 MFST.F                64:   MUD FILTRATE SAMPLE TEMPERATURE
 RMC .OHMM            3.1:   RESISTIVITY MUD CAKE
 MCST.F                64:   MUD CAKE SAMPLE TEMPERATURE
 MFSS.                MUD:   MUD FILTRATE SAMPLE SOURCE
 MCSS.              PRESS:   MUD CAKE SAMPLE SOURCE
 RMB .OHMM            2.0:   RESISTIVITY MUD AT BHT
 BHT .F                71:   BOTTOM HOLE TEMPERATURE
 MRT .F                71:   MAXIMUM RECORDED TEMPERATURE
 LUN .             L-4474:   LOGGING UNIT NUMBER
 LUL .             CASPER:   LOGGING UNIT LOCATION
 ENGI.             NELSON:   RECORDING ENGINEER
 WITN.          JORGENSBN:   WITNESSED BY
 CLNT.            A2DTECH:   CLIENT CODE
 ORIG.      2" & 5" PRINT:   ORIGIN OF DATA
 UWI .       490250651600:   UNIQUE WELL ID
 DICO. A2D Technologies, Inc.:   DIGITIZING COMPANY
~OTHER INFORMATION
~A   DEPT        ASN        ILD      CILD       SPR   
# ...
  362.0000     4.3522     3.6370   312.9518   -41.4783
  362.5000     4.5420     3.7894   300.6885   -41.2839
  363.0000     4.7932     3.9396   290.2840   -41.0909
  363.5000     5.0199     4.0940   279.8795   -40.8948
  364.0000     5.2456     4.2363   271.0331   -40.7062
  364.5000     5.4704     4.3573   262.8396   -40.5029
  365.0000     5.8081     4.4708   254.6461   -40.3267
  365.5000     5.9552     4.5744   246.4526   -40.0952
  366.0000     6.0684     4.6822   239.4626   -40.1486
  366.5000     6.1352     4.7870   232.9078   -40.4353
  367.0000     6.1671     4.9047   227.9319   -40.6757
  367.5000     6.1374     4.9223   227.6152   -40.9430
  368.0000     6.1128     4.9180   227.2986   -41.1974
  368.5000     6.0871     4.9199   226.9819   -41.4552
  369.0000     6.0614     4.9187   226.6653   -41.7177
  369.5000     6.0353     4.9193   226.3486   -41.9662
  370.0000     6.0078     4.9189   226.0320   -42.2468
  370.5000     5.9758     4.9188   225.7153   -42.3713
  371.0000     5.9742     4.9187   225.3986   -42.1942
  371.5000     5.9774     4.9185   225.0820   -42.0164
  372.0000     5.9796     4.9188   224.7653   -41.8303
  372.5000     5.9823     4.9181   224.3976   -41.6492
  373.0000     5.9847     4.9193   223.3795   -41.4651
  373.5000     5.9870     4.9167   222.1657   -41.2831
  374.0000     5.9941     4.9358   220.9518   -41.0989
  374.5000     6.0665     4.9864   219.7379   -40.9183
  375.0000     6.1696     5.0351   217.2332   -40.7306
  375.5000     6.3091     5.0853   212.5512   -40.5764
  376.0000     6.4710     5.1347   207.9326   -40.6623
  376.5000     6.6300     5.1844   202.7728   -40.7802
  377.0000     6.7929     5.2344   201.6729   -40.8896
  377.5000     6.8806     5.2837   200.4342   -41.0055
  378.0000     6.9605     5.3346   199.0834   -41.1136
  378.5000     7.0441     5.3823   198.3742   -41.2340
  379.0000     7.1253     5.4365   197.6031   -41.2797
  379.5000     7.2098     5.4663   198.1540   -41.2086
  380.0000     7.2774     5.5051   200.3827   -41.1425
  380.5000     7.1595     5.5355   202.5851   -41.0725
  381.0000     7.0247     5.3613   204.7801   -41.0048
  381.5000     6.8779     5.1569   211.8920   -40.9359
  382.0000     6.7634     4.9526   224.5913   -40.8675
  382.5000     6.4219     4.7574   243.4756   -40.7989
  383.0000     5.8452     4.4883   268.9603   -40.7304
  383.5000     5.2957     4.1425   294.4588   -40.6617
  384.0000     4.7389     3.8069   330.7039   -40.5934
  384.5000     4.1826     3.4692   376.4836   -40.5241
  385.0000     3.6270     3.1271   422.2633   -40.4567
  385.5000     3.0706     2.7973   466.5663   -40.3858
  386.0000     2.6230     2.4421   489.6575   -40.3213
  386.5000     2.4753     2.2815   512.0271   -40.2438
  387.0000     2.3333     2.3034   534.3967   -40.2198
  387.5000     2.4697     2.2869   544.2771   -40.4607
  388.0000     2.7337     2.3032   503.8445   -40.7060
  388.5000     3.1734     2.2807   465.7736   -40.9489
  389.0000     3.6958     2.3445   427.7026   -41.1935
  389.5000     4.9528     2.6546   389.6317   -41.4356
  390.0000     6.1121     3.2739   351.5608   -41.6818
  390.5000     7.1476     6.0189   307.0223   -41.9209
  391.0000     7.9268     8.6119   258.2253   -42.1741
  391.5000     8.4816     9.1881   215.3615   -42.3550
  392.0000     8.9462     9.5207   201.9415   -42.3104
  392.5000     9.3434     9.5753   189.9763   -42.2581
  393.0000     9.3764     9.6431   178.0112   -42.2051
  393.5000     9.2204     9.4949   174.3848   -42.1538
  394.0000     9.1017     8.3887   175.2952   -42.1000
  394.5000     8.8738     7.3078   178.0151   -42.0508
  395.0000     8.0709     6.2383   190.1958   -41.9899
  395.5000     7.0006     5.1760   206.5828   -41.8364
  396.0000     6.1772     4.6764   222.9699   -41.6974
  396.5000     5.4698     4.5366   239.3569   -41.5517
  397.0000     5.2926     4.4288   244.2771   -41.4198
  397.5000     5.3527     4.6886   238.7990   -41.2616
  398.0000     5.9135     5.0913   235.2410   -41.1551
  398.5000     6.6745     5.4410   217.1839   -41.0427
  399.0000     7.4236     5.8127   202.3631   -41.5837
  399.5000     8.1628     6.1722   187.5927   -42.4642
  400.0000     8.7778     6.5379   172.9286   -43.1945
  400.5000     9.3601     6.8999   158.2052   -43.9973
  401.0000     9.9332     7.2634   139.7806   -44.7456
  401.5000    10.5226     7.6260   135.0972   -45.5515
  402.0000    10.6923     7.9893   128.8687   -46.2746
  402.5000    10.9208     8.3513   122.6476   -47.1696
  403.0000    11.2220     8.7608   116.3235   -47.5354
  403.5000    11.4977     9.1182   108.7349   -47.0491
  404.0000    11.7258     9.5534   106.5703   -46.5843
  404.5000    11.9526     9.9552   103.7520   -46.0698
  405.0000    12.1781    10.4293   100.9337   -45.5835
  405.5000    12.3736    10.7631    98.1155   -45.0816
  406.0000    12.4921    10.8704    95.7048   -44.5870
  406.5000    12.6105    11.0315    94.3460   -44.0615
  407.0000    12.7287    11.1671    92.9872   -43.9852
  407.5000    12.8656    11.3165    91.6284   -44.0053
  408.0000    12.9977    11.4586    90.2696   -43.9920
  408.5000    13.1548    11.6042    88.9108   -44.0063
  409.0000    13.3092    11.7634    87.5520   -43.9834
  409.5000    13.4649    11.9010    86.1932   -44.1376
  410.0000    13.6201    12.0565    84.8343   -44.5559
  410.5000    13.7754    12.2114    83.4755   -44.9592
  411.0000    13.9481    12.3666    82.1167   -45.3783
  411.5000    14.0493    12.5215    80.7579   -45.7797
  412.0000    14.1682    12.6766    79.6592   -46.2057
  412.5000    14.2763    12.8314    79.1416   -46.5902
  413.0000    14.4064    12.9869    78.6239   -47.0601
  413.5000    14.5580    13.1408    78.1063   -47.1735
  414.0000    14.7430    13.3009    77.5886   -46.8069
  414.5000    14.9229    13.5021    77.0710   -46.5051
  415.0000    15.1035    13.7759    76.5534   -46.1636
  415.5000    15.2842    14.0637    75.7609   -45.8634
  416.0000    15.4655    14.3450    74.4021   -45.9984
  416.5000    15.6660    14.6341    73.0433   -46.2287
  417.0000    15.9161    14.9105    71.6845   -46.4356
  417.5000    16.2093    15.2165    70.3257   -46.6559
  418.0000    16.4984    15.4846    68.9669   -46.8659
  418.5000    16.7880    15.7076    67.6081   -47.0882
  419.0000    17.0787    15.9541    66.2493   -47.2912
  419.5000    17.3735    16.1957    64.8904   -47.5312
  420.0000    17.6676    16.4317    63.5316   -47.5953
  420.5000    17.9663    16.6919    62.1728   -47.4697
  421.0000    18.2820    16.8920    60.8140   -47.3620
  421.5000    18.6496    16.9984    60.0205   -47.2620
  422.0000    18.8121    17.1387    60.2470   -47.1229
  422.5000    19.0197    17.2500    60.4735   -47.2184
  423.0000    19.0540    17.4049    60.6999   -47.5312
  423.5000    18.8349    17.3959    60.9264   -47.8574
  424.0000    18.6464    17.1748    61.1529   -47.9585
  424.5000    18.4404    16.9595    61.3793   -47.5095
  425.0000    18.2442    16.7641    61.6058   -47.6530
  425.5000    18.0426    16.6344    61.8986   -47.8773
  426.0000    17.8443    16.4633    62.3012   -48.0866
  426.5000    17.6445    16.3597    62.7038   -48.3024
  427.0000    17.4438    16.1222    63.1064   -48.5153
  427.5000    17.2403    15.8042    63.5542   -48.7050
  428.0000    17.0258    15.5065    65.3414   -48.6422
  428.5000    16.7921    15.1988    67.3544   -48.5919
  429.0000    16.5560    14.8966    69.3675   -48.3234
  429.5000    16.3166    14.5920    71.3805   -47.8444
  430.0000    16.0784    14.2879    73.3936   -47.4156
  430.5000    15.8408    13.9845    75.4066   -46.9545
  431.0000    15.6036    13.6791    77.4197   -46.5617
  431.5000    15.3607    13.3794    79.4327   -46.3840
  432.0000    15.0746    13.0260    81.6265   -46.2511
  432.5000    14.7084    12.2712    87.3983   -46.0889
  433.0000    14.3173    11.3973    94.2771   -45.9746
  433.5000    13.5178    10.5420   104.8892   -45.7352
  434.0000    12.6567     9.6803   116.4843   -45.0809
  434.5000    11.7871     8.8158   128.0795   -44.0303
