~VERSION INFORMATION
 VERS.                2.0:   CWLS LOG ASCII STANDARD - VERSION 2.0
 WRAP.                 NO:   ONE LINE PER DEPTH STEP
~WELL INFORMATION
#MNEM.UNIT      DATA TYPE    INFORMATION
#----------   ------------   ------------------------------
 STRT.F           36.0000:   START DEPTH
 STOP.F         2324.5000:   STOP DEPTH
 STEP.F            0.5000:   STEP LENGTH
 NULL.          -999.2500:   NO VALUE
 COMP. FENIX & SCISSON INC:   COMPANY
 WELL.           SX #57-3:   WELL
 FLD .             TEAPOT:   FIELD
 LOC .       S3 T38N R78W:   LOCATION
 CNTY.            NATRONA:   COUNTY
 STAT.            WYOMING:   STATE
 CTRY. UNITED STATES OF AMERICA:   COUNTRY
 SRVC.           BIRDWELL:   SERVICE COMPANY
 DATE.        15-JUN-1978:   LOGDATE
 API .       490251028800:   API NUMBER
~CURVE INFORMATION
#MNEM.UNIT       API CODE    CURVE DESCRIPTION
#----------   ------------   ------------------------------
 DEPT.F                  :   
 CALD.IN     45 280 60 00:   CALIPER FROM DENSITY LOG
 GRD .GAPI   45 310 01 00:   GAMMA RAY FROM DENSITY LOG
 CORR.G/C3   45 356 01 00:   DENSITY CORRECTION
 RHOB.G/C3   45 350 01 00:   BULK DENSITY
 DPHI.DEC    45 890 12 00:   DENSITY POROSITY SANDSTONE
 SPR .MV     07 010 01 00:   SPONTANEOUS POTENTIAL
 ILD .OHMM   07 120 46 00:   INDUCTION LOG DEEP
 ILM .OHMM   07 120 44 00:   INDUCTION LOG MEDIUM
 SGRD.OHMM   07 220 05 00:   SHALLOW GUARD RESISTIVITY
~PARAMETER INFORMATION
#MNEM.UNIT          VALUE    DESCRIPTION
#----------   ------------   ------------------------------
 PD  .                 GL:   PERMANENT DATUM
 EPD .F              5184:   ELEVATION PERMANENT DATUM
 LMF .                 KB:   LOG MEASURED FROM
 DAPD.F                10:   FEET ABOVE PERMANENT DATUM
 DMF .                 KB:   DRILLING MEASURED FROM
 EKB .F              5184:   KELLING BUSHING
 EGL .F              5184:   GROUND LEVEL
 DATE.            6-15-78:   RUN DATE
 RUN .                  1:   RUN NUMBER
 DD  .F              2340:   DEPTH DRILLER
 DL  .F              2324:   DEPTH LOGGER
 BLI .F              2324:   BOTTOM LOG INTERVAL
 TLI .F                50:   TOP LOG INTERVAL
 CS  .IN            9.625:   CASING SIZE
 CBD .F               600:   CASING BOTTOM DRILLER
 CBL .F               601:   CASING BOTTOM LOGGER
 BS  .IN             8.75:   BIT SIZE
 BSD .F              2340:   BIT SIZE AT DEPTH
 DFT .           AIR MIST:   DRILLING FLUID TYPE
 BHT .F                68:   BOTTOM HOLE TEMPERATURE
 MRT .F                68:   MAXIMUM RECORDED TEMPERATURE
 LUN .               2958:   LOGGING UNIT NUMBER
 LUL .               CASP:   LOGGING UNIT LOCATION
 ENGI.           REYNOLDS:   RECORDING ENGINEER
 WITN.           MCGINLEY:   WITNESSED BY
 CLNT.            A2DTECH:   CLIENT CODE
 ORIG.   2" 2.5" 5" PRINT:   ORIGIN OF DATA
 UWI .       490251028800:   UNIQUE WELL ID
 DICO. A2D Technologies, Inc.:   DIGITIZING COMPANY
~OTHER INFORMATION
~A   DEPT       CALD      GRD        CORR      RHOB         DPHI      SPR        ILD        ILM       SGRD   
   36.0000     7.8948   120.5357    -0.2547  -999.2500     0.2906  -999.2500  -999.2500  -999.2500  -999.2500
   36.5000     7.8944   116.9568    -0.2240  -999.2500     0.2910  -999.2500  -999.2500  -999.2500  -999.2500
   37.0000     7.8916   120.7749    -0.1831  -999.2500     0.2910  -999.2500  -999.2500  -999.2500  -999.2500
   37.5000     7.8888   122.5730    -0.1423  -999.2500     0.2904  -999.2500  -999.2500  -999.2500  -999.2500
   38.0000     7.8867   124.3963    -0.1102  -999.2500     0.2877  -999.2500  -999.2500  -999.2500  -999.2500
   38.5000     7.8839   127.9967    -0.0666  -999.2500     0.2827  -999.2500  -999.2500  -999.2500  -999.2500
   39.0000     7.8811   135.8402    -0.0220  -999.2500     0.2685  -999.2500  -999.2500  -999.2500  -999.2500
   39.5000     7.8783   143.9805     0.0249  -999.2500     0.2543  -999.2500  -999.2500  -999.2500  -999.2500
   40.0000     7.8756   148.9272     0.0038  -999.2500     0.2380  -999.2500  -999.2500  -999.2500  -999.2500
   40.5000     7.8715   150.4143     0.0003  -999.2500     0.1947  -999.2500  -999.2500  -999.2500  -999.2500
   41.0000     7.8675   152.2133     0.0176  -999.2500     0.1495  -999.2500  -999.2500  -999.2500  -999.2500
   41.5000     7.8633   154.1773     0.0329     2.4252     0.1276  -999.2500  -999.2500  -999.2500  -999.2500
   42.0000     7.8592   154.7482     0.0347     2.4387     0.1229  -999.2500     0.3632     3.2112    31.7125
   42.5000     7.8554   155.3261     0.0371     2.4491     0.1182    -5.4229     0.2900     5.5285    37.4437
   43.0000     7.8609   155.4357     0.0398     2.4663     0.1136    -0.5000     0.2649     6.0327   107.2524
   43.5000     7.8667   153.3728     0.0426     2.4638     0.1089     0.3093     0.3002     6.0624   248.9028
   44.0000     7.8726   151.4174     0.0451     2.4678     0.1059     0.3785     0.4607     6.0327  2000.0000
   44.5000     7.8699   150.9719     0.0483     2.4718     0.1034     0.4185     0.9114     6.9303  2000.0000
   45.0000     7.8614   152.7635     0.0489     2.4757     0.1014     0.4571     1.8365     7.6386    42.3401
   45.5000     7.8529   154.5136     0.0496     2.4797     0.0998     0.4985     5.1102     8.1516  1974.5818
   46.0000     7.8443   152.3407     0.0503     2.4820     0.0984     0.5399     5.9773     8.6990  -999.2500
   46.5000     7.8357   150.8543     0.0509     2.4835     0.0974     0.5817     6.0015     9.1346  -999.2500
   47.0000     7.8444   151.2119     0.0516     2.4850     0.0962     0.6270     6.0247     9.1346  -999.2500
   47.5000     7.8608   154.0366     0.0523     2.4858     0.0970     0.6665     6.0697     8.9132  -999.2500
   48.0000     7.8773   158.9507     0.0543     2.4784     0.0999     0.4185     7.2933     8.7087  -999.2500
   48.5000     7.8941   163.8073     0.0565     2.4734     0.1028    -1.6010     8.4072     8.5637  -999.2500
   49.0000     7.8868   165.5262     0.0587     2.4755     0.1015  -999.2500     8.1620     8.8408  -999.2500
   49.5000     7.8776   166.3493     0.0604     2.4774     0.0991  -999.2500     7.9749     9.1346  -999.2500
   50.0000     7.8686   162.2601     0.0603     2.4793     0.0988  -999.2500     7.7920     9.0097  -999.2500
   50.5000     7.8597   158.1175     0.0603     2.4812     0.0996  -999.2500     7.6668     8.8719  -999.2500
   51.0000     7.8588   153.9962     0.0594     2.4759     0.1013  -999.2500     8.5944     8.7362  -999.2500
   51.5000     7.8658   151.9547     0.0557     2.4686     0.1055  -999.2500     9.1346     8.6011  -999.2500
   52.0000     7.8729   152.4355     0.0522     2.4610     0.1123  -999.2500     7.7650     8.4044  -999.2500
   52.5000     7.8800   153.3920     0.0485     2.4605     0.1115  -999.2500     7.0856     8.4095  -999.2500
   53.0000     7.8872   154.3612     0.0481     2.4624     0.1099  -999.2500     6.7891     8.3062  -999.2500
   53.5000     7.8945   154.9388     0.0465     2.4645     0.1081  -999.2500     6.6766     8.2298   434.8779
   54.0000     7.8869   152.5984     0.0448     2.4683     0.1058  -999.2500     6.6766     8.1541    35.7505
   54.5000     7.8781   149.7281     0.0453     2.4721     0.1035  -999.2500     6.7112     8.1017    34.0343
   55.0000     7.8693   148.6823     0.0465     2.4759     0.1011  -999.2500     6.7598     8.1030   511.0416
   55.5000     7.8605   148.4160     0.0478     2.4798     0.0988  -999.2500     6.8088     8.2326  2000.0000
   56.0000     7.8517   147.3870     0.0490     2.4839     0.0976  -999.2500     6.8581     8.3507  2000.0000
   56.5000     7.8429   146.5408     0.0503     2.4809     0.0988  -999.2500     6.9078     8.4702  1872.1489
   57.0000     7.8354   147.5460     0.0498     2.4769     0.1003  -999.2500     6.9578     8.5914  1412.3994
   57.5000     7.8392   148.6410     0.0492     2.4755     0.1019  -999.2500     6.9920     8.7144  1482.1763
   58.0000     7.8435   147.7525     0.0486     2.4741     0.1036  -999.2500     6.9914     8.8392  1255.5320
   58.5000     7.8478   149.1677     0.0490     2.4753     0.1019    -6.2463     7.0297     8.9657  1441.7430
   59.0000     7.8520   150.4493     0.0510     2.4796     0.0987     0.3927     7.0547     9.0940  1144.9532
   59.5000     7.8563   151.8632     0.0530     2.4840     0.0955    -0.0402     7.0798     9.2242  1241.6465
   60.0000     7.8606   153.8987     0.0550     2.4897     0.0923    -4.4497     7.1050     9.3562  1314.7640
   60.5000     7.8648   157.5050     0.0570     2.4957     0.0891    -7.9803     7.1303     9.3927  1144.9532
   61.0000     7.8691   158.8653     0.0590     2.5018     0.0859    -1.4622     7.1557     9.4100  1278.5774
   61.5000     7.8734   159.8083     0.0610     2.5036     0.0844  -999.2500     7.1812     9.4266  1388.4132
   62.0000     7.8776   155.2264     0.0624     2.5047     0.0844  -999.2500     7.2067     9.4434  1470.3903
   62.5000     7.8819   151.8473     0.0591     2.5006     0.0881  -999.2500     7.2323     9.4600  1144.9532
   63.0000     7.8861   153.9616     0.0549     2.4891     0.0949  -999.2500     7.2541     9.4777  1515.4775
   63.5000     7.8905   151.9500     0.0507     2.4781     0.1016  -999.2500     7.2402     9.4547  2000.0000
   64.0000     7.8946   148.9867     0.0465     2.4672     0.1083  -999.2500     7.2280     9.4244  -999.2500
   64.5000     7.8898   147.9290     0.0422     2.4562     0.1146  -999.2500     7.2159     9.3941  -999.2500
   65.0000     7.8843   146.9683     0.0404     2.4483     0.1187  -999.2500     7.2038     9.3638  -999.2500
   65.5000     7.8790   146.5981     0.0404     2.4460     0.1199  -999.2500     7.1917     9.3337  -999.2500
   66.0000     7.8736   147.4049     0.0404     2.4433     0.1196  -999.2500     7.1796     9.3037  -999.2500
   66.5000     7.8682   147.3706     0.0400     2.4459     0.1194  -999.2500     7.1676     9.2736  -999.2500
   67.0000     7.8628   145.7868     0.0391     2.4479     0.1191  -999.2500     7.1556     9.2439  -999.2500
   67.5000     7.8575   144.2496     0.0381     2.4502     0.1183  -999.2500     7.1433     9.2192  -999.2500
   68.0000     7.8556   143.0023     0.0372     2.4567     0.1145  -999.2500     7.1245     9.3793  -999.2500
   68.5000     7.8564   143.5260     0.0364     2.4635     0.1105  -999.2500     7.1187     9.5913  -999.2500
   69.0000     7.8572   142.3980     0.0380     2.4706     0.1054  -999.2500     7.2903     9.8081  -999.2500
   69.5000     7.8580   141.1514     0.0397     2.4779     0.0984  -999.2500     7.4291    10.0298  -999.2500
   70.0000     7.8588   139.9071     0.0400     2.4834     0.0971  -999.2500     7.5689    10.2565  -999.2500
   70.5000     7.8596   139.9189     0.0388     2.4782     0.1009  -999.2500     7.7111    10.4883  -999.2500
   71.0000     7.8604   141.3356     0.0377     2.4732     0.1038  -999.2500     7.8561    10.7212  -999.2500
   71.5000     7.8612   142.7085     0.0366     2.4698     0.1050  -999.2500     8.0037    11.0809  -999.2500
   72.0000     7.8620   141.5243     0.0355     2.4681     0.1061  -999.2500     8.1542    11.6090  -999.2500
