~VERSION INFORMATION
 VERS.                2.0:   CWLS LOG ASCII STANDARD - VERSION 2.0
 WRAP.                 NO:   ONE LINE PER DEPTH STEP
~WELL INFORMATION
#MNEM.UNIT      DATA TYPE    INFORMATION
#----------   ------------   ------------------------------
 STRT.F           22.0000:   START DEPTH
 STOP.F          564.0000:   STOP DEPTH
 STEP.F            0.5000:   STEP LENGTH
 NULL.          -999.2500:   NO VALUE
 COMP.    FENIX & SCISSON:   COMPANY
 WELL. NPR # #3 12 - SX 11:   WELL
 FLD .             TEAPOT:   FIELD
 LOC .      S11 T38N R78W:   LOCATION
 CNTY.            NATRONA:   COUNTY
 STAT.            WYOMING:   STATE
 CTRY. UNITED STATES OF AMERICA:   COUNTRY
 SRVC.           BIRDWELL:   SERVICE COMPANY
 DATE.        29-NOV-1978:   LOGDATE
 API .       490251075500:   API NUMBER
~CURVE INFORMATION
#MNEM.UNIT       API CODE    CURVE DESCRIPTION
#----------   ------------   ------------------------------
 DEPT.F                  :   
 ILD .OHMM   05 120 46 00:   INDUCTION LOG DEEP
 SN  .OHMM   05 040 00 00:   SHORT NORMAL
 SPR .MV     05 010 01 00:   SPONTANEOUS POTENTIAL FROM RES.
 CALD.IN     45 280 60 00:   CALIPER FROM DENSITY LOG
 CORR.G/C3   45 356 01 00:   DENSITY CORRECTION
 DPHI.DEC    45 890 12 00:   DENSITY POROSITY SANDSTONE
 GRD .GAPI   45 310 01 00:   GAMMA RAY FROM DENSITY LOG
 RHOB.G/C3   45 350 01 00:   BULK DENSITY
~PARAMETER INFORMATION
#MNEM.UNIT          VALUE    DESCRIPTION
#----------   ------------   ------------------------------
 PD  .                 GL:   PERMANENT DATUM
 EPD .F              5143:   ELEVATION PERMANENT DATUM
 LMF .                 KB:   LOG MEASURED FROM
 DAPD.F                 4:   FEET ABOVE PERMANENT DATUM
 DMF .                 KB:   DRILLING MEASURED FROM
 EKB .F              5147:   KELLING BUSHING
 EGL .F              5143:   GROUND LEVEL
 DATE.        29-NOV-1978:   RUN DATE
 RUN .                  1:   RUN NUMBER
 DD  .F               562:   DEPTH DRILLER
 DL  .F               564:   DEPTH LOGGER
 BLI .F               564:   BOTTOM LOG INTERVAL
 TLI .F                30:   TOP LOG INTERVAL
 CS  .IN            8.625:   CASING SIZE
 CBL .F                48:   CASING BOTTOM LOGGER
 BS  .IN            7.875:   BIT SIZE
 BSD .F               562:   BIT SIZE AT DEPTH
 DFT .                KCL:   DRILLING FLUID TYPE
 DFD .                8.7:   DRILLING FLUID DENSITY
 DFV .                 36:   DRILLING FLUID VISCOSITY
 DFPH.               10.9:   DRILLING FLUID PH
 DFL .                 12:   DRILLING FLUID LOSS
 MSS .           FLOWLINE:   MUD SAMPLE SOURCE
 RMS .OHMM           0.34:   RESISTIVITY MUD SAMPLE
 MST .F                56:   MUD SAMPLE TEMPERATURE
 RMF .OHMM           0.32:   RESISTIVITY MUD FILTRATE SAMPLE
 MFST.F                59:   MUD FILTRATE SAMPLE TEMPERATURE
 RMC .OHMM            0.4:   RESISTIVITY MUD CAKE
 MCST.F                59:   MUD CAKE SAMPLE TEMPERATURE
 MFSS.               MEAS:   MUD FILTRATE SAMPLE SOURCE
 MCSS.               MEAS:   MUD CAKE SAMPLE SOURCE
 RMB .OHMM           0.33:   RESISTIVITY MUD AT BHT
 BHT .F                59:   BOTTOM HOLE TEMPERATURE
 TCS .HRS               1:   TIME CURCULATED STOPPED
 MRT .F                59:   MAXIMUM RECORDED TEMPERATURE
 LUN .               2958:   LOGGING UNIT NUMBER
 LUL .               CASP:   LOGGING UNIT LOCATION
 ENGI.             MILLER:   RECORDING ENGINEER
 WITN.           DINSMORE:   WITNESSED BY
 CLNT.            A2DTECH:   CLIENT CODE
 ORIG.           5" PRINT:   ORIGIN OF DATA
 UWI .       490251075500:   UNIQUE WELL ID
 DICO. A2D Technologies, Inc.:   DIGITIZING COMPANY
~OTHER INFORMATION
~A   DEPT      ILD         SN        SPR       CALD       CORR       DPHI         GRD      RHOB   
# ...
  184.0000    12.1546    12.1081   -22.1719     8.2380     0.0126     0.1372    90.9830     2.4527
  184.5000    11.9856    12.0228   -22.1719     8.2550     0.0081     0.1351    93.1239     2.4580
  185.0000    11.9840    12.0211   -22.1719     8.2545     0.0081     0.1372    94.4361     2.4625
  185.5000    11.9824    12.0175   -22.0211     8.2100     0.0066     0.1438    95.9601     2.4587
  186.0000    11.9807    11.9281   -22.0211     8.1807     0.0067     0.1456    97.6883     2.4482
  186.5000    11.9791    11.9331   -22.0211     8.1966     0.0067     0.1465    98.9086     2.4452
  187.0000    11.9774    11.9311   -21.8703     8.2124     0.0052     0.1462    96.8760     2.4437
  187.5000    11.9828    11.8470   -22.0211     8.2433     0.0038     0.1459    93.8718     2.4437
  188.0000    11.9742    11.7635   -22.3228     8.2440     0.0038     0.1453    91.9210     2.4437
  188.5000    11.8077    11.6806   -22.6244     8.2598     0.0038     0.1444    92.5639     2.4452
  189.0000    11.7246    11.5182   -22.9261     8.2154     0.0008     0.1427    96.8941     2.4484
  189.5000    11.6420    11.5166   -23.2278     7.9751     0.0009     0.1396   100.3568     2.4572
  190.0000    11.4798    11.4354   -23.3786     7.9760     0.0009     0.1369    96.9029     2.4602
  190.5000    11.4782    11.3548   -23.8311     7.9768     0.0009     0.1438    96.8598     2.4535
  191.0000    11.3187    11.2748   -23.9839     8.0377     0.0010     0.1505    98.4159     2.4429
  191.5000    11.1614    11.1180   -24.1458     8.1891     0.0010     0.1547   101.2775     2.4377
  192.0000    11.0828    11.0396   -24.2836     8.2651     0.0010     0.1571   102.6345     2.4354
  192.5000    11.0047    10.9618   -24.2836     8.2205     0.0011     0.1580   100.9488     2.4279
  193.0000    10.9272    10.8093   -24.1327     8.2365     0.0026     0.1583    97.9466     2.4249
  193.5000    10.8503    10.7332   -24.1327     8.2673     0.0026     0.1583    96.8616     2.4249
  194.0000    10.6995    10.5839   -24.1327     8.2982     0.0041     0.1586    96.7880     2.4234
  194.5000    10.6980    10.5093   -24.1327     8.2826     0.0072     0.1589    96.9424     2.4219
  195.0000    10.4764    10.4352   -24.1327     8.2695     0.0117     0.1595    96.6887     2.4212
  195.5000    10.3308    10.4224   -24.1327     8.2705     0.0117     0.1601    96.6764     2.4197
  196.0000    10.1872    10.3599   -24.1327     8.2712     0.0133     0.1607    97.2579     2.4197
  196.5000    10.1155    10.2869   -24.1327     8.2567     0.0163     0.1607    96.5097     2.4189
  197.0000    10.1141    10.2855   -24.1327     8.2273     0.0193     0.1604    96.6683     2.4182
  197.5000     9.9735    10.2130   -24.1327     8.2282     0.0314     0.1598    97.2647     2.4197
  198.0000     9.9721    10.2116   -24.1327     8.2290     0.0389     0.1408    97.2138     2.4354
  198.5000     9.9707    10.2102   -23.9819     8.2448     0.0344     0.1454    97.2800     2.4467
  199.0000     9.9691    10.2088   -24.1327     8.2606     0.0285     0.1481    93.9238     2.4429
  199.5000     9.9677    10.1369   -24.1327     8.2613     0.0225     0.1498    92.4768     2.4392
  200.0000     9.8979    10.1355   -24.1320     8.2169     0.0195     0.1508    91.4286     2.4362
  200.5000    10.1038    10.1341   -24.1231     8.2175     0.0210     0.1495    93.2722     2.4369
  201.0000    10.0315    10.1327   -24.1142     8.2030     0.0195     0.1480    95.3915     2.4369
  201.5000     9.9602    10.1313   -24.5578     8.1584     0.0195     0.1453    97.4484     2.4422
  202.0000     9.8894    10.2005   -25.3030     8.0984     0.0195     0.1429    97.7503     2.4474
  202.5000     9.8191    10.1990   -25.8975     8.0693     0.0179     0.1444    95.3461     2.4450
  203.0000     9.8170    10.1972   -26.0523     8.1453     0.0179     0.1510    93.0919     2.4369
  203.5000     9.6799    10.1258   -26.3322     8.1911     0.0164     0.1591    92.4915     2.4272
  204.0000     9.6780     9.7737   -26.4741     8.2218     0.0162     0.1609    95.0498     2.4219
  204.5000     9.6092     9.7041   -26.6160     8.2374     0.0149     0.1581    95.9535     2.4234
  205.0000     9.5408     9.6351   -26.9066     8.2380     0.0164     0.1545    96.8572     2.4294
  205.5000     9.4075     9.5004   -26.8977     8.2234     0.0179     0.1503    98.3749     2.4339
  206.0000     9.2758     9.3676   -26.8888     8.2089     0.0178     0.1525    95.5068     2.4354
  206.5000     9.1462     9.2367   -26.8799     8.1645     0.0148     0.1570    93.8541     2.4324
  207.0000     9.0185     9.1059   -26.8710     8.1048     0.0088     0.1602    96.4622     2.4264
  207.5000     8.8311     8.8566   -26.8627     8.0753     0.0103     0.1572   101.9777     2.4219
  208.0000     8.7078     8.6021   -26.7029     8.1560     0.0178     0.1524   104.3848     2.4282
  208.5000     8.5269     8.4917   -26.5427     8.2573     0.0238     0.1448   101.6799     2.4362
  209.0000     8.4662     8.4900   -26.5338     8.2579     0.0298     0.1427   100.1776     2.4429
  209.5000     8.5238     8.6072   -26.5249     8.2585     0.0267     0.1460    97.3220     2.4459
  210.0000     8.6406     8.7257   -26.5158     8.2591     0.0222     0.1460    94.0152     2.4437
  210.5000     8.7594     8.8453   -26.5068     8.2446     0.0192     0.1451    91.4602     2.4452
  211.0000     8.8197     8.9670   -26.4960     8.2300     0.0192     0.1445    90.4091     2.4474
  211.5000     9.0019     9.0280   -26.7887     8.2156     0.0117     0.1469    89.7965     2.4444
  212.0000     9.1257     9.1518   -26.7798     8.2012     0.0056     0.1520    91.1639     2.4369
  212.5000     9.2512     9.2777   -26.7710     8.1717     0.0026     0.1529    94.0852     2.4324
  213.0000     9.2488     9.3404   -26.9151     8.2024     0.0041     0.1510    98.0340     2.4309
  213.5000     9.3117     9.3385   -26.9040     8.2360     0.0073     0.1480   102.8977     2.4318
  214.0000     9.3746     9.4016   -26.7443     8.2638     0.0146     0.1423   101.9972     2.4384
  214.5000     9.4374     9.4651   -26.7354     8.0989     0.0191     0.1339   101.8480     2.4520
  215.0000     9.5015     9.4674   -26.8778     8.1146     0.0236     0.1360   102.0002     2.4625
  215.5000     9.4991     9.5269   -26.8684     8.1754     0.0206     0.1432   103.5054     2.4662
  216.0000     9.4972     9.5909   -26.8597     8.2362     0.0145     0.1483   108.6197     2.4572
  216.5000     9.5613     9.5889   -26.6998     8.3120     0.0145     0.1492   109.8238     2.4444
  217.0000     9.5593     9.5870   -26.6908     8.0567     0.0160     0.1485   105.0136     2.4377
  217.5000     9.4914     9.5850   -26.6817     8.1476     0.0175     0.1470   100.5038     2.4422
  218.0000     9.4894     9.5831   -26.6709     8.2386     0.0205     0.1436   102.3098     2.4482
  218.5000     9.4874     9.5812   -26.6620     8.2392     0.0205     0.1389   104.1409     2.4505
  219.0000     9.4851     9.5791   -26.6531     8.2398     0.0204     0.1359   105.3203     2.4513
  219.5000     9.4831     9.5110   -26.7973     8.2404     0.0189     0.1356   102.9161     2.4537
  220.0000     9.4812     9.4667   -26.7861     8.2411     0.0174     0.1401    99.6093     2.4617
  220.5000     9.4795     9.4414   -26.7773     8.2417     0.0144     0.1446    99.6107     2.4535
  221.0000     9.4773     9.4394   -26.7684     8.2270     0.0114     0.1502   100.8152     2.4487
  221.5000     9.4100     9.4024   -26.6109     8.2126     0.0084     0.1538   104.2753     2.4324
  222.0000     9.3431     9.3699   -26.7528     8.2133     0.0129     0.1550   106.6828     2.4302
  222.5000     9.2766     9.3033   -26.7417     8.1537     0.0173     0.1538   108.7896     2.4324
  223.0000     9.2107     9.3014   -26.7328     8.0186     0.0190     0.1490   110.1444     2.4339
  223.5000     9.1452     9.2995   -26.7239     8.1850     0.0233     0.1419   110.7474     2.4384
  224.0000     9.1433     9.2976   -26.7149     8.2008     0.0263     0.1332   106.9895     2.4610
