~VERSION INFORMATION
 VERS.                2.0:   CWLS LOG ASCII STANDARD - VERSION 2.0
 WRAP.                 NO:   ONE LINE PER DEPTH STEP
~WELL INFORMATION
#MNEM.UNIT      DATA TYPE    INFORMATION
#----------   ------------   ------------------------------
 STRT.M           36.0000:   START DEPTH
 STOP.M          687.0000:   STOP DEPTH
 STEP.M            0.5000:   STEP LENGTH
 NULL.          -999.2500:   NO VALUE
 COMP. LAWRENCE/ALLISON INC:   COMPANY
 WELL.    53-1-STX #15-15:   WELL
 FLD .             TEAPOT:   FIELD
 LOC .      S15 T38N R78W:   LOCATION
 CNTY.            NATRONA:   COUNTY
 STAT.            WYOMING:   STATE
 CTRY. UNITED STATES OF AMERICA:   COUNTRY
 SRVC.           Gearhart:   SERVICE COMPANY
 DATE.        29-AUG-1987:   LOGDATE
 API .       490251118700:   API NUMBER
~CURVE INFORMATION
#MNEM.UNIT       API CODE    CURVE DESCRIPTION
#----------   ------------   ------------------------------
 DEPT.M                  :   
 GRR .GAPI   07 310 01 00:   GAMMA RAY
 ILD .OHMM   07 120 46 00:   INDUCTION LOG DEEP
 ILM .OHMM   07 120 44 00:   INDUCTION LOG MEDIUM
~PARAMETER INFORMATION
#MNEM.UNIT          VALUE    DESCRIPTION
#----------   ------------   ------------------------------
 PD  .                 GL:   PERMANENT DATUM
 EPD .F              5237:   ELEVATION PERMANENT DATUM
 LMF .                 KB:   LOG MEASURED FROM
 DAPD.F              10.5:   FEET ABOVE PERMANENT DATUM
 DMF .                 KB:   DRILLING MEASURED FROM
 EKB .F              5247:   KELLING BUSHING
 EDF .F            5246.5:   DRILLING FLOOR
 EGL .F              5237:   GROUND LEVEL
 DATE.        29-AUG-1987:   RUN DATE
 RUN .                  1:   RUN NUMBER
 DD  .F               695:   DEPTH DRILLER
 DL  .F               696:   DEPTH LOGGER
 BLI .F               688:   BOTTOM LOG INTERVAL
 TLI .F                37:   TOP LOG INTERVAL
 CS  .IN            9.625:   CASING SIZE
 CBD .F                48:   CASING BOTTOM DRILLER
 CBL .F                49:   CASING BOTTOM LOGGER
 BS  .IN             8.75:   BIT SIZE
 BSD .F               695:   BIT SIZE AT DEPTH
 DFT .                AIR:   DRILLING FLUID TYPE
 TCS .HRS            0400:   TIME CURCULATED STOPPED
 MRT .F                80:   MAXIMUM RECORDED TEMPERATURE
 LUN .               7597:   LOGGING UNIT NUMBER
 LUL .           GILLETTE:   LOGGING UNIT LOCATION
 ENGI.         WEATHERMON:   RECORDING ENGINEER
 WITN.             STRONG:   WITNESSED BY
 CLNT.            A2DTECH:   CLIENT CODE
 ORIG.       2", 5" PRINT:   ORIGIN OF DATA
 UWI .       490251118700:   UNIQUE WELL ID
 DICO. A2D Technologies, Inc.:   DIGITIZING COMPANY
~OTHER INFORMATION
~A   DEPT       GRR       ILD        ILM   
# ...
  400.0000   142.5138     7.0104     6.5138
  400.5000   137.6876     7.2582     6.6995
  401.0000   134.9794     7.6195     7.0351
  401.5000   135.9021     7.8344     7.3875
  402.0000   138.0350     7.9998     7.5981
  402.5000   137.4448     8.1124     7.8690
  403.0000   136.2495     8.2837     7.9820
  403.5000   135.6555     8.3421     8.0967
  404.0000   134.4639     8.2288     8.1001
  404.5000   133.8737     8.1732     7.9918
  405.0000   132.6784     8.0064     7.7774
  405.5000   131.4830     7.9506     7.5680
  406.0000   132.4057     7.7799     7.4669
  406.5000   133.9335     7.5179     7.3665
  407.0000   135.7842     7.3218     7.2187
  407.5000   136.3843     7.0738     6.9759
  408.0000   133.8982     7.0257     6.8345
  408.5000   133.3881     6.8825     6.5144
  409.0000   134.0119     6.4232     6.2087
  409.5000   134.6320     5.8310     5.9542
  410.0000   135.5547     5.4419     5.6242
  410.5000   137.6876     5.2938     5.1567
  411.0000   139.8206     5.2218     4.6498
  411.5000   141.9535     5.2589     4.4312
  412.0000   142.8762     5.3700     4.5896
  412.5000   142.8911     5.5598     4.8868
  413.0000   142.9061     5.8365     5.4616
  413.5000   142.6147     6.3926     5.9785
  414.0000   141.4231     6.7664     6.4098
  414.5000   137.5046     7.1534     6.8248
  415.0000   137.3675     7.6491     7.1667
  415.5000   140.8628     7.8649     7.4754
  416.0000   143.9034     7.9206     7.7464
  416.5000   143.0107     7.9216     7.9067
  417.0000   142.1079     7.9777     8.0203
  417.5000   140.5699     8.1462     8.1355
  418.0000   139.4246     8.3182     8.1953
  418.5000   140.6498     8.3771     8.2556
  419.0000   137.3402     8.4364     8.3164
  419.5000   134.3295     8.4376     8.3776
  420.0000   131.9238     8.3227     8.3810
  420.5000   134.6619     8.2095     8.3264
  421.0000   137.4000     8.1540     8.3299
  421.5000   140.4407     8.1551     8.2187
  422.0000   136.8247     8.0999     8.1038
  422.5000   135.6257     7.9897     8.0007
  423.0000   135.9469     7.9357     7.8947
  423.5000   139.8953     7.8820     7.8434
  424.0000   141.4194     7.9381     7.8466
  424.5000   141.1317     7.9392     7.7948
  425.0000   143.2684     8.0509     7.8530
  425.5000   146.0065     8.1642     7.9657
  426.0000   147.5343     8.2220     8.0243
  426.5000   145.7338     8.1099     8.0276
  427.0000   143.0055     7.9995     8.0309
  427.5000   141.2251     7.8909     7.9787
  428.0000   141.9263     7.8375     7.9229
  428.5000   142.1627     7.7309     7.7053
  429.0000   141.8751     7.5727     7.4547
  429.5000   142.8015     7.3095     7.2040
  430.0000   142.2113     7.0199     6.9616
  430.5000   136.4773     6.9244     6.8687
  431.0000   129.2306     6.9256     6.7769
  431.5000   115.9323     6.7842     6.7322
  432.0000   118.0653     6.6455     6.5064
  432.5000   125.6445     6.3323     6.2011
  433.0000   132.9212     6.0337     5.9925
  433.5000   140.8030     5.8698     5.8716
  434.0000   142.3308     5.8301     5.7136
  434.5000   144.7663     5.8309     5.5112
  435.0000   146.2941     5.8317     4.9791
  435.5000   149.0322     5.8730     5.1161
  436.0000   148.1394     5.9970     5.4841
  436.5000   144.5235     6.0814     5.8798
  437.0000   141.4927     6.2973     6.3493
  437.5000   137.8467     6.6596     6.6695
  438.0000   135.1085     6.8574     6.9036
  438.5000   132.6172     7.1843     7.0441
  439.0000   130.0748     7.3869     7.0459
  439.5000   132.5140     7.4392     6.8548
  440.0000   137.0676     7.4402     6.6229
  440.5000   139.8056     7.3390     6.2672
  441.0000   141.3334     7.1396     5.8087
  441.5000   142.5587     6.5716     5.5350
  442.0000   144.0865     5.8836     4.9899
  442.5000   145.3080     5.7236     4.7876
  443.0000   143.5112     5.7246     4.8221
  443.5000   142.0133     5.7253     4.9586
  444.0000   139.9102     5.7261     5.2785
  444.5000   137.1983     5.7667     5.5804
  445.0000   138.7298     5.9307     5.9405
  445.5000   141.7705     6.1941     6.1938
  446.0000   146.3240     6.5870     6.4579
  446.5000   143.9184     6.9553     6.6868
  447.0000   141.4828     7.2012     6.9719
  447.5000   137.5190     7.5075     7.2190
  448.0000   134.5835     7.7193     7.5791
  448.5000   138.0938     7.9921     7.8478
  449.0000   140.6685     8.3320     8.0699
  449.5000   141.2886     8.5671     8.1841
  450.0000   137.0715     8.7480     8.7261
  450.5000   134.0849     8.6282     8.7309
  451.0000   130.4930     8.9535     8.7358
  451.5000   132.0449     8.9572     8.7406
  452.0000   133.5967     8.8989     8.7464
  452.5000   134.8460     8.9035     8.7512
  453.0000   135.4902     8.9691     8.7560
  453.5000   136.1343     8.9728     8.8219
  454.0000   132.2399     9.0390     8.8882
  454.5000   130.4635     9.1057     8.8930
  455.0000   129.2922     9.1728     8.8364
  455.5000   130.5415     9.2405     8.7789
  456.0000   132.0934     9.3086     8.7229
  456.5000   133.3427     9.3773     8.7897
  457.0000   132.7765     9.3811     8.9175
  457.5000   131.0001     9.3850     9.0471
  458.0000   128.9211     9.3888     9.1786
  458.5000   125.9344     9.3268     9.2476
  459.0000   121.4348     9.2671     9.1885
  459.5000   120.8684     8.4131     9.0042
  460.0000   121.5129     7.2758     8.5226
  460.5000   123.0751     6.9339     7.3172
  461.0000   124.6576     6.8887     7.0154
  461.5000   127.5612     6.8916     6.1252
  462.0000   139.7641     6.8945     5.3649
  462.5000   146.3187     6.8973     5.7945
  463.0000   153.8293     6.9482     6.3452
  463.5000   149.9349     7.0034     6.8049
  464.0000   135.7530     7.4397     7.1476
  464.5000   125.2020     8.5451     7.7190
  465.0000   121.3076     9.2497     8.8119
  465.5000   123.4646    10.1266     9.6492
  466.0000   126.5293    10.6347    10.2058
  466.5000   129.5940    10.7877    10.3541
  467.0000   130.8433    10.9429    10.4319
  467.5000   129.9746    11.1003    10.5104
  468.0000   129.4085    11.3383    10.5894
  468.5000   129.1352    11.5815    10.7433
  469.0000   129.7891    11.9951    10.9753
  469.5000   128.0126    12.5099    11.3691
  470.0000   124.4208    12.9002    11.6956
  470.5000   120.8289    13.4189    12.3789
  471.0000   115.7242    14.1930    13.2027
  471.5000   102.7527    15.1219    14.4726
  472.0000    92.2016    16.1116    15.7998
  472.5000    84.9789    17.5767    16.9446
  473.0000    84.4115    19.4912    18.6841
  473.5000    84.4518    20.9704    20.1775
  474.0000    84.1876    22.0227    21.0470
  474.5000    82.7144    22.9679    22.1070
  475.0000    81.8457    23.7882    23.2203
  475.5000    80.6545    24.4674    24.0534
  476.0000    76.1151    25.1661    24.9165
  476.5000    73.7338    25.3517    25.2787
  477.0000    72.3194    25.1868    25.1176
  477.5000    71.7045    24.6783    24.7849
  478.0000    70.5918    24.3484    24.4566
  478.5000    71.2359    24.0229    24.3008
  479.0000    73.3929    23.8642    24.3141
  479.5000    75.8525    23.7091    24.1590
  480.0000    80.4301    23.7213    23.8392
  480.5000    80.8711    23.5646    23.5235
  481.0000    83.3125    23.5768    23.5364
  481.5000    83.9384    23.5865    23.3864
  482.0000    81.8412    23.5962    23.4025
  482.5000    78.8311    23.4426    23.4153
  483.0000    79.4622    23.4524    23.2629
  483.5000    82.2062    23.2999    23.2789
  484.0000    82.2391    23.1484    23.1274
  484.5000    79.1860    22.9833    22.9800
  485.0000    77.3878    22.6905    22.8336
  485.5000    78.6637    22.5429    22.6881
  486.0000    81.4077    22.5545    22.3906
  486.5000    83.2439    22.5638    22.0941
  487.0000    84.4750    22.7302    21.9503
  487.5000    85.7061    23.2177    22.8994
  488.0000    81.7934    23.5517    23.5570
  488.5000    76.9731    23.8905    24.2334
  489.0000    76.3836    24.2342    24.7569
  489.5000    76.7121    24.4129    25.2917
  490.0000    76.4304    24.2516    25.6593
  490.5000    75.2409    24.0939    25.1271
