~VERSION INFORMATION
 VERS.                2.0:   CWLS LOG ASCII STANDARD - VERSION 2.0
 WRAP.                 NO:   ONE LINE PER DEPTH STEP
~WELL INFORMATION
#MNEM.UNIT      DATA TYPE    INFORMATION
#----------   ------------   ------------------------------
 STRT.F           40.0000:   START DEPTH
 STOP.F          684.0000:   STOP DEPTH
 STEP.F            0.5000:   STEP LENGTH
 NULL.          -999.2500:   NO VALUE
 COMP.    FENIX & SCISSON:   COMPANY
 WELL.   N P R-3 #26SX2-2:   WELL
 FLD .             TEAPOT:   FIELD
 LOC .       S2 T38N R78W:   LOCATION
 CNTY.            NATRONA:   COUNTY
 STAT.            WYOMING:   STATE
 CTRY. UNITED STATES OF AMERICA:   COUNTRY
 SRVC.            Unknown:   SERVICE COMPANY
 DATE.        26-JAN-1978:   LOGDATE
 API .       490251056400:   API NUMBER
~CURVE INFORMATION
#MNEM.UNIT       API CODE    CURVE DESCRIPTION
#----------   ------------   ------------------------------
 DEPT.F                  :   
 ILD .OHMM   05 120 46 00:   INDUCTION LOG DEEP
 SN  .OHMM   05 040 16 00:   SHORT NORMAL 16"
 SPR .MV     05 010 01 00:   SPONTANEOUS POTENTIAL FROM RES.
 CALD.IN     45 280 60 00:   CALIPER FROM DENSITY LOG
 CORR.G/C3   45 356 01 00:   DENSITY CORRECTION
 DPHI.DEC    45 890 12 00:   DENSITY POROSITY SANDSTONE
 GRD .GAPI   45 310 01 00:   GAMMA RAY FROM DENSITY LOG
 RHOB.G/C3   45 350 01 00:   BULK DENSITY
~PARAMETER INFORMATION
#MNEM.UNIT          VALUE    DESCRIPTION
#----------   ------------   ------------------------------
 PD  .                 GL:   PERMANENT DATUM
 EPD .F              5142:   ELEVATION PERMANENT DATUM
 LMF .                 KB:   LOG MEASURED FROM
 DMF .                 KB:   DRILLING MEASURED FROM
 EKB .F              5146:   KELLING BUSHING
 EGL .F              5142:   GROUND LEVEL
 DATE.        26-JAN-1978:   RUN DATE
 RUN .                  1:   RUN NUMBER
 DD  .F               690:   DEPTH DRILLER
 DL  .F               684:   DEPTH LOGGER
 BLI .F               684:   BOTTOM LOG INTERVAL
 TLI .F                50:   TOP LOG INTERVAL
 CS  .IN            8.625:   CASING SIZE
 CBD .F                39:   CASING BOTTOM DRILLER
 CBL .F                40:   CASING BOTTOM LOGGER
 BS  .IN            7.875:   BIT SIZE
 BSD .F               690:   BIT SIZE AT DEPTH
 DFT .                KCL:   DRILLING FLUID TYPE
 DFD .                8.5:   DRILLING FLUID DENSITY
 DFV .                 33:   DRILLING FLUID VISCOSITY
 DFPH.                  9:   DRILLING FLUID PH
 MSS .           FLOWLINE:   MUD SAMPLE SOURCE
 RMS .OHMM           0.48:   RESISTIVITY MUD SAMPLE
 MST .F                75:   MUD SAMPLE TEMPERATURE
 RMF .OHMM           0.46:   RESISTIVITY MUD FILTRATE SAMPLE
 MFST.F                75:   MUD FILTRATE SAMPLE TEMPERATURE
 RMC .OHMM              1:   RESISTIVITY MUD CAKE
 MCST.F                75:   MUD CAKE SAMPLE TEMPERATURE
 MFSS.               MEAS:   MUD FILTRATE SAMPLE SOURCE
 MCSS.               MEAS:   MUD CAKE SAMPLE SOURCE
 RMB .OHMM           0.47:   RESISTIVITY MUD AT BHT
 BHT .F                76:   BOTTOM HOLE TEMPERATURE
 TCS .HRS               1:   TIME CURCULATED STOPPED
 MRT .F                76:   MAXIMUM RECORDED TEMPERATURE
 LUN .               2958:   LOGGING UNIT NUMBER
 LUL .             CASPER:   LOGGING UNIT LOCATION
 ENGI.           REYNOLDS:   RECORDING ENGINEER
 WITN.       MR. MCGINLEY:   WITNESSED BY
 CLNT.            A2DTECH:   CLIENT CODE
 ORIG.      2.5" 5" PRINT:   ORIGIN OF DATA
 UWI .       490251056400:   UNIQUE WELL ID
 DICO. A2D Technologies, Inc.:   DIGITIZING COMPANY
~OTHER INFORMATION
~A   DEPT      ILD         SN        SPR       CALD       CORR       DPHI         GRD        RHOB 
# ...
  404.5000     6.6187     6.5452   -57.6117     9.2819     0.1585     0.1422    90.8639     2.4261
  405.0000     6.8540     6.9673   -57.7527     9.2784     0.1495     0.1454    90.2396     2.4257
  405.5000     6.9527     7.1657   -57.7436     9.2749     0.1461     0.1485    90.0612     2.4232
  406.0000     7.1015     7.3191   -57.7363     9.2713     0.1405     0.1506    90.2141     2.4208
  406.5000     7.1544     7.4246   -57.5807     9.2678     0.1375     0.1412    91.7813     2.4185
  407.0000     7.0605     7.5836   -57.5555     9.2642     0.1375     0.1434    92.9919     2.4162
  407.5000     7.0159     7.6929   -57.4162     9.2607     0.1375     0.1505    93.4251     2.4132
  408.0000     7.0197     7.8577   -57.2606     9.2571     0.1415     0.1565    92.5076     2.4116
  408.5000     7.0720     7.9177   -57.2534     9.2536     0.1511     0.1488    91.5902     2.4116
  409.0000     7.1246     8.0363   -57.2461     9.2501     0.1689     0.1498    91.2844     2.4116
  409.5000     7.1285     8.1471   -57.2388     9.2465     0.1737     0.1526    90.3670     2.4115
  410.0000     7.1816     8.2645   -57.2323     9.2432     0.1737     0.1500    90.0612     2.4115
  410.5000     7.1855     8.3261   -57.2243     9.2426     0.1707     0.1446    90.6728     2.4145
  411.0000     7.1895     8.4461   -57.2170     9.2419     0.1707     0.1404    92.8135     2.4175
  411.5000     7.1942     8.4506   -57.2098     9.2413     0.1737     0.1422    93.7309     2.4235
  412.0000     7.1981     8.4552   -57.2025     9.2407     0.1737     0.1489    94.6483     2.4250
  412.5000     7.1527     8.5182   -57.1952     9.2401     0.1767     0.1525    96.2156     2.4251
  413.0000     7.1565     8.4632   -57.1878     9.2395     0.1767     0.1368    97.4261     2.4283
  413.5000     7.1604     8.4689   -57.1804     9.2389     0.1767     0.1241    97.7446     2.4390
  414.0000     7.1643     8.4152   -57.1716     9.2383     0.1767     0.1260    98.6748     2.4676
  414.5000     7.1682     8.3621   -57.1643     9.2377     0.1737     0.1332    98.9297     2.4688
  415.0000     7.1720     8.3667   -57.1571     9.2371     0.1707     0.1243    97.9358     2.4540
  415.5000     7.0779     8.3384   -57.1498     9.2365     0.1647     0.1191    97.4006     2.4475
  416.0000     7.0817     8.3120   -57.1425     9.2358     0.1465     0.1173    97.0948     2.4556
  416.5000     6.9887     8.2100   -57.1353     9.2352     0.1375     0.1155    97.7064     2.4659
  417.0000     6.9445     8.2145   -57.1280     9.2346     0.1377     0.1199    97.8338     2.4685
  417.5000     6.9007     8.1614   -57.4173     9.2340     0.1405     0.1298    96.9801     2.4559
  418.0000     6.8071     8.1109   -57.7067     9.2334     0.1405     0.1320    94.6483     2.4489
  418.5000     6.7147     8.0585   -57.9958     9.2328     0.1411     0.1314    93.3996     2.4458
  419.0000     6.5427     7.9526   -58.2851     9.2322     0.1435     0.1311    92.9409     2.4434
  419.5000     6.5005     7.8492   -58.4436     9.2316     0.1444     0.1299    92.8135     2.4352
  420.0000     6.3721     7.7459   -58.5671     9.2310     0.1465     0.1387    92.8135     2.4291
  420.5000     6.3318     7.6443   -58.5580     9.2304     0.1465     0.1423    92.8135     2.4275
  421.0000     6.2487     7.5425   -58.4025     9.2298     0.1465     0.1429    92.8135     2.4245
  421.5000     6.2084     7.3429   -58.2469     9.2596     0.1407     0.1447    92.8135     2.4245
  422.0000     6.1277     7.1473   -58.2397     9.2590     0.1360     0.1484    92.8135     2.4229
  422.5000     6.0464     6.9102   -58.0841     9.2584     0.1281     0.1508    93.7309     2.4183
  423.0000     5.5711     6.5886   -57.9286     9.2578     0.1236     0.1538    95.2599     2.4122
  423.5000     5.2757     6.1962   -57.7730     9.2571     0.1163     0.1563    97.7064     2.4046
  424.0000     4.8604     5.8271   -57.7658     9.2565     0.1103     0.1708    98.9297     2.3895
  424.5000     4.1801     5.4051   -57.7585     9.2559     0.1073     0.1763    99.8598     2.3801
  425.0000     3.7723     4.8775   -58.6409     9.2553     0.1103     0.1789   100.5097     2.3693
  425.5000     3.3967     4.2524   -59.3749     9.2547     0.1193     0.1979   101.4144     2.3579
  426.0000     2.9296     3.8905   -59.8359     9.2541     0.1314     0.2304   101.1214     2.3366
  426.5000     2.6608     3.4867   -59.9535     9.2535     0.1375     0.2451    98.3690     2.3043
  427.0000     2.6079     3.1463   -60.0945     9.2833     0.1465     0.2482    95.6423     2.2658
  427.5000     2.5911     3.0179   -60.0854     9.2827     0.1495     0.2523    92.8517     2.2520
  428.0000     2.5928     2.9344   -59.4851     9.2821     0.1586     0.2614    90.9786     2.2438
  428.5000     2.5761     2.8820   -58.5882     9.2813     0.1618     0.2730    89.7553     2.2240
  429.0000     2.6865     2.8634   -57.8395     9.2807     0.1679     0.2385    92.2783     2.2056
  429.5000     2.9801     3.0276   -58.1288     9.3105     0.1737     0.2090    94.3170     2.2540
  430.0000     3.3286     3.4763   -58.4199     9.3100     0.1737     0.1817    95.5658     2.3035
  430.5000     3.7954     3.9916   -58.7076     9.3094     0.1707     0.1654    96.9801     2.3367
  431.0000     4.4790     4.5206   -58.7001     9.3088     0.1707     0.1551    98.7258     2.3682
  431.5000     5.1783     5.1906   -58.6928     9.3082     0.1677     0.1406   102.5994     2.4041
  432.0000     5.3257     5.7981   -58.6853     9.3076     0.1636     0.1340   105.0459     2.4253
  432.5000     5.2913     6.1296   -58.6765     9.3070     0.1605     0.1352   103.8226     2.4192
  433.0000     5.2949     6.3042   -58.5209     9.3064     0.1531     0.1425   102.5994     2.4154
  433.5000     5.2607     6.3962   -58.3654     9.3058     0.1438     0.1503   102.2936     2.4328
  434.0000     5.2643     6.4428   -58.2099     9.3052     0.1375     0.1552   101.3761     2.4252
  434.5000     5.2303     6.4470   -57.9061     9.3350     0.1344     0.1388   101.0703     2.3979
  435.0000     5.2339     6.4505   -57.6022     9.3343     0.1314     0.1358   100.4587     2.4342
  435.5000     5.2001     6.4540   -57.4467     9.3337     0.1344     0.1603   100.1529     2.4251
  436.0000     5.2036     6.4575   -57.2912     9.3331     0.1375     0.1561   102.5994     2.4039
  436.5000     5.1352     6.4158   -57.2839     9.3325     0.1375     0.1479   103.8481     2.4056
  437.0000     4.8966     6.3323   -57.2766     9.3319     0.1405     0.1549   105.0968     2.4114
  437.5000     4.7011     6.1637   -57.2694     9.3313     0.1435     0.1638   106.2691     2.4061
  438.0000     4.5760     5.6780   -57.1137     9.3307     0.1495     0.1683   105.5556     2.3954
  438.5000     4.5471     5.4139   -57.1300     9.3301     0.1586     0.1711   105.0459     2.3849
  439.0000     4.5184     5.3061   -57.3958     9.3295     0.1677     0.1731   105.0459     2.3787
  439.5000     4.5215     5.2725   -57.3867     9.3289     0.1616     0.1731   104.9567     2.3744
  440.0000     4.5551     5.2754   -57.5288     9.3283     0.1556     0.1654   104.2304     2.3733
  440.5000     4.5890     5.3148   -57.6706     9.3277     0.1526     0.1610   102.2554     2.3841
  441.0000     4.6873     5.3920   -57.8116     9.3269     0.1523     0.1607   100.6880     2.3940
  441.5000     4.8206     5.4697   -57.9526     9.3263     0.1696     0.1577    99.9618     2.4011
  442.0000     5.0265     5.8626   -57.9435     9.3257     0.1898     0.1480   104.2813     2.4096
  442.5000     5.3873     6.3709   -58.0863     9.2948     0.1918     0.1377   105.2115     2.4236
  443.0000     5.8139     6.7352   -58.0772     9.2942     0.1752     0.1274   105.5301     2.4382
  443.5000     6.0621     6.9748   -58.0699     9.2936     0.1608     0.1196   104.1284     2.4595
  444.0000     6.2346     7.2230   -58.2109     9.2930     0.1516     0.1129   101.0703     2.4716
  444.5000     6.3244     7.4286   -58.0552     9.2924     0.1495     0.1166    98.9297     2.4750
