~VERSION INFORMATION
 VERS.                2.0:   CWLS LOG ASCII STANDARD - VERSION 2.0
 WRAP.                 NO:   ONE LINE PER DEPTH STEP
~WELL INFORMATION
#MNEM.UNIT      DATA TYPE    INFORMATION
#----------   ------------   ------------------------------
 STRT.F           34.0000:   START DEPTH
 STOP.F          517.0000:   STOP DEPTH
 STEP.F            0.5000:   STEP LENGTH
 NULL.          -999.2500:   NO VALUE
 COMP.    FENIX & SCISSON:   COMPANY
 WELL.       NPR #77-S-10:   WELL
 FLD .             TEAPOT:   FIELD
 LOC .      S10 T38N R78W:   LOCATION
 CNTY.            NATRONA:   COUNTY
 STAT.            WYOMING:   STATE
 CTRY. UNITED STATES OF AMERICA:   COUNTRY
 SRVC.              Welex:   SERVICE COMPANY
 DATE.        16-APR-1977:   LOGDATE
 API .       490251033600:   API NUMBER
~CURVE INFORMATION
#MNEM.UNIT       API CODE    CURVE DESCRIPTION
#----------   ------------   ------------------------------
 DEPT.F                  :   
 SPR .MV     07 010 01 00:   SPONTANEOUS POTENTIAL
 ILD .OHMM   07 120 46 00:   INDUCTION LOG DEEP
 ILM .OHMM   07 120 44 00:   INDUCTION LOG MEDIUM
 SGRD.OHMM   07 221 05 00:   SHALLOW SHORT GUARD RESISTIVITY
 CALD.IN     45 280 60 00:   CALIPER FROM DENSITY LOG
 GRD .GAPI   45 310 01 00:   GAMMA RAY FROM DENSITY LOG
 CORR.G/C3   45 356 01 00:   DENSITY CORRECTION
 RHOB.G/C3   45 350 01 00:   BULK DENSITY
 DPHI.DEC    45 890 12 00:   DENSITY POROSITY SANDSTONE
~PARAMETER INFORMATION
#MNEM.UNIT          VALUE    DESCRIPTION
#----------   ------------   ------------------------------
 PD  .                 GL:   PERMANENT DATUM
 EPD .F              5210:   ELEVATION PERMANENT DATUM
 LMF .                 GL:   LOG MEASURED FROM
 DMF .                 GL:   DRILLING MEASURED FROM
 EGL .F              5210:   GROUND LEVEL
 DATE.        16-APR-1977:   RUN DATE
 RUN .                  1:   RUN NUMBER
 DD  .F               525:   DEPTH DRILLER
 DL  .F               519:   DEPTH LOGGER
 BLI .F               517:   BOTTOM LOG INTERVAL
 TLI .F                30:   TOP LOG INTERVAL
 CS  .IN            8.625:   CASING SIZE
 BS  .IN            7.875:   BIT SIZE
 BSD .F               525:   BIT SIZE AT DEPTH
 DFT .            KCL MUD:   DRILLING FLUID TYPE
 DFD .                8.9:   DRILLING FLUID DENSITY
 BHT .F                61:   BOTTOM HOLE TEMPERATURE
 TCS .HRS            0300:   TIME CURCULATED STOPPED
 MRT .F                61:   MAXIMUM RECORDED TEMPERATURE
 ENGI.               DOAK:   RECORDING ENGINEER
 WITN.      B. HARRINGTON:   WITNESSED BY
 CLNT.            A2DTECH:   CLIENT CODE
 ORIG.           5" PRINT:   ORIGIN OF DATA
 UWI .       490251033600:   UNIQUE WELL ID
 DICO. A2D Technologies, Inc.:   DIGITIZING COMPANY
~OTHER INFORMATION
~A   DEPT      SPR        ILD        ILM       SGRD       CALD        GRD       CORR       RHOB       DPHI   
# ...
  399.0000   -38.6556    28.3005    33.7510    34.8109     7.8217    75.4082     0.0091     2.2921     0.2137
  399.5000   -38.5240    28.3199    36.9484    37.5787     7.8213    76.9044     0.0090     2.3004     0.2098
  400.0000   -38.3816    28.5323    35.9623    36.4362     7.8209    76.9058     0.0112     2.3086     0.2014
  400.5000   -38.0788    28.1586    34.0551    35.7147     7.8159    74.9644     0.0149     2.3251     0.1922
  401.0000   -37.9229    27.7897    41.8085    38.5546     7.8106    74.0690     0.0180     2.3372     0.1847
  401.5000   -37.9142    27.2060    44.6333    45.2098     7.8053    73.1736     0.0195     2.3438     0.1793
  402.0000   -37.9054    26.3337    33.9344    41.9367     7.7999    73.6234     0.0210     2.3430     0.1808
  402.5000   -37.8967    25.6326    32.3046    37.5824     7.7925    74.3723     0.0195     2.3408     0.1829
  403.0000   -37.8872    25.1229    34.1655    40.0153     7.7658    75.2706     0.0195     2.3370     0.1847
  403.5000   -37.8792    24.6234    33.4857    41.4468     7.7514    75.7454     0.0195     2.3295     0.1891
  404.0000   -37.8704    23.8030    34.2076    38.7120     7.7523    75.8713     0.0195     2.3273     0.1919
  404.5000   -37.8617    23.0100    33.9932    36.4078     7.7530    75.4247     0.0194     2.3273     0.1916
  405.0000   -37.8529    22.5524    33.5477    33.7719     7.7388    74.6787     0.0194     2.3288     0.1904
  405.5000   -37.8441    22.1040    31.1133    31.9814     7.7396    75.7265     0.0179     2.3258     0.1922
  406.0000   -37.8353    21.6611    29.0555    30.9188     7.7404    77.8206     0.0164     2.3183     0.1952
  406.5000   -37.8265    21.3774    29.2749    29.8948     7.7411    78.8685     0.0164     2.3138     0.1978
  407.0000   -37.8176    21.2434    31.1709    29.7089     7.7568    78.4218     0.0164     2.3175     0.1958
  407.5000   -37.8088    21.1130    31.8429    30.4552     7.7575    77.3769     0.0163     2.3227     0.1928
  408.0000   -37.7983    21.1264    32.5294    31.2227     7.7582    76.4814     0.0178     2.3250     0.1922
  408.5000   -37.7895    20.8497    32.3255    31.2439     7.7590    76.0344     0.0193     2.3257     0.1916
  409.0000   -37.7808    20.5766    32.1228    30.4148     7.7748    76.6338     0.0208     2.3280     0.1904
  409.5000   -37.7720    20.1674    31.6970    29.8124     7.7904    77.7314     0.0208     2.3324     0.1878
  410.0000   -37.7632    19.9032    31.4983    30.4561     7.7911    79.0286     0.0238     2.3407     0.1818
  410.5000   -37.7545    19.6425    31.3008    31.3289     7.8068    80.0764     0.0268     2.3482     0.1776
  411.0000   -37.7457    19.5778    31.3250    31.3502     7.8075    81.2737     0.0283     2.3549     0.1731
  411.5000   -37.5899    19.5304    31.1238    30.7294     7.8082    82.3214     0.0283     2.3616     0.1719
  412.0000   -37.5812    19.4109    30.9287    29.9139     7.7940    83.2197     0.0283     2.3592     0.1731
  412.5000   -37.2783    19.4228    30.9525    29.1200     7.7949    83.8191     0.0267     2.3436     0.1806
  413.0000   -37.1225    19.5693    30.7579    28.7408     7.7807    83.5219     0.0252     2.3354     0.1890
  413.5000   -37.1138    19.5813    30.5652    29.1596     7.7814    82.7760     0.0252     2.3234     0.1923
  414.0000   -36.9580    19.7289    30.3738    29.9952     7.7821    82.3290     0.0267     2.3331     0.1890
  414.5000   -36.9492    19.7410    30.1837    28.9028     7.7828    82.4799     0.0267     2.3406     0.1833
  415.0000   -37.0897    19.7532    26.8575    26.8090     7.7837    82.9297     0.0282     2.3369     0.1839
  415.5000   -37.0788    19.7654    27.1115    26.1881     7.7693    83.9779     0.0281     2.3309     0.1860
  416.0000   -37.2192    19.6413    31.3017    29.5699     7.7702    84.7267     0.0281     2.3301     0.1878
  416.5000   -37.2083    19.2507    29.0304    31.8092     7.7709    83.5323     0.0281     2.3368     0.1836
  417.0000   -37.4937    18.8708    31.3007    31.8308     7.7717    81.7400     0.0296     2.3481     0.1741
  417.5000   -37.4849    18.6236    30.1588    29.3234     7.7873    81.2930     0.0326     2.3638     0.1690
  418.0000   -37.6232    18.2505    27.9082    28.3491     7.8031    81.2945     0.0341     2.3683     0.1671
  418.5000   -37.6145    17.8903    27.7290    28.3684     7.8188    81.9188     0.0281     2.3668     0.1666
  419.0000   -37.7528    17.2943    30.1474    29.9973     7.8195    83.5398     0.0235     2.3660     0.1666
  419.5000   -38.0382    16.7181    30.1660    31.0704     7.8202    85.6340     0.0175     2.3682     0.1666
  420.0000   -38.0294    16.1612    29.1604    29.4232     7.8358    87.1302     0.0160     2.3697     0.1651
  420.5000   -38.1677    15.6227    24.0493    25.4748     7.8515    86.8326     0.0175     2.3720     0.1642
  421.0000   -38.1588    15.3121    22.4587    23.7939     7.8673    86.0867     0.0174     2.3720     0.1648
  421.5000   -38.1500    15.1092    22.4726    23.3227     7.8680    84.7926     0.0174     2.3660     0.1669
  422.0000   -38.1608    15.1208    23.1161    23.1782     7.8687    80.8582     0.0159     2.3600     0.1699
  422.5000   -38.2798    15.0260    22.6562    23.5159     7.8695    79.2154     0.0144     2.3546     0.1726
  423.0000   -38.2688    14.6259    22.2054    23.7787     7.8702    78.9175     0.0114     2.3465     0.1747
  423.5000   -38.2601    14.3351    21.3174    24.2921     7.8709    81.1615     0.0083     2.3382     0.1807
  424.0000   -38.2513    14.3440    20.4650    24.6460     7.8567    82.8072     0.0068     2.3270     0.1896
  424.5000   -38.2426    14.4523    19.5115    24.9211     7.8425    83.4315     0.0083     2.3240     0.1924
  425.0000   -38.5280    14.6791    19.6588    24.4276     7.8434    84.1557     0.0098     2.3307     0.1903
  425.5000   -38.5192    15.0836    20.7880    23.7793     7.8441    84.7550     0.0143     2.3434     0.1847
  426.0000   -38.6597    15.1973    22.9118    23.3084     7.8448    84.6070     0.0188     2.3502     0.1799
  426.5000   -38.6488    15.2066    24.9062    23.1640     7.8455    83.4126     0.0248     2.3539     0.1769
  427.0000   -38.7893    15.2159    25.7930    23.1798     7.8463    82.2182     0.0263     2.3569     0.1745
  427.5000   -38.9268    15.1206    23.7604    23.5175     7.8471    81.1236     0.0278     2.3599     0.1721
  428.0000   -39.0659    15.1298    22.3427    23.8602     7.8479    79.6804     0.0278     2.3630     0.1695
  428.5000   -39.0549    15.0327    21.3016    24.3754     7.8335    78.0375     0.0278     2.3666     0.1670
  429.0000   -39.0462    14.8358    21.4624    23.5655     7.8491    77.1418     0.0292     2.3733     0.1649
  429.5000   -39.1845    14.7428    22.0770    22.6260     7.8351    77.7415     0.0307     2.3793     0.1628
  430.0000   -39.1757    14.5519    21.3411    22.0255     7.8358    78.3408     0.0322     2.3853     0.1586
  430.5000   -39.1670    14.4585    20.1930    21.4410     7.8367    78.9405     0.0337     2.3883     0.1559
  431.0000   -39.0112    14.3698    19.8047    20.8720     7.8374    79.0914     0.0352     2.3868     0.1569
  431.5000   -39.0024    14.2798    19.6539    20.3199     7.8381    78.7939     0.0337     2.3815     0.1587
  432.0000   -38.9937    14.0929    18.8594    19.9863     7.8388    78.1974     0.0337     2.3741     0.1608
  432.5000   -38.9849    14.0031    18.1380    19.7260     7.8396    77.3020     0.0306     2.3703     0.1632
  433.0000   -38.9762    13.8144    17.9003    19.6731     7.8403    74.7623     0.0276     2.3748     0.1626
  433.5000   -38.9674    13.6401    18.2890    19.5512     7.8261    73.4185     0.0260     2.3800     0.1605
  434.0000   -38.9587    13.4615    18.8128    19.5645     7.8120    76.1109     0.0246     2.3815     0.1584
  434.5000   -39.0971    13.2872    18.3116    19.5778     7.7977    78.5039     0.0200     2.3733     0.1599
  435.0000   -39.0882    13.2019    17.7011    19.7266     7.7834    80.1496     0.0155     2.3635     0.1650
