~VERSION INFORMATION
 VERS.                2.0:   CWLS LOG ASCII STANDARD - VERSION 2.0
 WRAP.                 NO:   ONE LINE PER DEPTH STEP
~WELL INFORMATION
#MNEM.UNIT      DATA TYPE    INFORMATION
#----------   ------------   ------------------------------
 STRT.F          283.5000:   START DEPTH
 STOP.F         3026.0000:   STOP DEPTH
 STEP.F            0.5000:   STEP LENGTH
 NULL.          -999.2500:   NO VALUE
 COMP. DEPARTMENT OF ENERGY:   COMPANY
 WELL. RES 3 TEAPOT DOM "AX" #62-29:   WELL
 FLD .        TEAPOT DOME:   FIELD
 LOC .      S29 T39N R78W:   LOCATION
 CNTY.            NATRONA:   COUNTY
 STAT.            WYOMING:   STATE
 CTRY. UNITED STATES OF AMERICA:   COUNTRY
 SRVC.       Schlumberger:   SERVICE COMPANY
 DATE.        27-JUL-1971:   LOGDATE
 API .       490250659800:   API NUMBER
~CURVE INFORMATION
#MNEM.UNIT       API CODE    CURVE DESCRIPTION
#----------   ------------   ------------------------------
 DEPT.F                  :   
 GRD .GAPI   45 310 01 00:   GAMMA RAY FROM DENSITY LOG
 CALD.IN     45 280 60 00:   CALIPER FROM DENSITY LOG
 RHOB.G/C3   45 350 01 00:   BULK DENSITY
 DPHI.DEC    45 890 12 00:   DENSITY POROSITY SANDSTONE
 CORR.G/C3   45 356 01 00:   DENSITY CORRECTION
 SPR .MV     05 010 01 00:   SPONTANEOUS POTENTIAL FROM RES.
 ASN .OHMM   05 041 16 00:   AMPLIFIED SHORT NORMAL 16"
 ILD .OHMM   05 120 46 00:   INDUCTION LOG DEEP
 CILD.MMHO   05 110 46 00:   CONDUCTIVITY INDUCTION LOG DEEP
~PARAMETER INFORMATION
#MNEM.UNIT          VALUE    DESCRIPTION
#----------   ------------   ------------------------------
 PD  .                 GL:   PERMANENT DATUM
 EPD .F              4998:   ELEVATION PERMANENT DATUM
 LMF .                 KB:   LOG MEASURED FROM
 DAPD.F                11:   FEET ABOVE PERMANENT DATUM
 DMF .                 KB:   DRILLING MEASURED FROM
 EKB .F              5009:   KELLING BUSHING
 EGL .F              4998:   GROUND LEVEL
 DATE.            7-27-71:   RUN DATE
 RUN .                  1:   RUN NUMBER
 DD  .F              3023:   DEPTH DRILLER
 DL  .F              3024:   DEPTH LOGGER
 BLI .F              3023:   BOTTOM LOG INTERVAL
 TLI .F               286:   TOP LOG INTERVAL
 CS  .IN            10.75:   CASING SIZE
 CBD .F               287:   CASING BOTTOM DRILLER
 CBL .F               286:   CASING BOTTOM LOGGER
 BS  .IN                9:   BIT SIZE
 BSD .F              3023:   BIT SIZE AT DEPTH
 DFT .      FRESH GEL MUD:   DRILLING FLUID TYPE
 DFD .                 10:   DRILLING FLUID DENSITY
 DFV .                 90:   DRILLING FLUID VISCOSITY
 DFPH.                7.6:   DRILLING FLUID PH
 DFL .                5.8:   DRILLING FLUID LOSS
 MSS .          FLOW LINE:   MUD SAMPLE SOURCE
 RMS .OHMM           1.74:   RESISTIVITY MUD SAMPLE
 MST .F                75:   MUD SAMPLE TEMPERATURE
 RMF .OHMM            1.5:   RESISTIVITY MUD FILTRATE SAMPLE
 MFST.F                75:   MUD FILTRATE SAMPLE TEMPERATURE
 MFSS.                  C:   MUD FILTRATE SAMPLE SOURCE
 RMB .OHMM           1.12:   RESISTIVITY MUD AT BHT
 BHT .F               116:   BOTTOM HOLE TEMPERATURE
 TCS .HRS               5:   TIME CURCULATED STOPPED
 MRT .F               116:   MAXIMUM RECORDED TEMPERATURE
 LUN .               7041:   LOGGING UNIT NUMBER
 LUL .               CSPR:   LOGGING UNIT LOCATION
 ENGI.             KNOBEL:   RECORDING ENGINEER
 WITN.                MAY:   WITNESSED BY
 CLNT.            A2DTECH:   CLIENT CODE
 ORIG.     1", 2.5" PRINT:   ORIGIN OF DATA
 UWI .       490250659800:   UNIQUE WELL ID
 DICO. A2D Technologies, Inc.:   DIGITIZING COMPANY
~OTHER INFORMATION
~A   DEPT      GRD       CALD       RHOB       DPHI       CORR        SPR        ASN        ILD       CILD   
# ...
 1853.0000   115.7608     9.5236     2.4896     0.1048     0.0466   -46.6183    15.4993    11.5628    77.6000
 1853.5000   120.0436     9.5236     2.4888     0.1012     0.0495   -46.6119    15.3440    11.5180    78.5861
 1854.0000   125.6079     9.5236     2.4851     0.0991     0.0470   -46.5827    15.1042    11.4773    79.5723
 1854.5000   129.3575     9.5236     2.4789     0.1034     0.0429   -46.5527    14.9007    11.4616    80.5584
 1855.0000   131.1788     9.5236     2.4745     0.1072     0.0393   -46.5286    14.7444    11.4392    81.5445
 1855.5000   135.7912     9.5236     2.4740     0.1080     0.0352   -46.5043    14.5960    11.3523    82.5307
 1856.0000   135.1231     9.5236     2.4775     0.1103     0.0371   -46.4768    14.5096    11.1826    83.5168
 1856.5000   133.3419     9.5236     2.4856     0.1043     0.0432   -46.4501    14.5819    10.9573    84.1584
 1857.0000   132.8307     9.5236     2.4833     0.0984     0.0417   -46.4255    14.7703    10.7059    85.5842
 1857.5000   131.8840     9.5236     2.4707     0.1127     0.0337   -46.3992    14.8874    10.4524    86.6407
 1858.0000   130.9052     9.5236     2.4644     0.1143     0.0366   -46.3714    14.7933    10.2464    87.6973
 1858.5000   130.8350     9.5236     2.4581     0.1113     0.0399   -46.3466    14.4960    10.1409    88.7539
 1859.0000   130.7665     9.5236     2.4686     0.1086     0.0430   -46.3237    14.0869    10.1203    90.0990
 1859.5000   130.8620     9.5236     2.4726     0.1127     0.0419   -46.2949    13.6926    10.1013    90.4248
 1860.0000   130.4406     9.5236     2.4695     0.1047     0.0406   -46.2611    13.4717    10.0370    90.8731
 1860.5000   128.8305     9.5236     2.4849     0.1073     0.0390   -46.2406    13.5177     9.9835    91.3213
 1861.0000   124.9877     9.5236     2.4652     0.1143     0.0374   -46.2521    13.7431    10.0274    91.7696
 1861.5000   121.3728     9.5236     2.4812     0.1079     0.0392   -46.2954    13.9641    10.1778    92.0792
 1862.0000   117.8417     9.5236     2.5027     0.0989     0.0456   -46.3521    14.1127    10.3693    90.2970
 1862.5000   115.4562     9.5236     2.5160     0.0899     0.0527   -46.4017    14.2630    10.5529    86.7751
 1863.0000   113.1280     9.5236     2.5119     0.0818     0.0507   -46.4394    14.4460    10.7300    82.1782
 1863.5000   110.7275     9.5238     2.5069     0.0873     0.0454   -46.4818    14.5632    10.8944    82.1782
 1864.0000   109.0859     9.5220     2.5131     0.0831     0.0428   -46.5434    14.5259    10.9935    82.1782
 1864.5000   110.5439     9.5188     2.5142     0.0794     0.0430   -46.6000    14.3748    10.9841    83.7525
 1865.0000   117.5209     9.5159     2.5082     0.0879     0.0385   -46.5967    14.2054    10.8933    84.8091
 1865.5000   124.7743     9.5129     2.4985     0.0963     0.0365   -46.5098    14.0508    10.7891    85.8656
 1866.0000   132.7783     9.5099     2.4857     0.1008     0.0403   -46.3753    13.9054    10.7051    86.9222
 1866.5000   136.9671     9.5069     2.4849     0.0992     0.0450   -46.2410    13.7956    10.6269    88.1188
 1867.0000   135.8686     9.5039     2.4885     0.1015     0.0564   -46.1182    13.7528    10.5384    88.1188
 1867.5000   135.4337     9.5009     2.5084     0.1011     0.0509   -45.9987    13.7530    10.4478    88.8416
 1868.0000   134.1569     9.4979     2.4853     0.0992     0.0341   -45.8807    13.7577    10.3670    89.3346
 1868.5000   130.3159     9.4951     2.4563     0.1114     0.0187   -45.7563    13.7697    10.2865    89.8277
 1869.0000   127.9780     9.4918     2.4428     0.1229     0.0109   -45.6168    13.7839    10.1740    90.0990
 1869.5000   127.8721     9.4892     2.4367     0.1256     0.0120   -45.4959    13.7326     9.9926    92.4844
 1870.0000   127.7694     9.4862     2.4518     0.1202     0.0210   -45.4653    13.5539     9.7371    94.7601
 1870.5000   128.9653     9.4821     2.4652     0.1147     0.0339   -45.5551    13.2783     9.4657    97.0358
 1871.0000   131.3157     9.5040     2.4725     0.1095     0.0309   -45.7119    12.9923     9.2736    99.3115
 1871.5000   128.5437     9.5256     2.4660     0.1135     0.0295   -45.8612    12.7501     9.2210   101.9802
 1872.0000   124.9239     9.5232     2.4747     0.1108     0.0335   -45.9858    12.5621     9.2948   101.9802
 1872.5000   120.9092     9.5204     2.4920     0.1046     0.0482   -46.1156    12.4446     9.4420   101.9802
 1873.0000   122.5445     9.5168     2.4985     0.0984     0.0538   -46.2626    12.4529     9.6263    99.8257
 1873.5000   130.6839     9.5125     2.4914     0.1004     0.0516   -46.4034    12.6588     9.8559    97.1960
 1874.0000   136.1533     9.5087     2.4869     0.1024     0.0512   -46.5266    13.0696    10.1518    94.5663
 1874.5000   134.4875     9.5047     2.4878     0.1001     0.0583   -46.6598    13.5533    10.4799    91.9366
 1875.0000   130.1822     9.5008     2.4991     0.0978     0.0580   -46.8195    13.9046    10.7299    89.3069
 1875.5000   125.8703     9.4969     2.4762     0.1051     0.0455   -46.9546    14.0162    10.8045    86.1386
 1876.0000   122.5112     9.4928     2.4524     0.1190     0.0322   -46.9809    13.9450    10.7258    86.1386
 1876.5000   121.9069     9.4890     2.4600     0.1174     0.0221   -46.8758    13.7968    10.6092    86.9703
 1877.0000   122.4711     9.4846     2.4676     0.1120     0.0271   -46.7040    13.6267    10.5322    88.3791
 1877.5000   125.5868     9.4845     2.4855     0.1051     0.0347   -46.5471    13.4719    10.4762    90.0990
 1878.0000   129.3135     9.4879     2.4916     0.0982     0.0366   -46.4306    13.3809    10.3967    90.0990
 1878.5000   133.0289     9.4915     2.4903     0.0966     0.0393   -46.3195    13.3596    10.2960    90.0990
 1879.0000   132.6070     9.4952     2.4890     0.0990     0.0501   -46.1672    13.3617    10.2142    90.0990
 1879.5000   131.9780     9.4988     2.5039     0.0956     0.0620   -45.9866    13.3638    10.1853    90.0990
 1880.0000   130.5065     9.5024     2.5015     0.0906     0.0596   -45.8732    13.3804    10.2037    90.0990
 1880.5000   127.5229     9.5063     2.5094     0.0868     0.0590   -45.9178    13.3871    10.2179    90.0990
 1881.0000   123.8618     9.5095     2.5113     0.0812     0.0556   -46.0849    13.3110    10.1657    90.0990
 1881.5000   121.2674     9.5136     2.5087     0.0863     0.0493   -46.2261    13.1330    10.0326    90.0990
 1882.0000   120.8224     9.5175     2.5154     0.0846     0.0537   -46.2367    12.9288     9.8651    92.0792
 1882.5000   120.2354     9.5188     2.5215     0.0769     0.0612   -46.1455    12.7676     9.7151    92.0792
 1883.0000   122.8029     9.5432     2.5158     0.0799     0.0612   -46.0371    12.6336     9.5875    94.8911
 1883.5000   120.8898     9.5654     2.5034     0.0885     0.0470   -45.9453    12.4821     9.4517    97.3564
 1884.0000   114.8438     9.5586     2.4899     0.0970     0.0346   -45.8559    12.3203     9.2961    99.8218
 1884.5000   109.3109     9.5506     2.4779     0.1071     0.0248   -45.7593    12.1749     9.1479   101.9802
 1885.0000   108.6763     9.5436     2.4803     0.1036     0.0395   -45.6603    12.0299     9.0411   102.6485
 1885.5000   108.9795     9.5357     2.4944     0.0928     0.0494   -45.5617    11.8608     8.9784   103.5730
 1886.0000   111.0420     9.5278     2.4975     0.0919     0.0431   -45.4672    11.7034     8.9298   104.4975
 1886.5000   112.9683     9.5232     2.5122     0.0960     0.0488   -45.3789    11.6148     8.8617   105.4220
 1887.0000   113.8520     9.5244     2.5461     0.0768     0.0927   -45.2840    11.5811     8.7676   106.3465
 1887.5000   116.0381     9.5257     2.5376     0.0612     0.0865   -45.1726    11.5351     8.6774   107.2710
 1888.0000   118.5723     9.5269     2.5293     0.0786     0.0697   -45.0787    11.4666     8.6385   107.9208
 1888.5000   121.2823     9.5283     2.5094     0.0992     0.0514   -45.0661    11.4389     8.6751   107.1030
 1889.0000   120.8379     9.5296     2.4938     0.0897     0.0370   -45.1546    11.4833     8.7639   106.1899
