~VERSION INFORMATION
 VERS.                2.0:   CWLS LOG ASCII STANDARD - VERSION 2.0
 WRAP.                 NO:   ONE LINE PER DEPTH STEP
~WELL INFORMATION
#MNEM.UNIT      DATA TYPE    INFORMATION
#----------   ------------   ------------------------------
 STRT.F           80.0000:   START DEPTH
 STOP.F         1056.0000:   STOP DEPTH
 STEP.F            0.5000:   STEP LENGTH
 NULL.          -999.2500:   NO VALUE
 COMP. U S NAVY-INTEX OIL:   COMPANY
 WELL.      NPR 3 #68-S-2:   WELL
 FLD .        TEAPOT DOME:   FIELD
 LOC .       S2 T38N R78W:   LOCATION
 CNTY.            NATRONA:   COUNTY
 STAT.            WYOMING:   STATE
 CTRY. UNITED STATES OF AMERICA:   COUNTRY
 SRVC.       Schlumberger:   SERVICE COMPANY
 DATE.        21-JUL-1964:   LOGDATE
 API .       490250638800:   API NUMBER
~CURVE INFORMATION
#MNEM.UNIT       API CODE    CURVE DESCRIPTION
#----------   ------------   ------------------------------
 DEPT.F                  :   
 SPR .MV     05 010 01 00:   SPONTANEOUS POTENTIAL FROM RES.
 ASN .OHMM   05 041 16 00:   AMPLIFIED SHORT NORMAL 16"
 ILD .OHMM   05 120 46 00:   INDUCTION LOG DEEP
 CILD.MMHO   05 110 46 00:   CONDUCTIVITY INDUCTION LOG DEEP
 GR  .GAPI   30 310 01 00:   GAMMA RAY
 CALS.IN     60 280 50 00:   CALIPER FROM SONIC LOG
 DT  .US/F   60 520 00 00:   INTERVAL TRANSIT TIME
~PARAMETER INFORMATION
#MNEM.UNIT          VALUE    DESCRIPTION
#----------   ------------   ------------------------------
 PD  .                 GL:   PERMANENT DATUM
 EPD .F              5201:   ELEVATION PERMANENT DATUM
 LMF .                 KB:   LOG MEASURED FROM
 DAPD.F                 5:   FEET ABOVE PERMANENT DATUM
 DMF .                 KB:   DRILLING MEASURED FROM
 EKB .F              5206:   KELLING BUSHING
 EGL .F              5201:   GROUND LEVEL
 DATE.          8-12-1964:   RUN DATE
 RUN .                  1:   RUN NUMBER
 DD  .F              1055:   DEPTH DRILLER
 DL  .F              1057:   DEPTH LOGGER
 BLI .F              1055:   BOTTOM LOG INTERVAL
 TLI .F               450:   TOP LOG INTERVAL
 CS  .IN              4.5:   CASING SIZE
 BS  .IN             6.75:   BIT SIZE
 DFT .            GEL OIL:   DRILLING FLUID TYPE
 DFD .                9.3:   DRILLING FLUID DENSITY
 DFV .                 48:   DRILLING FLUID VISCOSITY
 DFPH.                 10:   DRILLING FLUID PH
 DFL .                 10:   DRILLING FLUID LOSS
 MSS .           FLOWLINE:   MUD SAMPLE SOURCE
 RMS .OHMM           1.07:   RESISTIVITY MUD SAMPLE
 MST .F                95:   MUD SAMPLE TEMPERATURE
 RMF .OHMM            .67:   RESISTIVITY MUD FILTRATE SAMPLE
 MFST.F                95:   MUD FILTRATE SAMPLE TEMPERATURE
 RMC .OHMM           1.44:   RESISTIVITY MUD CAKE
 MCST.F                95:   MUD CAKE SAMPLE TEMPERATURE
 MFSS.                 FP:   MUD FILTRATE SAMPLE SOURCE
 MCSS.                 FP:   MUD CAKE SAMPLE SOURCE
 TCS .HRS               1:   TIME CURCULATED STOPPED
 LUN .               4507:   LOGGING UNIT NUMBER
 LUL .               CSPR:   LOGGING UNIT LOCATION
 ENGI.             DANNER:   RECORDING ENGINEER
 WITN.         JORGENESEN:   WITNESSED BY
 CLNT.            A2DTECH:   CLIENT CODE
 ORIG.           2" PRINT:   ORIGIN OF DATA
 UWI .       490250638800:   UNIQUE WELL ID
 DICO. A2D Technologies, Inc.:   DIGITIZING COMPANY
~OTHER INFORMATION
~A   DEPT      SPR          ASN        ILD      CILD        GR       CALS         DT   
# ...
  626.0000   -32.2384     8.3649     6.6812   149.1663    72.4284     6.7365   103.2691
  626.5000   -32.1115     8.3889     6.7564   146.9049    76.7427     6.7367   103.0427
  627.0000   -32.1103     8.4454     6.8326   144.6107    74.6643     6.7517   102.6661
  627.5000   -32.1087     8.5169     6.9518   143.1905    72.6749     6.7519   101.7631
  628.0000   -31.9583     8.6591     7.0708   141.4882    72.8284     6.7520   100.6345
  628.5000   -32.1059     8.8805     7.2070   140.9443    70.7464     6.7522   100.0324
  629.0000   -32.1043     9.0642     7.3091   140.9375    77.8371     6.7523   101.1593
  629.5000   -32.1356     9.1320     7.3574   140.8965    80.7700     6.7375   100.3315
  630.0000   -32.3992     9.1214     7.3977   140.1785    81.0430     6.7079    99.8046
  630.5000   -32.3979     9.0646     7.5078   140.1712    80.4525     6.6931   100.7811
  631.0000   -32.5454     9.0497     7.5083   140.1628    76.1350     6.6933   101.0811
  631.5000   -32.7735     9.0349     7.5086   138.3717    75.2442     6.6935   101.0052
  632.0000   -32.8406     9.0416     7.5090   137.1725    73.1633     6.6936   100.7037
  632.5000   -32.8388     9.0667     7.5442   135.8816    72.4215     6.7087   100.2518
  633.0000   -32.8375     9.1619     7.6594   133.9386    74.9606     6.7237    99.6496
  633.5000   -32.8359     9.2988     7.7077   131.1967    76.0083     6.7388    98.9721
  634.0000   -32.9836     9.5454     7.8438   130.1934    75.4167     6.7538    98.2947
  634.5000   -32.9821     9.7093     7.9600   128.9505    76.3142     6.7390    97.4669
  635.0000   -32.9807     9.9056     8.1399   127.4305    69.3153     6.7243    96.8646
  635.5000   -32.9791     9.9441     8.2601   125.8816    67.5303     6.7095    96.6383
  636.0000   -32.9774     9.9898     8.3463   123.7188    65.8965     6.6948    96.7881
  636.5000   -32.9762    10.1309     8.4974   121.8054    64.7087     6.6800    97.2383
  637.0000   -32.9746    10.2712     8.6355   119.2405    58.6029     6.6802    97.8391
  637.5000   -32.9731    10.5060     8.7356   117.0636    59.0545     6.6803    97.7631
  638.0000   -32.9717    10.7250     8.8608   115.4365    61.4435     6.6805    97.0105
  638.5000   -32.9702    10.8879     8.9740   113.5380    58.9144     6.6508    96.1827
  639.0000   -32.9687    11.0784     9.0861   113.2589    59.5150     6.6211    95.6556
  639.5000   -32.9670    11.1224     9.0864   113.2506    62.7981     6.6064    95.1286
  640.0000   -32.9657    11.2564     9.0669   113.2440    68.7639     6.6215    94.3759
  640.5000   -32.9642    11.2276     8.9375   113.2365    72.7922     6.6365    93.9205
  641.0000   -32.9627    11.1067     8.8301   113.6583    74.8831     6.6665    94.5248
  641.5000   -32.9613    10.9821     8.7097   114.2111    76.3779     6.6964    95.1256
  642.0000   -32.9595    10.7967     8.5644   116.1893    74.5928     6.7264    95.4256
  642.5000   -32.9583    10.5825     8.4898   117.1812    72.8100     6.7414    95.3496
  643.0000   -32.9567    10.5076     8.4155   118.4074    65.9579     6.7416    95.5784
  643.5000   -32.8867    10.4328     8.4158   119.5300    69.2422     6.7119    95.8048
  644.0000   -32.8048    10.3221     8.4162   120.7045    68.0544     6.6525    96.1063
  644.5000   -32.8033    10.2082     8.4165   121.3616    66.2694     6.6079    96.4077
  645.0000   -32.8316    10.2084     8.4169   121.3542    70.2988     6.5633    96.7845
  645.5000   -32.9493    10.2261     8.4174   121.3461    69.1111     6.5486    97.2363
  646.0000   -32.9478    10.3586     8.4177   121.3393    66.2828     6.5487    97.6882
  646.5000   -32.9463    10.4641     8.4181   121.3319    67.7776     6.5489    97.9000
  647.0000   -33.0939    10.5088     8.4184   121.3244    62.5671     6.5490    97.6735
  647.5000   -33.2415    10.5090     8.4188   121.3169    66.4464     6.5492    97.6728
  648.0000   -33.3413    10.5091     8.4191   121.3087    72.1129     6.5493    97.9728
  648.5000   -33.3877    10.5093     8.4195   121.3021    65.5611     6.5644    98.1224
  649.0000   -33.3858    10.5094     8.4200   121.2946    61.5406     6.5645    98.3472
  649.5000   -33.3845    10.4346     8.4203   121.2872    65.4210     6.5647    98.7224
  650.0000   -33.3830    10.3973     8.3458   122.0246    63.6356     6.5686    99.3228
  650.5000   -33.3815    10.2786     8.3022   122.0152    61.9985     6.5841    99.8496
  651.0000   -33.3800    10.2102     8.2717   123.0084    65.2787     6.5996    99.9248
  651.5000   -33.3783    10.1354     8.2721   124.2333    65.1311     6.6100    99.9248
  652.0000   -33.3771    10.0606     8.2465   125.3571    65.5797     6.6400    99.9248
  652.5000   -33.3755    10.0607     8.1980   126.5315    62.1510     6.6401    99.9248
  653.0000   -33.3741    10.1358     8.1594   127.9301    62.4679     6.6403    99.7744
  653.5000   -33.3636    10.1360     8.1239   127.9241    76.2004     6.6404    99.8496
  654.0000   -33.2221    10.1213     8.0495   127.9161    78.8495     6.6256    99.9248
  654.5000   -33.1878     9.9714     8.0498   128.6532    75.3877     6.6258    99.9248
  655.0000   -33.0699     9.9010     7.9753   129.3901    65.3693     6.6409    99.8496
  655.5000   -33.0119     9.8667     7.9757   129.8575    65.6392     6.6410    99.7744
  656.0000   -32.9180     9.8519     7.9012   130.2878    70.7543     6.6560    99.8496
  656.5000   -32.9166     9.7810     7.8547   130.8557    79.4851     6.6512   100.0000
  657.0000   -32.7660     9.6123     7.6773   131.1484    79.2155     6.6468   100.3008
  657.5000   -32.7642     9.6357     7.6030   133.0729    74.5380     6.6423   100.8271
  658.0000   -32.6140     9.6726     7.4706   134.6727    74.6885     6.6379   101.6541
  658.5000   -32.4634     9.6244     7.3791   137.1540    76.8778     6.6335   102.3308
  659.0000   -32.3964     9.4730     7.1789   140.4899    78.7153     6.6290   103.0827
  659.5000   -32.3115     9.2302     6.9836   143.4858    80.1145     6.6571   104.0602
  660.0000   -32.3100     9.0256     6.7815   147.9164    82.9414     6.7169   104.9624
  660.5000   -32.3085     8.6988     6.5842   151.3057    85.8942     6.7468   105.1880
  661.0000   -32.4558     8.3986     6.4080   156.4145    84.9537     6.7320   105.1128
  661.5000   -32.5052     8.1144     6.3334   161.2858    73.7704     6.6875   104.8120
  662.0000   -32.7510     8.0615     6.3398   161.0664    75.7260     6.6578   103.7594
  662.5000   -32.8241     8.0547     6.4590   159.0396    77.8316     6.6282   102.1053
  663.0000   -32.8972     8.0699     6.5032   157.1999    72.8629     6.6730   100.5263
  663.5000   -32.8957     8.2130     6.6344   155.2280    68.8659     6.7626    99.6241
  664.0000   -32.8942     8.5050     6.7844   152.8570    71.3207     6.7926    97.8947
  664.5000   -33.0416     8.7767     6.9355   150.3168    70.3140     6.7778    96.4662
  665.0000   -33.0402     9.0000     7.0547   147.8414    63.4570     6.7184    96.0150
  665.5000   -33.0387     8.9525     7.0989   146.0454    60.2548     6.6440    96.3158
  666.0000   -33.0372     8.8471     7.2351   143.3631    59.9106     6.6739    96.6165
  666.5000   -33.0358     8.9255     7.3103   142.1788    59.5126     6.7337    96.2406
  667.0000   -33.0340     9.0123     7.3106   140.2455    59.9782     6.7488    94.8120
  667.5000   -33.0328     9.0607     7.2711   139.6194    61.6890     6.7489    93.2331
  668.0000   -32.8822     9.1095     7.1616   139.6131    59.6361     6.7491    94.6617
  668.5000   -32.8808     9.1704     7.0873   139.6053    57.7302     6.7641    95.4887
  669.0000   -32.8793     9.2561     7.0656   139.9876    65.3172     6.7195    95.9398
  669.5000   -32.7854     9.3398     6.9383   142.6502    72.3438     6.6600    96.2406
  670.0000   -32.6975     9.4363     6.9386   145.5343    71.0573     6.6751    96.9925
  670.5000   -32.5765     9.3033     6.9390   146.9160    66.3597     6.7200    97.9699
  671.0000   -32.5216     9.0674     6.9873   148.4970    63.2964     6.7500    98.7970
