~VERSION INFORMATION
 VERS.                2.0:   CWLS LOG ASCII STANDARD - VERSION 2.0
 WRAP.                 NO:   ONE LINE PER DEPTH STEP
~WELL INFORMATION
#MNEM.UNIT      DATA TYPE    INFORMATION
#----------   ------------   ------------------------------
 STRT.F           30.0000:   START DEPTH
 STOP.F          618.0000:   STOP DEPTH
 STEP.F            0.5000:   STEP LENGTH
 NULL.          -999.2500:   NO VALUE
 COMP. FENNIX & SCISSON, INC.:   COMPANY
 WELL.       NPR #88-S-10:   WELL
 FLD .              NPR-3:   FIELD
 LOC .      S10 T38N R78W:   LOCATION
 CNTY.            NATRONA:   COUNTY
 STAT.            WYOMING:   STATE
 CTRY. UNITED STATES OF AMERICA:   COUNTRY
 SRVC.              Welex:   SERVICE COMPANY
 DATE.        22-APR-1977:   LOGDATE
 API .       490251034200:   API NUMBER
~CURVE INFORMATION
#MNEM.UNIT       API CODE    CURVE DESCRIPTION
#----------   ------------   ------------------------------
 DEPT.F                  :   
 CALD.IN     45 280 60 00:   CALIPER FROM DENSITY LOG
 GRD .GAPI   45 310 01 00:   GAMMA RAY FROM DENSITY LOG
 CORR.G/C3   45 356 01 00:   DENSITY CORRECTION
 RHOB.G/C3   45 350 01 00:   BULK DENSITY
 DPHI.DEC    45 890 12 00:   DENSITY POROSITY SANDSTONE
 ILD .OHMM   07 120 46 00:   INDUCTION LOG DEEP
 ILM .OHMM   07 120 44 00:   INDUCTION LOG MEDIUM
 SGRD.OHMM   07 220 05 00:   SHALLOW GUARD RESISTIVITY
 SPR .MV     07 010 01 00:   SPONTANEOUS POTENTIAL FROM RES.
~PARAMETER INFORMATION
#MNEM.UNIT          VALUE    DESCRIPTION
#----------   ------------   ------------------------------
 PD  .                 GL:   PERMANENT DATUM
 EPD .F              5255:   ELEVATION PERMANENT DATUM
 LMF .                 GL:   LOG MEASURED FROM
 DMF .                 GL:   DRILLING MEASURED FROM
 EGL .F              5255:   GROUND LEVEL
 DATE.        22-APR-1977:   RUN DATE
 RUN .                  1:   RUN NUMBER
 DD  .F               630:   DEPTH DRILLER
 DL  .F               620:   DEPTH LOGGER
 BLI .F               618:   BOTTOM LOG INTERVAL
 TLI .F                38:   TOP LOG INTERVAL
 CS  .IN            8.625:   CASING SIZE
 CBD .F                40:   CASING BOTTOM DRILLER
 BS  .IN            7.875:   BIT SIZE
 BSD .F               630:   BIT SIZE AT DEPTH
 DFT .            KCL GEL:   DRILLING FLUID TYPE
 DFD .                9.0:   DRILLING FLUID DENSITY
 DFV .                 40:   DRILLING FLUID VISCOSITY
 DFPH.                8.0:   DRILLING FLUID PH
 DFL .                6.4:   DRILLING FLUID LOSS
 MSS .            MUD PIT:   MUD SAMPLE SOURCE
 RMS .OHMM            .20:   RESISTIVITY MUD SAMPLE
 MST .F                65:   MUD SAMPLE TEMPERATURE
 RMF .OHMM            .18:   RESISTIVITY MUD FILTRATE SAMPLE
 MFST.F                65:   MUD FILTRATE SAMPLE TEMPERATURE
 RMC .OHMM            .28:   RESISTIVITY MUD CAKE
 MCST.F                65:   MUD CAKE SAMPLE TEMPERATURE
 MFSS.               MEAS:   MUD FILTRATE SAMPLE SOURCE
 MCSS.               MEAS:   MUD CAKE SAMPLE SOURCE
 RMB .OHMM            .18:   RESISTIVITY MUD AT BHT
 BHT .F                71:   BOTTOM HOLE TEMPERATURE
 TCS .HRS            0300:   TIME CURCULATED STOPPED
 MRT .F                71:   MAXIMUM RECORDED TEMPERATURE
 LUN .               8611:   LOGGING UNIT NUMBER
 LUL .             CASPER:   LOGGING UNIT LOCATION
 ENGI.          T. JOYNER:   RECORDING ENGINEER
 WITN.           ROB LYON:   WITNESSED BY
 CLNT.            A2DTECH:   CLIENT CODE
 ORIG.           5" PRINT:   ORIGIN OF DATA
 UWI .       490251034200:   UNIQUE WELL ID
 DICO. A2D Technologies, Inc.:   DIGITIZING COMPANY
~OTHER INFORMATION
~A   DEPT     CALD        GRD       CORR       RHOB       DPHI        ILD        ILM       SGRD        SPR   
# ...
  468.0000     7.8099    91.3714     0.0164     2.4014     0.1493    11.1337    11.7618    19.4836   -16.0952
  468.5000     7.8103    95.5645     0.0164     2.4036     0.1487    11.2053    11.6777    18.6861   -16.1059
  469.0000     7.8108    96.9133     0.0134     2.4021     0.1511    11.2787    12.3370    18.1716   -16.1148
  469.5000     7.8112    97.2142     0.0104     2.3954     0.1571    11.5073    13.9644    18.0405   -16.1237
  470.0000     7.8117    96.3175     0.0089     2.3864     0.1604    11.5826    15.3568    17.9104   -16.1326
  470.5000     7.8121    93.9237     0.0089     2.3849     0.1607    11.4173    16.3799    17.7812   -16.1415
  471.0000     7.8126    96.4702     0.0089     2.3879     0.1574    11.1783    15.8450    17.7751   -16.1503
  471.5000     7.8130    97.9687     0.0089     2.4006     0.1541    10.9444    14.3831    17.7690   -16.3080
  472.0000     7.8134    98.7187     0.0105     2.4013     0.1511    10.7154    13.3292    17.7629   -16.3169
  472.5000     7.8288    98.5704     0.0120     2.4050     0.1491    10.5637    12.4536    17.7568   -16.3258
  473.0000     7.8293    98.4219     0.0150     2.4103     0.1440    10.5586    11.8637    17.6287   -16.3347
  473.5000     7.8297    99.0225     0.0165     2.4185     0.1392    10.5535    11.5662    17.5016   -16.3435
  474.0000     7.8302   100.6707     0.0135     2.4169     0.1407    10.5484    12.3333    17.3753   -16.5012
  474.5000     7.8306   102.0195     0.0105     2.4131     0.1437    10.4710    13.1191    17.2500   -16.5101
  475.0000     7.8311   102.4701     0.0090     2.4101     0.1461    10.2518    13.6378    17.0080   -16.8166
  475.5000     7.8315   101.4237     0.0076     2.4087     0.1467    10.2469    12.8585    16.7693   -16.8255
  476.0000     7.8321    99.0300     0.0076     2.4102     0.1449    10.1717    11.9293    16.4204   -16.8343
  476.5000     7.8325    98.4121     0.0106     2.4158     0.1353    10.0276    11.3643    16.1899   -16.9920
  477.0000     7.8330    99.3324     0.0121     2.4270     0.1302     9.9540    11.0757    16.2977   -17.1497
  477.5000     7.8184   101.7291     0.0167     2.4367     0.1263     9.8809    11.1843    16.4048   -17.1586
  478.0000     7.8189   106.5210     0.0167     2.4486     0.1237     9.8083    12.0619    16.5126   -17.3163
  478.5000     7.8194   106.8509     0.0182     2.4506     0.1222     9.7363    12.7292    16.2795   -17.3252
  479.0000     7.8198   104.2785     0.0182     2.4491     0.1231     9.6648    13.3289    16.0510   -17.4828
  479.5000     7.8203   102.6333     0.0197     2.4491     0.1234     9.5938    12.3054    15.8258   -17.4917
  480.0000     7.8207   100.8383     0.0198     2.4491     0.1207     9.4580    11.4142    15.8204   -17.5006
  480.5000     7.8211   102.3368     0.0213     2.4498     0.1213     9.4535    10.8182    15.8149   -17.5095
  481.0000     7.8216   102.6447     0.0228     2.4529     0.1207     9.4489    10.4487    16.0289   -17.5183
  481.5000     7.8220   101.8907     0.0258     2.4596     0.1183     9.4444    10.1704    16.2454   -17.5272
  482.0000     7.8225   100.9940     0.0259     2.4671     0.1141     9.5062    10.1845    16.3526   -17.5361
  482.5000     7.8079    99.1991     0.0244     2.4752     0.1090     9.5673    11.2228    16.5740   -17.5450
  483.0000     7.7935    98.3024     0.0229     2.4782     0.1087     9.6288    12.0108    16.6843   -17.5539
  483.5000     7.7939    98.3044     0.0229     2.4774     0.1114     9.6907    12.5144    16.9101   -17.5627
  484.0000     7.7794    99.6650     0.0214     2.4640     0.1174     9.8204    12.9398    17.2561   -17.4226
  484.5000     7.7799   101.7500     0.0199     2.4430     0.1243     9.8823    12.6440    17.6106   -17.4324
  485.0000     7.7803   100.8533     0.0169     2.4310     0.1306     9.8776    11.9704    17.6045   -17.4405
  485.5000     7.7808   101.1542     0.0154     2.4206     0.1354     9.8728    11.4745    17.9662   -17.4494
  486.0000     7.7962   102.2432     0.0124     2.4131     0.1405     9.6662    11.0900    17.5924   -17.3095
  486.5000     7.7966   104.6003     0.0154     2.4116     0.1446     9.4639    10.7854    16.7578   -17.3185
  487.0000     7.8120   103.3601     0.0185     2.4115     0.1461     9.3299    10.6413    16.1845   -17.3274
  487.5000     7.8125   100.6736     0.0215     2.4123     0.1464     9.2614    11.0943    15.9573   -17.3363
  488.0000     7.8278    99.8143     0.0230     2.4071     0.1491     9.1303    11.4740    15.7334   -17.1962
  488.5000     7.8283   100.8947     0.0245     2.4011     0.1506     9.1259    11.7169    15.7280   -17.0563
  489.0000     7.8287   102.2464     0.0276     2.3973     0.1515     9.2480    11.7944    15.7226   -17.0427
  489.5000     7.8292   104.3653     0.0291     2.3943     0.1566     9.4366    11.6126    15.7172   -16.7764
  490.0000     7.8146   104.7604     0.0321     2.3741     0.1614     9.6956    11.0575    15.8204   -16.6365
  490.5000     7.8151    95.8643     0.0337     2.3592     0.1716     9.6909    10.3986    16.1455   -16.3477
  491.0000     7.8006    91.1528     0.0352     2.3472     0.1857     9.6862    10.1172    16.4772   -16.0590
  491.5000     7.7712    87.2773     0.0397     2.3434     0.1860    10.1599    11.1622    17.2859   -15.6236
  492.0000     7.7118    85.5788     0.0427     2.3479     0.1821    11.5751    12.4507    18.6413   -15.3327
  492.5000     7.6673    84.1491     0.0473     2.3554     0.1827    14.5225    13.5159    20.3821   -14.8973
  493.0000     7.6379    82.4640     0.0518     2.3554     0.1839    18.0955    14.3724    23.0670   -14.6086
  493.5000     7.6234    81.8667     0.0564     2.3531     0.1872    19.6454    15.0790    26.8356   -14.3199
  494.0000     7.6389    82.6171     0.0579     2.3479     0.1926    19.5012    15.2798    31.2197   -14.0311
  494.5000     7.6842    84.5647     0.0579     2.3314     0.1965    19.3580    15.2755    35.8228   -13.8890
  495.0000     7.7594    86.0632     0.0564     2.3194     0.2039    19.8892    16.3852    40.2632   -13.6002
  495.5000     7.7598    86.8132     0.0564     2.3112     0.2057    20.8617    19.0587    42.2430   -13.6113
  496.0000     7.7154    87.1141     0.0564     2.3082     0.2033    21.5824    22.1521    37.8149   -13.3204
  496.5000     7.6710    87.1155     0.0565     2.3224     0.1998    21.2769    28.9834    34.8005   -13.1804
  497.0000     7.6565    86.0691     0.0565     2.3194     0.2010    20.6886    30.4112    36.2577   -13.1915
  497.5000     7.6570    84.4239     0.0550     2.3164     0.2016    19.8413    26.8504    35.0171   -13.0494
  498.0000     7.6724    83.8262     0.0490     2.3224     0.1995    19.1603    25.0535    31.7844   -13.0605
  498.5000     7.6877    86.2233     0.0475     2.3239     0.1974    18.7594    25.3946    29.8620   -12.9183
  499.0000     7.7031    88.0212     0.0475     2.3179     0.1998    18.4938    26.8281    29.0398   -12.9294
  499.5000     7.7185    88.1724     0.0475     2.3141     0.2061    18.6149    27.5712    28.8303   -12.7895
  500.0000     7.7190    89.1216     0.0471     2.3037     0.2022    18.6057    27.7563    29.0955   -12.7984
  500.5000     7.6743    90.7221     0.0445     2.3164     0.2001    18.7285    27.6382    29.8197   -12.8065
  501.0000     7.6744    91.9227     0.0401     2.3246     0.1974    18.9854    27.3557    29.5971   -12.8162
  501.5000     7.6746    92.8231     0.0371     2.3179     0.1974    17.8395    26.9715    28.7776   -12.6763
  502.0000     7.6598    90.4316     0.0339     2.2999     0.2073    16.8795    26.4099    28.1743   -12.6852
  502.5000     7.6450    87.8897     0.0307     2.2991     0.2102    16.3046    26.0390    27.5963   -12.5431
  503.0000     7.6451    88.7909     0.0297     2.2976     0.2121    15.7494    25.8511    27.2071   -12.5543
  503.5000     7.6752    90.7400     0.0267     2.2969     0.2138    15.3182    25.6645    26.9917   -12.5632
  504.0000     7.7202    89.9945     0.0237     2.2999     0.2126    14.8988    25.8355    26.4452   -12.4211
