~VERSION INFORMATION
 VERS.                2.0:   CWLS LOG ASCII STANDARD - VERSION 2.0
 WRAP.                 NO:   ONE LINE PER DEPTH STEP
~WELL INFORMATION
#MNEM.UNIT      DATA TYPE    INFORMATION
#----------   ------------   ------------------------------
 STRT.F           37.5000:   START DEPTH
 STOP.F          525.5000:   STOP DEPTH
 STEP.F            0.5000:   STEP LENGTH
 NULL.          -999.2500:   NO VALUE
 COMP. LAWRENCE/ALLISON INC:   COMPANY
 WELL.    74-11 SX #10-10:   WELL
 FLD .             TEAPOT:   FIELD
 LOC .      S10 T38N R78W:   LOCATION
 CNTY.            NATRONA:   COUNTY
 STAT.            WYOMING:   STATE
 CTRY. UNITED STATES OF AMERICA:   COUNTRY
 SRVC.            Unknown:   SERVICE COMPANY
 DATE.        08-AUG-1984:   LOGDATE
 API .       490251097800:   API NUMBER
~CURVE INFORMATION
#MNEM.UNIT       API CODE    CURVE DESCRIPTION
#----------   ------------   ------------------------------
 DEPT.F                  :   
 CNC .DEC    42 890 03 00:   NEUTRON POROSITY SANDSTONE
 AC  .US/F   60 520 00 00:   ACCOUSTIC
 GRD .GAPI   45 310 01 00:   GAMMA RAY FROM DENSITY LOG
 CALD.IN     45 280 60 00:   CALIPER FROM DENSITY LOG
 CORR.G/C3   45 356 01 00:   DENSITY CORRECTION
 DPHI.DEC    45 890 12 00:   DENSITY POROSITY SANDSTONE
 DEN .G/C3   45 350 01 00:   COMPENSATED BULK DENSTIY
 RILD.OHMM   07 120 46 00:   RESISTIVITY INDUCTION LOG DEEP
 RILM.OHMM   07 120 44 00:   RESISTIVITY INDUCTION LOG MEDIUM
 RFOC.OHMM   07 220 04 00:   RESISTIVITY FOCUSED LOG
 SPR .MV     07 010 01 00:   SPONTANEOUS POTENTIAL FROM RES.
~PARAMETER INFORMATION
#MNEM.UNIT          VALUE    DESCRIPTION
#----------   ------------   ------------------------------
 PD  .                 GL:   PERMANENT DATUM
 EPD .F              5180:   ELEVATION PERMANENT DATUM
 LMF .                 GL:   LOG MEASURED FROM
 DMF .                 GL:   DRILLING MEASURED FROM
 EGL .F              5180:   GROUND LEVEL
 DATE.             8-8-84:   RUN DATE
 RUN .                  1:   RUN NUMBER
 DD  .F               525:   DEPTH DRILLER
 DL  .F               526:   DEPTH LOGGER
 BLI .F               525:   BOTTOM LOG INTERVAL
 TLI .F                42:   TOP LOG INTERVAL
 CS  .IN            9.625:   CASING SIZE
 CBD .F                42:   CASING BOTTOM DRILLER
 CBL .F                42:   CASING BOTTOM LOGGER
 BS  .IN            7.875:   BIT SIZE
 BSD .F               525:   BIT SIZE AT DEPTH
 DFT .          KCL WATER:   DRILLING FLUID TYPE
 MSS .           FLOWLINE:   MUD SAMPLE SOURCE
 RMS .OHMM           .141:   RESISTIVITY MUD SAMPLE
 MST .F                78:   MUD SAMPLE TEMPERATURE
 RMF .OHMM            .12:   RESISTIVITY MUD FILTRATE SAMPLE
 MFST.F                78:   MUD FILTRATE SAMPLE TEMPERATURE
 RMC .OHMM             .2:   RESISTIVITY MUD CAKE
 MCST.F                78:   MUD CAKE SAMPLE TEMPERATURE
 MFSS.               MEAS:   MUD FILTRATE SAMPLE SOURCE
 MCSS.               MEAS:   MUD CAKE SAMPLE SOURCE
 RMB .OHMM            .13:   RESISTIVITY MUD AT BHT
 BHT .F                89:   BOTTOM HOLE TEMPERATURE
 MRT .F                89:   MAXIMUM RECORDED TEMPERATURE
 LUN .               6307:   LOGGING UNIT NUMBER
 LUL .               GLTE:   LOGGING UNIT LOCATION
 ENGI.            JOHNSON:   RECORDING ENGINEER
 WITN.              FIVAS:   WITNESSED BY
 CLNT.            A2DTECH:   CLIENT CODE
 ORIG.           5" PRINT:   ORIGIN OF DATA
 UWI .       490251097800:   UNIQUE WELL ID
 DICO. A2D Technologies, Inc.:   DIGITIZING COMPANY
~OTHER INFORMATION
~A   DEPT      CNC         AC        GRD       CALD       CORR       DPHI        DEN       RILD       RILM       RFOC        SPR   
# ...
  373.0000     0.2760    91.4300    80.6490     7.8790     0.0800     0.1390     2.4480    20.2660    11.0060    18.3000   -33.7390
  373.5000     0.2747    90.9870    80.8870     7.8790     0.0670     0.1410     2.4440    19.5320    10.7740    17.8860   -34.0980
  374.0000     0.2769    90.5440    80.3990     7.8790     0.0730     0.1430     2.4410    19.0120    10.5310    17.4720   -34.4320
  374.5000     0.2886    90.1010    79.8780     7.8790     0.0800     0.1450     2.4400    19.4950    10.2890    17.1800   -34.6740
  375.0000     0.2978    89.9750    79.3570     7.8790     0.0690     0.1480     2.4360    19.8690    10.0700    17.0630   -34.9050
  375.5000     0.3003    89.8480    78.8350     7.8790     0.0510     0.1500     2.4300    20.2780    10.1200    16.9330   -35.0160
  376.0000     0.2857    89.7220    77.9570     7.8790     0.0420     0.1520     2.4280    19.6530    10.1750    16.8020   -34.8230
  376.5000     0.2732    89.5950    76.6410     7.8790     0.0580     0.1520     2.4270    18.9620    10.2570    16.7120   -34.6070
  377.0000     0.2719    89.4940    78.0670     7.8790     0.0460     0.1530     2.4260    18.2700    10.1830    16.8140   -34.3910
  377.5000     0.2719    89.4940    78.9380     7.8790     0.0330     0.1540     2.4250    17.6620    10.0380    16.9260   -34.1740
  378.0000     0.2806    89.4940    76.6340     7.8790     0.0450     0.1520     2.4260    17.7870     9.8930    17.0380   -33.9580
  378.5000     0.2876    89.4940    76.7490     7.8790     0.0610     0.1490     2.4300    17.9610     9.7960    17.1800   -33.7380
  379.0000     0.2848    89.4330    79.6770     7.8790     0.0770     0.1480     2.4340    18.1340     9.8930    16.9280   -33.8310
  379.5000     0.2850    89.3320    82.4730     7.8790     0.0900     0.1470     2.4350    18.3080     9.9790    16.5590   -33.6190
  380.0000     0.2688    89.2310    85.2970     7.8790     0.0940     0.1470     2.4340    18.4820    10.0700    16.7230   -33.6540
  380.5000     0.2679    89.1300    88.0610     7.8790     0.0770     0.1470     2.4350    18.6650    10.0340    16.9460   -33.6810
  381.0000     0.2678    89.0280    87.6140     7.8790     0.0590     0.1470     2.4370    18.4680     9.9680    17.1800   -33.7060
  381.5000     0.2678    88.9270    85.6190     7.8790     0.0530     0.1440     2.4410    18.2020     9.8860    17.1800   -33.7300
  382.0000     0.2653    88.8360    85.1040     7.8790     0.0450     0.1410     2.4430    17.9370     9.9120    16.8240   -33.7540
  382.5000     0.2584    88.7520    84.5160     7.8790     0.0370     0.1410     2.4430    17.6620     9.9460    16.5600   -33.7790
  383.0000     0.2571    88.6840    82.7770     7.8790     0.0470     0.1420     2.4440    17.6240     9.9800    16.2960   -33.8040
  383.5000     0.2574    88.9120    81.0650     7.8790     0.0610     0.1390     2.4500    17.5750    10.0140    16.0320   -33.8290
  384.0000     0.2610    89.1020    79.7900     7.8790     0.0750     0.1360     2.4530    17.5260    10.0490    15.8140   -33.9580
  384.5000     0.2722    89.2910    80.3080     7.8790     0.0780     0.1350     2.4550    17.4770    10.0700    16.0630   -34.2130
  385.0000     0.2724    89.2780    80.7940     7.8790     0.0780     0.1340     2.4570    17.4280    10.0100    16.2760   -34.4680
  385.5000     0.2730    89.2560    81.2750     7.8790     0.0760     0.1300     2.4590    17.3790     9.9590    16.4070   -34.7220
  386.0000     0.2826    89.2340    81.7690     7.8790     0.0560     0.1320     2.4570    17.2980     9.9080    16.1070   -34.9770
  386.5000     0.2893    89.2120    82.7010     7.8790     0.0370     0.1360     2.4510    17.0750     9.8570    15.8540   -35.2330
  387.0000     0.2772    89.1900    85.3130     7.8790     0.0330     0.1400     2.4450    16.8520     9.7960    15.6000   -35.4920
  387.5000     0.2682    89.1680    87.9080     7.8790     0.0450     0.1410     2.4470    16.6290     9.9050    15.3470   -35.7180
  388.0000     0.2656    89.1460    90.5010     7.8790     0.0580     0.1370     2.4530    16.4070     9.9370    15.0930   -36.1140
  388.5000     0.2780    89.1240    89.8010     7.8790     0.0700     0.1320     2.4600    16.5610     9.9680    14.6900   -36.5020
  389.0000     0.2854    89.1020    88.6420     7.8790     0.0800     0.1320     2.4610    16.7150    10.0000    14.7540   -36.8990
  389.5000     0.2856    89.0510    88.2200     7.8790     0.0660     0.1340     2.4560    16.8670    10.0310    14.9090   -36.8280
  390.0000     0.2710    88.9560    87.1590     7.8790     0.0530     0.1370     2.4520    16.6950    10.0630    15.0640   -36.4910
  390.5000     0.2691    88.8610    85.1640     7.8790     0.0410     0.1370     2.4510    16.4860    10.0950    15.2200   -36.1530
  391.0000     0.2666    88.7660    83.1670     7.8790     0.0570     0.1360     2.4520    16.3970    10.1260    15.3750   -35.8130
  391.5000     0.2616    88.6720    81.5220     7.8790     0.0760     0.1350     2.4530    16.3530    10.1630    15.5250   -35.4740
  392.0000     0.2755    88.5770    85.0180     7.8790     0.0870     0.1350     2.4540    16.3090    10.1320    15.4560   -35.1340
  392.5000     0.2912    88.4820    88.6550     7.8790     0.0870     0.1360     2.4540    16.2640    10.0950    15.3900   -34.7940
  393.0000     0.2922    88.6840    88.9460     7.8790     0.0850     0.1370     2.4530    16.2200    10.0580    15.3240   -34.6640
  393.5000     0.2902    88.8870    88.7280     7.8790     0.0740     0.1370     2.4510    16.1760    10.0210    15.2570   -34.9890
  394.0000     0.2778    89.0890    89.1120     7.8800     0.0570     0.1380     2.4510    16.1320     9.9840    15.1910   -35.2420
  394.5000     0.2715    89.2910    86.2880     7.8810     0.0400     0.1360     2.4540    16.2570     9.9470    15.1250   -35.4910
  395.0000     0.2675    89.2910    83.7880     7.8810     0.0490     0.1340     2.4560    16.1590     9.9100    15.0620   -35.7970
  395.5000     0.2659    89.2910    84.3360     7.8820     0.0590     0.1320     2.4590    16.0670     9.8730    15.0020   -36.1600
  396.0000     0.2861    89.2910    84.8000     7.8820     0.0700     0.1310     2.4610    15.9750     9.8360    14.9420   -36.5230
  396.5000     0.2858    89.2910    83.4870     7.8830     0.0710     0.1300     2.4620    15.8820     9.7990    14.8820   -36.8850
  397.0000     0.2810    89.3800    85.0640     7.8830     0.0710     0.1300     2.4620    15.7900     9.7620    14.8260   -37.2480
  397.5000     0.2732    89.5280    87.0690     7.8840     0.0730     0.1300     2.4610    15.6980     9.7250    14.4990   -37.6110
  398.0000     0.2678    89.6760    86.9980     7.8850     0.0760     0.1280     2.4640    15.5020     9.5820    14.1940   -37.9740
  398.5000     0.2783    89.8240    86.4160     7.8850     0.0870     0.1260     2.4710    15.2580     9.3260    13.9000   -38.3380
  399.0000     0.2838    89.9710    86.3500     7.8860     0.0970     0.1210     2.4810    15.0130     9.0690    13.9000   -38.6860
  399.5000     0.2794    90.1190    86.2620     7.8860     0.1060     0.1130     2.4930    14.7690     8.8130    13.9000   -39.0210
  400.0000     0.2713    90.2670    86.1690     7.8870     0.0930     0.1100     2.5000    14.5240     8.5560    13.9000   -39.3520
  400.5000     0.2707    90.4150    86.1520     7.8870     0.0830     0.1130     2.4900    14.2800     8.3000    13.6760   -39.6820
  401.0000     0.2818    90.5620    87.3110     7.8880     0.0830     0.1190     2.4850    14.0350     8.1290    13.3560   -39.9750
  401.5000     0.2957    90.7090    88.6910     7.8880     0.0830     0.1240     2.4820    13.7910     8.0920    13.0360   -39.9070
  402.0000     0.2882    91.2750    90.9850     7.8890     0.0590     0.1280     2.4720    13.5220     8.0550    12.7150   -39.8230
  402.5000     0.2848    91.8670    93.2140     7.8900     0.0320     0.1260     2.4700    13.0940     8.0180    12.3950   -39.7760
  403.0000     0.2853    92.3280    94.4640     7.8900     0.0350     0.1240     2.4730    12.4870     7.9810    12.1070   -40.0530
