~VERSION INFORMATION
 VERS.                2.0:   CWLS LOG ASCII STANDARD - VERSION 2.0
 WRAP.                 NO:   ONE LINE PER DEPTH STEP
~WELL INFORMATION
#MNEM.UNIT      DATA TYPE    INFORMATION
#----------   ------------   ------------------------------
 STRT.F           20.0000:   START DEPTH
 STOP.F          672.0000:   STOP DEPTH
 STEP.F            0.5000:   STEP LENGTH
 NULL.          -999.2500:   NO VALUE
 COMP.              FENIX:   COMPANY
 WELL.    NPR ##3 23-S-11:   WELL
 FLD .        TEAPOT DOME:   FIELD
 LOC .      S11 T38N R78W:   LOCATION
 CNTY.            NATRONA:   COUNTY
 STAT.            WYOMING:   STATE
 CTRY. UNITED STATES OF AMERICA:   COUNTRY
 SRVC.           BIRDWELL:   SERVICE COMPANY
 DATE.        05-FEB-1978:   LOGDATE
 API .       490251057300:   API NUMBER
~CURVE INFORMATION
#MNEM.UNIT       API CODE    CURVE DESCRIPTION
#----------   ------------   ------------------------------
 DEPT.F                  :   
 ILD .OHMM   05 120 46 00:   INDUCTION LOG DEEP
 SN  .OHMM   05 040 16 00:   SHORT NORMAL 16"
 SPR .MV     05 010 01 00:   SPONTANEOUS POTENTIAL FROM RES.
 CALD.IN     45 280 60 00:   CALIPER FROM DENSITY LOG
 CORR.G/C3   45 356 01 00:   DENSITY CORRECTION
 DPHI.DEC    45 890 10 00:   DENSITY POROSITY LIMESTONE
 GRD .GAPI   45 310 01 00:   GAMMA RAY FROM DENSITY LOG
 RHOB.G/C3   45 350 01 00:   BULK DENSITY
~PARAMETER INFORMATION
#MNEM.UNIT          VALUE    DESCRIPTION
#----------   ------------   ------------------------------
 PD  .                 GL:   PERMANENT DATUM
 EPD .F              5175:   ELEVATION PERMANENT DATUM
 LMF .                 KB:   LOG MEASURED FROM
 DMF .                 KB:   DRILLING MEASURED FROM
 EKB .F              5178:   KELLING BUSHING
 EGL .F              5175:   GROUND LEVEL
 DATE.        05-FEB-1978:   RUN DATE
 RUN .                  1:   RUN NUMBER
 DD  .F               670:   DEPTH DRILLER
 DL  .F               675:   DEPTH LOGGER
 BLI .F               670:   BOTTOM LOG INTERVAL
 TLI .F                40:   TOP LOG INTERVAL
 CS  .IN            8.625:   CASING SIZE
 CBD .F                39:   CASING BOTTOM DRILLER
 CBL .F                40:   CASING BOTTOM LOGGER
 BS  .IN            7.875:   BIT SIZE
 BSD .F               670:   BIT SIZE AT DEPTH
 DFT .                KCL:   DRILLING FLUID TYPE
 DFD .                8.4:   DRILLING FLUID DENSITY
 DFV .                 32:   DRILLING FLUID VISCOSITY
 DFPH.                  8:   DRILLING FLUID PH
 DFL .                8.8:   DRILLING FLUID LOSS
 MSS .           FLOWLINE:   MUD SAMPLE SOURCE
 RMS .OHMM           0.58:   RESISTIVITY MUD SAMPLE
 MST .F                62:   MUD SAMPLE TEMPERATURE
 RMF .OHMM           0.58:   RESISTIVITY MUD FILTRATE SAMPLE
 MFST.F                62:   MUD FILTRATE SAMPLE TEMPERATURE
 RMC .OHMM            0.9:   RESISTIVITY MUD CAKE
 MCST.F                66:   MUD CAKE SAMPLE TEMPERATURE
 MFSS.               MEAS:   MUD FILTRATE SAMPLE SOURCE
 RMB .OHMM           0.55:   RESISTIVITY MUD AT BHT
 BHT .F                72:   BOTTOM HOLE TEMPERATURE
 TCS .HRS               1:   TIME CURCULATED STOPPED
 MRT .F                72:   MAXIMUM RECORDED TEMPERATURE
 LUN .               2958:   LOGGING UNIT NUMBER
 LUL .               CASP:   LOGGING UNIT LOCATION
 ENGI.            POINTER:   RECORDING ENGINEER
 WITN.         HARRINGTON:   WITNESSED BY
 CLNT.            A2DTECH:   CLIENT CODE
 ORIG.           5" PRINT:   ORIGIN OF DATA
 UWI .       490251057300:   UNIQUE WELL ID
 DICO. A2D Technologies, Inc.:   DIGITIZING COMPANY
~OTHER INFORMATION
~A   DEPT      ILD         SN        SPR       CALD       CORR       DPHI         GRD      RHOB   
# ...
  425.0000     6.9815     7.8908   -52.2876     7.9516     0.0150     0.1092    89.5796     2.4741
  425.5000     6.9316     7.8875   -52.2994     7.9508     0.0165     0.1005    92.5753     2.4787
  426.0000     6.9299     7.8849   -52.3111     7.9652     0.0150     0.0950    94.9712     2.4989
  426.5000     6.8325     7.8823   -52.3232     7.9792     0.0135     0.0935    95.5688     2.4876
  427.0000     6.7837     7.8796   -52.3376     7.9782     0.0135     0.1017    95.4153     2.4801
  427.5000     6.6887     7.8225   -52.5019     7.9926     0.0150     0.1056    95.1119     2.4718
  428.0000     6.6871     7.7114   -52.5136     7.9915     0.0187     0.1053    93.0101     2.4696
  428.5000     6.6855     7.6555   -52.6779     8.0058     0.0209     0.1041    91.6579     2.4748
  429.0000     6.7305     7.7062   -52.6897     8.0047     0.0194     0.0989    91.6551     2.4778
  429.5000     6.7757     7.7573   -52.8539     8.0038     0.0178     0.1005    91.9521     2.4793
  430.0000     6.8213     7.8094   -52.8659     8.0030     0.0157     0.1014    92.5482     2.4793
  430.5000     6.8193     7.8061   -53.0561     8.0019     0.0149     0.1014    92.5454     2.4756
  431.0000     6.7237     7.8578   -53.3485     8.0011     0.0157     0.1011    89.3941     2.4748
  431.5000     6.3594     7.8468   -53.3603     8.0002     0.0156     0.1017    90.1409     2.4748
  432.0000     5.8097     7.5841   -53.3721     7.9994     0.0164     0.1047    90.7696     2.4733
  432.5000     5.5716     7.3230   -53.3841     7.9983     0.0239     0.1041    91.9335     2.4703
  433.0000     5.5671     6.9733   -53.2432     7.9975     0.0276     0.1059    92.9802     2.4673
  433.5000     5.6484     6.5945   -53.2579     7.9966     0.0329     0.1077    94.1767     2.4673
  434.0000     5.7641     6.4118   -53.1143     7.9958     0.0351     0.1095    95.5232     2.4658
  434.5000     5.6438     6.2341   -53.1291     7.9947     0.0313     0.1119    97.0196     2.4598
  435.0000     5.6036     6.2812   -52.9855     8.0092     0.0073     0.1209    96.5663     2.4515
  435.5000     5.5634     6.4053   -53.0002     8.0232     0.0103     0.1329    95.5139     2.3937
  436.0000     5.4855     6.4921   -53.1646     8.0221     0.0178     0.1242    91.9129     2.4072
  436.5000     5.4463     6.5357   -53.3316     8.0213     0.0208     0.1137    90.4108     2.4493
  437.0000     5.4450     6.4878   -53.3415     8.0355     0.0208     0.1050    89.8075     2.4658
  437.5000     5.4437     6.4856   -53.3551     8.0346     0.0201     0.1065    89.5048     2.4733
  438.0000     5.4424     6.5286   -53.3669     8.0336     0.0208     0.1080    89.5020     2.4673
  438.5000     5.4408     6.4313   -53.5311     8.0480     0.0178     0.1104    89.9489     2.4572
  439.0000     5.4020     6.1286   -53.5427     8.0469     0.0073     0.1137    91.0095     2.4463
  439.5000     5.3634     5.7556   -53.5549     8.0461    -0.0017     0.1203    92.9410     2.4200
  440.0000     5.3621     5.5961   -53.5671     8.0450    -0.0092     0.1374    94.8879     2.3817
  440.5000     5.4357     5.6724   -53.7337     8.0442     0.0043     0.1551    90.6864     2.3704
  441.0000     5.5103     6.0360   -53.7454     8.0433     0.0125     0.1545    90.6836     2.3783
  441.5000     5.7431     6.6498   -53.7572     8.0274     0.0147     0.1500    91.7447     2.4245
  442.0000     5.9101     6.8823   -53.7690     8.0264     0.0147     0.1145    92.9955     2.4673
  442.5000     6.0679     6.9279   -53.7808     8.0255     0.0177     0.1107    94.2725     2.4718
  443.0000     6.1600     6.9738   -53.7927     8.0247     0.0185     0.1059    94.8701     2.4703
  443.5000     6.1926     6.9227   -53.9597     8.0236     0.0117     0.1053    93.9670     2.4757
  444.0000     6.1055     6.4117   -54.1220     8.0228     0.0095     0.1071    90.5777     2.4726
  444.5000     6.0200     5.8973   -54.2882     8.0219     0.0102     0.1128    89.3129     2.4643
  445.0000     5.8539     5.7336   -54.4524     8.0211     0.0117     0.1155    89.4607     2.4568
  445.5000     5.6123     5.6135   -54.6166     8.0200     0.0147     0.1161    89.4571     2.4545
  446.0000     5.4088     5.5343   -54.7808     8.0192     0.0267     0.1152    89.4543     2.4569
  446.5000     5.1988     5.4184   -54.7927     8.0183     0.0304     0.1137    93.7985     2.4613
  447.0000     5.1260     5.3792   -54.8049     8.0175     0.0312     0.1137    96.4943     2.4613
  447.5000     5.1248     5.3774   -54.6637     8.0164     0.0289     0.1200    96.6421     2.4583
  448.0000     5.1952     5.3383   -54.2212     8.0156    -0.0006     0.1509    96.6386     2.4433
  448.5000     5.4146     5.3738   -53.9281     8.0147     0.0090     0.1554    96.1804     2.3921
  449.0000     5.7191     5.5612   -53.4825     8.0139     0.0169     0.1443    91.8345     2.4020
  449.5000     6.0490     6.0004   -52.8846     8.0128     0.0131     0.1280    91.8317     2.4403
  450.0000     6.3539     6.4024   -52.4390     7.9518     0.0116     0.1164    91.5290     2.4583
  450.5000     6.6143     6.7812   -52.4915     7.9217     0.0146     0.1143    88.3778     2.4568
  451.0000     6.8937     7.1600   -52.5441     7.9066     0.0146     0.1140    84.3263     2.4635
  451.5000     7.1353     7.4856   -52.5966     7.8916     0.0146     0.1101    82.3745     2.4703
  452.0000     7.2836     7.7484   -52.6229     7.8916     0.0154     0.1014    80.8724     2.4832
  452.5000     7.3840     7.9098   -52.6303     7.8916     0.0161     0.0950    81.9391     2.4853
  453.0000     7.5371     7.9082   -52.4852     7.8916     0.0169     0.0968    83.5648     2.4838
  453.5000     7.5877     7.9617   -52.4924     7.8765     0.0184     0.0971    84.6114     2.4830
  454.0000     7.6387     7.9596   -52.5000     7.8765     0.0184     0.0947    85.0585     2.4845
  454.5000     7.7432     7.9580   -52.3384     7.8916     0.0154     0.0910    85.6546     2.4935
  455.0000     7.7413     7.9566   -51.9069     7.9066     0.0146     0.0896    85.3520     2.4928
  455.5000     7.7397     7.9550   -51.9143     7.9066     0.0169     0.0974    84.5995     2.4860
  456.0000     7.6844     7.9532   -51.7674     7.9217     0.0154     0.0995    84.1469     2.4898
  456.5000     7.6824     7.9516   -51.7766     7.9201     0.0146     0.0923    84.1434     2.4935
  457.0000     7.6563     8.0054   -51.9360     7.9066     0.0176     0.0962    84.1406     2.4890
  457.5000     7.6257     8.0669   -51.9439     7.9066     0.0214     0.0956    84.7375     2.4852
  458.0000     7.5712     8.1139   -51.9513     7.8916     0.0244     0.0872    86.0834     2.4935
  458.5000     7.5690     8.1119   -51.9588     7.8765     0.0259     0.0884    87.8797     2.4965
  459.0000     7.6312     8.1103   -51.9679     7.8464     0.0289     0.0905    88.4773     2.4972
  459.5000     7.7245     8.0526   -51.8229     7.8464     0.0311     0.0915    86.8246     2.4965
  460.0000     7.7227     7.9953   -51.6760     7.8614     0.0334     0.0956    81.7236     2.4912
  460.5000     7.7210     8.0493   -51.3803     7.8765     0.0349     0.0998    83.0701     2.4814
  461.0000     7.7191     8.1602   -51.3872     7.8765     0.0386     0.0992    83.3679     2.4814
  461.5000     7.7172     8.5110   -51.3951     7.8765     0.0401     0.0980    81.9830     2.4860
  462.0000     7.7153     8.7427   -51.4025     7.8765     0.0416     0.0929    81.1120     2.4912
  462.5000     7.5021     8.8023   -51.4101     7.8765     0.0409     0.0893    81.1092     2.4964
  463.0000     7.0955     8.5591   -51.4177     7.8916     0.0394     0.0839    81.1064     2.4994
  463.5000     6.6185     8.0951   -51.4265     7.9066     0.0409     0.0926    81.5527     2.4979
  464.0000     6.2598     7.4986   -51.4339     7.9066     0.0439     0.0998    82.4494     2.4829
  464.5000     6.0033     6.8979   -51.4413     7.9217     0.0484     0.1014    83.9459     2.4754
  465.0000     6.0436     6.3454   -51.4487     7.9217     0.0558     0.1050    85.6521     2.4701
