~VERSION INFORMATION
 VERS.                2.0:   CWLS LOG ASCII STANDARD - VERSION 2.0
 WRAP.                 NO:   ONE LINE PER DEPTH STEP
~WELL INFORMATION
#MNEM.UNIT      DATA TYPE    INFORMATION
#----------   ------------   ------------------------------
 STRT.F            0.0000:   START DEPTH
 STOP.F          844.0000:   STOP DEPTH
 STEP.F            0.5000:   STEP LENGTH
 NULL.          -999.2500:   NO VALUE
 COMP. BROWN JOHN E&C INC:   COMPANY
 WELL. NAVAL PETROLEUM RESERVE 3 SX-1 #42-1-14:   WELL
 FLD .             TEAPOT:   FIELD
 LOC .      S14 T38N R78W:   LOCATION
 CNTY.            NATRONA:   COUNTY
 STAT.            WYOMING:   STATE
 CTRY. UNITED STATES OF AMERICA:   COUNTRY
 SRVC.     Atlas Wireline:   SERVICE COMPANY
 DATE.        11-JAN-1992:   LOGDATE
 API .       490252247700:   API NUMBER
~CURVE INFORMATION
#MNEM.UNIT       API CODE    CURVE DESCRIPTION
#----------   ------------   ------------------------------
 DEPT.F                  :   
 GRR .GAPI   07 310 01 00:   GAMMA RAY
 RFOC.OHMM   07 220 04 00:   RESISTIVITY FOCUSED LOG
 RILD.OHMM   07 120 46 00:   INDUCTION LOG DEEP RESISTIVITY
 RILM.OHMM   07 120 44 00:   INDUCTION LOG MEDIUM RESISTIVITY
 SPR .MV     07 010 01 00:   SPONTANEOUS POTENTIAL
~PARAMETER INFORMATION
#MNEM.UNIT          VALUE    DESCRIPTION
#----------   ------------   ------------------------------
 PD  .                 GL:   PERMANENT DATUM
 EPD .F              5201:   ELEVATION PERMANENT DATUM
 LMF .                 KB:   LOG MEASURED FROM
 DAPD.F                10:   FEET ABOVE PERMANENT DATUM
 DMF .                 KB:   DRILLING MEASURED FROM
 EKB .F              5211:   KELLING BUSHING
 EGL .F              5201:   GROUND LEVEL
 DATE.        11-JAN-1992:   RUN DATE
 RUN .                  1:   RUN NUMBER
 DD  .F               848:   DEPTH DRILLER
 DL  .F               847:   DEPTH LOGGER
 BLI .F               845:   BOTTOM LOG INTERVAL
 CS  .IN            10.75:   CASING SIZE
 CBD .F               101:   CASING BOTTOM DRILLER
 CBL .F               101:   CASING BOTTOM LOGGER
 BS  .IN             8.75:   BIT SIZE
 BSD .F               848:   BIT SIZE AT DEPTH
 DFT .               CHEM:   DRILLING FLUID TYPE
 DFD .                9.0:   DRILLING FLUID DENSITY
 DFV .                 40:   DRILLING FLUID VISCOSITY
 DFPH.                9.0:   DRILLING FLUID PH
 DFL .                8.4:   DRILLING FLUID LOSS
 MSS .           FLOWLINE:   MUD SAMPLE SOURCE
 RMS .OHMM           0.22:   RESISTIVITY MUD SAMPLE
 MST .F                78:   MUD SAMPLE TEMPERATURE
 RMF .OHMM           0.17:   RESISTIVITY MUD FILTRATE SAMPLE
 MFST.F                78:   MUD FILTRATE SAMPLE TEMPERATURE
 RMC .OHMM           0.28:   RESISTIVITY MUD CAKE
 MCST.F                78:   MUD CAKE SAMPLE TEMPERATURE
 MFSS.               MEAS:   MUD FILTRATE SAMPLE SOURCE
 MCSS.               CALC:   MUD CAKE SAMPLE SOURCE
 RMB .OHMM           0.14:   RESISTIVITY MUD AT BHT
 BHT .F               126:   BOTTOM HOLE TEMPERATURE
 TCS .HRS               3:   TIME CURCULATED STOPPED
 MRT .F               126:   MAXIMUM RECORDED TEMPERATURE
 LUN .            HL-6274:   LOGGING UNIT NUMBER
 LUL .         CASPER, WY:   LOGGING UNIT LOCATION
 ENGI.             ZIEGER:   RECORDING ENGINEER
 WITN.         MR. STRONG:   WITNESSED BY
 CLNT.            A2DTECH:   CLIENT CODE
 ORIG.           5" PRINT:   ORIGIN OF DATA
 UWI .       490252247700:   UNIQUE WELL ID
 DICO. A2D Technologies, Inc.:   DIGITIZING COMPANY
~OTHER INFORMATION
~A    DEPT      GRR      RFOC       RILD       RILM        SPR   
# ...
  305.0000   109.1287     6.3431     6.4596     6.3908   -13.4731
  305.5000   103.0198     6.3854     6.3239     6.3001   -13.3336
  306.0000    98.2789     6.4025     6.2784     6.2107   -13.3422
  306.5000    99.1668     6.4233     6.2332     6.1226   -13.3509
  307.0000   101.8478     6.5107     6.1884     6.0357   -13.2090
  307.5000   105.1338     6.5069     6.1869     5.9500   -13.0577
  308.0000   109.0203     6.5038     6.1854     5.9475   -12.9258
  308.5000   112.3063     6.5007     6.1836     5.9455   -13.2374
  309.0000   114.3911     6.4978     6.1822     5.9657   -13.3965
  309.5000   111.9670     6.4494     6.1807     6.0255   -13.5555
  310.0000   106.5442     6.4462     6.2229     6.0836   -13.7146
  310.5000   101.4218     6.4431     6.3086     6.1272   -14.0281
  311.0000    99.9073     6.4853     6.3513     6.2393   -14.4860
  311.5000   104.0898     6.6333     6.4426     6.3623   -14.7954
  312.0000   104.9734     6.8512     6.5735     6.4496   -14.8041
  312.5000   103.7505     7.0422     6.6644     6.5380   -15.1135
  313.0000    98.6281     7.2894     6.8038     6.6277   -15.1222
  313.5000    93.8059     7.3886     6.8503     6.7650   -15.1309
  314.0000    90.1850     7.2824     6.9446     6.8584   -15.1178
  314.5000    97.9754     7.2788     6.9916     6.9034   -14.8475
  315.0000   104.6245     7.2753     7.0389     6.9981   -14.7058
  315.5000   108.4513     7.2206     6.9879     6.9952   -14.2633
  316.0000   106.9281     7.2172     6.9863     6.9928   -14.1216
  316.5000   103.9078     7.2138     6.9846     7.0400   -14.1324
  317.0000    99.9865     7.2103     6.8861     6.9881   -13.9907
  317.5000    96.3656     7.2069     6.8366     6.8889   -14.0016
  318.0000    94.8467     7.0047     6.6933     6.8789   -14.0103
  318.5000    96.4084     6.9034     6.6379     6.7411   -14.0189
  319.0000   101.4143     6.8430     6.5055     6.6455   -14.1780
  319.5000   105.9015     6.8011     6.4137     6.6432   -14.3370
  320.0000   107.0897     6.7979     6.3233     6.6410   -14.6466
  320.5000   105.8668     6.7948     6.3218     6.6853   -14.9581
  321.0000   107.6513     6.7915     6.4092     6.7769   -15.1171
  321.5000   112.7808     6.7881     6.4998     6.8698   -15.2762
  322.0000   117.5222     6.7842     6.8691     7.0613   -14.6833
  322.5000   115.7030     6.8765     7.3642     7.2082   -14.0902
  323.0000   110.2803     7.3711     7.6240     7.3588   -14.0992
  323.5000    98.5512     8.9612     7.7294     7.5639   -14.1100
  324.0000    95.8312     8.7099     7.6738     7.6144   -14.2691
  324.5000    98.8290     8.0050     7.6186     7.6118   -14.2778
  325.0000   102.5526     8.0012     7.6747     7.7791   -14.4368
  325.5000   100.5797     8.0536     7.9960     8.0426   -14.7462
  326.0000    97.5593     7.9927     8.1066     8.0969   -14.9053
  326.5000    96.3408     7.9332     8.0483     7.7617   -14.9143
  327.0000    96.3234     7.6036     7.7703     7.4409   -14.7723
  327.5000    97.5073     7.2877     7.4497     7.1334   -15.0839
  328.0000   100.5885     6.9849     7.0927     6.8386   -15.5437
  328.5000   105.5764     6.7924     6.7942     6.6481   -15.5523
  329.0000   108.8624     6.5955     6.5648     6.4625   -15.2603
  329.5000   110.9471     6.4128     6.3825     6.3708   -15.1028
  330.0000   111.5347     6.3651     6.2487     6.2804   -14.8265
  330.5000   110.6121     6.3177     6.1606     6.2346   -14.6848
  331.0000   108.4645     6.2707     6.2023     6.2325   -14.5431
  331.5000   104.5671     6.3561     6.2880     6.2304   -14.5539
  332.0000   100.0453     6.5334     6.4267     6.4040   -14.7130
  332.5000    95.2231     6.9059     6.5996     6.5373   -14.7218
  333.0000    94.9055     7.1050     6.9286     6.7201   -14.5800
  333.5000   101.7951     7.2964     7.1232     6.8599   -14.5908
  334.0000   109.2852     7.2921     7.2217     6.9546   -14.5995
  334.5000   107.5505     7.1874     7.2195     7.0004   -14.6082
  335.0000   100.2372     7.1840     7.1177     6.9493   -14.6168
  335.5000    99.6236     7.2318     6.9685     6.8985   -14.6256
  336.0000   105.0073     7.2783     6.9188     6.9446   -14.7867
  336.5000   106.1955     7.2748     7.1131     7.0885   -14.9458
  337.0000   105.2730     7.3224     7.2616     7.2360   -15.2552
  337.5000   101.8768     7.3181     7.3619     7.3359   -15.2639
  338.0000   100.4291     7.3668     7.3598     7.3842   -14.9718
  338.5000   102.5139     7.3625     7.3580     7.3816   -14.6797
  339.0000   111.5056     7.4106     7.3051     7.3785   -14.3877
  339.5000   110.8876     7.5114     7.3550     7.5321   -14.0956
  340.0000   103.9634     7.9399     7.5085     7.5829   -13.9560
  340.5000    98.8268     8.1688     7.5067     7.5797   -13.8122
  341.0000    97.6181     8.0996     7.4879     7.4721   -13.5201
  341.5000    98.2013     7.4441     7.2961     7.2640   -13.3805
  342.0000   101.4873     7.1348     7.0934     7.0617   -13.2389
  342.5000   108.0766     7.0324     6.9934     6.9125   -13.2481
  343.0000   110.4616     7.0291     6.9918     6.8621   -13.1080
  343.5000   112.2461     7.0257     6.9901     6.8601   -12.8159
  344.0000   113.1652     6.9734     7.0374     6.9537   -12.6721
  344.5000   113.7129     6.9693     7.0851     7.0006   -12.3820
  345.0000   113.3909     7.0149     7.0830     6.9490   -12.3910
  345.5000   112.4727     7.0116     7.0813     6.8504   -12.4017
  346.0000   111.2542     7.0083     6.9815     6.8481   -12.5885
  346.5000   109.7353     7.1045     6.9313     6.8456   -12.7198
  347.0000   110.6546     7.2004     6.9782     6.8434   -13.0292
  347.5000   112.6993     7.2474     7.0299     6.8891   -13.3386
  348.0000   110.2796     7.1933     7.0730     6.8862   -13.8025
  348.5000   105.4574     7.1892     7.0709     6.8839   -14.2604
  349.0000   100.3350     7.1858     7.0692     6.8815   -14.5698
  349.5000   100.9182     7.2467     7.0676     6.8792   -14.5792
  350.0000   103.3033     7.2810     7.1154     6.8769   -15.3386
  350.5000   103.8799     7.3286     7.1137     6.9712   -15.0393
  351.0000   104.7571     7.3242     7.1619     7.0177   -14.8904
  351.5000   105.9296     7.3207     7.1598     7.1139   -14.7411
  352.0000   109.2100     7.3164     7.2087     7.2114   -14.4421
  352.5000   112.1901     7.3652     7.1564     7.2589   -14.1428
  353.0000   113.0738     7.4133     7.2554     7.2564   -14.1446
  353.5000   112.1381     7.4422     7.2537     7.3049   -13.8449
  354.0000   108.8123     7.7037     7.3550     7.4124   -13.8468
  354.5000   105.7864     7.9228     7.4643     7.5584   -13.8482
  355.0000   102.4602     8.0913     7.5582     7.6094   -14.0000
  355.5000    99.7346     8.2058     7.5039     7.6062   -14.1519
  356.0000    98.5104     7.8692     7.5021     7.6036   -14.0033
  356.5000    99.9833     7.6526     7.4481     7.4957   -13.7040
  357.0000   103.5640     7.5468     7.4464     7.4932   -13.4047
  357.5000   108.9465     7.7616     7.6586     7.6038   -13.1050
  358.0000   110.7254     7.9823     7.9252     7.8083   -12.8061
  358.5000   111.3033     8.0953     8.0915     7.8603   -12.3564
  359.0000   110.9790     8.0393     8.0891     7.8570   -12.2078
  359.5000   110.6509     7.9839     8.0872     7.8544   -12.0589
  360.0000   110.9283     7.9647     8.0290     7.7971   -12.0603
  360.5000   112.4068     7.8742     7.9713     7.7945   -12.0618
  361.0000   115.3869     7.8747     7.9694     7.7918   -11.9128
  361.5000   119.0351     7.8753     8.0791     7.8980   -11.9143
  362.0000   119.5453     7.9311     8.1908     8.0624   -11.9161
  362.5000   120.1230     8.2715     8.4208     8.2302   -12.0679
  363.0000   118.2925     8.6871     8.6573     8.5195   -12.0694
  363.5000   116.1675     8.9341     9.0256     8.8807   -12.0708
  364.0000   113.3452     9.0607     9.2145     9.0025   -12.3730
  364.5000   105.9057     9.0613     9.3419     8.9994   -12.5248
  365.0000   104.6816     9.1255     9.2741     8.9331   -12.6767
  365.5000   105.5596     9.1262     9.1434     8.8680   -12.8288
