~VERSION INFORMATION
 VERS.                2.0:   CWLS LOG ASCII STANDARD - VERSION 2.0
 WRAP.                 NO:   ONE LINE PER DEPTH STEP
~WELL INFORMATION
#MNEM.UNIT      DATA TYPE    INFORMATION
#----------   ------------   ------------------------------
 STRT.F           30.0000:   START DEPTH
 STOP.F          750.0000:   STOP DEPTH
 STEP.F            0.5000:   STEP LENGTH
 NULL.          -999.2500:   NO VALUE
 COMP. FENIX & SCISSON INC:   COMPANY
 WELL. TEAPOT DOME SX #38-11:   WELL
 FLD .             TEAPOT:   FIELD
 LOC .      S11 T38N R78W:   LOCATION
 CNTY.            NATRONA:   COUNTY
 STAT.            WYOMING:   STATE
 CTRY. UNITED STATES OF AMERICA:   COUNTRY
 SRVC.            Unknown:   SERVICE COMPANY
 DATE.        23-FEB-1978:   LOGDATE
 API .       490251058200:   API NUMBER
~CURVE INFORMATION
#MNEM.UNIT       API CODE    CURVE DESCRIPTION
#----------   ------------   ------------------------------
 DEPT.F                  :   
 CALD.IN     45 280 60 00:   CALIPER FROM DENSITY LOG
 GRD .GAPI   45 310 01 00:   GAMMA RAY FROM DENSITY LOG
 RHOB.G/C3   45 350 01 00:   BULK DENSITY
 DPHI.DEC    45 890 12 00:   DENSITY POROSITY SANDSTONE
 CORR.G/C3   45 356 01 00:   DENSITY CORRECTION
 SPR .MV     07 010 01 00:   SPONTANEOUS POTENTIAL FROM RES. LOG
 SN  .OHMM   07 040 16 00:   SHORT NORMAL 16'
 ILD .OHMM   07 120 46 00:   INDUCTION LOG DEEP
~PARAMETER INFORMATION
#MNEM.UNIT          VALUE    DESCRIPTION
#----------   ------------   ------------------------------
 PD  .                 GL:   PERMANENT DATUM
 EPD .F              5204:   ELEVATION PERMANENT DATUM
 LMF .                 KB:   LOG MEASURED FROM
 DAPD.F                 4:   FEET ABOVE PERMANENT DATUM
 DMF .                 KB:   DRILLING MEASURED FROM
 EKB .F              5208:   KELLING BUSHING
 EGL .F              5204:   GROUND LEVEL
 DATE.            2-23-78:   RUN DATE
 RUN .                  1:   RUN NUMBER
 DD  .F               755:   DEPTH DRILLER
 DL  .F               751:   DEPTH LOGGER
 BLI .F               745:   BOTTOM LOG INTERVAL
 TLI .F                45:   TOP LOG INTERVAL
 CS  .IN            8.625:   CASING SIZE
 CBD .F                40:   CASING BOTTOM DRILLER
 CBL .F                40:   CASING BOTTOM LOGGER
 BS  .IN            7.875:   BIT SIZE
 BSD .F               755:   BIT SIZE AT DEPTH
 DFT .         LIGNO SULF:   DRILLING FLUID TYPE
 DFD .                8.7:   DRILLING FLUID DENSITY
 DFV .                 33:   DRILLING FLUID VISCOSITY
 DFPH.                 10:   DRILLING FLUID PH
 DFL .                  4:   DRILLING FLUID LOSS
 MSS .          FLOW LINE:   MUD SAMPLE SOURCE
 RMS .OHMM              2:   RESISTIVITY MUD SAMPLE
 MST .F                60:   MUD SAMPLE TEMPERATURE
 RMF .OHMM            1.9:   RESISTIVITY MUD FILTRATE SAMPLE
 MFST.F                62:   MUD FILTRATE SAMPLE TEMPERATURE
 RMC .OHMM            3.5:   RESISTIVITY MUD CAKE
 MCST.F                60:   MUD CAKE SAMPLE TEMPERATURE
 MFSS.               MEAS:   MUD FILTRATE SAMPLE SOURCE
 MCSS.               MEAS:   MUD CAKE SAMPLE SOURCE
 RMB .OHMM           1.69:   RESISTIVITY MUD AT BHT
 BHT .F                71:   BOTTOM HOLE TEMPERATURE
 TCS .HRS               3:   TIME CURCULATED STOPPED
 MRT .F                71:   MAXIMUM RECORDED TEMPERATURE
 LUN .               2958:   LOGGING UNIT NUMBER
 LUL .               CASP:   LOGGING UNIT LOCATION
 ENGI.            POINTER:   RECORDING ENGINEER
 WITN.           MCGINLEY:   WITNESSED BY
 CLNT.            A2DTECH:   CLIENT CODE
 ORIG.       2", 5" PRINT:   ORIGIN OF DATA
 UWI .       490251058200:   UNIQUE WELL ID
 DICO. A2D Technologies, Inc.:   DIGITIZING COMPANY
~OTHER INFORMATION
~A   DEPT     CALD         GRD      RHOB       DPHI       CORR        SPR         SN        ILD   
# ...
  678.0000     8.2965    90.0967     2.4471     0.1264     0.0367   -41.2899    11.1255    10.2707
  678.5000     8.2984    89.9159     2.4467     0.1242     0.0332   -41.2737    11.1754    10.2402
  679.0000     8.3004    89.9589     2.4576     0.1221     0.0279   -41.2554    11.2254    10.2097
  679.5000     8.3023    88.0419     2.4562     0.1217     0.0230   -41.2347    11.2756    10.1794
  680.0000     8.3043    85.7304     2.4523     0.1207     0.0225   -41.0106    11.3261    10.1491
  680.5000     8.3062    85.8693     2.4571     0.1198     0.0210   -40.8801    11.3767    10.1189
  681.0000     8.3082    87.7972     2.4650     0.1193     0.0194   -40.7387    11.4431    10.0889
  681.5000     8.3101    88.8733     2.4516     0.1189     0.0191   -40.7362    11.3529    10.0567
  682.0000     8.3121    89.2475     2.4392     0.1184     0.0193   -41.3145    11.2246    10.0439
  682.5000     8.3140    91.2481     2.4430     0.1179     0.0195   -41.8279    11.0977    10.0305
  683.0000     8.3160    93.2692     2.4473     0.1174     0.0198   -41.8376    10.9722    10.0171
  683.5000     8.3179    95.2840     2.4497     0.1169     0.0200   -41.8352    10.8483    10.0036
  684.0000     8.3199    97.3055     2.4487     0.1180     0.0202   -41.8347    10.7257     9.9903
  684.5000     8.3218    99.3017     2.4472     0.1191     0.0205   -41.8356    10.6287     9.9769
  685.0000     8.3238    99.4453     2.4456     0.1201     0.0207   -41.8392    10.6542     9.9635
  685.5000     8.3257    99.3705     2.4439     0.1195     0.0210   -41.8138    10.6755     9.9502
  686.0000     8.3277    99.8648     2.4470     0.1187     0.0193   -41.0571    10.6968     9.9369
  686.5000     8.3296    99.9470     2.4553     0.1180     0.0172   -40.3998    10.7182     9.9236
  687.0000     8.3316   100.0734     2.4521     0.1172     0.0199   -40.8396    10.7396     9.9103
  687.5000     8.3335   100.5681     2.4464     0.1175     0.0235   -41.1455    10.7610     9.8970
  688.0000     8.3355   100.5668     2.4469     0.1173     0.0245   -40.6969    10.7827     9.8838
  688.5000     8.3374   100.9026     2.4576     0.1149     0.0222   -40.2703    10.8050     9.8706
  689.0000     8.3394   101.3527     2.4646     0.1131     0.0200   -40.2204    10.8315     9.8573
  689.5000     8.3413    98.7848     2.4591     0.1140     0.0177   -40.2209    10.7273     9.8441
  690.0000     8.3433    95.4272     2.4556     0.1149     0.0154   -40.2216    10.7723     9.8310
  690.5000     8.3452    93.3284     2.4580     0.1148     0.0159   -40.2222    10.8112     9.8178
  691.0000     8.3472    95.8945     2.4573     0.1139     0.0171   -40.2502    10.8504     9.8047
  691.5000     8.3492    97.1336     2.4507     0.1129     0.0184   -40.3299    10.8903     9.7915
  692.0000     8.3494    97.3114     2.4442     0.1137     0.0196   -40.4088    10.9264     9.7784
  692.5000     8.3316    96.0144     2.4434     0.1126     0.0208   -40.4881    10.7794     9.7653
  693.0000     8.3130    95.1040     2.4486     0.1134     0.0192   -40.5677    10.6380     9.7523
  693.5000     8.2944    94.9588     2.4544     0.1180     0.0175   -40.6199    10.4990     9.7392
  694.0000     8.2759    94.8005     2.4487     0.1226     0.0158   -40.4756    10.3623     9.7262
  694.5000     8.2574    94.7890     2.4411     0.1265     0.0150   -40.3329    10.2435     9.7134
  695.0000     8.2388    95.3467     2.4357     0.1274     0.0180   -40.1911    10.2435     9.7000
  695.5000     8.2307    95.5505     2.4318     0.1281     0.0234   -40.0493    10.2435     9.6648
  696.0000     8.2306    96.4897     2.4345     0.1244     0.0288   -39.9091    10.2435     9.4843
  696.5000     8.2306    96.5988     2.4417     0.1199     0.0343   -39.8253    10.2436     9.3084
  697.0000     8.2306    96.3355     2.4489     0.1155     0.0390   -39.8783    10.2425     9.1550
  697.5000     8.2307    96.0617     2.4524     0.1133     0.0381   -39.9287    10.2435     9.0868
  698.0000     8.2304    95.7752     2.4531     0.1168     0.0369   -39.9883    10.0259     9.0183
  698.5000     8.2108    95.8755     2.4480     0.1154     0.0406   -40.1809     9.8748     8.9504
  699.0000     8.1892    98.8814     2.4431     0.1081     0.0477   -39.9372     9.7259     8.8831
  699.5000     8.1676   103.0322     2.4567     0.1008     0.0518   -39.5934     9.5793     8.8164
  700.0000     8.1460   104.0840     2.4729     0.0986     0.0475   -39.2504     9.4349     8.7564
  700.5000     8.1245   104.1126     2.4785     0.1047     0.0434   -38.9089     9.2927     8.5437
  701.0000     8.1030   104.1846     2.4804     0.1094     0.0393   -38.5652     9.1697     8.3142
  701.5000     8.0892   105.8194     2.4715     0.1138     0.0352   -38.2191     9.0243     8.1981
  702.0000     8.0842   107.4314     2.4567     0.1203     0.0312   -38.2825     8.9101     8.1220
  702.5000     8.0794   109.0089     2.4483     0.1263     0.0271   -38.3918     8.7507     8.0470
  703.0000     8.0750   109.9454     2.4411     0.1322     0.0230   -38.5004     8.5119     7.9722
  703.5000     8.1166   109.9855     2.4353     0.1406     0.0189   -38.6058     8.2797     7.8400
  704.0000     8.2247   110.6288     2.4198     0.1490     0.0150   -38.5678     8.0540     7.2202
  704.5000     8.2858   114.5662     2.4032     0.1574     0.0151   -38.4973     7.8359     6.6408
  705.0000     8.2718   118.2532     2.3863     0.1621     0.0227   -38.4268     7.6242     6.1082
  705.5000     8.2589   125.6348     2.3694     0.1646     0.0314   -38.3563     7.0265     5.6528
  706.0000     8.2458   134.1883     2.3671     0.1651     0.0615   -38.2857     6.4859     5.3392
  706.5000     8.2327   136.1672     2.3779     0.1363     0.0924   -38.2155     5.9869     5.1268
  707.0000     8.2196   119.7068     2.3934     0.1068     0.1216   -38.2197     5.5264     5.0859
  707.5000     8.2065   106.9480     2.4436     0.0774     0.1221   -38.2508     5.4413     5.0797
  708.0000     8.1934   100.8375     2.5093     0.0708     0.1005   -38.2817     5.3689     5.1264
  708.5000     8.1804   104.4801     2.5253     0.0762     0.0771   -38.3127     5.3689     5.2223
  709.0000     8.1703   108.0860     2.5122     0.0860     0.0538   -38.3435     6.9024     5.5474
  709.5000     8.1688   107.8200     2.4941     0.0959     0.0305   -38.3740     8.6757     6.1286
  710.0000     8.1671   105.8698     2.4758     0.1057     0.0165   -38.4080     8.8807     6.9761
  710.5000     8.1654   103.4414     2.4576     0.1155     0.0192   -38.5439     9.1068     7.9791
  711.0000     8.1638   101.0352     2.4531     0.1169     0.0240   -38.6899     9.3387     8.1693
  711.5000     8.1621    99.4518     2.4573     0.1096     0.0292   -38.8359     9.5765     8.3567
  712.0000     8.1604   100.6179     2.4655     0.1032     0.0341   -38.9817     9.8204     8.4388
  712.5000     8.1587   102.9906     2.4736     0.0978     0.0388   -39.1268     9.9594     8.2590
  713.0000     8.1570   104.0465     2.4814     0.0923     0.0409   -39.2338    10.0708     8.2084
  713.5000     8.1554   101.5495     2.4893     0.0870     0.0391   -39.2809    10.1834     8.4435
  714.0000     8.1537    99.8263     2.4970     0.0855     0.0371   -39.3289    10.2972     8.6429
  714.5000     8.1520   101.5175     2.5015     0.0885     0.0351   -39.3766    10.4996     8.8092
  715.0000     8.1503   106.1596     2.5025     0.0933     0.0330   -39.4245    10.7563     9.0414
  715.5000     8.1486   108.4667     2.4941     0.0986     0.0310   -39.4723    11.0193     9.2761
  716.0000     8.1469   108.2643     2.4804     0.1039     0.0290   -39.5201    11.2887     9.5172
  716.5000     8.1453   108.0981     2.4771     0.1054     0.0270   -39.5679    11.5647     9.6917
  717.0000     8.1436   107.7641     2.4887     0.1034     0.0269   -39.6157    11.8735     9.8175
  717.5000     8.1419   107.0875     2.4867     0.1036     0.0269   -39.6636    11.9257     9.8894
  718.0000     8.1402   106.9097     2.4864     0.1042     0.0269   -39.7113    11.9835     9.9618
