~VERSION INFORMATION
 VERS.                2.0:   CWLS LOG ASCII STANDARD - VERSION 2.0
 WRAP.                 NO:   ONE LINE PER DEPTH STEP
~WELL INFORMATION
#MNEM.UNIT      DATA TYPE    INFORMATION
#----------   ------------   ------------------------------
 STRT.F          420.0000:   START DEPTH
 STOP.F         1937.0000:   STOP DEPTH
 STEP.F            0.5000:   STEP LENGTH
 NULL.          -999.2500:   NO VALUE
 COMP. LAWRENCE/ALLISON INC:   COMPANY
 WELL.      85 "X" #85-29:   WELL
 FLD .             TEAPOT:   FIELD
 LOC .      S29 T39N R78W:   LOCATION
 CNTY.            NATRONA:   COUNTY
 STAT.            WYOMING:   STATE
 CTRY. UNITED STATES OF AMERICA:   COUNTRY
 SRVC.            Unknown:   SERVICE COMPANY
 DATE.        28-SEP-1987:   LOGDATE
 API .       490251119100:   API NUMBER
~CURVE INFORMATION
#MNEM.UNIT       API CODE    CURVE DESCRIPTION
#----------   ------------   ------------------------------
 DEPT.F                  :   
 ROP .FT/HR  91 810 01 00:   RAT OF DRILLING PENETRATION
 TGAS.TC/CC  91 830 01 00:   TOTAL GAS UNIT
~PARAMETER INFORMATION
#MNEM.UNIT          VALUE    DESCRIPTION
#----------   ------------   ------------------------------
 DATE.        28-SEP-1987:   RUN DATE
 BLI .F              1937:   BOTTOM LOG INTERVAL
 TLI .F               420:   TOP LOG INTERVAL
 LUN .              T-146:   LOGGING UNIT NUMBER
 CLNT.            A2DTECH:   CLIENT CODE
 ORIG.           5" PRINT:   ORIGIN OF DATA
 UWI .       490251119100:   UNIQUE WELL ID
 DICO. A2D Technologies, Inc.:   DIGITIZING COMPANY
~OTHER INFORMATION
~A   DEPT        ROP       TGAS 
# ...
 1756.5000     0.2321    21.8514
 1757.0000     0.2330    21.8566
 1757.5000     0.2338    21.8618
 1758.0000     0.2347    21.8671
 1758.5000     0.2355    21.8723
 1759.0000     0.2364    21.8775
 1759.5000     0.2372    21.8827
 1760.0000     0.2381    21.8880
 1760.5000     0.2389    21.8932
 1761.0000     0.2398    21.8984
 1761.5000     0.2406    21.9036
 1762.0000     0.2415    21.9089
 1762.5000     0.2423    21.9141
 1763.0000     0.2432    21.9193
 1763.5000     0.2441    21.9245
 1764.0000     0.2449    21.9298
 1764.5000     0.2458    21.9350
 1765.0000     0.2466    21.9402
 1765.5000     0.2475    21.9454
 1766.0000     0.2483    21.9507
 1766.5000     0.2486    21.9559
 1767.0000     0.2481    21.9611
 1767.5000     0.2476    21.9663
 1768.0000     0.2471    21.9716
 1768.5000     0.2466    21.9768
 1769.0000     0.2461    21.9820
 1769.5000     0.2456    21.9872
 1770.0000     0.2450    21.9925
 1770.5000     0.2445    21.9977
 1771.0000     0.2440    22.0120
 1771.5000     0.2435    22.0314
 1772.0000     0.2430    22.0507
 1772.5000     0.2425    22.0701
 1773.0000     0.2420    22.0894
 1773.5000     0.2415    22.1088
 1774.0000     0.2507    22.1281
 1774.5000     0.2489    22.1475
 1775.0000     0.2469    22.1668
 1775.5000     0.2449    22.1862
 1776.0000     0.2430    22.2055
 1776.5000     0.2410    22.2249
 1777.0000     0.2390    22.2442
 1777.5000     0.2370    22.2636
 1778.0000     0.2350    22.2829
 1778.5000     0.2331    22.3023
 1779.0000     0.2308    22.3216
 1779.5000     0.2307    22.3410
 1780.0000     0.2369    22.3603
 1780.5000     0.2440    22.3797
 1781.0000     0.2511    22.3990
 1781.5000     0.2582    22.4184
 1782.0000     0.2652    22.4378
 1782.5000     0.2723    22.4571
 1783.0000     0.2773    22.4765
 1783.5000     0.2760    22.4958
 1784.0000     0.2736    22.5152
 1784.5000     0.2713    22.5345
 1785.0000     0.2689    22.5539
 1785.5000     0.2666    22.5732
 1786.0000     0.2642    22.5926
 1786.5000     0.2619    22.6119
 1787.0000     0.2595    22.6313
 1787.5000     0.2572    22.6506
 1788.0000     0.2548    22.6700
 1788.5000     0.2525    22.6893
 1789.0000     0.2501    22.7087
 1789.5000     0.2477    22.7280
 1790.0000     0.2486    22.7474
 1790.5000     0.2496    22.7673
 1791.0000     0.2505    22.8112
 1791.5000     0.2514    22.8552
 1792.0000     0.2523    22.8991
 1792.5000     0.2533    22.9430
 1793.0000     0.2542    22.9869
 1793.5000     0.2551    23.0308
 1794.0000     0.2561    23.0747
 1794.5000     0.2570    23.1186
 1795.0000     0.2579    23.1625
 1795.5000     0.2588    23.2064
 1796.0000     0.2598    23.2504
 1796.5000     0.2607    23.2943
 1797.0000     0.2616    23.3382
 1797.5000     0.2626    23.3821
 1798.0000     0.2635    23.4260
 1798.5000     0.2644    23.4699
 1799.0000     0.2653    23.5138
 1799.5000     0.2663    23.5577
 1800.0000     0.2672    23.6016
 1800.5000     0.2681    23.6456
 1801.0000     0.2691    23.6895
 1801.5000     0.2700    23.7334
 1802.0000     0.2709    23.7773
 1802.5000     0.2718    23.8212
 1803.0000     0.2728    23.8651
 1803.5000     0.2737    23.9090
 1804.0000     0.2746    23.9529
 1804.5000     0.2756    23.9968
 1805.0000     0.2765    24.0408
 1805.5000     0.2775    24.0847
 1806.0000     0.2784    24.1286
 1806.5000     0.2793    24.1725
 1807.0000     0.2803    24.2164
 1807.5000     0.2812    24.2603
 1808.0000     0.2822    24.3038
 1808.5000     0.2831    24.3038
 1809.0000     0.2840    24.6835
 1809.5000     0.2850    24.6418
 1810.0000     0.2859    24.6835
 1810.5000     0.2869    24.6835
 1811.0000     0.2878    25.0633
 1811.5000     0.2887    25.4430
 1812.0000     0.2897    25.8228
 1812.5000     0.2906    22.7848
 1813.0000     0.2915    22.4051
 1813.5000     0.2925    22.4051
 1814.0000     0.2934    22.4051
 1814.5000     0.2944    22.7848
 1815.0000     0.2953    23.1646
 1815.5000     0.2962    23.1646
 1816.0000     0.2972    23.1646
 1816.5000     0.2981    23.1646
 1817.0000     0.2991    23.1646
 1817.5000     0.3002    22.7848
 1818.0000     0.3006    22.4051
 1818.5000     0.3010    22.4051
 1819.0000     0.3015    22.7848
 1819.5000     0.3020    22.7848
 1820.0000     0.3025    22.7848
 1820.5000     0.3029    22.7848
 1821.0000     0.3034    22.7848
 1821.5000     0.3039    22.7848
 1822.0000     0.3043    22.7848
 1822.5000     0.3048    22.7848
 1823.0000     0.3053    23.1646
 1823.5000     0.3058    23.1646
 1824.0000     0.3062    23.1646
 1824.5000     0.3067    23.5443
 1825.0000     0.3072    23.5443
 1825.5000     0.3077    23.9241
 1826.0000     0.3081    23.9241
 1826.5000     0.3086    23.9241
 1827.0000     0.3091    23.9241
 1827.5000     0.3095    23.9241
 1828.0000     0.3100    23.9241
 1828.5000     0.3105    23.9241
 1829.0000     0.3110    24.3038
 1829.5000     0.3114    24.3038
 1830.0000     0.3119    24.3163
 1830.5000     0.3124    24.6835
 1831.0000     0.3129    24.6835
 1831.5000     0.3133    24.6835
 1832.0000     0.3138    24.6835
 1832.5000     0.3144    24.6835
 1833.0000     0.3156    24.6835
 1833.5000     0.3169    24.6835
 1834.0000     0.3181    24.6835
 1834.5000     0.3194    24.6835
 1835.0000     0.3206    24.6835
 1835.5000     0.3219    24.6835
 1836.0000     0.3231    24.3038
 1836.5000     0.3244    24.3038
 1837.0000     0.3256    24.3038
 1837.5000     0.3269    24.3038
 1838.0000     0.3281    24.3038
 1838.5000     0.3294    24.3038
 1839.0000     0.3299    24.3038
 1839.5000     0.3304    24.3038
 1840.0000     0.2741    24.6835
 1840.5000     0.2462    24.6835
 1841.0000     0.2471    24.6835
 1841.5000     0.2575    24.6835
 1842.0000     0.2665    24.6940
 1842.5000     0.2575    24.7200
 1843.0000     0.2581    24.7460
 1843.5000     0.2680    24.7719
 1844.0000     0.2691    24.7979
 1844.5000     0.2703    24.8239
 1845.0000     0.2714    24.8499
 1845.5000     0.2725    24.8758
 1846.0000     0.2736    24.9018
 1846.5000     0.2748    24.9278
 1847.0000     0.2759    24.9537
 1847.5000     0.2770    24.9797
 1848.0000     0.2781    25.0057
 1848.5000     0.2792    25.0316
 1849.0000     0.2804    25.0576
 1849.5000     0.2815    25.0836
 1850.0000     0.2826    25.1095
 1850.5000     0.2837    25.1355
 1851.0000     0.2849    25.1615
 1851.5000     0.2860    25.1875
 1852.0000     0.2871    25.2134
 1852.5000     0.2882    25.2394
 1853.0000     0.2894    25.2654
 1853.5000     0.2905    25.2913
 1854.0000     0.2916    25.3173
 1854.5000     0.2927    25.3433
 1855.0000     0.2939    25.3692
 1855.5000     0.2950    25.3952
 1856.0000     0.2961    25.4212
 1856.5000     0.2972    25.4430
 1857.0000     0.2983    25.4394
 1857.5000     0.2995    25.4363
 1858.0000     0.3005    25.4331
 1858.5000     0.3001    25.4300
 1859.0000     0.2996    25.4268
 1859.5000     0.2991    25.4237
 1860.0000     0.2987    25.4206
 1860.5000     0.2982    25.4174
 1861.0000     0.2977    25.4143
 1861.5000     0.2973    25.4111
 1862.0000     0.2968    25.4080
 1862.5000     0.2963    25.4049
 1863.0000     0.2959    25.4017
 1863.5000     0.3050    25.3986
 1864.0000     0.3051    25.3954
 1864.5000     0.3052    25.3923
 1865.0000     0.3053    25.3892
 1865.5000     0.3148    25.3860
 1866.0000     0.3149    25.3829
 1866.5000     0.3056    25.3797
 1867.0000     0.2962    25.3766
 1867.5000     0.2955    25.3734
 1868.0000     0.2964    25.3703
 1868.5000     0.2965    25.7425
 1869.0000     0.2966    26.0999
 1869.5000     0.2967    25.6922
 1870.0000     0.2968    25.2832
 1870.5000     0.2874    25.2489
 1871.0000     0.2781    25.2146
 1871.5000     0.2795    25.1802
 1872.0000     0.2816    25.1459
 1872.5000     0.2837    25.1116
 1873.0000     0.2858    25.0773
 1873.5000     0.2880    25.0430
 1874.0000     0.2901    25.0087
 1874.5000     0.2922    24.9743
 1875.0000     0.2943    24.9400
 1875.5000     0.2965    24.9057
 1876.0000     0.2986    24.8714
 1876.5000     0.3007    24.8371
 1877.0000     0.3028    24.8027
 1877.5000     0.3050    24.7684
