~VERSION INFORMATION
 VERS.                2.0:   CWLS LOG ASCII STANDARD - VERSION 2.0
 WRAP.                 NO:   ONE LINE PER DEPTH STEP
~WELL INFORMATION
#MNEM.UNIT      DATA TYPE    INFORMATION
#----------   ------------   ------------------------------
 STRT.F           15.0000:   START DEPTH
 STOP.F          692.0000:   STOP DEPTH
 STEP.F            0.5000:   STEP LENGTH
 NULL.          -999.2500:   NO VALUE
 COMP.    FENIX & SCISSON:   COMPANY
 WELL. S 15 NPR #3 #73-15:   WELL
 FLD .             TEAPOT:   FIELD
 LOC .      S15 T38N R78W:   LOCATION
 CNTY.            NATRONA:   COUNTY
 STAT.            WYOMING:   STATE
 CTRY. UNITED STATES OF AMERICA:   COUNTRY
 SRVC.              Welex:   SERVICE COMPANY
 DATE.        23-FEB-1977:   LOGDATE
 API .       490251057900:   API NUMBER
~CURVE INFORMATION
#MNEM.UNIT       API CODE    CURVE DESCRIPTION
#----------   ------------   ------------------------------
 DEPT.F                  :   
 SPR .MV     07 010 01 00:   SPONTANEOUS POTENTIAL
 SGRD.OHMM   07 220 05 00:   SHALLOW GUARD RESISTIVITY
 ILD .OHMM   07 120 46 00:   INDUCTION LOG DEEP
 ILM .OHMM   07 120 44 00:   INDUCTION LOG MEDIUM
 CALD.IN     45 280 60 00:   CALIPER
 GRD .GAPI   45 310 01 00:   GAMMA RAY FROM DENSITY LOG
 CORR.G/C3   45 356 01 00:   DENSITY CORRECTION
 DPHI.DEC    45 890 10 00:   DENSITY POROSITY SANDSTONE
 RHOB.G/C3   45 350 01 00:   BULK DENSITY
~PARAMETER INFORMATION
#MNEM.UNIT          VALUE    DESCRIPTION
#----------   ------------   ------------------------------
 PD  .                 GL:   PERMANENT DATUM
 EPD .F              5251:   ELEVATION PERMANENT DATUM
 LMF .                 GL:   LOG MEASURED FROM
 DMF .                 GL:   DRILLING MEASURED FROM
 EGL .F              5251:   GROUND LEVEL
 DATE.            2-23-77:   RUN DATE
 RUN .                  1:   RUN NUMBER
 DD  .F               686:   DEPTH DRILLER
 DL  .F               695:   DEPTH LOGGER
 BLI .F               693:   BOTTOM LOG INTERVAL
 TLI .F                42:   TOP LOG INTERVAL
 CS  .IN            8.625:   CASING SIZE
 CBD .F                42:   CASING BOTTOM DRILLER
 CBL .F                42:   CASING BOTTOM LOGGER
 BS  .IN            7.875:   BIT SIZE
 BSD .F               686:   BIT SIZE AT DEPTH
 DFT .           CHEM GEL:   DRILLING FLUID TYPE
 DFD .                8.8:   DRILLING FLUID DENSITY
 DFV .                 33:   DRILLING FLUID VISCOSITY
 DFPH.                  7:   DRILLING FLUID PH
 DFL .               11.2:   DRILLING FLUID LOSS
 MSS .          FLOW LINE:   MUD SAMPLE SOURCE
 RMS .OHMM            .32:   RESISTIVITY MUD SAMPLE
 MST .F                68:   MUD SAMPLE TEMPERATURE
 RMF .OHMM            .28:   RESISTIVITY MUD FILTRATE SAMPLE
 MFST.F                68:   MUD FILTRATE SAMPLE TEMPERATURE
 RMC .OHMM            .61:   RESISTIVITY MUD CAKE
 MCST.F                68:   MUD CAKE SAMPLE TEMPERATURE
 MFSS.           MEASURED:   MUD FILTRATE SAMPLE SOURCE
 MCSS.           MEASURED:   MUD CAKE SAMPLE SOURCE
 RMB .OHMM           .410:   RESISTIVITY MUD AT BHT
 BHT .F                53:   BOTTOM HOLE TEMPERATURE
 TCS .HRS               2:   TIME CURCULATED STOPPED
 MRT .F                53:   MAXIMUM RECORDED TEMPERATURE
 LUN .               8611:   LOGGING UNIT NUMBER
 LUL .           GILLETTE:   LOGGING UNIT LOCATION
 ENGI.            C. DOAK:   RECORDING ENGINEER
 WITN.         STUEBINGER:   WITNESSED BY
 CLNT.            A2DTECH:   CLIENT CODE
 ORIG. 1", 2.5", 5" PRINT:   ORIGIN OF DATA
 UWI .       490251057900:   UNIQUE WELL ID
 DICO. A2D Technologies, Inc.:   DIGITIZING COMPANY
~OTHER INFORMATION
~A   DEPT      SPR       SGRD        ILD        ILM       CALD         GRD      CORR       DPHI       RHOB   
# ...
  161.0000   -34.3497     8.8784     6.1501     8.4851     8.3607   125.3014     0.0737     0.1011     2.4784
  161.5000   -34.3565     8.9199     6.1377     8.5386     8.3830   121.8654     0.0802     0.0921     2.4881
  162.0000   -34.4565     8.9697     6.1894     8.5922     8.4057   119.3514     0.0869     0.0918     2.4940
  162.5000   -34.5518     9.0199     6.2381     8.6463     8.4281   120.2341     0.0889     0.0917     2.4953
  163.0000   -34.6472     9.0705     6.2871     8.7008     8.4508   121.3150     0.0896     0.0914     2.4971
  163.5000   -34.7441     9.1212     6.3365     8.7556     8.4738   119.0777     0.0903     0.0913     2.4987
  164.0000   -34.8398     9.1717     6.4058     8.8107     8.4857   119.9073     0.0912     0.0888     2.5004
  164.5000   -34.9366     9.2130     6.5122     8.8661     8.4679   125.0586     0.0919     0.0865     2.5023
  165.0000   -35.0326     9.5587     6.6204     8.9946     8.4509   128.5557     0.0924     0.0878     2.4982
  165.5000   -35.1182     9.9174     6.7305     9.1453     8.4331   128.4867     0.0889     0.0953     2.4915
  166.0000   -35.1505    10.0552     6.8419     9.2985     8.4154   127.0652     0.0849     0.0976     2.4845
  166.5000   -35.1801    10.2262     6.9556     9.4542     8.3978   122.8453     0.0808     0.0916     2.4864
  167.0000   -35.2083    10.4010     7.0711     9.6126     8.3802   120.4102     0.0767     0.0882     2.4974
  167.5000   -35.2371    10.5794     7.1885     9.7736     8.3623   120.6795     0.0728     0.0908     2.4959
  168.0000   -35.2660    10.8721     7.2468     9.9179     8.3448   122.1335     0.0688     0.0934     2.4937
  168.5000   -35.2946    10.8260     7.2918     9.9417     8.3313   124.1337     0.0686     0.0944     2.4921
  169.0000   -35.3232    10.6569     7.3323     9.9630     8.3373   125.2962     0.0686     0.0878     2.4924
  169.5000   -35.3519    10.4862     7.3730     9.9843     8.3420   126.2288     0.0700     0.0857     2.4998
  170.0000   -35.3806    10.7290     7.4140    10.0057     8.3476   124.8227     0.0713     0.0834     2.5072
  170.5000   -35.4090    10.9825     7.4551    10.0271     8.3530   119.1906     0.0726     0.0781     2.5151
  171.0000   -35.4383    11.2842     7.5194    10.0486     8.3583   120.1342     0.0740     0.0728     2.5224
  171.5000   -35.4665    11.2197     7.4966    10.0701     8.3636   120.5277     0.0753     0.0690     2.5293
  172.0000   -35.4938    11.1447     7.4464    10.1027     8.3690   119.0158     0.0764     0.0756     2.5213
  172.5000   -35.5718    11.0708     7.3965    10.0446     8.3690   120.0675     0.0741     0.0831     2.5118
  173.0000   -35.7507    10.9974     7.3469     9.9271     8.3664   122.2738     0.0720     0.0906     2.5020
  173.5000   -35.9267    10.9242     7.2976     9.8110     8.3640   124.5134     0.0698     0.0984     2.4922
  174.0000   -36.1060    10.7985     7.2468     9.6962     8.3616   125.3821     0.0677     0.0992     2.4851
  174.5000   -36.2840    10.5798     7.1169     9.5828     8.3592   124.0746     0.0652     0.0969     2.4804
  175.0000   -36.4600    10.3655     6.9842     9.4707     8.3568   123.0432     0.0675     0.0948     2.4806
  175.5000   -36.6429    10.1555     6.8539     9.3599     8.3544   121.9176     0.0734     0.0928     2.4874
  176.0000   -36.7121     9.9498     6.7261     9.2504     8.3519   120.7616     0.0789     0.0910     2.4933
  176.5000   -36.7058     9.7483     6.6007     9.1422     8.3495   120.1952     0.0845     0.0894     2.4995
  177.0000   -36.7064     9.5508     6.4871     9.0352     8.3471   120.6323     0.0872     0.0889     2.5038
  177.5000   -36.7079     9.3574     6.4874     8.9296     8.3447   119.0545     0.0820     0.0912     2.4990
  178.0000   -36.7011     9.1678     6.4872     8.8251     8.3423   119.4285     0.0771     0.0939     2.4935
  178.5000   -36.7609     9.0436     6.5520     8.7158     8.3399   121.0088     0.0727     0.0953     2.4874
  179.0000   -36.8855     9.0436     6.6424     8.7865     8.3375   120.5049     0.0733     0.0923     2.4884
  179.5000   -37.0031     9.1767     6.7342     8.9167     8.3351   123.9101     0.0755     0.0883     2.4965
  180.0000   -37.1205     9.5438     6.8274     9.0488     8.3326   127.2452     0.0777     0.0842     2.5043
  180.5000   -37.2423     9.9256     6.9221     9.1829     8.3307   125.4568     0.0799     0.0802     2.5125
  181.0000   -37.3559    10.3226     7.0182     9.3189     8.3307   124.9898     0.0786     0.0777     2.5163
  181.5000   -37.4912    10.8738     7.1157     9.4570     8.3307   124.3329     0.0761     0.0777     2.5160
  182.0000   -37.5610    10.8219     7.2145     9.5497     8.3307   121.4778     0.0734     0.0784     2.5159
  182.5000   -37.6419    10.6069     7.3145     9.5176     8.3307   120.2678     0.0726     0.0793     2.5160
  183.0000   -37.7179    10.3955     7.3810     9.4857     8.3307   123.3634     0.0727     0.0801     2.5139
  183.5000   -37.7960    10.1085     7.3723     9.4538     8.3307   126.7876     0.0770     0.0810     2.5110
  184.0000   -37.8687    10.1693     7.3634     9.4221     8.3307   129.3045     0.0810     0.0817     2.5122
  184.5000   -37.9488    10.2515     7.3545     9.3905     8.3307   128.4781     0.0847     0.0789     2.5179
  185.0000   -38.0357    10.3344     7.3457     9.4610     8.3307   123.4394     0.0798     0.0753     2.5194
  185.5000   -38.1173    10.4172     7.3373     9.5604     8.3307   122.5890     0.0748     0.0805     2.5083
  186.0000   -38.1982    10.5028     7.3287     9.6609     8.3307   124.2095     0.0699     0.0890     2.4987
  186.5000   -38.2805    10.5891     7.3201     9.7626     8.3307   122.6410     0.0650     0.0976     2.4881
  187.0000   -38.3621    10.6762     7.3117     9.8654     8.3307   119.8047     0.0672     0.0984     2.4837
  187.5000   -38.4438    10.7639     7.3035     9.9693     8.3307   117.0469     0.0694     0.0944     2.4880
  188.0000   -38.5255    10.8768     7.2952    10.0804     8.3307   115.8771     0.0724     0.0909     2.4931
  188.5000   -38.6073    10.8201     7.2869    10.0310     8.3307   119.2611     0.0728     0.0875     2.4982
  189.0000   -38.6888    10.6516     7.2782     9.9314     8.3307   123.5544     0.0768     0.0849     2.5019
  189.5000   -38.7707    10.4858     7.2699     9.8335     8.3308   122.3913     0.0802     0.0864     2.5000
  190.0000   -38.8527    10.3226     7.2615     9.7365     8.3307   121.7283     0.0785     0.0882     2.4977
  190.5000   -38.9332    10.1619     7.2532     9.6405     8.3306   124.6915     0.0768     0.0900     2.4953
  191.0000   -39.0172     9.9179     7.2104     9.5455     8.3312   125.1194     0.0749     0.0920     2.4930
  191.5000   -39.0920     9.9413     7.0578     9.4514     8.3251   120.2336     0.0730     0.0920     2.4905
  192.0000   -39.1970     9.9935     6.9084     9.3900     8.3124   117.2470     0.0741     0.0895     2.4923
  192.5000   -39.2905    10.0459     6.7622     9.4133     8.3006   117.2583     0.0759     0.0873     2.4990
  193.0000   -39.3882    10.0985     6.6080     9.4365     8.2888   120.1705     0.0781     0.0850     2.5056
  193.5000   -39.4837    10.1515     6.6080     9.4599     8.2764   122.8110     0.0808     0.0833     2.5060
  194.0000   -39.5793    10.2047     6.6080     9.4833     8.2655   122.6925     0.0847     0.0825     2.5074
  194.5000   -39.6782    10.2582     6.6080     9.5068     8.2523   120.4712     0.0834     0.0833     2.5074
  195.0000   -39.7689    10.2909     6.6080     9.5303     8.2688   118.6792     0.0829     0.0846     2.5049
  195.5000   -39.8729    10.2667     6.6080     9.5581     8.2905   117.1655     0.0823     0.0876     2.5024
  196.0000   -39.8296    10.2426     6.6080     9.5260     8.3122   117.4620     0.0815     0.0905     2.5001
  196.5000   -39.7731    10.2185     6.6080     9.4872     8.3339   120.9326     0.0808     0.0881     2.5002
  197.0000   -39.7108    10.1948     6.6078     9.4486     8.3576   120.8363     0.0810     0.0847     2.5048
