~VERSION INFORMATION
 VERS.                2.0:   CWLS LOG ASCII STANDARD - VERSION 2.0
 WRAP.                 NO:   ONE LINE PER DEPTH STEP
~WELL INFORMATION
#MNEM.UNIT      DATA TYPE    INFORMATION
#----------   ------------   ------------------------------
 STRT.F            0.0000:   START DEPTH
 STOP.F          678.0000:   STOP DEPTH
 STEP.F            0.5000:   STEP LENGTH
 NULL.          -999.2500:   NO VALUE
 COMP. FENIX & SCISSON INC:   COMPANY
 WELL. 37-21 SX 11 WO #37-11:   WELL
 FLD .             TEAPOT:   FIELD
 LOC .      S11 T38N R78W:   LOCATION
 CNTY.            NATRONA:   COUNTY
 STAT.            WYOMING:   STATE
 CTRY. UNITED STATES OF AMERICA:   COUNTRY
 SRVC.      Dresser Atlas:   SERVICE COMPANY
 DATE.        14-OCT-1983:   LOGDATE
 API .       490251084300:   API NUMBER
~CURVE INFORMATION
#MNEM.UNIT       API CODE    CURVE DESCRIPTION
#----------   ------------   ------------------------------
 DEPT.F                  :   
 SPR .MV     07 010 01 00:   SPONTANEOUS POTENTIAL
 SFLU.OHMM   07 220 01 00:   SPHERICALLY FOCUSED LOG UNAVERAGED RESISTIVITY
 ILM .OHMM   07 120 44 00:   INDUCTION LOG MEDIUM
 ILD .OHMM   07 120 46 00:   INDUCTION LOG DEEP
 NPHI.DEC    42 890 03 00:   NEUTRON POROSITY SANDSTONE
 DPHI.DEC    45 890 12 00:   DENSITY POROSITY SANDSTONE
 RHOB.G/C3   45 350 01 00:   BULK DENSITY
 CORR.G/C3   45 356 01 00:   DENSITY CORRECTION
 GRD .GAPI   45 310 01 00:   GAMMA RAY FROM DENSITY LOG
 CALD.IN     45 280 60 00:   CALIPER
~PARAMETER INFORMATION
#MNEM.UNIT          VALUE    DESCRIPTION
#----------   ------------   ------------------------------
 PD  .                 GL:   PERMANENT DATUM
 EPD .F              5188:   ELEVATION PERMANENT DATUM
 LMF .                 KB:   LOG MEASURED FROM
 DAPD.F                 5:   FEET ABOVE PERMANENT DATUM
 DMF .                 KB:   DRILLING MEASURED FROM
 EKB .F              5193:   KELLING BUSHING
 EGL .F              5188:   GROUND LEVEL
 DATE.           10-14-83:   RUN DATE
 RUN .                  4:   RUN NUMBER
 DD  .F               629:   DEPTH DRILLER
 DL  .F               630:   DEPTH LOGGER
 BLI .F               624:   BOTTOM LOG INTERVAL
 TLI .F               335:   TOP LOG INTERVAL
 BS  .IN             8.75:   BIT SIZE
 BSD .F               629:   BIT SIZE AT DEPTH
 DFT .          KCL WATER:   DRILLING FLUID TYPE
 LUN .               6307:   LOGGING UNIT NUMBER
 LUL .               GLTE:   LOGGING UNIT LOCATION
 ENGI.            DEYOUNG:   RECORDING ENGINEER
 WITN.            SCHULTE:   WITNESSED BY
 CLNT.            A2DTECH:   CLIENT CODE
 ORIG.       2", 5" PRINT:   ORIGIN OF DATA
 UWI .       490251084300:   UNIQUE WELL ID
 DICO. A2D Technologies, Inc.:   DIGITIZING COMPANY
~OTHER INFORMATION
~A    DEPT     SPR       SFLU        ILM        ILD       NPHI       DPHI       RHOB       CORR        GRD       CALD   
# ...
  435.5000   -28.4971     5.1106     3.4092     4.1593     0.2492     0.1850     2.4878     0.0732   105.8553     9.7082
  436.0000   -28.7716     6.0284     3.9445     4.6626     0.2438     0.1304     2.4926     0.0687   104.9400     9.7455
  436.5000   -29.0452     7.4066     4.5638     5.2267     0.2389     0.1188     2.4667     0.0589   104.6525     9.7554
  437.0000   -29.3220     5.7317     5.2870     5.8913     0.2428     0.1136     2.4642     0.0501   106.7815     9.7516
  437.5000   -29.4275     5.8902     5.6294     5.9184     0.2513     0.1256     2.4785     0.0593   107.0303     9.7476
  438.0000   -29.4296     6.1891     5.8456     6.1014     0.2593     0.1316     2.4838     0.0686   104.3101     9.7436
  438.5000   -29.4317     6.5031     6.0264     6.2901     0.2612     0.1248     2.4876     0.0689   105.2348     9.7396
  439.0000   -29.3341     6.8331     6.1722     6.4846     0.2646     0.1203     2.4803     0.0665   106.6048     9.7357
  439.5000   -29.2144     7.2722     6.3233     6.6970     0.2721     0.1179     2.4636     0.0594   106.9358     9.7317
  440.0000   -29.0941     6.9454     6.4562     6.3472     0.2824     0.1183     2.4357     0.0524   105.3330     9.7277
  440.5000   -28.9741     6.5288     6.0903     5.8778     0.2984     0.1265     2.4055     0.0455   102.8288     9.7238
  441.0000   -28.8540     6.1355     5.7865     5.4431     0.3028     0.1367     2.3995     0.0464   101.8621     9.7198
  441.5000   -28.7340     5.7659     5.4979     5.0406     0.3061     0.1496     2.4239     0.0564   101.7502     9.7158
  442.0000   -28.6139     5.4199     5.2236     4.6434     0.3017     0.1624     2.4461     0.0665   100.3536     9.7118
  442.5000   -28.4934     5.1354     4.9963     4.6831     0.2965     0.1690     2.4655     0.0630    98.6861     9.7079
  443.0000   -28.3710     5.2245     5.0561     4.7261     0.2913     0.1516     2.4594     0.0588    97.0327     9.7039
  443.5000   -28.2595     5.3039     5.1097     4.7727     0.2861     0.1343     2.4559     0.0547    96.4389     9.6999
  444.0000   -28.5953     5.4110     5.2258     4.8440     0.2784     0.1322     2.4770     0.0580    97.7514     9.7013
  444.5000   -28.9653     5.7025     5.4023     5.0704     0.2669     0.1340     2.4988     0.0671    99.0610     9.7098
  445.0000   -29.3457     6.0107     5.6101     5.3075     0.2694     0.1296     2.5097     0.0766    99.5318     9.7182
  445.5000   -29.4492     6.3349     5.8887     5.5556     0.2697     0.1153     2.5178     0.0769    99.9348     9.7266
  446.0000   -29.4788     6.6766     6.1789     5.8152     0.2655     0.1065     2.5235     0.0743   101.2338     9.7350
  446.5000   -29.5060     7.0368     6.4838     6.0988     0.2587     0.1020     2.5289     0.0715   102.6254     9.7434
  447.0000   -29.5339     7.4164     6.8036     6.4229     0.2528     0.0975     2.5243     0.0682   103.2260     9.7517
  447.5000   -29.5619     7.8164     7.1393     6.7642     0.2578     0.0930     2.5185     0.0649   103.9692     9.7567
  448.0000   -29.5901     8.2080     7.4940     7.0603     0.2613     0.0932     2.5120     0.0694   105.5375     9.7504
  448.5000   -29.6214     8.3136     7.8973     7.2234     0.2544     0.0958     2.5053     0.0744   106.8694     9.7442
  449.0000   -29.5087     8.4268     7.8642     7.4747     0.2477     0.0984     2.5035     0.0757   108.7215     9.7380
  449.5000   -29.3453     8.5751     7.8233     7.4011     0.2435     0.1011     2.4995     0.0659   110.7104     9.7318
  450.0000   -29.1808     8.5204     7.7850     7.2569     0.2447     0.1044     2.4763     0.0556   110.1364     9.7257
  450.5000   -29.0164     8.4124     7.7468     7.1156     0.2491     0.1083     2.4700     0.0524   108.7085     9.7195
  451.0000   -28.8521     8.3077     7.7089     6.9770     0.2544     0.1173     2.4870     0.0641   107.2549     9.7133
  451.5000   -28.6877     8.1858     7.6082     6.8410     0.2593     0.1259     2.4995     0.0636   105.7205     9.7071
  452.0000   -28.5230     7.9896     7.3726     6.7075     0.2659     0.1217     2.4822     0.0575   107.4448     9.7009
  452.5000   -28.3607     7.8034     7.1444     6.5771     0.2659     0.1148     2.4770     0.0513   108.8945     9.6973
  453.0000   -28.2676     7.6261     6.9232     6.4677     0.2637     0.1090     2.4746     0.0529   108.0663     9.6955
  453.5000   -28.4459     7.4528     6.8208     6.3768     0.2616     0.1196     2.4710     0.0543   107.8507     9.6937
  454.0000   -28.6226     7.2835     6.8208     6.2813     0.2594     0.1243     2.4739     0.0492   109.0202     9.6920
  454.5000   -28.7994     7.1182     6.8208     6.2236     0.2598     0.1259     2.4676     0.0441   110.1997     9.6902
  455.0000   -28.9752     6.7636     6.8208     6.0503     0.2733     0.1256     2.4564     0.0391   107.4692     9.6885
  455.5000   -29.1532     6.3610     6.7632     5.6317     0.2867     0.1233     2.4481     0.0353   105.7447     9.6867
  456.0000   -29.1535     5.9827     6.3755     5.2421     0.2968     0.1295     2.4529     0.0431   105.5513     9.6850
  456.5000   -29.0139     5.6268     6.0096     4.8794     0.3019     0.1355     2.4574     0.0510   103.6662     9.6832
  457.0000   -28.8727     5.2918     5.6643     4.5418     0.3007     0.1405     2.4602     0.0577   100.9853     9.6814
  457.5000   -28.7341     4.9778     5.3383     4.2761     0.2925     0.1367     2.4635     0.0602   100.0576     9.6797
  458.0000   -28.7225     4.8138     5.0332     4.2372     0.2828     0.1334     2.4711     0.0628    98.2077     9.6771
  458.5000   -28.9592     5.1665     4.9038     4.5464     0.2701     0.1327     2.4843     0.0654    97.1222     9.6724
  459.0000   -29.1932     5.5576     5.2148     4.7237     0.2581     0.1314     2.4931     0.0682    98.9737     9.6678
  459.5000   -29.4180     5.9785     5.5570     4.9139     0.2464     0.1248     2.4884     0.0675   100.7559     9.6632
  460.0000   -29.3156     6.4310     5.9213     5.2298     0.2384     0.1182     2.4884     0.0684   102.1380     9.6586
  460.5000   -29.1953     6.9169     6.3087     5.5660     0.2451     0.1133     2.4929     0.0656   102.7508     9.6540
  461.0000   -29.0760     7.3634     6.7216     5.9236     0.2533     0.1176     2.4924     0.0636   103.3790     9.6495
  461.5000   -28.9565     7.4948     7.0967     6.3042     0.2565     0.1158     2.4859     0.0617   103.9996     9.6448
  462.0000   -28.8442     7.6287     7.2100     6.7092     0.2610     0.1120     2.4798     0.0598   104.6408     9.6403
  462.5000   -28.9045     7.7646     7.3252     7.1403     0.2657     0.1156     2.4838     0.0598   103.8454     9.6356
  463.0000   -28.9728     7.9033     7.4422     7.1768     0.2645     0.1192     2.4957     0.0654   104.5133     9.6311
  463.5000   -29.0404     8.0427     7.5612     7.2136     0.2622     0.1227     2.5079     0.0712   104.9184     9.6265
  464.0000   -29.1078     8.0746     7.6824     7.2505     0.2625     0.1162     2.5114     0.0763   103.4098     9.6219
  464.5000   -29.1752     8.1063     7.7631     7.2876     0.2642     0.1098     2.4967     0.0688   101.9705     9.6173
  465.0000   -29.2426     8.1382     7.7867     7.3249     0.2598     0.1025     2.4842     0.0627   100.8715     9.6127
  465.5000   -29.3104     8.1702     7.8103     7.3624     0.2555     0.1077     2.4999     0.0670   102.4911     9.6081
  466.0000   -29.3771     8.2023     7.8340     7.4002     0.2515     0.1137     2.5124     0.0687   103.6313     9.6035
  466.5000   -29.4039     8.2346     7.8577     7.4381     0.2521     0.1191     2.5073     0.0645   101.5664     9.5992
  467.0000   -29.2689     8.2669     7.8815     7.4747     0.2529     0.1037     2.5004     0.0602   101.0432     9.5976
  467.5000   -29.1380     8.2994     7.9054     7.4699     0.2499     0.1056     2.4883     0.0559   102.6388     9.5959
  468.0000   -29.0074     8.3321     7.9293     7.4650     0.2484     0.1057     2.4775     0.0513   100.7406     9.5942
  468.5000   -28.8769     8.3648     7.9533     7.4602     0.2498     0.1117     2.4782     0.0619   101.7857     9.5924
