~VERSION INFORMATION
 VERS.                2.0:   CWLS LOG ASCII STANDARD - VERSION 2.0
 WRAP.                 NO:   ONE LINE PER DEPTH STEP
~WELL INFORMATION
#MNEM.UNIT      DATA TYPE    INFORMATION
#----------   ------------   ------------------------------
 STRT.F           30.0000:   START DEPTH
 STOP.F          480.0000:   STOP DEPTH
 STEP.F            0.5000:   STEP LENGTH
 NULL.          -999.2500:   NO VALUE
 COMP. FENIX & SCISSON INC:   COMPANY
 WELL.   51-SX-10 #NPR-10:   WELL
 FLD .             TEAPOT:   FIELD
 LOC .      S10 T38N R78W:   LOCATION
 CNTY.            NATRONA:   COUNTY
 STAT.            WYOMING:   STATE
 CTRY. UNITED STATES OF AMERICA:   COUNTRY
 SRVC.              Welex:   SERVICE COMPANY
 DATE.        13-MAR-1977:   LOGDATE
 API .       490251031000:   API NUMBER
~CURVE INFORMATION
#MNEM.UNIT       API CODE    CURVE DESCRIPTION
#----------   ------------   ------------------------------
 DEPT.F                  :   
 SGRD.OHMM   07 220 05 00:   SHALLOW GUARD RESISTIVITY
 ILD .OHMM   07 120 46 00:   INDUCTION LOG DEEP
 ILM .OHMM   07 120 44 00:   INDUCTION LOG MEDIUM
 SPR .MV     07 010 01 00:   SPONTANEOUS POTENTIAL
 RHOB.G/C3   45 350 01 00:   BULK DENSITY
 DPOR.DEC    45 890 12 00:   DENSITY POROSITY SANDSTONE
 CORR.G/C3   45 356 01 00:   DENSITY CORRECTION
 GRD .GAPI   45 310 01 00:   GAMMA RAY FROM DENSITY LOG
 CALD.IN     45 280 60 00:   CALIPER FROM DENSITY LOG
~PARAMETER INFORMATION
#MNEM.UNIT          VALUE    DESCRIPTION
#----------   ------------   ------------------------------
 PD  .                 GL:   PERMANENT DATUM
 EPD .F              5216:   ELEVATION PERMANENT DATUM
 LMF .                 GL:   LOG MEASURED FROM
 DMF .                 GL:   DRILLING MEASURED FROM
 EGL .F              5216:   GROUND LEVEL
 DATE.            3-13-77:   RUN DATE
 RUN .                  1:   RUN NUMBER
 DD  .F               490:   DEPTH DRILLER
 DL  .F               485:   DEPTH LOGGER
 BLI .F               483:   BOTTOM LOG INTERVAL
 TLI .F                35:   TOP LOG INTERVAL
 CS  .IN            8.625:   CASING SIZE
 CBD .F                40:   CASING BOTTOM DRILLER
 CBL .F                36:   CASING BOTTOM LOGGER
 BS  .IN            7.875:   BIT SIZE
 BSD .F               490:   BIT SIZE AT DEPTH
 DFT .            KCL MUD:   DRILLING FLUID TYPE
 DFD .                8.9:   DRILLING FLUID DENSITY
 DFV .                 34:   DRILLING FLUID VISCOSITY
 MSS .            MUD PIT:   MUD SAMPLE SOURCE
 RMS .OHMM            .43:   RESISTIVITY MUD SAMPLE
 MST .F                60:   MUD SAMPLE TEMPERATURE
 RMF .OHMM            .37:   RESISTIVITY MUD FILTRATE SAMPLE
 MFST.F                60:   MUD FILTRATE SAMPLE TEMPERATURE
 RMC .OHMM            .47:   RESISTIVITY MUD CAKE
 MCST.F                60:   MUD CAKE SAMPLE TEMPERATURE
 MFSS.           FANN KIT:   MUD FILTRATE SAMPLE SOURCE
 MCSS.           FANN KIT:   MUD CAKE SAMPLE SOURCE
 RMB .OHMM            .40:   RESISTIVITY MUD AT BHT
 BHT .F                63:   BOTTOM HOLE TEMPERATURE
 TCS .HRS             1.5:   TIME CURCULATED STOPPED
 MRT .F                63:   MAXIMUM RECORDED TEMPERATURE
 LUN .               8611:   LOGGING UNIT NUMBER
 LUL .             CASPER:   LOGGING UNIT LOCATION
 ENGI.               DOAK:   RECORDING ENGINEER
 WITN.         STUEBINGER:   WITNESSED BY
 CLNT.            A2DTECH:   CLIENT CODE
 ORIG.       2", 5" PRINT:   ORIGIN OF DATA
 UWI .       490251031000:   UNIQUE WELL ID
 DICO. A2D Technologies, Inc.:   DIGITIZING COMPANY
~OTHER INFORMATION
~A   DEPT     SGRD        ILD        ILM        SPR       RHOB       DPOR        CORR       GRD       CALD   
# ...
  285.5000    14.8927     7.6440     8.7561   -38.4341     2.4916     0.0939     0.0841   123.2462     7.9112
  286.0000    15.1003     8.1099     9.3405   -37.7104     2.4992     0.0881     0.0878   122.6636     7.9149
  286.5000    15.3765     8.6041     9.8723   -36.9802     2.5014     0.0867     0.0915   124.0459     7.9185
  287.0000    15.1734     9.1285    10.2879   -36.2844     2.5036     0.0882     0.0952   125.4677     7.9221
  287.5000    14.8861     9.6420    10.6810   -35.5775     2.5058     0.0836     0.0991   125.6834     7.9257
  288.0000    14.6030    10.0794    11.0890   -34.8818     2.5141     0.0790     0.1073   122.9576     7.9293
  288.5000    14.4141    10.5367    11.5115   -34.1711     2.5195     0.0762     0.1156   115.1276     7.9330
  289.0000    14.4125    11.0147    11.9463   -33.2878     2.5151     0.0796     0.1238   107.6394     7.9366
  289.5000    14.3871    11.5144    12.4253   -32.1756     2.5011     0.0886     0.1291    99.9185     7.9403
  290.0000    14.4127    11.9835    13.7429   -31.0737     2.4836     0.1079     0.1290    90.6712     7.9441
  290.5000    20.3491    13.4252    15.6474   -29.9161     2.4535     0.1266     0.1288    81.7246     7.9472
  291.0000    29.6538    14.8858    17.8158   -29.3395     2.4200     0.1424     0.1214    73.5467     7.9266
  291.5000    26.7678    16.5054    19.5664   -28.7205     2.3864     0.1581     0.1136    75.1068     7.8301
  292.0000    23.4975    18.4911    20.8481   -28.1124     2.3784     0.1603     0.1058    76.4777     7.7343
  292.5000    27.3596    20.0925    27.2457   -27.4926     2.3713     0.1567     0.0981    73.0108     7.7625
  293.0000    31.4357    22.2393    28.4545   -26.9663     2.3642     0.1701     0.0923    68.5902     7.8091
  293.5000    36.1030    22.8005    29.3525   -26.4418     2.3575     0.1741     0.0907    69.8942     7.8576
  294.0000    39.7766    23.5055    27.8097   -25.9130     2.3517     0.1782     0.0890    73.9240     7.8426
  294.5000    30.1569    23.8446    26.6927   -25.3844     2.3459     0.1823     0.0873    76.8837     7.7881
  295.0000    31.1052    24.3404    25.3066   -24.8549     2.3402     0.1860     0.0856    75.9128     7.7334
  295.5000    31.8549    24.8374    26.1374   -24.3282     2.3364     0.1874     0.0839    74.8325     7.6783
  296.0000    32.6227    25.3178    27.3717   -23.8245     2.3326     0.1895     0.0822    73.7373     7.6324
  296.5000    33.4089    25.9966    28.6644   -23.5778     2.3185     0.1967     0.0805    72.6316     7.7067
  297.0000    34.2142    26.6437    30.0181   -23.3286     2.3043     0.2039     0.0788    72.1490     7.7782
  297.5000    34.9680    27.2560    31.2910   -23.0801     2.2996     0.2098     0.0775    74.4751     7.8521
  298.0000    34.5934    27.5439    31.2910   -22.8308     2.3059     0.2069     0.0821    76.8159     7.8735
  298.5000    36.4821    27.8235    29.6038   -22.5074     2.3120     0.2040     0.0866    78.6637     7.8815
  299.0000    40.3310    28.1027    28.5306   -21.9215     2.3148     0.2010     0.0910    79.1403     7.8888
  299.5000    42.4310    28.3848    27.4897   -21.3557     2.3277     0.1914     0.0963    80.4943     7.8962
  300.0000    32.7687    28.6698    26.4806   -20.7905     2.3514     0.1790     0.1068    81.5030     7.9037
  300.5000    35.1922    28.9576    25.0742   -20.1998     2.3681     0.1678     0.1174    81.8831     7.9113
  301.0000    44.0266    29.3334    29.2696   -20.1502     2.3507     0.1794     0.1233    81.3539     7.9189
  301.5000    40.5550    29.1247    46.1058   -20.2716     2.3257     0.1922     0.1168    80.8605     7.9261
  302.0000    34.9555    28.8328    39.0275   -20.3984     2.2995     0.2051     0.1105    80.7485     7.9129
  302.5000    40.3044    28.5434    28.2182   -20.5240     2.2948     0.2138     0.1047    81.7934     7.8432
  303.0000    46.1058    28.2581    19.9079   -20.6493     2.3105     0.2006     0.1041    83.6510     7.7776
  303.5000    29.3334    28.0072    19.7250   -20.7732     2.3289     0.1889     0.1033    85.4519     7.7402
  304.0000    30.4365    28.3134    23.8251   -20.8694     2.3439     0.1810     0.0994    82.0873     7.7871
  304.5000    37.7731    28.6432    28.1693   -20.8985     2.3319     0.1905     0.0881    79.7042     7.8307
  305.0000    48.2831    28.9769    30.8486   -20.9291     2.3170     0.1990     0.0768    79.0993     7.8714
  305.5000    43.3441    29.3334    32.0982   -20.9594     2.3032     0.2062     0.0654    79.0558     7.8749
  306.0000    38.5547    28.8143    33.3985   -20.9898     2.3073     0.2010     0.0651    80.3343     7.8791
  306.5000    34.6943    28.2746    35.6869   -21.0201     2.3554     0.1655     0.0750    81.7174     7.8835
  307.0000    66.0797    27.7449    40.5176   -21.0505     2.4081     0.1413     0.0858    83.4526     7.8878
  307.5000    47.5754    27.2252    39.9974   -21.0809     2.4204     0.1402     0.0967    86.4439     7.8922
  308.0000    29.0639    26.7152    39.0816   -21.1112     2.4069     0.1446     0.0998    89.3539     7.8965
  308.5000    48.2831    26.2148    38.2015   -21.1416     2.3962     0.1524     0.1009    92.3789     7.9009
  309.0000    41.6803    25.7237    35.1608   -21.1719     2.3836     0.1602     0.0984    92.7713     7.9052
  309.5000    33.6886    25.2419    31.7841   -21.2020     2.3700     0.1670     0.0951    91.1022     7.9096
  310.0000    34.3501    24.7691    29.8799   -21.2326     2.3680     0.1693     0.0917    89.8090     7.9139
  310.5000    34.9232    24.3895    29.8799   -21.2897     2.3667     0.1717     0.0884    88.5338     7.9183
  311.0000    35.2795    24.5812    29.8799   -21.4802     2.3589     0.1756     0.0851    88.0227     7.9226
  311.5000    32.1602    24.7444    29.8779   -21.6692     2.3494     0.1800     0.0853    88.2345     7.9269
  312.0000    32.6160    24.8438    29.9631   -21.8579     2.3426     0.1830     0.0857    88.4644     7.9308
  312.5000    33.3759    24.1159    30.1012   -22.0465     2.3404     0.1850     0.0861    88.7308     7.9339
  313.0000    34.3162    23.6071    30.2411   -22.2351     2.3382     0.1862     0.0865    87.0022     7.9370
  313.5000    33.7395    23.1089    30.3815   -22.4237     2.3409     0.1795     0.0869    85.2737     7.9400
  314.0000    33.0364    22.6213    30.5226   -22.6123     2.3654     0.1683     0.0899    86.2583     7.9430
  314.5000    32.6653    22.1440    30.6643   -22.8009     2.3894     0.1571     0.0935    88.2000     7.9461
  315.0000    32.4976    21.6768    30.7187   -22.9895     2.4037     0.1462     0.0969    90.1381     7.9491
  315.5000    31.3356    21.2194    28.4471   -23.1782     2.4021     0.1473     0.0968    91.3926     7.9521
  316.0000    30.0103    20.7717    26.1980   -23.3668     2.4008     0.1471     0.0965    92.0559     7.9552
  316.5000    28.5258    20.3334    24.1268   -23.5554     2.4063     0.1426     0.0962    93.2437     7.9582
  317.0000    28.5338    19.9039    22.6537   -23.7440     2.4090     0.1444     0.0959    96.3511     7.9612
  317.5000    28.5324    19.4836    24.1654   -23.9326     2.4012     0.1467     0.0956    97.2972     7.9644
  318.0000    28.2560    19.0102    23.5461   -24.1214     2.3937     0.1515     0.0953    97.2659     7.9678
  318.5000    27.9306    19.1084    23.2896   -24.3097     2.3862     0.1568     0.0951    97.2141     7.9669
  319.0000    27.6090    19.2617    23.8640   -24.4719     2.3786     0.1621     0.0913    97.1686     7.9064
  319.5000    27.2373    19.4161    24.1639   -24.5525     2.3712     0.1690     0.0869    97.1360     7.8446
  320.0000    27.8494    19.5718    23.8535   -24.6333     2.3561     0.1778     0.0826    97.8197     7.8444
  320.5000    28.8162    19.7288    23.7322   -24.7141     2.3415     0.1867     0.0782    99.2695     7.8638
  321.0000    29.3334    19.8871    23.0368   -24.7950     2.3368     0.1874     0.0744   100.7045     7.8840
  321.5000    28.7852    19.9504    22.2673   -24.8759     2.3504     0.1772     0.0743   101.4990     7.9049
