~VERSION INFORMATION
 VERS.                2.0:   CWLS LOG ASCII STANDARD - VERSION 2.0
 WRAP.                 NO:   ONE LINE PER DEPTH STEP
~WELL INFORMATION
#MNEM.UNIT      DATA TYPE    INFORMATION
#----------   ------------   ------------------------------
 STRT.F           11.5000:   START DEPTH
 STOP.F          697.0000:   STOP DEPTH
 STEP.F            0.5000:   STEP LENGTH
 NULL.          -999.2500:   NO VALUE
 COMP. FENIX & SCISSON INC:   COMPANY
 WELL.    NPR3 SX-2 #12-2:   WELL
 FLD .             TEAPOT:   FIELD
 LOC .       S2 T38N R78W:   LOCATION
 CNTY.            NATRONA:   COUNTY
 STAT.            WYOMING:   STATE
 CTRY. UNITED STATES OF AMERICA:   COUNTRY
 SRVC.           BIRDWELL:   SERVICE COMPANY
 DATE.        13-JAN-1978:   LOGDATE
 API .       490251055000:   API NUMBER
~CURVE INFORMATION
#MNEM.UNIT       API CODE    CURVE DESCRIPTION
#----------   ------------   ------------------------------
 DEPT.F                  :   
 CALD.IN     45 280 60 00:   CALIPER FROM DENSITY LOG
 CORR.G/C3   45 356 01 00:   DENSITY CORRECTION
 RHOB.G/C3   45 350 01 00:   BULK DENSITY
 GRD .GAPI   45 310 01 00:   GAMMA RAY FROM DENSITY LOG
 DPHI.DEC    45 890 12 00:   DENSITY POROSITY SANDSTONE
 ILD .OHMM   05 120 46 00:   INDUCTION LOG DEEP
 SN  .OHMM   05 040 16 00:   SHORT NORMAL 16"
 SPR .MV     05 010 01 00:   SPONTANEOUS POTENTIAL FROM RES.
~PARAMETER INFORMATION
#MNEM.UNIT          VALUE    DESCRIPTION
#----------   ------------   ------------------------------
 PD  .                 GL:   PERMANENT DATUM
 EPD .F              5094:   ELEVATION PERMANENT DATUM
 LMF .                 KB:   LOG MEASURED FROM
 DAPD.F                 4:   FEET ABOVE PERMANENT DATUM
 DMF .                 KB:   DRILLING MEASURED FROM
 EKB .F              5098:   KELLING BUSHING
 EGL .F              5094:   GROUND LEVEL
 DATE.        13-JAN-1978:   RUN DATE
 RUN .                  1:   RUN NUMBER
 DD  .F               695:   DEPTH DRILLER
 DL  .F               697:   DEPTH LOGGER
 BLI .F               692:   BOTTOM LOG INTERVAL
 TLI .F                30:   TOP LOG INTERVAL
 CS  .IN            8.625:   CASING SIZE
 CBD .F                35:   CASING BOTTOM DRILLER
 CBL .F                35:   CASING BOTTOM LOGGER
 BS  .IN            7.875:   BIT SIZE
 BSD .F               695:   BIT SIZE AT DEPTH
 DFT .                KCL:   DRILLING FLUID TYPE
 DFD .                8.6:   DRILLING FLUID DENSITY
 DFV .                 32:   DRILLING FLUID VISCOSITY
 DFPH.                9.5:   DRILLING FLUID PH
 DFL .                 12:   DRILLING FLUID LOSS
 MSS .           FLOWLINE:   MUD SAMPLE SOURCE
 RMS .OHMM            0.3:   RESISTIVITY MUD SAMPLE
 MST .F                59:   MUD SAMPLE TEMPERATURE
 RMF .OHMM           0.24:   RESISTIVITY MUD FILTRATE SAMPLE
 MFST.F                70:   MUD FILTRATE SAMPLE TEMPERATURE
 RMC .OHMM           0.56:   RESISTIVITY MUD CAKE
 MCST.F                63:   MUD CAKE SAMPLE TEMPERATURE
 MFSS.               MEAS:   MUD FILTRATE SAMPLE SOURCE
 MCSS.               MEAS:   MUD CAKE SAMPLE SOURCE
 RMB .OHMM           0.26:   RESISTIVITY MUD AT BHT
 BHT .F                72:   BOTTOM HOLE TEMPERATURE
 TCS .HRS               2:   TIME CURCULATED STOPPED
 MRT .F                72:   MAXIMUM RECORDED TEMPERATURE
 LUN .               2958:   LOGGING UNIT NUMBER
 LUL .             CASPER:   LOGGING UNIT LOCATION
 ENGI.           MARTINEZ:   RECORDING ENGINEER
 WITN.       MR. MCGINLEY:   WITNESSED BY
 CLNT.            A2DTECH:   CLIENT CODE
 ORIG.           5" PRINT:   ORIGIN OF DATA
 UWI .       490251055000:   UNIQUE WELL ID
 DICO. A2D Technologies, Inc.:   DIGITIZING COMPANY
~OTHER INFORMATION
~A   DEPT     CALD       CORR       RHOB         GRD      DPHI        ILD         SN        SPR   
# ...
  578.5000     8.4415     0.1759     2.3916    74.6024     0.1579    21.0340    16.7379   -17.3274
  579.0000     8.4563     0.1879     2.3841    74.3095     0.1588    20.7408    16.6190   -17.3330
  579.5000     8.4559     0.1925     2.3849    73.1156     0.1621    20.2865    16.3871   -17.3374
  580.0000     8.4707     0.1955     2.3879    72.5224     0.1639    19.7519    16.2707   -17.3418
  580.5000     8.4854     0.2045     2.3879    72.8514     0.1594    19.2092    16.1550   -17.4973
  581.0000     8.5002     0.2211     2.3818    77.6441     0.1543    18.9415    16.0402   -17.6528
  581.5000     8.4998     0.2511     2.3811    82.0058     0.1543    18.6776    15.9257   -17.8083
  582.0000     8.5146     0.2752     2.3938    86.3657     0.1543    18.4173    15.7034   -17.8127
  582.5000     8.5143     0.2812     2.4013    83.6722     0.1525    18.1607    15.5919   -17.8172
  583.0000     8.5203     0.2797     2.4148    78.4243     0.1453    17.7842    15.3743   -17.8218
  583.5000     8.5287     0.2736     2.4103    73.0263     0.1414    17.4156    15.0551   -17.9782
  584.0000     8.5284     0.2693     2.4088    70.9316     0.1360    17.1714    14.8451   -18.1337
  584.5000     8.5432     0.2663     2.4215    69.8860     0.1278    16.8169    14.6379   -18.2891
  585.0000     8.5429     0.2679     2.4380    70.7962     0.1230    16.5818    14.4336   -18.5957
  585.5000     8.5425     0.2709     2.4552    72.3050     0.1182    16.3507    14.2322   -18.9022
  586.0000     8.5573     0.2739     2.4695    73.2133     0.1118    16.2348    14.0329   -19.2088
  586.5000     8.5569     0.2620     2.4792    73.9804     0.1051    16.1196    14.0301   -19.5153
  587.0000     8.5566     0.2229     2.4949    77.2023     0.0984    16.0053    13.9304   -19.8219
  587.5000     8.5564     0.2095     2.5159    78.3405     0.0879    15.8918    13.9276   -19.9773
  588.0000     8.5561     0.1930     2.5133    77.1485     0.0810    15.8886    13.8287   -20.2840
  588.5000     8.5558     0.1597     2.4884    75.9547     0.0849    15.8853    13.8259   -20.5915
  589.0000     8.5555     0.0846     2.4604    74.4606     0.1053    15.8821    13.7278   -20.7470
  589.5000     8.5552     0.0774     2.4807    72.6662     0.1122    15.7695    13.7249   -20.7514
  590.0000     8.5549     0.0820     2.4972    75.6765     0.1077    15.7662    13.7221   -20.6037
  590.5000     8.5395     0.0820     2.5039    77.3356     0.0930    15.6537    13.7193   -20.6092
  591.0000     8.5392     0.0805     2.5039    77.0426     0.0888    15.6505    13.7159   -20.6137
  591.5000     8.5239     0.0761     2.5016    76.8980     0.0921    15.6473    13.6184   -20.4659
  592.0000     8.5236     0.0701     2.4983    78.4087     0.0975    15.6442    13.6157   -20.6225
  592.5000     8.5233     0.0596     2.4908    82.0345     0.1047    15.6410    13.6129   -20.9291
  593.0000     8.5230     0.0491     2.4776    81.5766     0.0995    15.5301    13.5162   -21.0886
  593.5000     8.5076     0.0402     2.4656    80.6621     0.1014    15.4199    13.5135   -21.3912
  594.0000     8.5073     0.0372     2.4747    79.5857     0.1119    15.4168    13.5108   -21.6988
  594.5000     8.5071     0.0372     2.4791    77.0961     0.1137    15.4137    13.5080   -21.8542
  595.0000     8.5067     0.0402     2.4716    74.7010     0.1104    15.3043    13.5053   -22.1608
  595.5000     8.5215     0.0418     2.4753    73.8057     0.1095    15.3011    13.5025   -22.3163
  596.0000     8.5212     0.0463     2.4873    75.1662     0.1026    15.1920    13.4997   -22.4718
  596.5000     8.5209     0.0508     2.5008    78.1766     0.0930    15.1889    13.4964   -22.7783
  597.0000     8.5356     0.0509     2.4925    79.3852     0.0939    15.1858    13.4937   -22.9338
  597.5000     8.5353     0.0509     2.4835    80.1433     0.0984    15.2889    13.4909   -23.0893
  598.0000     8.5350     0.0494     2.4790    80.3008     0.1062    15.2850    13.4882   -23.3958
  598.5000     8.5347     0.0495     2.4850    80.6085     0.1074    15.1766    13.4855   -23.5594
  599.0000     8.5344     0.0495     2.5023    80.6159     0.0957    15.0689    13.4827   -23.8580
  599.5000     8.5341     0.0510     2.5053    80.7734     0.1017    15.0659    13.4800   -23.8634
  600.0000     8.5489     0.0526     2.4978    80.7808     0.1065    14.9590    13.3842   -23.8678
  600.5000     8.5636     0.0479     2.4856    80.6271     0.1077    14.9511    13.3328   -23.8722
  601.0000     8.5633     0.0403     2.4850    80.1949     0.1071    14.8498    13.2814   -23.7245
  601.5000     8.5650     0.0466     2.5030    79.9020     0.0978    14.7420    13.2299   -23.8811
  602.0000     8.5678     0.0527     2.5052    79.9112     0.0909    14.7043    13.1785   -23.8888
  602.5000     8.5706     0.0512     2.5015    80.3690     0.0952    14.6666    13.1271   -23.9145
  603.0000     8.5734     0.0497     2.4970    81.1272     0.1053    14.6288    13.0756   -23.9402
  603.5000     8.5762     0.0503     2.4954    80.9844     0.1086    14.5911    13.0242   -23.9659
  604.0000     8.5790     0.0508     2.4917    81.2921     0.1029    14.5534    13.0114   -23.9916
  604.5000     8.5818     0.0513     2.4849    83.0896     0.0963    14.5156    13.0103   -24.0181
  605.0000     8.5846     0.0499     2.4872    85.1954     0.0951    14.4779    13.0094   -24.0181
  605.5000     8.5874     0.0483     2.4924    85.9520     0.0990    14.4397    12.9188   -24.1692
  606.0000     8.5904     0.0452     2.4962    86.1141     0.1032    14.3392    12.9179   -24.3202
  606.5000     8.6051     0.0469     2.4878    86.0951     0.1047    14.2394    12.9170   -24.4713
  607.0000     8.6048     0.0500     2.4882    85.5207     0.0960    14.1401    12.9162   -24.6224
  607.5000     8.6346     0.0545     2.4954    85.3749     0.0927    14.0418    12.9153   -24.6224
  608.0000     8.6493     0.0560     2.4984    85.3823     0.0921    13.9440    12.9144   -24.7734
  608.5000     8.6490     0.0576     2.4988    85.8386     0.0905    13.9431    13.0033   -25.0755
  609.0000     8.6336     0.0591     2.4994    86.4451     0.0885    13.8461    13.0024   -25.3776
  609.5000     8.6333     0.0621     2.5019    87.2017     0.0924    13.6550    13.0919   -25.6798
  610.0000     8.6180     0.0592     2.5057    87.6581     0.0981    13.5600    13.0908   -25.9819
  610.5000     8.6177     0.0562     2.5020    87.3636     0.1029    13.4656    13.0899   -26.1329
  611.0000     8.6174     0.0563     2.4885    86.0182     0.0963    13.4647    12.9987   -26.1520
  611.5000     8.6171     0.0659     2.4975    86.0240     0.0904    13.3710    12.9081   -26.2840
  612.0000     8.6168     0.0818     2.5103    87.1051     0.0834    13.2780    12.8181   -26.2840
  612.5000     8.6165     0.0848     2.5186    87.5373     0.0810    13.1856    12.8173   -26.2840
  613.0000     8.6162     0.0834     2.5122    86.1933     0.0867    13.0936    12.7280   -26.2840
  613.5000     8.6159     0.0789     2.5201    85.7472     0.0918    12.9129    12.6393   -26.2840
  614.0000     8.6156     0.0744     2.5261    87.7066     0.0885    12.7347    12.6384   -26.1329
  614.5000     8.6153     0.0684     2.5186    89.5142     0.0993    12.6461    12.5501   -25.9819
  615.0000     8.6150     0.0655     2.4999    87.7183     0.1050    12.4716    12.5493   -25.9819
  615.5000     8.5997     0.0625     2.4932    80.3668     0.0981    12.2995    12.4618   -26.1329
  616.0000     8.5994     0.0625     2.4992    78.1205     0.0891    12.1297    12.2896   -26.4350
  616.5000     8.5690     0.0642     2.5037    83.5317     0.0924    12.0453    12.1197   -26.5861
  617.0000     8.5687     0.0671     2.5068    87.1412     0.0970    11.8791    11.9522   -26.7372
  617.5000     8.5534     0.0686     2.5083    88.5085     0.0982    11.7124    11.7870   -26.8882
  618.0000     8.5531     0.0687     2.5083    89.5917     0.0916    11.5439    11.6241   -27.1903
  618.5000     8.5527     0.0687     2.5076    90.7639     0.0886    11.3153    11.3843   -27.3414
