~VERSION INFORMATION
 VERS.                2.0:   CWLS LOG ASCII STANDARD - VERSION 2.0
 WRAP.                 NO:   ONE LINE PER DEPTH STEP
~WELL INFORMATION
#MNEM.UNIT      DATA TYPE    INFORMATION
#----------   ------------   ------------------------------
 STRT.F           40.0000:   START DEPTH
 STOP.F          684.0000:   STOP DEPTH
 STEP.F            0.5000:   STEP LENGTH
 NULL.          -999.2500:   NO VALUE
 COMP.    FENIX & SCISSON:   COMPANY
 WELL.   N P R-3 #26SX2-2:   WELL
 FLD .             TEAPOT:   FIELD
 LOC .       S2 T38N R78W:   LOCATION
 CNTY.            NATRONA:   COUNTY
 STAT.            WYOMING:   STATE
 CTRY. UNITED STATES OF AMERICA:   COUNTRY
 SRVC.            Unknown:   SERVICE COMPANY
 DATE.        26-JAN-1978:   LOGDATE
 API .       490251056400:   API NUMBER
~CURVE INFORMATION
#MNEM.UNIT       API CODE    CURVE DESCRIPTION
#----------   ------------   ------------------------------
 DEPT.F                  :   
 ILD .OHMM   05 120 46 00:   INDUCTION LOG DEEP
 SN  .OHMM   05 040 16 00:   SHORT NORMAL 16"
 SPR .MV     05 010 01 00:   SPONTANEOUS POTENTIAL FROM RES.
 CALD.IN     45 280 60 00:   CALIPER FROM DENSITY LOG
 CORR.G/C3   45 356 01 00:   DENSITY CORRECTION
 DPHI.DEC    45 890 12 00:   DENSITY POROSITY SANDSTONE
 GRD .GAPI   45 310 01 00:   GAMMA RAY FROM DENSITY LOG
 RHOB.G/C3   45 350 01 00:   BULK DENSITY
~PARAMETER INFORMATION
#MNEM.UNIT          VALUE    DESCRIPTION
#----------   ------------   ------------------------------
 PD  .                 GL:   PERMANENT DATUM
 EPD .F              5142:   ELEVATION PERMANENT DATUM
 LMF .                 KB:   LOG MEASURED FROM
 DMF .                 KB:   DRILLING MEASURED FROM
 EKB .F              5146:   KELLING BUSHING
 EGL .F              5142:   GROUND LEVEL
 DATE.        26-JAN-1978:   RUN DATE
 RUN .                  1:   RUN NUMBER
 DD  .F               690:   DEPTH DRILLER
 DL  .F               684:   DEPTH LOGGER
 BLI .F               684:   BOTTOM LOG INTERVAL
 TLI .F                50:   TOP LOG INTERVAL
 CS  .IN            8.625:   CASING SIZE
 CBD .F                39:   CASING BOTTOM DRILLER
 CBL .F                40:   CASING BOTTOM LOGGER
 BS  .IN            7.875:   BIT SIZE
 BSD .F               690:   BIT SIZE AT DEPTH
 DFT .                KCL:   DRILLING FLUID TYPE
 DFD .                8.5:   DRILLING FLUID DENSITY
 DFV .                 33:   DRILLING FLUID VISCOSITY
 DFPH.                  9:   DRILLING FLUID PH
 MSS .           FLOWLINE:   MUD SAMPLE SOURCE
 RMS .OHMM           0.48:   RESISTIVITY MUD SAMPLE
 MST .F                75:   MUD SAMPLE TEMPERATURE
 RMF .OHMM           0.46:   RESISTIVITY MUD FILTRATE SAMPLE
 MFST.F                75:   MUD FILTRATE SAMPLE TEMPERATURE
 RMC .OHMM              1:   RESISTIVITY MUD CAKE
 MCST.F                75:   MUD CAKE SAMPLE TEMPERATURE
 MFSS.               MEAS:   MUD FILTRATE SAMPLE SOURCE
 MCSS.               MEAS:   MUD CAKE SAMPLE SOURCE
 RMB .OHMM           0.47:   RESISTIVITY MUD AT BHT
 BHT .F                76:   BOTTOM HOLE TEMPERATURE
 TCS .HRS               1:   TIME CURCULATED STOPPED
 MRT .F                76:   MAXIMUM RECORDED TEMPERATURE
 LUN .               2958:   LOGGING UNIT NUMBER
 LUL .             CASPER:   LOGGING UNIT LOCATION
 ENGI.           REYNOLDS:   RECORDING ENGINEER
 WITN.       MR. MCGINLEY:   WITNESSED BY
 CLNT.            A2DTECH:   CLIENT CODE
 ORIG.      2.5" 5" PRINT:   ORIGIN OF DATA
 UWI .       490251056400:   UNIQUE WELL ID
 DICO. A2D Technologies, Inc.:   DIGITIZING COMPANY
~OTHER INFORMATION
~A   DEPT      ILD         SN        SPR       CALD       CORR       DPHI         GRD        RHOB 
# ...
  161.5000     7.2048     7.4653   -57.6993     9.4143     0.2813     0.2652   114.4679     2.3029
  162.0000     7.1597     7.5730   -57.8389     9.4146     0.2813     0.2537   114.2956     2.2260
  162.5000     7.1160     7.6303   -58.1210     9.4149     0.2852     0.2513   113.3665     2.2408
  163.0000     7.1196     7.5728   -58.4059     9.4152     0.2874     0.2476   112.7431     2.2527
  163.5000     7.1240     7.4814   -58.5430     9.4155     0.2904     0.2519   111.8140     2.2520
  164.0000     7.1290     7.4864   -58.6794     9.4158     0.2905     0.2543   110.8848     2.2475
  164.5000     7.1328     7.5422   -58.8159     9.4161     0.2935     0.2543   109.7951     2.2454
  165.0000     7.1373     7.6509   -58.8040     9.4164     0.2935     0.2494   109.0265     2.2499
  165.5000     7.1419     7.7079   -58.7899     9.4167     0.2935     0.2494   108.2946     2.2499
  166.0000     7.1462     7.7121   -58.7783     9.4170     0.2935     0.2506   109.5238     2.2485
  166.5000     7.1506     7.6632   -58.7667     9.4173     0.2935     0.2494   109.6030     2.2470
  167.0000     7.1059     7.6674   -58.7551     9.4176     0.2936     0.2500   109.2299     2.2485
  167.5000     7.1103     7.6725   -58.7435     9.4179     0.2942     0.2506   108.3184     2.2546
  168.0000     7.0657     7.7289   -58.8831     9.4182     0.2966     0.2427   108.3244     2.2576
  168.5000     7.0215     7.7331   -58.9275     9.4185     0.2966     0.2453   108.3303     2.2530
  169.0000     6.9776     7.8454   -59.0056     9.4188     0.2966     0.2471   109.6514     2.2501
  169.5000     6.8875     7.9039   -58.9937     9.4191     0.2967     0.2483   113.9465     2.2501
  170.0000     6.7965     7.8529   -58.9819     9.4195     0.2952     0.2490   114.4648     2.2486
  170.5000     6.7540     7.7497   -58.9700     9.4198     0.2937     0.2493   114.1645     2.2487
  171.0000     6.6667     7.5964   -58.9560     9.4201     0.2937     0.2493   113.8646     2.2487
  171.5000     6.6249     7.4452   -58.7961     9.4204     0.2907     0.2493   113.8716     2.2502
  172.0000     6.6290     7.2469   -58.6363     9.4207     0.2877     0.2492   114.0000     2.2502
  172.5000     6.5854     7.1026   -58.4764     9.4210     0.2847     0.2492   114.4954     2.2511
  173.0000     6.5464     7.0575   -58.3165     9.4213     0.2817     0.2486   114.5015     2.2533
  173.5000     6.5514     7.0130   -58.1567     9.4216     0.2817     0.2480   115.7309     2.2564
  174.0000     6.5553     7.0168   -58.1451     9.4219     0.2817     0.2474   114.8207     2.2579
  174.5000     6.5593     7.0207   -58.1335     9.4222     0.2817     0.2455   114.5199     2.2579
  175.0000     6.5173     7.0246   -58.1219     9.4225     0.2817     0.2534   115.4442     2.2474
  175.5000     6.4765     7.0292   -58.2586     9.4228     0.2822     0.2571   115.7559     2.2428
  176.0000     6.4814     7.0330   -58.2441     9.4231     0.2884     0.2582   115.7619     2.2398
  176.5000     6.4399     7.0368   -58.5291     9.4234     0.2908     0.2563   115.1562     2.2383
  177.0000     6.4448     6.9913   -58.8140     9.4118     0.2908     0.2504   115.1621     2.2450
  177.5000     6.4044     7.0444   -58.8024     9.3936     0.2867     0.2453   115.7797     2.2567
  178.0000     6.3644     7.0969   -58.9420     9.3939     0.2835     0.2474   114.5624     2.2563
  178.5000     6.3683     7.1498   -58.9275     9.3771     0.2833     0.2514   114.2146     2.2529
  179.0000     6.2851     7.2030   -59.0671     9.3641     0.2865     0.2521   113.5912     2.2506
  179.5000     6.4210     7.2567   -58.9043     9.3645     0.2909     0.2416   112.8838     2.2698
  180.0000     6.6497     7.4121   -58.8927     9.3648     0.2909     0.2323   111.2233     2.2724
  180.5000     6.8393     7.5714   -58.8811     9.3347     0.2849     0.2284   108.9154     2.2749
  181.0000     7.0344     7.7912   -58.7209     9.3350     0.2819     0.2282   106.3731     2.2795
  181.5000     7.1854     8.0174   -58.4102     9.3049     0.2759     0.2315   108.9761     2.2870
  182.0000     7.2394     8.1808   -57.9538     9.3052     0.2729     0.2327   113.9490     2.2810
  182.5000     7.2938     8.2986   -57.6457     9.3055     0.2729     0.2339   116.4537     2.2780
  183.0000     7.2982     8.4182   -57.6341     9.3058     0.2730     0.2351   117.3771     2.2750
  183.5000     7.3026     8.5395   -57.7737     9.3061     0.2759     0.2326   114.6307     2.2750
  184.0000     7.3072     8.5442   -57.9104     9.3064     0.2760     0.2290   109.7437     2.2781
  184.5000     7.3126     8.6078   -58.0442     9.3067     0.2754     0.2290   107.3032     2.2826
  185.0000     7.3170     8.5522   -58.0326     9.3374     0.2730     0.2315   107.6149     2.2827
  185.5000     7.3214     8.4410   -58.1694     9.3377     0.2760     0.2351   109.4633     2.2781
  186.0000     7.2247     8.3301   -58.1575     9.3402     0.2801     0.2375   108.2181     2.2735
  186.5000     7.1303     8.2774   -58.2943     9.3438     0.2894     0.2393   107.6328     2.2691
  187.0000     7.1357     8.1126   -58.2798     9.3474     0.2926     0.2398   108.6483     2.2727
  187.5000     7.0900     8.0613   -58.2682     9.3509     0.2879     0.2319   109.5438     2.2812
  188.0000     7.1443     8.0103   -58.2567     9.3545     0.2821     0.2307   109.7913     2.2803
  188.5000     7.1486     7.9597   -58.2451     9.3580     0.2791     0.2304   109.0872     2.2767
  189.0000     7.1530     7.9651   -58.2335     9.3616     0.2761     0.2307   108.5799     2.2843
  189.5000     7.1574     7.9694   -58.2219     9.3651     0.2761     0.2341   108.1463     2.2814
  190.0000     7.1627     7.9737   -58.2109     9.3687     0.2751     0.2349   107.5229     2.2729
  190.5000     7.1671     7.9222   -58.3473     9.3723     0.2727     0.2349   107.2054     2.2686
  191.0000     7.2209     7.9276   -58.3354     9.3758     0.2701     0.2349   106.1602     2.2754
  191.5000     7.2751     7.9866   -58.1753     9.3794     0.2701     0.2288   105.2487     2.2814
  192.0000     7.2795     7.9907   -58.0152     9.3829     0.2702     0.2276   104.6430     2.2860
  192.5000     7.2840     8.0505   -57.8529     9.3865     0.2702     0.2300   103.7315     2.2845
  193.0000     7.2884     8.1105   -57.5448     9.3901     0.2702     0.2306   103.1258     2.2815
  193.5000     7.2928     8.1709   -57.2366     9.3936     0.2732     0.2324   102.8257     2.2815
  194.0000     7.1975     8.2364   -57.2250     9.3972     0.2763     0.2311   102.8420     2.2815
  194.5000     7.1769     8.3023   -57.2135     9.4007     0.2763     0.2256   102.5320     2.2862
  195.0000     7.1078     8.3561   -57.2019     9.4043     0.2763     0.2245   103.3027     2.2922
  195.5000     7.0149     8.4183   -57.0420     9.4079     0.2718     0.2264   106.3007     2.2890
  196.0000     6.9721     8.3640   -57.0304     9.4114     0.2703     0.2275   106.8312     2.2874
  196.5000     6.9274     8.1986   -57.1671     9.4150     0.2642     0.2275   105.7625     2.2862
  197.0000     6.8852     7.9791   -57.3193     9.4185     0.2612     0.2272   104.8155     2.2877
  197.5000     6.8411     7.7144   -57.5887     9.4221     0.2582     0.2260   103.9832     2.2908
  198.0000     6.8462     7.5598   -57.7254     9.4257     0.2582     0.2256   103.3598     2.2895
  198.5000     6.8034     7.3594   -57.8621     9.4292     0.2552     0.2274   102.8868     2.2848
  199.0000     6.8076     7.2626   -58.1441     9.4328     0.2583     0.2286   103.2294     2.2818
  199.5000     6.8117     7.1672   -58.2837     9.4363     0.2583     0.2286   105.9584     2.2818
  200.0000     6.8628     7.2085   -58.2692     9.4377     0.2613     0.2280   107.7625     2.2817
  200.5000     6.9021     7.1629   -58.3682     9.4378     0.2614     0.2298   107.6587     2.2813
  201.0000     6.9413     7.1324   -58.4759     9.4380     0.2615     0.2313   107.5548     2.2808
  201.5000     6.9806     7.3383   -58.3865     9.4381     0.2615     0.2322   107.1865     2.2804
