~VERSION INFORMATION
 VERS.                2.0:   CWLS LOG ASCII STANDARD - VERSION 2.0
 WRAP.                 NO:   ONE LINE PER DEPTH STEP
~WELL INFORMATION
#MNEM.UNIT      DATA TYPE    INFORMATION
#----------   ------------   ------------------------------
 STRT.F           44.0000:   START DEPTH
 STOP.F          485.0000:   STOP DEPTH
 STEP.F            0.5000:   STEP LENGTH
 NULL.          -999.2500:   NO VALUE
 COMP. LAWRENCE/ALLISON INC:   COMPANY
 WELL.      NPR 3 #55-51S:   WELL
 FLD .             TEAPOT:   FIELD
 LOC .       S3 T38N R78W:   LOCATION
 CNTY.            NATRONA:   COUNTY
 STAT.            WYOMING:   STATE
 CTRY. UNITED STATES OF AMERICA:   COUNTRY
 SRVC.      Dresser Atlas:   SERVICE COMPANY
 DATE.        12-DEC-1983:   LOGDATE
 API .       490251095400:   API NUMBER
~CURVE INFORMATION
#MNEM.UNIT       API CODE    CURVE DESCRIPTION
#----------   ------------   ------------------------------
 DEPT.F                  :   
 CALR.IN     10 280 01 00:   CALIPER FROM RESISTIVITY
 RATI.CMP    99 420 01 00:   RATIO
 RES .OHMM   10 220 00 00:   RESISTIVITY
 DEC .       99 000 00 00:   DEC
 P6  .G/C3   99 000 00 00:   P6
 PHAS.       99 000 00 00:   PHASE
 PORE.DEC    99 890 00 00:   PORE
~PARAMETER INFORMATION
#MNEM.UNIT          VALUE    DESCRIPTION
#----------   ------------   ------------------------------
 PD  .                 GL:   PERMANENT DATUM
 EPD .F              5161:   ELEVATION PERMANENT DATUM
 LMF .                 KB:   LOG MEASURED FROM
 DAPD.F                10:   FEET ABOVE PERMANENT DATUM
 DMF .                 KB:   DRILLING MEASURED FROM
 EKB .F              5171:   KELLING BUSHING
 EGL .F              5161:   GROUND LEVEL
 DATE.        12-DEC-1983:   RUN DATE
 RUN .                  1:   RUN NUMBER
 DD  .F               490:   DEPTH DRILLER
 DL  .F               489:   DEPTH LOGGER
 BLI .F               487:   BOTTOM LOG INTERVAL
 TLI .F                 0:   TOP LOG INTERVAL
 CS  .IN            10.75:   CASING SIZE
 CBD .F                52:   CASING BOTTOM DRILLER
 CBL .F                46:   CASING BOTTOM LOGGER
 BS  .IN             8.75:   BIT SIZE
 BSD .F               490:   BIT SIZE AT DEPTH
 DFT .           AIR FOAM:   DRILLING FLUID TYPE
 TCS .HRS               3:   TIME CURCULATED STOPPED
 MRT .F                72:   MAXIMUM RECORDED TEMPERATURE
 LUN .               6274:   LOGGING UNIT NUMBER
 LUL .               GLTE:   LOGGING UNIT LOCATION
 ENGI.             RAUTIO:   RECORDING ENGINEER
 WITN.             GROOMS:   WITNESSED BY
 CLNT.            A2DTECH:   CLIENT CODE
 ORIG.           5" PRINT:   ORIGIN OF DATA
 UWI .       490251095400:   UNIQUE WELL ID
 DICO. A2D Technologies, Inc.:   DIGITIZING COMPANY
~OTHER INFORMATION
~A   DEPT      CALR        RATI        RES       DEC          P6      PHAS        PORE 
# ...
   89.5000     9.4086     0.3399     8.5116    40.2236     2.4706    78.5504     0.5993
   90.0000     9.4082     0.3354     8.1175    39.7540     2.4753    79.5789     0.5948
   90.5000     9.4077     0.3235     7.8945    39.0202     2.4800    79.2180     0.5812
   91.0000     9.4073     0.3130     7.6246    38.2664     2.4831    78.6767     0.5685
   91.5000     9.4220     0.3085     7.3133    37.4374     2.4809    78.3158     0.5612
   92.0000     9.4215     0.3026     7.0633    36.8342     2.4787    78.4962     0.5576
   92.5000     9.4210     0.2981     6.8692    36.7582     2.4556    78.8571     0.5584
   93.0000     9.4054     0.2950     6.6805    37.0587     2.4474    79.5789     0.5620
   93.5000     9.4050     0.2922     6.6331    37.5097     2.4490    80.8421     0.5676
   94.0000     9.4045     0.2938     6.6300    38.1867     2.4506    81.9248     0.5763
   94.5000     9.4041     0.2968     6.7716    38.9390     2.4430    81.9479     0.5852
   95.0000     9.3884     0.3044     7.1235    39.3198     2.4438    80.8421     0.5960
   95.5000     9.3728     0.3179     7.8780    40.0761     2.4485    80.2977     0.6000
   96.0000     9.3724     0.3300     8.2101    41.8734     2.4547    79.9398     0.6000
   96.5000     9.3719     0.3375     8.3232    42.8515     2.4571    82.1053     0.6000
   97.0000     9.3715     0.3406     8.3210    43.6040     2.4526    81.2030     0.6000
   97.5000     9.3709     0.3451     8.3194    42.6995     2.4465    79.7594     0.6000
   98.0000     9.3705     0.3467     8.3758    42.3224     2.4443    79.2180     0.6000
   98.5000     9.3852     0.3467     8.3160    44.8817     2.4489    81.0226     0.6000
   99.0000     9.3848     0.3453     8.3143    45.4834     2.4598    82.1053     0.6000
   99.5000     9.3843     0.3438     8.2553    45.7839     2.4675    82.4662     0.6000
  100.0000     9.3839     0.3423     8.1968    45.2560     2.4691    81.7444     0.6000
  100.5000     9.3531     0.3424     8.1386    42.3587     2.4676    79.9398     0.6000
  101.0000     9.3071     0.3409     8.1934    40.9622     2.4661    79.0376     0.5998
  101.5000     9.3067     0.3380     8.1349    40.0578     2.4594    78.6767     0.5944
  102.0000     9.3062     0.3350     8.0772    39.6055     2.4502    78.4962     0.5917
  102.5000     9.3058     0.3291     8.0199    39.9813     2.4472    78.4962     0.5970
  103.0000     9.3205     0.3246     7.9082    40.0558     2.4450    79.0376     0.6000
  103.5000     9.3200     0.3186     7.8521    40.1304     2.4412    79.7905     0.5969
  104.0000     9.3348     0.3112     7.7427    39.9789     2.4359    79.9398     0.5905
  104.5000     9.3191     0.3082     7.6348    39.9028     2.4276    79.5789     0.5896
  105.0000     9.3186     0.3143     7.5806    39.9774     2.4238    79.7594     0.5949
  105.5000     9.3182     0.3203     7.6846    42.1664     2.4247    80.6617  -999.2500
  106.0000     9.3025     0.3249     7.7364    43.1747     2.4255    81.3835  -999.2500
  106.5000     9.3021     0.3309     7.8494    44.4178     2.4240    82.1053  -999.2500
  107.0000     9.2865     0.3355     8.0053    45.6219     2.4218    82.8271  -999.2500
  107.5000     9.2860     0.3415     8.0033    47.9555     2.4219    83.7293  -999.2500
  108.0000     9.3008     0.3461     8.0016    49.4607     2.4274    85.5338  -999.2500
  108.5000     9.3003     0.3506     8.0000    49.0835     2.4345    86.0752  -999.2500
  109.0000     9.3150     0.3507     8.0543    48.1792     2.4382    84.6316  -999.2500
  109.5000     9.2993     0.3492     8.1434    47.5760     2.4406    83.5419  -999.2500
  110.0000     9.2989     0.3491     8.4032    47.5653     2.4430    82.8271  -999.2500
  110.5000     9.2984     0.3495     8.5782    48.1017     2.4515    83.0406  -999.2500
  111.0000     9.3133     0.3569     8.8787    48.4814     2.4607    83.5489  -999.2500
  111.5000     9.3127     0.3599     8.8164    48.7026     2.4715    83.9098  -999.2500
  112.0000     9.2971     0.3554     8.5747    48.7770     2.4778    84.0902  -999.2500
  112.5000     9.2966     0.3510     8.2251    48.7762     2.4786    84.2707  -999.2500
  113.0000     9.3115     0.3480     8.0552    48.8510     2.4771    84.6316  -999.2500
  113.5000     9.3109     0.3448     7.9416    48.8500     2.4810    84.8120  -999.2500
  114.0000     9.3105     0.3419     7.8333    48.1716     2.4872    84.9925  -999.2500
  114.5000     9.2948     0.3389     7.8320    47.1166     2.4912    84.2707  -999.2500
  115.0000     9.3096     0.3405     7.8853    46.1370     2.4874    83.3684  -999.2500
  115.5000     9.3091     0.3406     7.9510    45.3832     2.4852    82.6466  -999.2500
  116.0000     9.2934     0.3422     8.0486    45.0060     2.4791    81.9248  -999.2500
  116.5000     9.2778     0.3468     8.2730    44.7040     2.4769    81.0135  -999.2500
  117.0000     9.2773     0.3530     8.5628    44.5527     2.4723    80.2787  -999.2500
  117.5000     9.2769     0.3640     8.9863    44.9285     2.4678    79.7594  -999.2500
  118.0000     9.2917     0.3771     9.6283    47.1235     2.4564    80.6617  -999.2500
  118.5000     9.2912     0.3817    10.0349    47.8637     2.4488    81.7444  -999.2500
  119.0000     9.2907     0.3788    10.0335    46.8086     2.4435    80.8421  -999.2500
  119.5000     9.3056     0.3789    10.1715    46.2054     2.4405    80.1203  -999.2500
  120.0000     9.3202     0.3790    10.3118    45.9035     2.4375    79.3985  -999.2500
  120.5000     9.3349     0.3836    10.5265    46.0536     2.4337    79.0376  -999.2500
  121.0000     9.3496     0.3957    10.7457    46.1281     2.4307    78.8571  -999.2500
  121.5000     9.3492     0.3958    10.8942    46.4284     2.4277    79.2180  -999.2500
  122.0000     9.3638     0.3944    11.0440    46.9548     2.4240    79.5789  -999.2500
  122.5000     9.3633     0.3959    11.0109    47.7071     2.4164    80.1203  -999.2500
  123.0000     9.3478     0.3975    10.9650    48.6099     2.4096    81.0226  -999.2500
  123.5000     9.3626     0.3946    10.7359    48.7598     2.4089    81.5749  -999.2500
  124.0000     9.3620     0.3947    10.4344    48.5000     2.4113    81.7444  -999.2500
  124.5000     9.3616     0.3768    10.0179    48.0051     2.4144    81.5639  -999.2500
  125.0000     9.3611     0.3784     9.8109    47.9291     2.4191    82.4662  -999.2500
  125.5000     9.3607     0.3785     9.6749    48.3802     2.4199    84.2707  -999.2500
  126.0000     9.3754     0.3786     9.6736    49.5842     2.4184    84.8120  -999.2500
  126.5000     9.3598     0.3756     9.5394    49.0564     2.4162    82.8271  -999.2500
  127.0000     9.3442     0.3711     9.4725    45.8930     2.4147    80.8421  -999.2500
  127.5000     9.3134     0.3668     9.4059    43.9345     2.4148    79.7594  -999.2500
  128.0000     9.2977     0.3669     9.5356    43.1054     2.4157    79.0376  -999.2500
  128.5000     9.2820     0.3685     9.9428    43.4059     2.4350    78.6767  -999.2500
  129.0000     9.2664     0.3776    10.3578    43.6310     2.4442    78.4962  -999.2500
  129.5000     9.2659     0.3867    10.5731    43.6303     2.4418    78.3158  -999.2500
  130.0000     9.2503     0.3928    11.0195    43.8553     2.3891    78.3158  -999.2500
  130.5000     9.2652     0.3974    11.0948    48.8244     2.3554    81.4487  -999.2500
  131.0000     9.2495     0.4005    11.0165    49.4263     2.3402    84.6837  -999.2500
  131.5000     9.2643     0.3991    10.7889    49.5762     2.3479    85.1729  -999.2500
  132.0000     9.2637     0.3947    10.5660    49.0481     2.3932    79.9398  -999.2500
  132.5000     9.2633     0.3900    10.5645    44.6799     2.4209    77.5940  -999.2500
  133.0000     9.2780     0.3888    10.7845    44.3780     2.4263    77.7744  -999.2500
  133.5000     9.2624     0.3889    11.0091    44.1513     2.4188    77.9549  -999.2500
  134.0000     9.2619     0.3860    10.9217    44.1506     2.4165    78.3158  -999.2500
  134.5000     9.2614     0.3846    10.6317    44.0746     2.4151    78.8571  -999.2500
