~VERSION INFORMATION
 VERS.                2.0:   CWLS LOG ASCII STANDARD - VERSION 2.0
 WRAP.                 NO:   ONE LINE PER DEPTH STEP
~WELL INFORMATION
#MNEM.UNIT      DATA TYPE    INFORMATION
#----------   ------------   ------------------------------
 STRT.F           80.0000:   START DEPTH
 STOP.F          480.0000:   STOP DEPTH
 STEP.F            0.5000:   STEP LENGTH
 NULL.          -999.2500:   NO VALUE
 COMP. BROWN JOHN E&C INC:   COMPANY
 WELL.         SX 57 #2-3:   WELL
 FLD .        TEAPOT DOME:   FIELD
 LOC .       S3 T38N R78W:   LOCATION
 CNTY.            NATRONA:   COUNTY
 STAT.            WYOMING:   STATE
 CTRY. UNITED STATES OF AMERICA:   COUNTRY
 SRVC.       Schlumberger:   SERVICE COMPANY
 DATE.        05-OCT-1990:   LOGDATE
 API .       490251132700:   API NUMBER
~CURVE INFORMATION
#MNEM.UNIT       API CODE    CURVE DESCRIPTION
#----------   ------------   ------------------------------
 DEPT.F                  :   
 GRR .GAPI   07 310 01 00:   GAMMA RAY FROM RES. LOG.
 SFLU.OHMM   07 220 01 00:   SPHERICALLY FOCUSED LOG UNAVERAGED RESISTIVITY
 ILD .OHMM   07 120 46 00:   INDUCTION LOG DEEP
 ILM .OHMM   07 120 44 00:   INDUCTION LOG MEDIUM
 CNC .DEC    42 890 01 00:   NEUTRON POROSITY LIMESTONE
~PARAMETER INFORMATION
#MNEM.UNIT          VALUE    DESCRIPTION
#----------   ------------   ------------------------------
 PD  .                 GL:   PERMANENT DATUM
 EPD .F              5148:   ELEVATION PERMANENT DATUM
 LMF .                 KB:   LOG MEASURED FROM
 DAPD.F                10:   FEET ABOVE PERMANENT DATUM
 DMF .                 KB:   DRILLING MEASURED FROM
 EKB .F              5158:   KELLING BUSHING
 EDF .F              5157:   DRILLING FLOOR
 EGL .F              5148:   GROUND LEVEL
 DATE.            10-5-90:   RUN DATE
 RUN .                  1:   RUN NUMBER
 DD  .F               485:   DEPTH DRILLER
 DL  .F               484:   DEPTH LOGGER
 BLI .F               481:   BOTTOM LOG INTERVAL
 TLI .F                48:   TOP LOG INTERVAL
 CS  .IN            8.625:   CASING SIZE
 CBD .F                53:   CASING BOTTOM DRILLER
 CBL .F                53:   CASING BOTTOM LOGGER
 BS  .IN            7.875:   BIT SIZE
 BSD .F               485:   BIT SIZE AT DEPTH
 DFT .           WTD DISP:   DRILLING FLUID TYPE
 DFD .               14.3:   DRILLING FLUID DENSITY
 DFV .                 67:   DRILLING FLUID VISCOSITY
 DFPH.                9.5:   DRILLING FLUID PH
 DFL .               12.8:   DRILLING FLUID LOSS
 MSS .           FLOWLINE:   MUD SAMPLE SOURCE
 RMS .OHMM            9.3:   RESISTIVITY MUD SAMPLE
 MST .F                74:   MUD SAMPLE TEMPERATURE
 RMF .OHMM            6.9:   RESISTIVITY MUD FILTRATE SAMPLE
 MFST.F                74:   MUD FILTRATE SAMPLE TEMPERATURE
 RMC .OHMM           13.9:   RESISTIVITY MUD CAKE
 MCST.F                74:   MUD CAKE SAMPLE TEMPERATURE
 MFSS.               CALC:   MUD FILTRATE SAMPLE SOURCE
 MCSS.               CALC:   MUD CAKE SAMPLE SOURCE
 RMB .OHMM          6.438:   RESISTIVITY MUD AT BHT
 BHT .F               110:   BOTTOM HOLE TEMPERATURE
 TCS .HRS            1600:   TIME CURCULATED STOPPED
 MRT .F               110:   MAXIMUM RECORDED TEMPERATURE
 LUN .               5887:   LOGGING UNIT NUMBER
 LUL .               CODY:   LOGGING UNIT LOCATION
 ENGI.        MIKE FISHER:   RECORDING ENGINEER
 WITN.        GARY STRONG:   WITNESSED BY
 CLNT.            A2DTECH:   CLIENT CODE
 ORIG.        2" 5" PRINT:   ORIGIN OF DATA
 UWI .       490251132700:   UNIQUE WELL ID
 DICO. A2D Technologies, Inc.:   DIGITIZING COMPANY
~OTHER INFORMATION
~A   DEPT       GRR        SFLU      ILD        ILM        CNC   
# ...
  446.0000    68.9810     3.4945     3.0704     3.1079  -999.2500
  446.5000    68.6459     3.4661     2.9628     2.9989  -999.2500
  447.0000    70.1940     3.3942     2.8836     2.9187  -999.2500
  447.5000    71.9071     3.3199     2.8206     2.8550  -999.2500
  448.0000    73.8717     3.2621     2.8373     2.8719  -999.2500
  448.5000    74.1123     3.3064     2.8514     2.8861  -999.2500
  449.0000    72.4169     3.3799     2.8656     2.9005  -999.2500
  449.5000    70.2106     3.4546     2.8796     2.9149  -999.2500
  450.0000    68.2623     3.5084     2.8896     2.9251  -999.2500
  450.5000    68.9025     3.4682     2.8417     2.8763  -999.2500
  451.0000    69.5607     3.4374     2.8050     2.8392  -999.2500
  451.5000    69.4396     3.4244     2.7687     2.8025  -999.2500
  452.0000    68.7268     3.2555     2.7330     2.7663  -999.2500
  452.5000    69.3842     3.0933     2.6759     2.7086  -999.2500
  453.0000    70.3527     3.0704     2.6077     2.6395  -999.2500
  453.5000    70.5789     3.0704     2.5412     2.5722  -999.2500
  454.0000    68.3905     3.0510     2.4764     2.5066  -999.2500
  454.5000    63.5764     2.9608     2.4131     2.4425  -999.2500
  455.0000    61.3665     2.9219     2.3517     2.3805  -999.2500
  455.5000    60.0195     2.8726     2.3225     2.3506  -999.2500
  456.0000    59.6303     2.8241     2.2954     2.3238  -999.2500
  456.5000    59.2586     2.7764     2.2582     2.2854  -999.2500
  457.0000    59.0299     2.7256     2.2158     2.2429  -999.2500
  457.5000    58.7989     2.6720     2.1743     2.2008  -999.2500
  458.0000    58.5608     2.6195     2.1336     2.1596  -999.2500
  458.5000    58.6527     2.5679     2.0936     2.1191  -999.2500
  459.0000    59.1518     2.5288     2.0543     2.0794  -999.2500
  459.5000    59.6476     2.5291     2.0333     2.0581  -999.2500
  460.0000    60.1411     2.5290     2.0414     2.0663  -999.2500
  460.5000  -999.2500     2.5291     2.0477     2.0727  -999.2500
  461.0000  -999.2500     2.5408     2.0541     2.0792  -999.2500
  461.5000  -999.2500     2.5626     2.0579     2.0830  -999.2500
  462.0000  -999.2500     2.5845     2.0528     2.0778  -999.2500
  462.5000  -999.2500     2.6066     2.0489     2.0739  -999.2500
  463.0000  -999.2500     2.6227     2.0450     2.0700  -999.2500
  463.5000  -999.2500     2.6113     2.0412     2.0661  -999.2500
  464.0000  -999.2500     2.6025     2.0374     2.0622  -999.2500
  464.5000  -999.2500     2.5932     2.0337     2.0581  -999.2500
  465.0000  -999.2500     2.5313     1.9914     2.0158  -999.2500
  465.5000  -999.2500     2.4317     1.9450     1.9687  -999.2500
  466.0000  -999.2500     2.3226     1.9077     1.9310  -999.2500
  466.5000  -999.2500     2.3240     1.8712     1.8941  -999.2500
  467.0000  -999.2500     2.2500     1.8354     1.8578  -999.2500
  467.5000  -999.2500     2.1947     1.8003     1.8223  -999.2500
  468.0000  -999.2500     2.1406     1.7658     1.7874  -999.2500
  468.5000  -999.2500     2.1086     1.7320     1.7532  -999.2500
  469.0000  -999.2500     2.1018     1.6989     1.7196  -999.2500
  469.5000  -999.2500     2.0729     1.6749     1.6953  -999.2500
  470.0000  -999.2500     2.0706     1.6749     1.6953  -999.2500
  470.5000  -999.2500     2.0333     1.5652     1.6078  -999.2500
  471.0000  -999.2500     2.0333     1.4966     1.5213  -999.2500
  471.5000  -999.2500     2.0408     1.4631     1.4741  -999.2500
  472.0000  -999.2500     2.0527     1.3807     1.3770  -999.2500
  472.5000  -999.2500     1.5664     1.3202     1.3029  -999.2500
  473.0000  -999.2500     1.2828     1.2984     1.2673  -999.2500
  473.5000  -999.2500     1.3712     1.2828     1.3616  -999.2500
  474.0000  -999.2500     1.6447     1.3844     1.4375  -999.2500
  474.5000  -999.2500     1.9726     1.4724     1.5176  -999.2500
  475.0000  -999.2500     2.1016     1.5609     1.6022  -999.2500
  475.5000  -999.2500     2.2092     1.6547     1.6915  -999.2500
  476.0000  -999.2500     2.3221     1.7542     1.7859  -999.2500
  476.5000  -999.2500     2.3807     1.8595     1.8853  -999.2500
  477.0000  -999.2500     2.3376     1.9371     1.9568  -999.2500
  477.5000  -999.2500     2.2954     1.9371     1.9967  -999.2500
  478.0000  -999.2500     2.3234     1.9371     2.0333  -999.2500
  478.5000  -999.2500     2.3234     1.9371     2.0333  -999.2500
  479.0000  -999.2500     2.3234     1.9371     2.0333  -999.2500
  479.5000  -999.2500     2.3234     1.9371     2.0333  -999.2500
  480.0000  -999.2500     2.3234     1.9371     2.0333  -999.2500
