~VERSION INFORMATION
 VERS.                2.0:   CWLS LOG ASCII STANDARD - VERSION 2.0
 WRAP.                 NO:   ONE LINE PER DEPTH STEP
~WELL INFORMATION
#MNEM.UNIT      DATA TYPE    INFORMATION
#----------   ------------   ------------------------------
 STRT.F            2.0000:   START DEPTH
 STOP.F          508.0000:   STOP DEPTH
 STEP.F            0.1000:   STEP LENGTH
 NULL.          -999.2500:   NO VALUE
 COMP. LAWRENCE/ALLISON INC:   COMPANY
 WELL.      48-41 SX #3-3:   WELL
 FLD .             TEAPOT:   FIELD
 LOC .       S3 T38N R78W:   LOCATION
 CNTY.            NATRONA:   COUNTY
 STAT.            WYOMING:   STATE
 CTRY. UNITED STATES OF AMERICA:   COUNTRY
 SRVC.           Gearhart:   SERVICE COMPANY
 DATE.        09-JUL-1988:   LOGDATE
 API .       490251123300:   API NUMBER
~CURVE INFORMATION
#MNEM.UNIT       API CODE    CURVE DESCRIPTION
#----------   ------------   ------------------------------
 DEPT.F                  :   
 GRR .GAPI   07 310 01 00:   GAMMA RAY
 RILD.OHMM   07 120 46 00:   INDUCTION LOG DEEP RESISTIVITY
 RILM.OHMM   07 120 44 00:   INDUCTION LOG MEDIUM RESISTIVITY
~PARAMETER INFORMATION
#MNEM.UNIT          VALUE    DESCRIPTION
#----------   ------------   ------------------------------
 PD  .                 GL:   PERMANENT DATUM
 EPD .F              5200:   ELEVATION PERMANENT DATUM
 LMF .                 KB:   LOG MEASURED FROM
 DAPD.F                 5:   FEET ABOVE PERMANENT DATUM
 DMF .                 KB:   DRILLING MEASURED FROM
 EKB .F              5205:   KELLING BUSHING
 EDF .F              5204:   DRILLING FLOOR
 EGL .F              5200:   GROUND LEVEL
 DATE.        09-JUL-1988:   RUN DATE
 RUN .                  1:   RUN NUMBER
 DD  .F               510:   DEPTH DRILLER
 DL  .F               516:   DEPTH LOGGER
 BLI .F               508:   BOTTOM LOG INTERVAL
 TLI .F               1.5:   TOP LOG INTERVAL
 CS  .IN            9.625:   CASING SIZE
 CBD .F                40:   CASING BOTTOM DRILLER
 CBL .F                45:   CASING BOTTOM LOGGER
 BS  .IN             8.75:   BIT SIZE
 BSD .F               510:   BIT SIZE AT DEPTH
 DFT .                AIR:   DRILLING FLUID TYPE
 TCS .HRS            1800:   TIME CURCULATED STOPPED
 TLAB.HRS            1843:   TIME LOGGER AT BOTTOM
 MRT .F                70:   MAXIMUM RECORDED TEMPERATURE
 LUN .               7597:   LOGGING UNIT NUMBER
 LUL .           GILLETTE:   LOGGING UNIT LOCATION
 ENGI.         WEATHERMON:   RECORDING ENGINEER
 WITN.              FIVAS:   WITNESSED BY
 CLNT.            A2DTECH:   CLIENT CODE
 ORIG.           5" PRINT:   ORIGIN OF DATA
 UWI .       490251123300:   UNIQUE WELL ID
 DICO. A2D Technologies, Inc.:   DIGITIZING COMPANY
~OTHER INFORMATION
~A    DEPT      GRR      RILD       RILM   
# ...
  311.4000    83.4553    21.1132    21.2639
  311.5000    83.0860    21.0428    21.1413
  311.6000    82.6562    20.9657    21.0195
  311.7000    82.4074    20.9457    20.8915
  311.8000    82.1226    20.8191    20.8907
  311.9000    81.6968    20.8182    20.8017
  312.0000    81.3594    20.8174    20.6819
  312.1000    81.2193    20.7532    20.6008
  312.2000    81.1636    20.6337    20.5860
  312.3000    80.9148    20.5283    20.4569
  312.4000    80.6179    20.5274    20.3496
  312.5000    80.4173    20.5266    20.3141
  312.6000    80.1685    20.5257    20.3132
  312.7000    80.0163    20.4675    20.2786
  312.8000    80.0169    20.3823    20.1713
  312.9000    80.0175    20.3814    20.1704
  313.0000    79.7768    20.3805    20.1697
  313.1000    79.7170    20.2793    20.0916
  313.2000    79.7176    20.2382    20.0288
  313.3000    79.9717    20.1858    19.9986
  313.4000    80.7526    20.0967    19.8890
  313.5000    81.8311    20.0927    19.8880
  313.6000    82.5196    19.9561    19.7915
  313.7000    83.2682    19.9554    19.7493
  313.8000    84.0168    19.9546    19.7484
  313.9000    84.7654    19.9538    19.7476
  314.0000    85.4741    19.9309    19.7486
  314.1000    85.7563    19.8143    19.8830
  314.2000    85.9740    19.8135    19.8823
  314.3000    86.2239    19.8127    19.8815
  314.4000    86.4739    19.7476    19.8807
  314.5000    86.6636    19.6742    19.9015
  314.6000    86.6722    19.6565    20.0172
  314.7000    86.9666    19.5366    20.0164
  314.8000    86.9671    19.4308    20.0156
  314.9000    86.9678    19.4002    20.0147
  315.0000    86.9683    19.3413    20.0139
  315.1000    86.8726    19.2645    20.0131
  315.2000    86.3662    19.2520    20.0121
  315.3000    85.8762    19.1298    20.0113
  315.4000    85.5710    19.1291    20.0105
  315.5000    85.1814    19.0530    20.0097
  315.6000    84.7718    18.9954    20.0088
  315.7000    84.5592    18.9651    20.0080
  315.8000    84.5599    18.8627    20.0071
  315.9000    84.3272    18.8618    20.0063
  316.0000    84.2594    18.8611    20.0055
  316.1000    84.1313    18.8603    20.0047
  316.2000    83.8825    18.8595    20.0039
  316.3000    83.6579    18.8587    20.0030
  316.4000    83.6586    18.8580    20.0021
  316.5000    83.6591    18.8570    20.0014
  316.6000    83.6597    18.8564    20.0005
  316.7000    83.6603    18.8556    19.9997
  316.8000    83.7253    18.8548    19.9690
  316.9000    83.9872    18.8541    19.8601
  317.0000    84.5672    18.8533    19.8591
  317.1000    84.7769    18.8525    19.8584
  317.2000    85.1836    18.8517    19.8576
  317.3000    85.5784    18.8509    19.8567
  317.4000    85.8285    18.8501    19.8301
  317.5000    86.0784    18.8494    19.7181
  317.6000    86.0791    18.8485    19.7171
  317.7000    86.2768    18.8478    19.7164
  317.8000    86.3819    18.8470    19.7156
  317.9000    86.3825    18.8462    19.7148
  318.0000    86.4233    18.8454    19.7140
  318.1000    86.6854    18.8446    19.7132
  318.2000    86.6860    18.8438    19.7124
  318.3000    86.8715    18.8431    19.7116
  318.4000    86.9889    18.9160    19.7107
  318.5000    86.9895    18.9725    19.7099
  318.6000    86.9901    18.9718    19.7091
  318.7000    86.9907    18.9710    19.7082
  318.8000    86.9912    18.9701    19.7074
  318.9000    86.9919    18.9694    19.7066
  319.0000    86.8718    19.0381    19.7058
  319.1000    86.6230    19.0997    19.7050
  319.2000    86.3742    19.0989    19.7042
  319.3000    86.0894    19.0981    19.7033
  319.4000    86.0899    19.0972    19.7025
  319.5000    85.9297    19.1846    19.7017
  319.6000    85.7895    19.2286    19.7009
  319.7000    85.7337    19.2278    19.7339
  319.8000    85.4890    19.2270    19.8466
  319.9000    85.4897    19.2261    19.9731
  320.0000    85.2890    19.3323    20.0741
  320.1000    85.1891    19.4427    20.1102
  320.2000    85.1897    19.5537    20.1640
  320.3000    85.2345    19.7041    20.2484
  320.4000    85.4926    19.9150    20.2610
  320.5000    85.7345    20.0374    20.5289
  320.6000    85.9846    20.2503    20.6287
  320.7000    86.2346    20.4831    20.6700
  320.8000    86.4845    20.7185    20.7212
  320.9000    86.7345    20.9926    20.8675
  321.0000    87.0046    21.3446    21.1042
  321.1000    87.0051    21.6192    21.2468
  321.2000    87.1826    21.9490    21.3460
  321.3000    87.4327    22.1569    21.5438
  321.4000    87.6103    22.3429    21.7408
  321.5000    87.6310    22.5995    21.8649
  321.6000    87.9132    22.8590    21.9910
  321.7000    88.1309    23.1648    22.4971
  321.8000    87.5562    23.3878    23.0193
  321.9000    86.6719    23.6566    23.6323
  322.0000    85.9849    23.9283    24.2657
  322.1000    85.4869    24.2030    24.8272
  322.2000    84.9003    24.4807    25.4269
  322.3000    84.6956    24.6205    25.7336
  322.4000    84.4469    24.6486    26.0542
  322.5000    84.1981    24.6476    26.3748
  322.6000    83.9975    24.6466    26.6954
  322.7000    83.9982    24.6455    27.0159
  322.8000    83.7535    24.6445    27.3365
  322.9000    83.6977    24.6435    27.6571
  323.0000    83.6983    24.6425    28.0062
  323.1000    83.6989    24.6415    28.1522
  323.2000    83.6634    24.6404    28.1986
  323.3000    83.3985    24.6394    28.2782
  323.4000    83.3991    24.6383    28.4397
  323.5000    83.2187    24.6374    28.5884
  323.6000    82.8413    24.6363    28.5869
  323.7000    82.4196    24.6353    28.4424
  323.8000    82.1224    24.6343    28.3874
  323.9000    81.2906    24.6221    28.3110
  324.0000    81.0699    24.4620    28.1892
  324.1000    80.8211    24.4611    28.1798
  324.2000    80.4556    24.4601    27.9921
  324.3000    80.0219    24.4590    27.8561
  324.4000    79.7852    24.4581    27.6956
  324.5000    79.7859    24.4571    27.5360
  324.6000    79.5772    24.4559    27.3423
  324.7000    79.4854    24.3393    27.0289
  324.8000    79.4860    24.2851    26.6609
  324.9000    79.5913    24.2272    26.2919
  325.0000    80.0905    24.0877    25.8421
  325.1000    80.5900    23.9478    25.3431
  325.2000    81.0894    23.8110    24.7399
  325.3000    81.7334    23.5682    24.0256
  325.4000    82.3895    23.2985    23.7555
  325.5000    82.8887    23.0317    23.4835
  325.6000    83.4124    22.7885    23.2145
  325.7000    83.8875    22.6506    22.9015
  325.8000    84.3868    22.5269    22.5291
  325.9000    84.8862    22.3027    22.2579
  326.0000    85.3857    22.0474    22.0161
  326.1000    85.8568    21.8351    21.7641
  326.2000    86.1310    21.7093    21.5149
  326.3000    86.5818    21.5725    21.2684
  326.4000    87.0813    21.3492    21.0247
  326.5000    87.4601    21.1051    20.7634
  326.6000    87.7784    20.9217    20.5459
  326.7000    88.2617    20.8011    20.3932
  326.8000    88.5479    20.6729    20.2757
  326.9000    88.7616    20.4039    20.1249
  327.0000    89.1723    20.3026    19.9042
  327.1000    89.5631    20.1106    19.7760
  327.2000    89.8695    19.9309    19.6755
  327.3000    90.3648    19.8161    19.5622
  327.4000    90.6632    19.6987    19.4494
  327.5000    90.8649    19.4328    19.3372
  327.6000    91.1148    19.3413    19.2257
  327.7000    91.3647    19.2299    19.0981
  327.8000    91.6146    19.1631    19.0049
  327.9000    91.8727    19.1412    18.8954
  328.0000    91.6320    19.0292    18.7864
  328.1000    91.3833    18.8152    18.6782
  328.2000    91.1345    18.7657    18.5705
  328.3000    90.8856    18.7041    18.4436
  328.4000    90.6690    18.5964    18.3571
  328.5000    90.6697    18.4893    18.2512
  328.6000    90.4410    18.3764    18.1460
  328.7000    90.3692    18.2770    18.0414
  328.8000    90.3698    18.2481    17.9361
  328.9000    90.3705    18.2473    17.9354
  329.0000    90.3710    18.2138    17.8545
  329.1000    90.3717    18.1087    17.8101
  329.2000    90.5894    17.9938    17.7720
  329.3000    90.6745    17.9931    17.6857
  329.4000    90.9005    17.9216    17.6849
  329.5000    91.3394    17.8184    17.5878
