~VERSION INFORMATION
 VERS.                2.0:   CWLS LOG ASCII STANDARD - VERSION 2.0
 WRAP.                 NO:   ONE LINE PER DEPTH STEP
~WELL INFORMATION
#MNEM.UNIT      DATA TYPE    INFORMATION
#----------   ------------   ------------------------------
 STRT.F          534.0000:   START DEPTH
 STOP.F         1847.5000:   STOP DEPTH
 STEP.F            0.5000:   STEP LENGTH
 NULL.          -999.2500:   NO VALUE
 COMP. LAWRENCE/ALLISON INC:   COMPANY
 WELL.      18 SHX #18-27:   WELL
 FLD .             TEAPOT:   FIELD
 LOC .      S27 T39N R78W:   LOCATION
 CNTY.            NATRONA:   COUNTY
 STAT.            WYOMING:   STATE
 CTRY. UNITED STATES OF AMERICA:   COUNTRY
 SRVC.            Unknown:   SERVICE COMPANY
 DATE.        01-MAR-1985:   LOGDATE
 API .       490251102000:   API NUMBER
~CURVE INFORMATION
#MNEM.UNIT       API CODE    CURVE DESCRIPTION
#----------   ------------   ------------------------------
 DEPT.F                  :   
 ROP .MIN/FT 91 810 01 00:   RATE OF DRILLING PENETRATION
 TGAS.UNITS  91 830 01 00:   TOTAL GAS FROM HOTWIRE
~PARAMETER INFORMATION
#MNEM.UNIT          VALUE    DESCRIPTION
#----------   ------------   ------------------------------
 DATE.           3-1-1985:   RUN DATE
 DD  .F              1848:   DEPTH DRILLER
 DL  .F              1825:   DEPTH LOGGER
 TLI .F               535:   TOP LOG INTERVAL
 WITN.  ALBERT C. KRAVATZ:   WITNESSED BY
 CLNT.            A2DTECH:   CLIENT CODE
 ORIG.           5" PRINT:   ORIGIN OF DATA
 UWI .       490251102000:   UNIQUE WELL ID
 DICO. A2D Technologies, Inc.:   DIGITIZING COMPANY
~OTHER INFORMATION
~A   DEPT      ROP       TGAS   
# ...
 1384.5000     1.0183     4.1405
 1385.0000     1.0186     4.1405
 1385.5000     1.0188     4.1406
 1386.0000     1.0191     4.1406
 1386.5000     1.0193     4.1406
 1387.0000     1.0196     4.1407
 1387.5000     1.0199     4.1407
 1388.0000     1.0201     4.1407
 1388.5000     1.0204     4.1408
 1389.0000     1.0206     4.1408
 1389.5000     1.0209     4.1409
 1390.0000     1.0211     4.1409
 1390.5000     1.0214     4.1409
 1391.0000     1.0217     4.1410
 1391.5000     1.0219     4.1410
 1392.0000     1.0222     4.1410
 1392.5000     1.0224     4.1411
 1393.0000     1.0227     4.1411
 1393.5000     1.0229     4.1412
 1394.0000     1.0232     4.1412
 1394.5000     1.0235     4.1412
 1395.0000     1.0237     4.1413
 1395.5000     1.0240     4.1413
 1396.0000     1.0242     4.1413
 1396.5000     1.0245     4.1414
 1397.0000     1.0247     4.1414
 1397.5000     1.0250     4.1415
 1398.0000     1.0253     4.1415
 1398.5000     1.0255     4.1415
 1399.0000     1.0258     4.1416
 1399.5000     1.0260     4.1416
 1400.0000     1.0263     4.1416
 1400.5000     1.0265     4.1416
 1401.0000     1.0268     4.1416
 1401.5000     1.0271     4.1416
 1402.0000     1.0273     4.1416
 1402.5000     1.0276     4.1416
 1403.0000     1.0278     4.1415
 1403.5000     1.0281     4.1415
 1404.0000     1.0284     4.1415
 1404.5000     1.0286     4.1415
 1405.0000     1.0289     4.1415
 1405.5000     1.0291     4.1415
 1406.0000     1.0294     4.1414
 1406.5000     1.0296     4.1414
 1407.0000     1.0299     4.1414
 1407.5000     1.0302     4.1414
 1408.0000     1.0304     4.1414
 1408.5000     1.0307     4.1414
 1409.0000     1.0309     4.1413
 1409.5000     1.0312     4.1413
 1410.0000     1.0314     4.1413
 1410.5000     1.0317     4.1413
 1411.0000     1.0320     4.1413
 1411.5000     1.0322     4.1413
 1412.0000     1.0325     4.1412
 1412.5000     1.0327     4.1412
 1413.0000     1.0330     4.1412
 1413.5000     1.0332     4.1412
 1414.0000     1.0335     4.1412
 1414.5000     1.0338     4.1412
 1415.0000     1.0340     4.1411
 1415.5000     1.0343     4.1411
 1416.0000     1.0345     4.1411
 1416.5000     1.0348     4.1411
 1417.0000     1.0350     4.1411
 1417.5000     1.0353     4.1411
 1418.0000     1.0356     4.1410
 1418.5000     1.0358     4.1410
 1419.0000     1.0361     4.1410
 1419.5000     1.0363     4.1410
 1420.0000     1.0366     4.1410
 1420.5000     1.0368     4.1410
 1421.0000     1.0371     4.1409
 1421.5000     1.0374     4.1409
 1422.0000     1.0376     4.1409
 1422.5000     1.0379     4.1409
 1423.0000     1.0381     4.1409
 1423.5000     1.0384     4.1409
 1424.0000     1.0386     4.1408
 1424.5000     1.0389     4.1408
 1425.0000     1.0392     4.1408
 1425.5000     1.0394     4.1408
 1426.0000     1.0397     4.1408
 1426.5000     1.0399     4.1408
 1427.0000     1.0402     4.1408
 1427.5000     1.0404     4.1407
 1428.0000     1.0407     4.1407
 1428.5000     1.0410     4.1407
 1429.0000     1.0412     4.1407
 1429.5000     1.0415     4.1407
 1430.0000     1.0417     4.1407
 1430.5000     1.0420     4.1406
 1431.0000     1.0423     4.1406
 1431.5000     1.0425     4.1406
 1432.0000     1.0428     4.1406
 1432.5000     1.0430     4.1406
 1433.0000     1.0433     4.1406
 1433.5000     1.0435     4.1405
 1434.0000     1.0438     4.1405
 1434.5000     1.0441     4.1405
 1435.0000     1.0443     4.1405
 1435.5000     1.0446     4.1405
 1436.0000     1.0448     4.1405
 1436.5000     1.0451     4.1404
 1437.0000     1.0453     4.1404
 1437.5000     1.0456     4.1404
 1438.0000     1.0459     4.1404
 1438.5000     1.0461     4.1404
 1439.0000     1.0464     4.1404
 1439.5000     1.0466     4.1403
 1440.0000     1.0469     4.1403
 1440.5000     1.0471     4.1403
 1441.0000     1.0474     4.1403
 1441.5000     1.0477     4.1403
 1442.0000     1.0479     4.1403
 1442.5000     1.0482     4.1402
 1443.0000     1.0484     4.1402
 1443.5000     1.0487     4.1402
 1444.0000     1.0489     4.1402
 1444.5000     1.0492     4.1402
 1445.0000     1.0495     4.1402
 1445.5000     1.0497     4.1401
 1446.0000     1.0500     4.1401
 1446.5000     1.0502     4.1401
 1447.0000     1.0505     4.1401
 1447.5000     1.0507     4.1401
 1448.0000     1.0510     4.1401
 1448.5000     1.0513     4.1400
 1449.0000     1.0515     4.1400
 1449.5000     1.0518     4.1400
 1450.0000     1.0520     4.1400
 1450.5000     1.0523     4.1400
 1451.0000     1.0525     4.1400
 1451.5000     1.0528     4.1399
 1452.0000     1.0531     4.1399
 1452.5000     1.0533     4.1399
 1453.0000     1.0536     4.1399
 1453.5000     1.0538     4.1399
 1454.0000     1.0541     4.1399
 1454.5000     1.0543     4.1398
 1455.0000     1.0546     4.1398
 1455.5000     1.0549     4.1398
 1456.0000     1.0551     4.1398
 1456.5000     1.0554     4.1398
 1457.0000     1.0556     4.1398
 1457.5000     1.0559     4.1397
 1458.0000     1.0562     4.1397
 1458.5000     1.0564     4.1397
 1459.0000     1.0567     4.1397
 1459.5000     1.0569     4.1397
 1460.0000     1.0572     4.1397
 1460.5000     1.0574     4.1396
 1461.0000     1.0577     4.1396
 1461.5000     1.0580     4.1396
 1462.0000     1.0582     4.1396
 1462.5000     1.0585     4.1396
 1463.0000     1.0587     4.1396
 1463.5000     1.0590     4.1395
 1464.0000     1.0592     4.1395
 1464.5000     1.0595     4.1395
 1465.0000     1.0598     4.1395
 1465.5000     1.0600     4.1395
 1466.0000     1.0603     4.1395
 1466.5000     1.0605     4.1395
 1467.0000     1.0608     4.1394
 1467.5000     1.0610     4.1394
 1468.0000     1.0761     4.1394
 1468.5000     1.1030     4.1394
 1469.0000     1.1299     4.1394
 1469.5000     1.1568     4.1394
 1470.0000     1.1836     4.1393
 1470.5000     1.2105     4.1393
 1471.0000     1.2366     4.1393
 1471.5000     1.2355     4.1393
 1472.0000     1.2345     4.1393
 1472.5000     1.2335     4.1393
 1473.0000     1.2324     4.1392
 1473.5000     1.2314     4.1392
 1474.0000     1.2304     4.1392
 1474.5000     1.2294     4.1392
 1475.0000     1.2284     4.1392
 1475.5000     1.2273     4.1392
 1476.0000     1.2263     4.1391
 1476.5000     1.2253     4.1391
 1477.0000     1.2243     4.1391
 1477.5000     1.2232     4.1391
 1478.0000     1.2222     4.1391
 1478.5000     1.2212     4.1391
 1479.0000     1.2202     4.1390
 1479.5000     1.2191     4.1390
 1480.0000     1.2181     4.1390
 1480.5000     1.2171     4.1390
 1481.0000     1.2161     4.1390
 1481.5000     1.2150     4.1390
 1482.0000     1.2140     4.1389
 1482.5000     1.2130     4.1389
 1483.0000     1.2120     4.1389
 1483.5000     1.2109     4.1389
 1484.0000     1.2099     4.1389
 1484.5000     1.2089     4.1389
 1485.0000     1.2079     4.1388
 1485.5000     1.2068     4.1388
 1486.0000     1.2058     4.1388
 1486.5000     1.2048     4.1388
 1487.0000     1.2038     4.1388
 1487.5000     1.2027     4.1388
 1488.0000     1.2017     4.1387
 1488.5000     1.2007     4.1387
 1489.0000     1.1997     4.1387
 1489.5000     1.1987     4.1387
 1490.0000     1.1976     4.1387
 1490.5000     1.1966     4.1387
 1491.0000     1.1956     4.1386
 1491.5000     1.1946     4.1386
 1492.0000     1.1935     4.1386
 1492.5000     1.1925     4.1386
 1493.0000     1.1915     4.1386
 1493.5000     1.1905     4.1386
 1494.0000     1.1894     4.1385
 1494.5000     1.1884     4.1385
 1495.0000     1.1874     4.1385
 1495.5000     1.1864     4.1385
 1496.0000     1.2041     4.1385
 1496.5000     1.2654     4.1385
 1497.0000     1.3267     4.1384
 1497.5000     1.3880     4.1384
 1498.0000     1.4492     4.1384
 1498.5000     1.4719     4.1384
 1499.0000     1.4716     4.1384
 1499.5000     1.4713     4.1384
 1500.0000     1.4710     4.1400
 1500.5000     1.4707     4.1506
 1501.0000     1.4704     4.1611
 1501.5000     1.4701     4.1716
 1502.0000     1.4698     4.1821
 1502.5000     1.4695     4.1926
 1503.0000     1.4692     4.2031
 1503.5000     1.4689     4.2137
 1504.0000     1.4686     4.2242
 1504.5000     1.4683     4.2347
 1505.0000     1.4680     4.2452
 1505.5000     1.4677     4.2557
