~VERSION INFORMATION
 VERS.                2.0:   CWLS LOG ASCII STANDARD - VERSION 2.0
 WRAP.                 NO:   ONE LINE PER DEPTH STEP
~WELL INFORMATION
#MNEM.UNIT      DATA TYPE    INFORMATION
#----------   ------------   ------------------------------
 STRT.F           80.0000:   START DEPTH
 STOP.F          660.0000:   STOP DEPTH
 STEP.F            0.5000:   STEP LENGTH
 NULL.          -999.2500:   NO VALUE
 COMP. U S NAVY-INTEX OIL:   COMPANY
 WELL.    NPR #3 #34 S-11:   WELL
 FLD .             TEAPOT:   FIELD
 LOC .      S11 T38N R78W:   LOCATION
 CNTY.            NATRONA:   COUNTY
 STAT.            WYOMING:   STATE
 CTRY. UNITED STATES OF AMERICA:   COUNTRY
 SRVC.       Schlumberger:   SERVICE COMPANY
 DATE.        10-JUL-1962:   LOGDATE
 API .       490250635000:   API NUMBER
~CURVE INFORMATION
#MNEM.UNIT       API CODE    CURVE DESCRIPTION
#----------   ------------   ------------------------------
 DEPT.F                  :   
 SPR .MV     05 010 01 00:   SPONTANEOUS POTENTIAL FROM RES.
 ASN .OHMM   05 041 16 00:   AMPLIFIED SHORT NORMAL 16"
 ILD .OHMM   05 120 46 00:   INDUCTION LOG DEEP
 GR  .GAPI   30 310 01 00:   GAMMA RAY
 CALM.IN     15 280 01 00:   CALIPER FROM MICRO LOG
 CILD.MMHO   05 110 46 00:   CONDUCTIVITY INDUCTION LOG DEEP
~PARAMETER INFORMATION
#MNEM.UNIT          VALUE    DESCRIPTION
#----------   ------------   ------------------------------
 CLNT.            A2DTECH:   CLIENT CODE
 UWI .       490250635000:   UNIQUE WELL ID
 DICO. A2D Technologies, Inc.:   DIGITIZING COMPANY
~OTHER INFORMATION
~A   DEPT      SPR        ASN        ILD         GR       CALM        CILD  
# ...
  184.0000   -73.0396    10.6204     8.5039  -999.2500  -999.2500   100.4543
  184.5000   -73.0415     9.1993     7.9715  -999.2500  -999.2500   108.7748
  185.0000   -73.0430     8.6069     7.5146  -999.2500  -999.2500   123.8724
  185.5000   -73.0445     7.9993     6.9066  -999.2500  -999.2500   141.2291
  186.0000   -73.8106     7.5586     6.3741  -999.2500  -999.2500   148.0436
  186.5000   -74.4233     7.1635     6.0683  -999.2500  -999.2500   154.1050
  187.0000   -73.3549     6.8290     5.8379  -999.2500  -999.2500   159.4135
  187.5000   -73.0502     6.5705     5.8342  -999.2500  -999.2500   163.9689
  188.0000   -72.4405     6.4485     5.8305  -999.2500  -999.2500   167.0184
  188.5000   -71.6775     6.4024     5.9787  -999.2500  -999.2500   167.8088
  189.0000   -70.1499     6.4776     6.0505  -999.2500  -999.2500   167.0931
  189.5000   -68.4695     6.6895     6.1969  -999.2500  -999.2500   165.5844
  190.0000   -67.0949     6.8254     6.2696  -999.2500  -999.2500   162.5256
  190.5000   -66.9434     6.8857     6.0383  -999.2500  -999.2500   157.3327
  191.0000   -67.0979     6.8242     5.9590  -999.2500  -999.2500   155.1945
  191.5000   -67.0994     6.7478     5.8042  -999.2500  -999.2500   156.7395
  192.0000   -67.1010     6.6713     5.7249  -999.2500  -999.2500   159.7966
  192.5000   -67.1025     6.5948     5.6457  -999.2500  -999.2500   162.0930
  193.0000   -67.1040     6.5183     5.6419  -999.2500  -999.2500   164.3895
  193.5000   -67.1055     6.4570     5.7137  -999.2500  -999.2500   165.9329
  194.0000   -67.1070     6.4564     5.7099  -999.2500  -999.2500   166.7233
  194.5000   -67.1086     6.4558     5.7062  -999.2500  -999.2500   166.7606
  195.0000   -67.1101     6.4552     5.7024  -999.2500  -999.2500   166.0356
  195.5000   -67.2645     6.4546     5.7789  -999.2500  -999.2500   164.5763
  196.0000   -67.4190     6.4540     5.9285  -999.2500  -999.2500   163.1077
  196.5000   -67.5734     6.5468     6.0025  -999.2500  -999.2500   161.6297
  197.0000   -67.8807     6.7025     6.2162  -999.2500  -999.2500   159.4174
  197.5000   -68.1884     6.9294     6.3016  -999.2500  -999.2500   155.6897
  198.0000   -68.1899     7.1306     6.5863  -999.2500  -999.2500   149.7030
  198.5000   -68.3443     7.4676     6.9593  -999.2500  -999.2500   139.1982
  199.0000   -68.1926     7.7856     7.4087  -999.2500  -999.2500   126.4344
  199.5000   -68.1945     8.4375     7.7826  -999.2500  -999.2500   118.9416
  200.0000   -68.3485     9.0894     7.7791  -999.2500  -999.2500   116.7106
  200.5000   -68.2818     9.0130     7.7754  -999.2500  -999.2500   119.1425
  201.0000   -68.2202     8.0564     7.6962  -999.2500  -999.2500   121.2293
  201.5000   -68.0379     8.0493     7.5414  -999.2500  -999.2500   123.7101
  202.0000   -67.8835     8.7836     7.3867  -999.2500  -999.2500   126.7886
  202.5000   -67.8820     8.4340     7.1526  -999.2500  -999.2500   131.3732
  203.0000   -67.7276     7.7449     6.7558  -999.2500  -999.2500   139.7228
  203.5000   -67.7261     7.3487     6.3928  -999.2500  -999.2500   150.3315
  204.0000   -67.7246     7.1041     6.1625  -999.2500  -999.2500   160.1871
  204.5000   -67.5702     6.8533     6.0077  -999.2500  -999.2500   164.7717
  205.0000   -67.5687     6.7313     6.0040  -999.2500  -999.2500   165.5912
  205.5000   -67.4143     6.6700     6.0003  -999.2500  -999.2500   164.1517
  206.0000   -67.2599     6.6694     6.1486  -999.2500  -999.2500   161.9592
  206.5000   -67.1055     6.6992     6.1439  -999.2500  -999.2500   159.7666
  207.0000   -67.1040     6.7896     6.2167  -999.2500  -999.2500   157.5200
  207.5000   -67.1024     6.9104     6.2121  -999.2500  -999.2500   153.7651
  208.0000   -67.4068     7.0312     6.4349  -999.2500  -999.2500   149.4406
  208.5000   -67.7111     7.1522     6.5068  -999.2500  -999.2500   145.7420
  209.0000   -68.0154     7.1818     6.5031  -999.2500  -999.2500   142.7964
  209.5000   -68.0135     7.2267     6.5749  -999.2500  -999.2500   140.5873
  210.0000   -68.1653     7.2716     6.7222  -999.2500  -999.2500   138.4114
  210.5000   -68.1634     7.2558     6.7941  -999.2500  -999.2500   137.7082
  211.0000   -67.8561     7.2401     6.8650  -999.2500  -999.2500   136.2687
  211.5000   -67.3958     7.2698     6.8613  -999.2500  -999.2500   135.5822
  212.0000   -67.3943     7.3176     6.9340  -999.2500  -999.2500   134.9096
  212.5000   -67.2399     7.4202     6.9294  -999.2500  -999.2500   134.9788
  213.0000   -67.3917     7.4955     6.9257  -999.2500  -999.2500   135.0453
  213.5000   -66.9311     7.5556     6.9220  -999.2500  -999.2500   135.1130
  214.0000   -66.9296     7.5703     6.8427  -999.2500  -999.2500   135.1807
  214.5000   -67.0810     7.5848     6.8390  -999.2500  -999.2500   135.2614
  215.0000   -67.5382     7.5842     6.8353  -999.2500  -999.2500   136.0809
  215.5000   -67.8527     7.5684     6.8316  -999.2500  -999.2500   137.6534
  216.0000   -67.9939     7.5071     6.7523  -999.2500  -999.2500   139.9790
  216.5000   -67.6862     7.4154     6.7477  -999.2500  -999.2500   142.3045
  217.0000   -67.3789     7.3238     6.7440  -999.2500  -999.2500   144.6300
  217.5000   -67.0716     7.2170     6.5893  -999.2500  -999.2500   146.2026
  218.0000   -66.9172     7.2012     6.5100  -999.2500  -999.2500   147.0220
  218.5000   -66.7628     7.2006     6.4308  -999.2500  -999.2500   147.0885
  219.0000   -66.6084     7.2000     6.3516  -999.2500  -999.2500   147.1550
  219.5000   -66.7602     7.1994     6.3479  -999.2500  -999.2500   146.4683
  220.0000   -66.7583     7.1987     6.4206  -999.2500  -999.2500   145.7820
  220.5000   -66.4510     7.1830     6.4160  -999.2500  -999.2500   145.8509
  221.0000   -66.2966     7.1976     6.4123  -999.2500  -999.2500   145.1620
  221.5000   -66.1422     7.1817     6.4841  -999.2500  -999.2500   144.4921
  222.0000   -66.1406     7.1811     6.6315  -999.2500  -999.2500   144.5586
  222.5000   -66.1391     7.1958     6.6276  -999.2500  -999.2500   143.8555
  223.0000   -66.1376     7.2254     6.6996  -999.2500  -999.2500   143.1690
  223.5000   -66.1157     7.2704     6.6949  -999.2500  -999.2500   142.4991
  224.0000   -66.1346     7.3003     6.6912  -999.2500  -999.2500   142.5656
  224.5000   -66.2857     7.3148     6.6875  -999.2500  -999.2500   141.1094
  225.0000   -66.4371     7.3141     6.6838  -999.2500  -999.2500   141.1925
  225.5000   -66.5885     7.3135     6.6801  -999.2500  -999.2500   141.2590
  226.0000   -66.5870     7.3129     6.6764  -999.2500  -999.2500   141.3255
  226.5000   -66.5854     7.3123     6.6727  -999.2500  -999.2500   141.3931
  227.0000   -66.5839     7.3269     6.6690  -999.2500  -999.2500   141.4585
  227.5000   -66.5824     7.3566     6.6653  -999.2500  -999.2500   140.7720
  228.0000   -66.7338     7.3862     6.7372  -999.2500  -999.2500   140.0855
  228.5000   -66.7323     7.4463     6.7334  -999.2500  -999.2500   138.6460
  229.0000   -66.8838     7.5064     6.7296  -999.2500  -999.2500   137.2064
  229.5000   -67.0352     7.5817     6.8006  -999.2500  -999.2500   135.7669
  230.0000   -67.3394     7.6570     6.8734  -999.2500  -999.2500   134.3274
  230.5000   -67.4909     7.7171     7.0207  -999.2500  -999.2500   132.1515
  231.0000   -67.6423     7.7772     7.2436  -999.2500  -999.2500   129.9589
  231.5000   -67.6404     7.8069     7.3145  -999.2500  -999.2500   127.7664
  232.0000   -67.6389     7.8519     7.3872  -999.2500  -999.2500   126.3253
  232.5000   -67.4845     7.9727     7.5337  -999.2500  -999.2500   124.8870
  233.0000   -67.4830     8.1693     7.5300  -999.2500  -999.2500   123.4478
  233.5000   -67.1756     8.3356     7.6027  -999.2500  -999.2500   123.5166
  234.0000   -67.0212     8.4413     7.5981  -999.2500  -999.2500   123.5974
  234.5000   -66.8668     8.4407     7.6699  -999.2500  -999.2500   122.8943
  235.0000   -66.8653     8.4552     7.6662  -999.2500  -999.2500   122.2078
  235.5000   -67.0171     8.4546     7.7380  -999.2500  -999.2500   121.5212
