~VERSION INFORMATION
 VERS.                2.0:   CWLS LOG ASCII STANDARD - VERSION 2.0
 WRAP.                 NO:   ONE LINE PER DEPTH STEP
~WELL INFORMATION
#MNEM.UNIT      DATA TYPE    INFORMATION
#----------   ------------   ------------------------------
 STRT.F           90.0000:   START DEPTH
 STOP.F          784.0000:   STOP DEPTH
 STEP.F            0.5000:   STEP LENGTH
 NULL.          -999.2500:   NO VALUE
 COMP.               NAVY:   COMPANY
 WELL. RES 3 TEAPOT DOM #41S-11:   WELL
 FLD .             TEAPOT:   FIELD
 LOC .      S11 T38N R78W:   LOCATION
 CNTY.            NATRONA:   COUNTY
 STAT.            WYOMING:   STATE
 CTRY. UNITED STATES OF AMERICA:   COUNTRY
 SRVC.       Schlumberger:   SERVICE COMPANY
 DATE.        14-JUL-1962:   LOGDATE
 API .       490250638000:   API NUMBER
~CURVE INFORMATION
#MNEM.UNIT       API CODE    CURVE DESCRIPTION
#----------   ------------   ------------------------------
 DEPT.F                  :   
 GR  .GAPI   30 310 01 00:   GAMMA RAY
 SPR .MV     05 010 01 00:   SPONTANEOUS POTENTIAL FROM RES.
 ASN .OHMM   05 041 16 00:   AMPLIFIED SHORT NORMAL 16"
 ILD .OHMM   05 120 46 00:   INDUCTION LOG DEEP
 CILD.MMHO   05 110 46 00:   CONDUCTIVITY INDUCTION LOG DEEP
~PARAMETER INFORMATION
#MNEM.UNIT          VALUE    DESCRIPTION
#----------   ------------   ------------------------------
 LMF .                 KB:   LOG MEASURED FROM
 DMF .                 KB:   DRILLING MEASURED FROM
 EKB .F              5162:   KELLING BUSHING
 EGL .F              5157:   GROUND LEVEL
 DATE.        14-JUL-1962:   RUN DATE
 RUN .                  1:   RUN NUMBER
 DD  .F               785:   DEPTH DRILLER
 DL  .F               785:   DEPTH LOGGER
 BLI .F               784:   BOTTOM LOG INTERVAL
 TLI .F               100:   TOP LOG INTERVAL
 CBD .F                10:   CASING BOTTOM DRILLER
 BS  .IN             6.75:   BIT SIZE
 BSD .F               785:   BIT SIZE AT DEPTH
 DFT .           OIL EMUL:   DRILLING FLUID TYPE
 DFD .               10.2:   DRILLING FLUID DENSITY
 DFV .                 43:   DRILLING FLUID VISCOSITY
 DFL .                4.6:   DRILLING FLUID LOSS
 RMS .OHMM            5.2:   RESISTIVITY MUD SAMPLE
 MST .F                78:   MUD SAMPLE TEMPERATURE
 RMF .OHMM            5.2:   RESISTIVITY MUD FILTRATE SAMPLE
 MFST.F                78:   MUD FILTRATE SAMPLE TEMPERATURE
 RMC .OHMM              6:   RESISTIVITY MUD CAKE
 MCST.F                78:   MUD CAKE SAMPLE TEMPERATURE
 TCS .HRS              .5:   TIME CURCULATED STOPPED
 LUN .               2503:   LOGGING UNIT NUMBER
 LUL .               CSPR:   LOGGING UNIT LOCATION
 ENGI.           ELLERMAN:   RECORDING ENGINEER
 WITN.          JORGENSON:   WITNESSED BY
 CLNT.            A2DTECH:   CLIENT CODE
 ORIG.           5" PRINT:   ORIGIN OF DATA
 UWI .       490250638000:   UNIQUE WELL ID
 DICO. A2D Technologies, Inc.:   DIGITIZING COMPANY
~OTHER INFORMATION
~A   DEPT       GR        SPR          ASN        ILD       CILD 
# ...
  517.0000   100.4025   -36.3992     7.6336     7.8550   125.0000
  517.5000   105.3931   -36.8414     7.6186     7.7795   126.5152
  518.0000   109.6269   -36.9859     7.5734     7.7039   128.0303
  518.5000    99.9844   -37.1282     7.5433     7.6284   129.5455
  519.0000    89.2834   -36.9662     7.4982     7.7039   130.3030
  519.5000    97.7431   -36.6553     7.4379     7.7039   131.0606
  520.0000    96.5471   -36.3444     7.3605     7.4773   131.8182
  520.5000   100.7809   -36.0131     7.2117     7.1752   136.3636
  521.0000   105.1655   -35.8715     7.0305     6.9486   144.1069
  521.5000   108.4943   -36.0160     6.7588     6.7976   155.3030
  522.0000   117.1022   -36.3093     6.5323     6.5710   166.6667
  522.5000   113.0378   -36.4516     6.3814     6.4174   171.9697
  523.0000   117.1207   -36.5939     6.2758     6.2568   174.2424
  523.5000   112.9081   -36.2808     6.1702     6.1934   175.0000
  524.0000   117.7479   -35.8086     6.1100     6.1934   175.0000
  524.5000   118.9625   -35.3547     6.0799     6.1934   174.2424
  525.0000   107.5126   -35.1949     6.0952     6.3444   172.6013
  525.5000   105.1073   -35.4883     6.2162     6.4199   169.6970
  526.0000   114.0195   -35.6327     6.6242     6.5710   161.3636
  526.5000   120.3649   -35.7750     6.8056     6.7256   151.5152
  527.0000   124.9004   -35.6130     6.8662     6.8862   145.4545
  527.5000   122.6485   -35.4532     6.8965     7.0997   141.6667
  528.0000   114.5117   -35.4441     6.9269     7.1752   140.9091
  528.5000   124.7813   -35.5867     6.9724     7.2508   140.9091
  529.0000   121.6245   -35.8778     7.0330     7.2508   140.9091
  529.5000   108.2112   -36.7754     7.0935     7.2508   140.1515
  530.0000   114.8583   -37.0709     7.1239     7.3263   137.8788
  530.5000   119.3911   -37.0600     7.0787     7.3263   135.6061
  531.0000   109.7513   -36.9002     7.0486     7.4018   136.3636
  531.5000   110.8177   -37.0524     7.0639     7.4018   138.6364
  532.0000   114.5990   -37.4868     7.0943     7.3263   140.2116
  532.5000   112.7996   -37.4759     7.0491     7.2508   142.4242
  533.0000   110.2461   -37.3161     6.9586     7.1752   143.9394
  533.5000    96.8328   -36.8541     6.7171     7.0242   146.2121
  534.0000    99.4075   -36.3922     6.5511     6.7976   148.4848
  534.5000   105.6021   -36.9876     6.4908     6.5654   153.0303
  535.0000   117.6791   -37.8852     6.4305     6.3444   162.1212
  535.5000   119.4970   -38.1785     6.3098     6.1934   175.8990
  536.0000   110.3096   -38.0165     6.0894     5.9668   191.6667
  536.5000    93.8798   -37.7056     5.7663     5.7402   204.5455
  537.0000    82.8798   -37.2437     5.6003     5.5136   212.8788
  537.5000    76.8545   -36.7817     5.4645     5.3625   217.4242
  538.0000    85.3142   -36.1687     5.2532     5.1360   220.4545
  538.5000    91.2072   -35.7068     4.8757     4.9094   221.2121
  539.0000    98.3041   -35.0835     4.5737     4.7583   220.4545
  539.5000    96.9572   -34.6297     4.8921     4.9849   214.8567
  540.0000   100.1352   -35.5272     5.6173     5.5136   201.5152
  540.5000   100.8642   -36.1227     6.0697     5.8157   186.3636
  541.0000   101.6647   -36.4182     6.2511     6.1178   172.7273
  541.5000    99.2620   -36.5605     6.4023     6.4199   163.6364
  542.0000   109.5308   -36.5496     6.5384     6.5710   156.8182
  542.5000   120.8536   -36.5408     6.5990     6.6465   153.0303
  543.0000   122.9758   -36.5317     6.6746     6.8731   148.4190
  543.5000   125.7013   -36.5211     6.8566     6.9486   143.9394
  544.0000   122.5444   -36.5123     6.9837     7.0997   140.9091
  544.5000   116.3710   -37.2588     7.0981     7.2508   137.8788
  545.0000   113.9683   -37.8543     7.1284     7.3263   134.8485
  545.5000   107.3424   -38.4497     7.2192     7.4018   132.5758
  546.0000   100.4148   -38.1388     7.3553     7.4773   130.3030
  546.5000    94.5404   -37.5155     7.4612     7.4773   128.7879
  547.0000    99.2294   -37.0639     7.6124     7.5529   128.7879
  547.5000   106.0273   -37.3572     7.7188     7.6284   128.7879
  548.0000   112.8252   -37.4995     7.7812     7.6284   128.7879
  548.5000   117.6597   -37.3375     7.8546     7.7039   128.7879
  549.0000   110.1288   -36.8755     7.8849     7.7795   128.0303
  549.5000   117.9825   -36.5647     7.9153     7.8550   125.7576
  550.0000   115.1300   -36.5559     7.9456     7.9305   124.2424
  550.5000   117.5538   -36.7413     7.9771     8.0056   122.7273
  551.0000   120.8800   -36.8524     8.0013     8.1048   122.7013
  551.5000   120.1365   -36.3956     8.0551     8.1613   122.3083
  552.0000   120.3005   -36.3927     8.1741     8.0876   121.9088
  552.5000   119.2553   -36.2387     8.1443     8.1646   122.6518
  553.0000   112.0261   -36.0841     8.0843     8.1664   124.9063
  553.5000   111.4333   -36.2329     7.9639     8.0168   125.6529
  554.0000    94.3994   -36.2293     7.8284     7.9424   125.6347
  554.5000    93.6532   -36.5285     7.6586     7.8683   125.6201
  555.0000    98.7947   -36.9788     7.5122     8.0212   124.0903
  555.5000   110.8717   -37.7397     7.4069     8.0226   121.8030
  556.0000   113.5972   -38.3325     7.3318     8.0245   121.7879
  556.5000   116.9260   -38.9331     7.2718     8.0259   124.0428
  557.0000   114.6742   -39.5344     7.1967     7.8759   127.8161
  557.5000   116.3439   -39.3804     7.0577     7.6512   131.5894
  558.0000   128.8734   -38.7733     6.8351     7.3505   137.6354
  558.5000   129.4847   -38.3172     6.5788     6.8988   148.2269
  559.0000   118.3365   -38.0121     6.2469     6.5111   158.9194
  559.5000   115.7830   -37.8582     5.8395     6.0712   177.7394
  560.0000   120.1677   -38.0064     5.4320     5.6195   198.9370
  560.5000   118.8208   -37.8517     5.0295     5.1678   226.9527
  561.0000   118.0746   -37.5467     4.5267     4.7161   264.8168
  561.5000   131.5117   -36.9395     4.0739     4.1888   305.7113
  562.0000   136.3489   -36.3182     3.8025     3.7301   364.7876
  562.5000   139.0717   -35.5735     3.5763     3.3609   403.3442
  563.0000   137.5740   -35.1174     3.3199     3.2113   443.5427
  563.5000   139.8497   -35.5677     3.1217     2.9866   469.2856
  564.0000   155.8461   -36.0179     3.0037     2.9121   479.1231
  564.5000   156.4475   -36.1662     2.8984     2.7629   467.7413
  565.0000   160.0901   -36.1581     2.8383     2.7643   451.8176
  565.5000   155.9993   -35.4042     2.9446     2.9927   426.8030
  566.0000   146.4667   -34.6460     3.1867     3.2963   396.1279
  566.5000   140.3284   -34.0389     3.5548     3.6754   336.6186
  567.0000   139.7705   -33.8857     4.1091     4.2056   286.6040
  567.5000   140.1081   -34.3359     4.5023     4.7357   233.5591
  568.0000   142.0541   -34.7855     4.8653     5.2659   197.9384
  568.5000   132.7920   -34.9336     5.3189     5.8913   178.9844
  569.0000   118.3951   -35.0818     5.5610     6.3265   165.2574
  569.5000   119.9140   -35.2299     5.6678     6.6301   156.9819
  570.0000   116.1538   -35.0752     5.6980     6.7826   153.1794
  570.5000   110.8854   -35.0723     5.7286     6.9351   152.4072
  571.0000   113.4601   -34.9184     5.8046     6.9366   153.1502
  571.5000   122.9730   -34.9154     5.8957     6.6306   156.1659
  572.0000   129.4693   -35.0636     5.9867     6.2601   160.6967
  572.5000   138.3788   -35.5131     6.0174     5.9594   167.7519
  573.0000   141.3305   -35.6620     5.7611     5.7339   186.4214
  573.5000   135.2326   -35.6584     5.5199     5.5092   198.5281
  574.0000   129.9642   -35.6555     5.1427     5.3596   208.3619
  574.5000   128.7677   -35.3505     5.0826     5.2100   218.1958
  575.0000   129.2312   -35.1712     5.0378     5.0604   228.0297
  575.5000   140.8557   -34.8907     4.9174     4.9111   236.3484
  576.0000   141.9221   -34.8878     4.7015     4.9126   242.3944
  576.5000   146.1559   -34.7339     4.8730     4.9140   240.1034
  577.0000   144.5074   -34.7310     5.0094     4.9155   234.0282
  577.5000   144.8197   -34.8791     4.9946     4.9925   224.9227
