~VERSION INFORMATION
 VERS.                2.0:   CWLS LOG ASCII STANDARD - VERSION 2.0
 WRAP.                 NO:   ONE LINE PER DEPTH STEP
~WELL INFORMATION
#MNEM.UNIT      DATA TYPE    INFORMATION
#----------   ------------   ------------------------------
 STRT.F            0.0000:   START DEPTH
 STOP.F          964.0000:   STOP DEPTH
 STEP.F            0.5000:   STEP LENGTH
 NULL.          -999.2500:   NO VALUE
 COMP. LAWRENCE/ALLISON INC:   COMPANY
 WELL.  NPR 3 #58-16-SX-2:   WELL
 FLD .           NPR NO.3:   FIELD
 LOC .       S2 T38N R78W:   LOCATION
 CNTY.            NATRONA:   COUNTY
 STAT.            WYOMING:   STATE
 CTRY. UNITED STATES OF AMERICA:   COUNTRY
 SRVC.           Gearhart:   SERVICE COMPANY
 DATE.        07-MAY-1987:   LOGDATE
 API .       490251113700:   API NUMBER
~CURVE INFORMATION
#MNEM.UNIT       API CODE    CURVE DESCRIPTION
#----------   ------------   ------------------------------
 DEPT.F                  :   
 GRR .GAPI   07 310 01 00:   GAMMA RAY FROM RES. LOG.
 RILD.OHMM   07 120 46 00:   INDUCTION LOG DEEP RESISTIVITY
 RILM.OHMM   07 120 44 00:   INDUCTION LOG MEDIUM RESISTIVITY
~PARAMETER INFORMATION
#MNEM.UNIT          VALUE    DESCRIPTION
#----------   ------------   ------------------------------
 PD  .                 GL:   PERMANENT DATUM
 EPD .F              5173:   ELEVATION PERMANENT DATUM
 LMF .                 GL:   LOG MEASURED FROM
 DMF .                 GL:   DRILLING MEASURED FROM
 EGL .F              5173:   GROUND LEVEL
 DATE.           5-7-1987:   RUN DATE
 RUN .                  1:   RUN NUMBER
 DD  .F               971:   DEPTH DRILLER
 DL  .F               971:   DEPTH LOGGER
 BLI .F               963:   BOTTOM LOG INTERVAL
 TLI .F                37:   TOP LOG INTERVAL
 CS  .IN            8.625:   CASING SIZE
 CBD .F                44:   CASING BOTTOM DRILLER
 CBL .F                37:   CASING BOTTOM LOGGER
 BS  .IN            7.875:   BIT SIZE
 BSD .F               971:   BIT SIZE AT DEPTH
 TCS .HRS            2100:   TIME CURCULATED STOPPED
 TLAB.HRS            2338:   TIME LOGGER AT BOTTOM
 MRT .F                80:   MAXIMUM RECORDED TEMPERATURE
 LUN .               7597:   LOGGING UNIT NUMBER
 LUL .           GILLETTE:   LOGGING UNIT LOCATION
 ENGI.         WEATHERMON:   RECORDING ENGINEER
 WITN. STRONG/TAYLOR/LOWE:   WITNESSED BY
 CLNT.            A2DTECH:   CLIENT CODE
 ORIG.           5" PRINT:   ORIGIN OF DATA
 UWI .       490251113700:   UNIQUE WELL ID
 DICO. A2D Technologies, Inc.:   DIGITIZING COMPANY
~OTHER INFORMATION
~A    DEPT      GRR      RILD       RILM   
# ...
  273.0000   111.6087     6.7305     6.4704
  273.5000   115.6605     6.6957     6.4348
  274.0000   119.4047     6.6610     6.3993
  274.5000   122.2562     6.6265     6.3640
  275.0000   122.0387     6.5922     6.3372
  275.5000   118.1038     6.5580     6.3292
  276.0000   113.7830     6.5241     6.3213
  276.5000   109.8702     6.4903     6.3134
  277.0000   111.3472     6.4601     6.3056
  277.5000   114.4371     6.5037     6.2977
  278.0000   117.5323     6.5519     6.2898
  278.5000   118.9422     6.6020     6.2799
  279.0000   118.0338     6.7460     6.3235
  279.5000   117.0115     6.8932     6.3838
  280.0000   115.9836     7.0435     6.5635
  280.5000   114.9246     7.1972     6.7925
  281.0000   110.9729     7.3193     7.0294
  281.5000   105.1610     7.4313     7.2369
  282.0000   101.5506     7.5450     7.3026
  282.5000   100.2332     7.6605     7.3728
  283.0000   100.9860     7.8066     7.4448
  283.5000   101.8174     7.7757     7.4104
  284.0000   102.6047     7.7234     7.3737
  284.5000   101.8954     7.6714     7.3375
  285.0000   101.1108     7.5611     7.3016
  285.5000   100.8806     7.4365     7.2658
  286.0000   101.6237     7.3140     7.2185
  286.5000   102.3655     7.1935     7.1213
  287.0000   102.0994     6.6740     7.0254
  287.5000   101.1766     6.0984     6.9350
  288.0000   101.3521     5.2271     6.8350
  288.5000   101.7739     4.4094     5.8341
  289.0000   101.0082     3.7777     4.9747
  289.5000   100.5195     3.3092     4.2446
  290.0000   104.2953     2.8988     3.6216
  290.5000   112.3204     2.5392     3.0900
  291.0000   120.2818     2.3936     2.6365
  291.5000   127.8735     2.3711     2.3417
  292.0000   130.3098     2.5478     2.1168
  292.5000   132.5394     2.7775     2.1572
  293.0000   132.7504     3.0331     2.3267
  293.5000   129.0048     3.3013     2.7788
  294.0000   121.4265     4.0809     3.4178
  294.5000   110.5616     5.0041     4.1874
  295.0000   101.0194     6.1276     5.1302
  295.5000    94.5912     7.2906     6.2853
  296.0000    90.8660     8.3757     7.3766
  296.5000    88.8706     9.8872     8.5992
  297.0000    89.1917     9.8609     9.6173
  297.5000    91.0605     9.8220     9.6414
  298.0000    90.9168     9.4855     9.6655
  298.5000    89.6296     8.4703     9.6896
  299.0000    90.5577     7.5638     9.7020
  299.5000    94.3693     6.9372     8.0537
  300.0000    98.7741     6.4381     7.1076
  300.5000   103.1945     5.9335     6.2727
  301.0000   107.4281     5.9728     5.5359
  301.5000   110.3122     6.0508     4.9577
  302.0000   111.1759     6.1417     5.0532
  302.5000   110.4437     6.2597     5.4640
  303.0000   107.6016     6.5774     5.9080
  303.5000   101.8519     7.3441     6.4669
  304.0000    95.8815     8.2002     7.2489
  304.5000    91.6136     9.1561     8.1255
  305.0000    89.5322    10.2684     9.1160
  305.5000    89.7122    10.5055     9.8390
  306.0000    89.8350    10.8253    10.1588
  306.5000    89.9477    11.1549    10.4825
  307.0000    90.2272    11.4944    10.8166
  307.5000    90.6354    11.8443    11.1613
  308.0000    91.3415    12.2049    11.5170
  308.5000    92.2594    12.5764    11.8841
  309.0000    92.5908    12.9592    12.2631
  309.5000    91.8156    13.3533    12.6538
  310.0000    91.0590    13.5513    13.0593
  310.5000    90.2984    13.6171    13.1465
  311.0000    89.5325    13.6845    13.1660
  311.5000    88.7857    13.7525    13.1856
  312.0000    88.8403    13.8208    13.2052
  312.5000    91.0273    13.8894    13.2248
  313.0000    92.9037    13.9584    13.2439
  313.5000    93.0313    14.0277    13.2930
  314.0000    93.2162    14.0974    13.3757
  314.5000    94.2310    14.1637    13.4590
  315.0000    96.6140    14.3963    13.5427
  315.5000    98.9876    14.6200    13.6270
  316.0000    99.7380    14.8461    13.8175
  316.5000    98.4625    15.0757    14.0244
  317.0000    97.1447    15.3088    14.2344
  317.5000    96.6969    15.5455    14.4476
  318.0000    96.3132    15.7858    14.6639
  318.5000    95.2893    16.0299    14.8835
  319.0000    93.4011    16.2778    15.1064
  319.5000    91.5628    16.5295    15.3324
  320.0000    91.2037    16.7850    15.5630
  320.5000    92.5201    17.0446    15.8203
  321.0000    94.4276    17.3417    16.1361
  321.5000    96.3471    17.6555    16.4567
  322.0000    96.9283    17.9750    16.7838
  322.5000    96.6006    18.3002    17.1174
  323.0000    95.1633    18.6314    17.4576
  323.5000    91.6920    18.9685    17.8047
  324.0000    88.0841    19.3118    18.1586
  324.5000    85.4596    19.6613    18.5195
  325.0000    85.5062    20.0171    18.8878
  325.5000    86.0961    20.3793    19.2631
  326.0000    87.2703    20.7481    19.6459
  326.5000    88.4931    21.2670    19.8360
  327.0000    88.5282    21.2240    19.9817
  327.5000    88.1912    21.1471    20.1221
  328.0000    87.8468    21.0724    20.2421
  328.5000    87.6864    20.9983    20.3628
  329.0000    88.8162    20.9245    20.4784
  329.5000    89.6046    20.8012    20.2728
  330.0000    89.5892    20.5331    20.0331
  330.5000    90.0781    20.2684    19.7964
  331.0000    92.5794    20.0072    19.5623
  331.5000    94.9355    19.7475    19.3311
  332.0000    94.7367    19.6005    19.1026
  332.5000    94.5938    19.4248    18.8768
  333.0000    95.1522    19.2526    18.6536
  333.5000    97.0538    19.0817    18.4331
  334.0000    99.0291    18.9123    18.1096
  334.5000    98.2642    18.7439    18.1272
  335.0000    96.3912    18.5936    18.1617
  335.5000    94.5537    18.4573    18.1971
  336.0000    94.6007    17.4877    18.2339
  336.5000    95.3528    16.4522    18.2817
  337.0000    96.0976    15.1314    17.6014
  337.5000    97.3313    13.3518    16.1956
  338.0000    99.3637    11.6948    14.1242
  338.5000   102.7918    10.4644    12.1011
  339.0000   108.7703     9.6892    10.7135
  339.5000   115.8133     8.9443     9.8345
  340.0000   121.9722     8.2566     9.0275
  340.5000   127.1788     7.6219     8.2868
  341.0000   127.1541     7.3392     7.6068
  341.5000   123.3600     7.2788     6.9826
  342.0000   119.2477     7.2186     6.4606
  342.5000   115.1340     7.1591     6.5302
  343.0000   111.0464     7.1014     6.6172
  343.5000   107.8841     7.1153     6.7064
  344.0000   108.1476     7.1297     6.7965
  344.5000   112.4037     7.1439     6.9038
  345.0000   117.1003     7.1580     6.9039
  345.5000   120.7810     7.1722     6.8184
  346.0000   120.5401     7.1865     6.7373
  346.5000   119.5193     7.2007     6.6576
  347.0000   118.4888     7.2150     6.5839
  347.5000   117.4538     7.2293     6.6549
  348.0000   117.8596     7.2437     6.7224
  348.5000   118.2704     7.2580     6.7905
  349.0000   118.5013     7.2724     6.8594
  349.5000   118.7285     7.2867     6.9292
  350.0000   118.9543     7.3054     7.0340
  350.5000   119.1805     7.2815     7.0254
  351.0000   119.4944     7.2470     7.0052
  351.5000   120.5149     7.2128     6.9858
  352.0000   121.5385     7.1787     6.9594
  352.5000   121.8923     7.1448     6.8774
  353.0000   118.4295     7.1110     6.7965
  353.5000   115.1110     7.0774     6.7164
  354.0000   115.1318     7.0439     6.6374
  354.5000   116.0912     7.0106     6.5590
  355.0000   118.8973     6.9684     6.4811
  355.5000   121.6696     7.0160     6.3998
  356.0000   124.4353     7.0828     6.5336
  356.5000   121.9069     7.1502     6.6818
  357.0000   117.1269     7.2183     6.8335
  357.5000   112.2410     7.2583     6.9683
  358.0000   113.0539     7.2988     6.9803
  358.5000   115.0880     7.3396     6.9969
  359.0000   117.1420     7.3751     7.0135
  359.5000   118.0085     7.4849     7.0301
  360.0000   117.6973     7.6040     7.0723
  360.5000   117.3678     7.7251     7.1848
  361.0000   115.9124     7.8480     7.2992
  361.5000   114.6883     7.9454     7.4154
  362.0000   116.4564     8.0345     7.5334
  362.5000   117.3286     8.1245     7.6533
  363.0000   114.0712     8.1892     7.7751
  363.5000   110.4115     8.2054     7.8545
