~VERSION INFORMATION
 VERS.                2.0:   CWLS LOG ASCII STANDARD - VERSION 2.0
 WRAP.                 NO:   ONE LINE PER DEPTH STEP
~WELL INFORMATION
#MNEM.UNIT      DATA TYPE    INFORMATION
#----------   ------------   ------------------------------
 STRT.F            0.0000:   START DEPTH
 STOP.F          700.0000:   STOP DEPTH
 STEP.F            0.5000:   STEP LENGTH
 NULL.          -999.2500:   NO VALUE
 COMP. FENIX & SCISSON INC:   COMPANY
 WELL. 37-11 SX 11 WP #11-11:   WELL
 FLD .             TEAPOT:   FIELD
 LOC .      S11 T38N R78W:   LOCATION
 CNTY.            NATRONA:   COUNTY
 STAT.            WYOMING:   STATE
 CTRY. UNITED STATES OF AMERICA:   COUNTRY
 SRVC.      Dresser Atlas:   SERVICE COMPANY
 DATE.        21-AUG-1980:   LOGDATE
 API .       490251084200:   API NUMBER
~CURVE INFORMATION
#MNEM.UNIT       API CODE    CURVE DESCRIPTION
#----------   ------------   ------------------------------
 DEPT.F                  :   
 SPR .MV     07 010 01 00:   SPONTANEOUS POTENTIAL
 RFOC.OHMM   07 220 04 00:   RESISTIVITY FOCUSED LOG
 RILD.OHMM   07 120 46 00:   INDUCTION LOG DEEP RESISTIVITY
 RILM.OHMM   07 120 44 00:   INDUCTION LOG MEDIUM RESISTIVITY
 GRD .GAPI   45 310 01 00:   GAMMA RAY FROM DENSITY LOG
 CALD.IN     45 280 60 00:   CALIPER
 RHOB.G/C3   45 350 01 00:   BULK DENSITY
 CORR.G/C3   45 356 01 00:   DENSITY CORRECTION
 CNC .DEC    42 890 03 00:   NEUTRON POROSITY SANDSTONE
 PORD.DEC    45 890 12 00:   POROSITY DENSITY SANDSTONE
~PARAMETER INFORMATION
#MNEM.UNIT          VALUE    DESCRIPTION
#----------   ------------   ------------------------------
 PD  .                 GL:   PERMANENT DATUM
 EPD .F              5194:   ELEVATION PERMANENT DATUM
 LMF .                 KB:   LOG MEASURED FROM
 DAPD.F                 5:   FEET ABOVE PERMANENT DATUM
 DMF .                 KB:   DRILLING MEASURED FROM
 EKB .F              5199:   KELLING BUSHING
 EDF .F              5198:   DRILLING FLOOR
 EGL .F              5194:   GROUND LEVEL
 DATE.            8-21-80:   RUN DATE
 RUN .                  1:   RUN NUMBER
 DD  .F               695:   DEPTH DRILLER
 DL  .F               700:   DEPTH LOGGER
 BLI .F               699:   BOTTOM LOG INTERVAL
 BS  .IN            7.875:   BIT SIZE
 BSD .F               695:   BIT SIZE AT DEPTH
 DFT .      DISPERSED KCL:   DRILLING FLUID TYPE
 DFD .               2.68:   DRILLING FLUID DENSITY
 DFV .                 50:   DRILLING FLUID VISCOSITY
 DFPH.                 14:   DRILLING FLUID PH
 DFL .                 18:   DRILLING FLUID LOSS
 MSS .           FLOWLINE:   MUD SAMPLE SOURCE
 RMS .OHMM           .256:   RESISTIVITY MUD SAMPLE
 MST .F                70:   MUD SAMPLE TEMPERATURE
 RMF .OHMM           .393:   RESISTIVITY MUD FILTRATE SAMPLE
 MFST.F                66:   MUD FILTRATE SAMPLE TEMPERATURE
 RMC .OHMM           .858:   RESISTIVITY MUD CAKE
 MCST.F                66:   MUD CAKE SAMPLE TEMPERATURE
 MFSS.               MEAS:   MUD FILTRATE SAMPLE SOURCE
 MCSS.               MEAS:   MUD CAKE SAMPLE SOURCE
 RMB .OHMM            .53:   RESISTIVITY MUD AT BHT
 BHT .F                99:   BOTTOM HOLE TEMPERATURE
 TCS .HRS               3:   TIME CURCULATED STOPPED
 MRT .F                99:   MAXIMUM RECORDED TEMPERATURE
 LUN .               9369:   LOGGING UNIT NUMBER
 LUL .       ROCK SPRINGS:   LOGGING UNIT LOCATION
 ENGI.            PAULSON:   RECORDING ENGINEER
 WITN.              SCOTT:   WITNESSED BY
 CLNT.            A2DTECH:   CLIENT CODE
 ORIG.       2", 5" PRINT:   ORIGIN OF DATA
 UWI .       490251084200:   UNIQUE WELL ID
 DICO. A2D Technologies, Inc.:   DIGITIZING COMPANY
~OTHER INFORMATION
~A    DEPT     SPR       RFOC       RILD       RILM        GRD       CALD       RHOB       CORR        CNC         PORD 
# ...
  134.0000   -19.8429     6.5413     5.7020     5.8991    94.5783     8.0160     2.4784    -0.0061     0.3147     0.1065
  134.5000   -20.2969     6.8104     5.7538     5.9656    95.1844     8.0141     2.4536    -0.0299     0.3147     0.1027
  135.0000   -20.4746     7.0774     5.8226     6.0342    95.8813     8.0122     2.4460    -0.0378     0.3131     0.1115
  135.5000   -19.7544     6.8284     5.9003     6.1040    96.5565     8.0104     2.4744    -0.0204     0.3070     0.1260
  136.0000   -19.0659     6.6055     5.9791     6.1746    96.7500     8.0085     2.5048    -0.0024     0.2962     0.1346
  136.5000   -18.3519     6.3898     6.0589     6.2460    96.8788     8.0065     2.5090    -0.0040     0.2851     0.1416
  137.0000   -18.3908     6.3319     6.1398     6.3182    97.0261     8.0075     2.4816    -0.0146     0.2740     0.1436
  137.5000   -18.7591     6.5821     6.2218     6.3913    96.1548     8.0094     2.4632    -0.0217     0.2654     0.1349
  138.0000   -19.0623     6.7765     6.3049     6.4651    94.3828     8.0113     2.4516    -0.0264     0.2587     0.1244
  138.5000   -19.2184     6.9767     6.3909     6.5399    92.5728     8.0132     2.4400    -0.0294     0.2584     0.1185
  139.0000   -19.3727     7.2099     6.4471     6.5758    91.0938     8.0152     2.4396    -0.0270     0.2626     0.1174
  139.5000   -19.7614     7.1194     6.5053     6.5877    89.6725     8.0171     2.4557    -0.0131     0.2770     0.1156
  140.0000   -20.2023     6.9481     6.5639     6.5996    88.1281     8.0190     2.4733     0.0009     0.2865     0.1078
  140.5000   -20.6459     6.9953     6.6326     6.6116    86.1514     8.0210     2.4802    -0.0007     0.2722     0.1037
  141.0000   -21.0834     7.0530     6.5963     6.6233    87.2531     8.0229     2.4826    -0.0049     0.2656     0.1059
  141.5000   -21.7700     7.1124     6.5402     6.6320    92.2233     8.0248     2.4902    -0.0028     0.2809     0.1063
  142.0000   -22.5500     7.1431     6.4605     6.5171    95.8187     8.0257     2.5009    -0.0006     0.3002     0.1052
  142.5000   -23.1928     7.0819     6.3550     6.4270    96.9685     8.0233     2.5069     0.0007     0.3002     0.1087
  143.0000   -23.6469     7.0404     6.2512     6.3381    95.1117     8.0211     2.4989    -0.0010     0.2760     0.1133
  143.5000   -24.0664     6.9691     6.1013     6.2504    92.3112     8.0188     2.4999    -0.0025     0.2624     0.1062
  144.0000   -24.4869     6.8346     6.1071     6.1581    89.2918     8.0165     2.5013    -0.0040     0.2584     0.0954
  144.5000   -24.9053     6.6949     6.1181     6.2809    88.3841     8.0142     2.4932    -0.0037     0.2891     0.0890
  145.0000   -25.3299     6.2726     6.1292     6.4152    89.7445     8.0120     2.4894     0.0038     0.2992     0.0871
  145.5000   -25.3104     5.8559     6.1402     6.5539    91.3187     8.0097     2.5071     0.0177     0.2953     0.0701
  146.0000   -25.0074     5.6126     6.1514     6.6933    92.6020     8.0075     2.5219     0.0305     0.2829     0.0512
  146.5000   -24.2889     5.8791     6.1575     6.4910    92.4206     8.0069     2.5298     0.0152     0.2679     0.0664
  147.0000   -22.9634     7.9649     6.1270     6.2898    92.8614     8.0091     2.5390     0.0038     0.2667     0.0860
  147.5000   -20.8549    10.0680     6.1017     6.2119    94.3863     8.0112     2.5737     0.0007     0.2704     0.1209
  148.0000   -18.6428    10.2565     6.1154     6.2061    94.6741     8.0134     2.5954    -0.0052     0.2848     0.1343
  148.5000   -16.5471     7.2808     6.1323     6.2002    89.6882     8.0156     2.5505    -0.0150     0.2986     0.1224
  149.0000   -16.3568     6.2701     6.1495     6.1944    81.0246     8.0178     2.4988    -0.0247     0.3026     0.1157
  149.5000   -16.3598     6.2696     6.1580     6.1886    73.9983     8.0199     2.4519    -0.0347     0.3038     0.1169
  150.0000   -16.3112     6.4194     6.1177     6.1828    73.2592     8.0221     2.4504    -0.0208     0.3068     0.1157
  150.5000   -15.7749     6.5370     6.0903     6.1770    85.6745     8.0243     2.4846    -0.0040     0.3058     0.1116
  151.0000   -14.4248     6.6559     6.0632     6.1712    92.0338     8.0263     2.4820    -0.0056     0.3034     0.1105
  151.5000   -13.0131     6.7771     6.0450     6.1655    93.2660     8.0262     2.4808    -0.0087     0.3010     0.1183
  152.0000   -11.5697     6.8832     6.0987     6.1584    92.0408     8.0262     2.4856    -0.0118     0.2959     0.1229
  152.5000   -11.4549     6.8832     6.1398     6.1874    91.2324     8.0262     2.4917    -0.0144     0.2908     0.1185
  153.0000   -11.6794     6.7488     6.1810     6.2270    91.5987     8.0262     2.4887    -0.0160     0.2857     0.1099
  153.5000   -11.9119     6.6508     6.2225     6.2670    92.9368     8.0262     2.4781    -0.0120     0.2806     0.1052
  154.0000   -12.0981     6.5712     6.2643     6.3071    94.2737     8.0262     2.4712    -0.0081     0.2789     0.1061
  154.5000   -12.0940     6.5712     6.3064     6.3475    94.9190     8.0262     2.4822     0.0007     0.2906     0.1069
  155.0000   -12.0935     6.6183     6.3487     6.3882    94.2827     8.0237     2.4974     0.0059     0.3011     0.1010
  155.5000   -12.0927     6.6661     6.3913     6.4292    93.6557     8.0195     2.4989     0.0110     0.3005     0.0921
  156.0000   -12.0938     6.8038     6.4342     6.4707    93.0306     8.0152     2.4969     0.0099     0.2939     0.0902
  156.5000   -12.1499     7.0746     6.4504     6.5106    92.4042     8.0110     2.5030     0.0041     0.2442     0.0967
  157.0000   -12.3970     7.3449     6.3503     6.4563    91.7699     8.0067     2.5169     0.0052     0.2600     0.1026
  157.5000   -12.6395     7.2350     6.2546     6.3716    91.2266     8.0060     2.5275     0.0080     0.2648     0.1085
  158.0000   -12.9797     7.0675     6.1603     6.2879    92.2643     8.0060     2.5204     0.0097     0.2733     0.1164
  158.5000   -13.3651     6.9039     6.0674     6.2054    94.7214     8.0061     2.5112     0.0105     0.2785     0.1199
  159.0000   -13.7526     6.7441     5.9759     6.1240    97.9812     8.0061     2.5021     0.0087     0.2724     0.1185
  159.5000   -14.0440     6.6216     5.8861     6.0435   100.9391     8.0061     2.4895     0.0025     0.2732     0.1096
  160.0000   -14.2673     6.5823     5.7961     5.9638   100.9376     8.0061     2.4772    -0.0035     0.2825     0.1021
  160.5000   -14.4905     6.4541     5.7544     5.8797   100.2263     8.0061     2.4769    -0.0043     0.3006     0.0972
  161.0000   -14.6253     6.2914     5.7203     5.8595   100.3794     8.0061     2.4831     0.0026     0.3006     0.0976
  161.5000   -14.7299     6.2155     5.6870     5.8321   100.6577     8.0061     2.4968     0.0094     0.2951     0.1088
  162.0000   -14.6320     6.2551     5.6538     5.8048    99.2430     8.0061     2.5102     0.0149     0.2918     0.1135
  162.5000   -14.5270     6.2903     5.6208     5.7777    96.1752     8.0061     2.5156     0.0188     0.3006     0.1169
  163.0000   -14.4216     6.3258     5.5880     5.7507    94.9885     8.0061     2.5052     0.0169     0.3141     0.1170
  163.5000   -14.3433     6.3614     5.5553     5.7238    94.3757     8.0061     2.4933     0.0161     0.3248     0.1147
  164.0000   -14.6287     6.3909     5.5229     5.6971    92.9745     8.0061     2.4849     0.0156     0.3080     0.1142
  164.5000   -14.9277     6.3909     5.4904     5.6705    91.9911     8.0061     2.4808     0.0009     0.2909     0.1203
  165.0000   -15.4915     6.3197     5.4580     5.6440    91.9169     8.0061     2.4816    -0.0009     0.2712     0.1219
  165.5000   -16.1008     6.2689     5.4806     5.6126    92.4605     8.0061     2.4865    -0.0025     0.2825     0.1207
  166.0000   -16.7079     6.2185     5.5402     5.6890    93.2015     8.0061     2.4840    -0.0042     0.2986     0.1277
  166.5000   -17.3261     6.1685     5.6836     5.7846    93.7106     8.0061     2.4751    -0.0046     0.3000     0.1359
  167.0000   -16.9869     6.0998     5.8248     5.8817    94.2475     8.0061     2.4742    -0.0037     0.3094     0.1302
