~VERSION INFORMATION
 VERS.                2.0:   CWLS LOG ASCII STANDARD - VERSION 2.0
 WRAP.                 NO:   ONE LINE PER DEPTH STEP
~WELL INFORMATION
#MNEM.UNIT      DATA TYPE    INFORMATION
#----------   ------------   ------------------------------
 STRT.F           38.0000:   START DEPTH
 STOP.F          818.0000:   STOP DEPTH
 STEP.F            0.5000:   STEP LENGTH
 NULL.          -999.2500:   NO VALUE
 COMP. FENIX & SCISSON INC:   COMPANY
 WELL. NAVAL PETROLEUM RESERVE 3 SX-1 #32-14:   WELL
 FLD .             TEAPOT:   FIELD
 LOC .      S14 T38N R78W:   LOCATION
 CNTY.            NATRONA:   COUNTY
 STAT.            WYOMING:   STATE
 CTRY. UNITED STATES OF AMERICA:   COUNTRY
 SRVC.            Unknown:   SERVICE COMPANY
 DATE.        03-MAY-1978:   LOGDATE
 API .       490251061900:   API NUMBER
~CURVE INFORMATION
#MNEM.UNIT       API CODE    CURVE DESCRIPTION
#----------   ------------   ------------------------------
 DEPT.F                  :   
 SPR .MV     05 010 01 00:   SPONTANEOUS POTENTIAL FROM RES.
 ILD .OHMM   05 120 46 00:   INDUCTION LOG DEEP
 SN  .OHMM   05 040 16 00:   SHORT NORMAL 16"
 CALD.IN     45 280 60 00:   CALIPER
 GRD .GAPI   45 310 01 00:   GAMMA RAY FROM DENSITY LOG
 RHOB.G/C3   45 350 01 00:   BULK DENSITY
 DPHI.DEC    45 890 12 00:   DENSITY POROSITY SANDSTONE
 CORR.G/C3   45 356 01 00:   DENSITY CORRECTION
~PARAMETER INFORMATION
#MNEM.UNIT          VALUE    DESCRIPTION
#----------   ------------   ------------------------------
 PD  .                 GL:   PERMANENT DATUM
 EPD .F              5209:   ELEVATION PERMANENT DATUM
 LMF .                 KB:   LOG MEASURED FROM
 DAPD.F                 4:   FEET ABOVE PERMANENT DATUM
 DMF .                 KB:   DRILLING MEASURED FROM
 EKB .F              5213:   KELLING BUSHING
 EGL .F              5209:   GROUND LEVEL
 DATE.           5-3-1978:   RUN DATE
 RUN .                  1:   RUN NUMBER
 DD  .F               806:   DEPTH DRILLER
 DL  .F               824:   DEPTH LOGGER
 BLI .F               818:   BOTTOM LOG INTERVAL
 TLI .F                50:   TOP LOG INTERVAL
 CS  .IN            8.625:   CASING SIZE
 CBD .F                40:   CASING BOTTOM DRILLER
 BS  .IN            7.875:   BIT SIZE
 BSD .F               806:   BIT SIZE AT DEPTH
 DFT .                KCL:   DRILLING FLUID TYPE
 DFD .                8.6:   DRILLING FLUID DENSITY
 DFV .                 34:   DRILLING FLUID VISCOSITY
 DFPH.                  9:   DRILLING FLUID PH
 DFL .               16.4:   DRILLING FLUID LOSS
 MSS .           FLOWLINE:   MUD SAMPLE SOURCE
 RMS .OHMM            .75:   RESISTIVITY MUD SAMPLE
 MST .F                52:   MUD SAMPLE TEMPERATURE
 RMF .OHMM            .65:   RESISTIVITY MUD FILTRATE SAMPLE
 MFST.F                60:   MUD FILTRATE SAMPLE TEMPERATURE
 RMC .OHMM            1.2:   RESISTIVITY MUD CAKE
 MCST.F                62:   MUD CAKE SAMPLE TEMPERATURE
 MFSS.               MEAS:   MUD FILTRATE SAMPLE SOURCE
 RMB .OHMM            .54:   RESISTIVITY MUD AT BHT
 BHT .F                72:   BOTTOM HOLE TEMPERATURE
 TCS .HRS               1:   TIME CURCULATED STOPPED
 MRT .F                72:   MAXIMUM RECORDED TEMPERATURE
 LUN .               2958:   LOGGING UNIT NUMBER
 LUL .               CASP:   LOGGING UNIT LOCATION
 ENGI.             MILLER:   RECORDING ENGINEER
 WITN.           MCGINLEY:   WITNESSED BY
 CLNT.            A2DTECH:   CLIENT CODE
 ORIG.           5" PRINT:   ORIGIN OF DATA
 UWI .       490251061900:   UNIQUE WELL ID
 DICO. A2D Technologies, Inc.:   DIGITIZING COMPANY
~OTHER INFORMATION
~A   DEPT      SPR        ILD         SN         CALD      GRD       RHOB       DPHI       CORR   
# ...
  483.5000   -36.0105     7.4939     7.2584     8.3115   103.7127     2.4750     0.1355     0.0174
  484.0000   -36.0109     7.4577     7.2194     8.3141   103.2818     2.4730     0.1342     0.0171
  484.5000   -35.7840     7.4217     7.1806     8.3167    95.3006     2.4777     0.1327     0.0169
  485.0000   -35.5620     7.3860     7.1420     8.3195    89.6344     2.4830     0.1327     0.0166
  485.5000   -35.3354     7.3504     7.1041     8.3309    86.7121     2.4785     0.1356     0.0146
  486.0000   -35.1087     7.3163     7.0229     8.3518    87.2782     2.4719     0.1400     0.0113
  486.5000   -34.8829     7.1991     6.9331     8.3727    88.4536     2.4672     0.1450     0.0084
  487.0000   -34.7800     6.9863     6.7728     8.3936    88.4839     2.4592     0.1498     0.0079
  487.5000   -34.8233     6.7797     6.5804     8.4145    87.5238     2.4504     0.1538     0.0073
  488.0000   -34.8653     6.5793     6.3935     8.4360    83.9441     2.4446     0.1578     0.0067
  488.5000   -34.9077     6.4001     6.2182     8.4352    81.5976     2.4337     0.1623     0.0078
  489.0000   -34.9439     6.3144     6.0843     8.4265    80.4053     2.4243     0.1658     0.0099
  489.5000   -35.2979     6.2299     5.9024     8.4177    76.0462     2.4229     0.1625     0.0120
  490.0000   -35.5837     6.1806     5.9322     8.4089    75.0114     2.4217     0.1489     0.0141
  490.5000   -35.6422     6.2112     5.9818     8.4014    78.0165     2.4408     0.1467     0.0162
  491.0000   -35.7031     6.2617     6.0318     8.3706    79.7647     2.4521     0.1466     0.0166
  491.5000   -35.7555     6.3965     6.1224     8.3350    79.1672     2.4528     0.1467     0.0168
  492.0000   -35.7333     6.7807     6.3461     8.2994    78.5584     2.4536     0.1441     0.0169
  492.5000   -35.7107     7.0319     6.8396     8.2835    78.5458     2.4582     0.1412     0.0171
  493.0000   -35.6885     7.0320     6.8475     8.2892    78.3078     2.4629     0.1383     0.0173
  493.5000   -35.6663     7.0315     6.8698     8.2948    77.1608     2.4675     0.1354     0.0174
  494.0000   -35.6441     7.0312     6.8922     8.3005    76.0754     2.4721     0.1339     0.0176
  494.5000   -35.6219     7.0312     6.9147     8.2978    75.4861     2.4733     0.1399     0.0178
  495.0000   -35.5998     7.0293     6.9373     8.2945    76.4567     2.4686     0.1409     0.0179
  495.5000   -35.5776     7.0203     6.9668     8.2912    77.7187     2.4639     0.1417     0.0181
  496.0000   -35.5554     7.0116     6.9375     8.2880    78.9786     2.4593     0.1427     0.0183
  496.5000   -35.5333     7.0029     6.8954     8.2847    79.8716     2.4593     0.1435     0.0183
  497.0000   -35.5111     6.9942     6.8536     8.2815    79.3356     2.4598     0.1419     0.0137
  497.5000   -35.4889     6.9856     6.8121     8.2782    78.9154     2.4572     0.1468     0.0091
  498.0000   -35.4667     6.9768     6.7711     8.2750    79.6192     2.4520     0.1488     0.0065
  498.5000   -35.4446     6.9691     6.7296     8.2717    80.2998     2.4522     0.1480     0.0065
  499.0000   -35.4224     6.8799     6.6081     8.2684    80.6667     2.4519     0.1501     0.0065
  499.5000   -35.4002     6.7769     6.4440     8.2652    84.5364     2.4468     0.1526     0.0065
  500.0000   -35.3780     6.6755     6.2840     8.2618    87.7199     2.4437     0.1526     0.0065
  500.5000   -35.3580     6.5756     6.2033     8.2610    94.1749     2.4437     0.1534     0.0065
  501.0000   -35.3585     6.4719     6.1363     8.2609   101.9395     2.4440     0.1561     0.0065
  501.5000   -35.3586     6.2635     6.0678     8.2609   105.7551     2.4346     0.1607     0.0065
  502.0000   -35.3586     6.0700     5.9008     8.2610   105.3924     2.4255     0.1654     0.0065
  502.5000   -35.3585     5.8825     5.6909     8.2630   101.3732     2.4224     0.1682     0.0065
  503.0000   -35.3575     5.6483     5.4709     8.2749   101.2520     2.4190     0.1696     0.0064
  503.5000   -35.3503     5.4335     5.2019     8.2772   101.2153     2.4107     0.1760     0.0101
  504.0000   -35.6350     5.2270     4.9461     8.1766    99.1579     2.4023     0.1825     0.0146
  504.5000   -35.9547     5.0470     4.8198     8.1585    96.2977     2.3953     0.1834     0.0191
  505.0000   -36.2865     4.9548     4.8191     8.2342    96.3781     2.4013     0.1666     0.0204
  505.5000   -36.3480     4.9548     4.8187     8.3011    96.4941     2.4261     0.1550     0.0196
  506.0000   -36.0291     5.1037     4.8170     8.2698    96.6214     2.4443     0.1440     0.0187
  506.5000   -35.6858     5.5770     5.0205     8.2212    96.5817     2.4638     0.1372     0.0178
  507.0000   -35.3694     6.1615     5.7131     8.0745    95.7586     2.4719     0.1348     0.0168
  507.5000   -35.2057     6.5922     5.9553     8.0404    93.7409     2.4723     0.1319     0.0159
  508.0000   -35.0279     6.7866     6.3653     8.0354    87.8722     2.4809     0.1303     0.0150
  508.5000   -34.8473     6.9810     6.8163     8.0313    89.3566     2.4839     0.1298     0.0142
  509.0000   -34.7625     7.1619     6.9895     8.0267    91.1115     2.4802     0.1312     0.0129
  509.5000   -34.7608     7.2189     7.0367     8.0204    92.8366     2.4765     0.1335     0.0116
  510.0000   -34.7608     7.2713     7.0841     8.0960    97.1865     2.4724     0.1395     0.0104
  510.5000   -34.7610     7.4120     7.2400     8.1838   101.8816     2.4722     0.1363     0.0091
  511.0000   -34.7610     7.6307     7.4374     8.2702   102.6505     2.4728     0.1428     0.0085
  511.5000   -34.7610     7.8529     7.6389     8.2996   101.1129     2.4625     0.1479     0.0084
  512.0000   -34.7610     7.8529     7.6389     8.2973    99.9192     2.4525     0.1490     0.0083
  512.5000   -34.7610     7.8529     7.6389     8.2945    99.8575     2.4509     0.1436     0.0083
  513.0000   -34.7610     7.8529     7.6389     8.2917    99.7619     2.4602     0.1366     0.0082
  513.5000   -34.7610     7.8529     7.6389     8.2890    99.7473     2.4713     0.1363     0.0082
  514.0000   -34.7610     7.8529     7.6389     8.2863   100.2433     2.4741     0.1344     0.0082
  514.5000   -34.7610     7.8529     7.6389     8.2836   100.2893     2.4736     0.1331     0.0081
  515.0000   -34.7610     7.8529     7.6389     8.2804    98.8864     2.4732     0.1333     0.0081
  515.5000   -34.7610     7.8529     7.6389     8.2659    97.8690     2.4746     0.1334     0.0080
  516.0000   -34.7610     7.8529     7.6389     8.2514    98.3600     2.4785     0.1314     0.0079
  516.5000   -34.7610     7.8529     7.6389     8.2367   101.4022     2.4810     0.1318     0.0079
  517.0000   -34.7610     7.8529     7.6391     8.2221   104.5284     2.4780     0.1339     0.0078
  517.5000   -34.7610     7.8529     7.6244     8.2095   106.2118     2.4764     0.1332     0.0078
  518.0000   -34.7612     7.8530     7.6029     8.1936   104.7349     2.4781     0.1321     0.0077
  518.5000   -34.7613     7.8528     7.5812     8.1774   102.0114     2.4798     0.1319     0.0077
  519.0000   -34.7593     7.8401     7.5596     8.1626   103.0007     2.4796     0.1340     0.0076
  519.5000   -34.6536     7.8014     7.5381     8.1861   104.6177     2.4774     0.1340     0.0076
  520.0000   -34.3969     7.7628     7.5166     8.1996   105.4392     2.4753     0.1363     0.0075
  520.5000   -34.1429     7.7240     7.4995     8.1619   101.7076     2.4732     0.1361     0.0075
  521.0000   -33.9215     7.6102     7.3494     8.2035    96.1807     2.4733     0.1361     0.0074
  521.5000   -33.7869     7.4479     7.2027     8.2151    91.2904     2.4740     0.1379     0.0074
  522.0000   -33.6524     7.3630     7.0957     7.9102    90.3859     2.4702     0.1397     0.0073
  522.5000   -33.5640     7.3267     7.0963     7.9350    91.5138     2.4651     0.1427     0.0073
  523.0000   -33.5397     7.2867     7.0966     7.9702    92.9153     2.4622     0.1402     0.0072
  523.5000   -33.5125     7.2467     7.0527     8.1055    97.4921     2.4660     0.1395     0.0072
