~VERSION INFORMATION
 VERS.                2.0:   CWLS LOG ASCII STANDARD - VERSION 2.0
 WRAP.                 NO:   ONE LINE PER DEPTH STEP
~WELL INFORMATION
#MNEM.UNIT      DATA TYPE    INFORMATION
#----------   ------------   ------------------------------
 STRT.F            8.0000:   START DEPTH
 STOP.F          508.0000:   STOP DEPTH
 STEP.F            0.1000:   STEP LENGTH
 NULL.          -999.2500:   NO VALUE
 COMP. LAWRENCE/ALLISON INC:   COMPANY
 WELL. NPR 3 47-12 SX #3-3:   WELL
 FLD .             TEAPOT:   FIELD
 LOC .       S3 T38N R78W:   LOCATION
 CNTY.            NATRONA:   COUNTY
 STAT.            WYOMING:   STATE
 CTRY. UNITED STATES OF AMERICA:   COUNTRY
 SRVC.           Gearhart:   SERVICE COMPANY
 DATE.        12-AUG-1988:   LOGDATE
 API .       490251124100:   API NUMBER
~CURVE INFORMATION
#MNEM.UNIT       API CODE    CURVE DESCRIPTION
#----------   ------------   ------------------------------
 DEPT.F                  :   
 GRR .GAPI   07 310 01 00:   GAMMA RAY
 RILD.OHMM   07 120 46 00:   INDUCTION LOG DEEP RESISTIVITY
 RILM.OHMM   07 120 44 00:   INDUCTION LOG MEDIUM RESISTIVITY
~PARAMETER INFORMATION
#MNEM.UNIT          VALUE    DESCRIPTION
#----------   ------------   ------------------------------
 PD  .                 GL:   PERMANENT DATUM
 EPD .F              5208:   ELEVATION PERMANENT DATUM
 LMF .                 KB:   LOG MEASURED FROM
 DAPD.F                10:   FEET ABOVE PERMANENT DATUM
 DMF .                 KB:   DRILLING MEASURED FROM
 EKB .F              5218:   KELLING BUSHING
 EDF .F              5216:   DRILLING FLOOR
 EGL .F              5208:   GROUND LEVEL
 DATE.        12-AUG-1988:   RUN DATE
 RUN .                  1:   RUN NUMBER
 DD  .F               515:   DEPTH DRILLER
 DL  .F               516:   DEPTH LOGGER
 BLI .F               508:   BOTTOM LOG INTERVAL
 TLI .F                50:   TOP LOG INTERVAL
 CS  .IN            9.625:   CASING SIZE
 CBD .F                50:   CASING BOTTOM DRILLER
 CBL .F                50:   CASING BOTTOM LOGGER
 BS  .IN             8.75:   BIT SIZE
 BSD .F               515:   BIT SIZE AT DEPTH
 DFT .                AIR:   DRILLING FLUID TYPE
 TCS .HRS            1500:   TIME CURCULATED STOPPED
 TLAB.HRS            1640:   TIME LOGGER AT BOTTOM
 MRT .F                70:   MAXIMUM RECORDED TEMPERATURE
 LUN .               7597:   LOGGING UNIT NUMBER
 LUL .           GILLETTE:   LOGGING UNIT LOCATION
 ENGI.         WEATHERMON:   RECORDING ENGINEER
 WITN.             STRONG:   WITNESSED BY
 CLNT.            A2DTECH:   CLIENT CODE
 ORIG.       2", 5" PRINT:   ORIGIN OF DATA
 UWI .       490251124100:   UNIQUE WELL ID
 DICO. A2D Technologies, Inc.:   DIGITIZING COMPANY
~OTHER INFORMATION
~A    DEPT      GRR      RILD       RILM   
# ...
  444.8000   103.7507    13.4068    13.3562
  444.9000   103.4991    13.4060    13.3555
  445.0000   103.0459    13.4053    13.3547
  445.1000   102.6935    13.4045    13.3539
  445.2000   102.4420    13.4036    13.3532
  445.3000   102.1904    13.4030    13.3524
  445.4000   101.9389    13.4022    13.3517
  445.5000   101.9396    13.4015    13.3509
  445.6000   101.9401    13.4007    13.3502
  445.7000   102.0919    13.4000    13.3495
  445.8000   102.6472    13.3991    13.3488
  445.9000   103.6060    13.3985    13.3480
  446.0000   104.3631    13.3978    13.3473
  446.1000   105.8767    13.3971    13.3465
  446.2000   106.0789    13.3963    13.3458
  446.3000   106.4830    13.3956    13.3450
  446.4000   106.8869    13.3947    13.3443
  446.5000   107.0892    13.3276    13.3436
  446.6000   107.0899    13.3006    13.3428
  446.7000   107.0905    13.2998    13.3421
  446.8000   107.0911    13.2991    13.3413
  446.9000   106.9404    13.2984    13.3386
  447.0000   106.6888    13.2976    13.2473
  447.1000   106.3364    13.2969    13.2467
  447.2000   105.5806    13.2435    13.2460
  447.3000   104.0685    13.2034    13.2453
  447.4000   102.7579    13.2027    13.2445
  447.5000   101.8003    13.1944    13.2438
  447.6000   101.2462    13.1098    13.2429
  447.7000   100.9947    13.1091    13.2422
  447.8000   100.7431    13.1084    13.2415
  447.9000   100.4916    13.0686    13.2408
  448.0000   100.4418    13.0162    13.2401
  448.1000   100.4424    13.0155    13.2393
  448.2000   100.5438    13.0147    13.2385
  448.3000   100.7966    13.0140    13.1686
  448.4000   101.0493    13.0133    13.1454
  448.5000   101.9578    12.9721    13.1447
  448.6000   102.3616    12.9218    13.1440
  448.7000   102.8665    12.9211    13.1432
  448.8000   103.2706    12.9203    13.1425
  448.9000   103.5233    12.8484    13.1418
  449.0000   103.7761    12.8295    13.0846
  449.1000   103.7768    12.8288    13.0493
  449.2000   103.9790    12.8009    13.0486
  449.3000   104.2318    12.7386    13.0358
  449.4000   104.3836    12.7378    12.9567
  449.5000   104.3338    12.7371    12.9561
  449.6000   104.0823    12.6788    12.9553
  449.7000   103.8308    12.6476    12.9110
  449.8000   103.7810    12.6468    12.8641
  449.9000   103.6302    12.6462    12.8634
  450.0000   103.4246    12.6455    12.8627
  450.1000   103.2878    12.6446    12.7672
  450.2000   103.1511    12.6437    12.6717
  450.3000   103.0143    12.6429    12.5951
  450.4000   102.8793    12.6420    12.5944
  450.5000   103.7884    12.6259    12.5936
  450.6000   104.6155    12.5527    12.5931
  450.7000   105.3147    12.5517    12.5488
  450.8000   105.8218    12.4922    12.4755
  450.9000   106.3290    12.4632    12.4171
  451.0000   106.8362    12.4325    12.4164
  451.1000   107.4265    12.3597    12.3296
  451.2000   107.8501    12.2887    12.2721
  451.3000   108.3571    12.2877    12.2429
  451.4000   108.6403    12.2287    12.2422
  451.5000   108.6415    12.1572    12.2416
  451.6000   108.6427    12.1158    12.2409
  451.7000   108.6441    12.0991    12.1696
  451.8000   108.4288    12.0283    12.0986
  451.9000   108.1770    11.9460    12.0699
  452.0000   107.8083    11.9453    12.0414
  452.1000   107.3711    11.9009    11.9850
  452.2000   107.1370    11.8610    11.9843
  452.3000   107.1384    11.8440    11.9145
  452.4000   106.9183    11.7746    11.9000
  452.5000   106.8382    11.6948    11.8581
  452.6000   106.8394    11.6941    11.7889
  452.7000   106.8406    11.6499    11.7201
  452.8000   106.8418    11.6116    11.6518
  452.9000   106.8431    11.5943    11.5839
  453.0000   107.2960    11.5264    11.5164
  453.1000   107.6269    11.4489    11.4492
  453.2000   108.1346    11.3920    11.3562
  453.3000   108.8176    11.3254    11.2506
  453.4000   109.3247    11.2592    11.2500
  453.5000   109.8761    11.1933    11.1713
  453.6000   110.3386    11.1241    11.1192
  453.7000   111.0270    10.9770    11.0544
  453.8000   111.6555    10.9764    10.9899
  453.9000   112.1627    10.8920    10.9259
  454.0000   112.6698    10.7944    10.8621
  454.1000   113.2116    10.7312    10.7861
  454.2000   113.6838    10.6684    10.6864
  454.3000   114.1910    10.5979    10.5993
  454.4000   114.6982    10.4912    10.5375
  454.5000   115.2054    10.3696    10.4640
  454.6000   115.6753    10.2773    10.3427
  454.7000   115.9420    10.2010    10.2825
  454.8000   116.4239    10.0826    10.1287
  454.9000   116.5495     9.9515     9.9880
  455.0000   116.5507     9.8503     9.8498
  455.1000   116.5519     9.6981     9.6794
  455.2000   116.5111     9.5301     9.5118
  455.3000   116.2518     9.3803     9.2940
  455.4000   116.2529     9.2714     9.0393
  455.5000   116.0585     9.1519     8.8111
  455.6000   115.8068     9.0577     8.6087
  455.7000   115.4587     8.9172     8.4107
  455.8000   115.0007     8.7876     8.2172
  455.9000   114.7462     8.6710     7.9829
  456.0000   114.7474     8.5161     7.7906
  456.1000   114.5481     8.3003     7.6118
  456.2000   114.4472     8.1715     7.4369
  456.3000   114.5498     7.9662     7.2825
  456.4000   114.7522     7.7380     7.1981
  456.5000   114.7574     7.5160     7.0491
  456.6000   115.3600     7.3046     6.9839
  456.7000   115.7715     7.1212     6.8794
  456.8000   116.2785     7.0095     6.7759
  456.9000   116.6797     6.9164     6.6898
  457.0000   116.9903     6.8564     6.5740
  457.1000   117.5044     6.8163     6.4379
  457.2000   118.3929     6.7809     6.3784
  457.3000   119.2350     6.7804     6.2829
  457.4000   120.2482     6.7440     6.1743
  457.5000   121.2609     6.7046     6.0813
  457.6000   122.2733     6.6654     6.0459
  457.7000   123.3097     6.6387     5.9760
  457.8000   125.0568     6.6382     5.9342
  457.9000   125.9179     6.6378     5.8996
  458.0000   126.9311     6.6373     5.8652
  458.1000   127.9443     6.6369     5.8310
  458.2000   129.0898     6.6364     5.7970
  458.3000   130.6737     6.6360     5.7632
  458.4000   133.5360     6.6407     5.7561
  458.5000   134.6362     6.6813     5.7359
  458.6000   135.3916     6.7172     5.7157
  458.7000   135.7781     6.7558     5.7087
  458.8000   135.8902     6.7946     5.6754
  458.9000   135.6384     6.8337     5.6751
  459.0000   135.3587     6.8729     5.7012
  459.1000   134.6856     6.9145     5.7340
  459.2000   134.1031     6.9521     5.7804
  459.3000   133.3474     6.9921     5.8543
  459.4000   132.2610     7.0776     5.9564
  459.5000   130.9460     7.1716     6.1240
  459.6000   129.0119     7.2257     6.2388
  459.7000   126.9482     7.3575     6.4073
  459.8000   124.4926     7.3979     6.5796
  459.9000   122.3547     7.5063     6.7412
  460.0000   120.7464     7.5878     6.9384
  460.1000   119.5137     7.6637     7.1833
  460.2000   118.4291     7.7975     7.2838
  460.3000   117.4929     7.9384     7.3852
  460.4000   116.4824     8.0725     7.4884
  460.5000   115.8770     8.2136     7.6101
  460.6000   115.5396     8.3851     7.6983
  460.7000   115.0708     8.5625     7.7876
  460.8000   114.8055     8.7120     7.9148
  460.9000   114.8067     8.8678     8.0250
  461.0000   114.6181     9.0190     8.1371
  461.1000   114.5065     9.1768     8.2695
  461.2000   114.4174     9.3372     8.3652
  461.3000   114.2062     9.4791     8.4623
  461.4000   114.2076     9.5889     8.5605
  461.5000   114.2088     9.7018     8.6598
  461.6000   114.2100     9.7567     8.7602
  461.7000   114.2112     9.8577     8.8722
  461.8000   114.1173     9.9379     9.0269
  461.9000   113.9108     9.9950     9.1317
  462.0000   113.9123    10.0524     9.2808
  462.1000   113.9135    10.1104     9.4100
  462.2000   113.9147    10.1682     9.5414
  462.3000   113.9159    10.2266     9.6852
  462.4000   113.9171    10.2854     9.7409
  462.5000   113.9183    10.3444     9.8767
  462.6000   113.9195    10.4160     9.9684
  462.7000   113.9210    10.5365    10.0488
  462.8000   113.9219    10.6089    10.1066
  462.9000   113.9232    10.6083    10.1648
