~VERSION INFORMATION
 VERS.                2.0:   CWLS LOG ASCII STANDARD - VERSION 2.0
 WRAP.                 NO:   ONE LINE PER DEPTH STEP
~WELL INFORMATION
#MNEM.UNIT      DATA TYPE    INFORMATION
#----------   ------------   ------------------------------
 STRT.F           30.0000:   START DEPTH
 STOP.F          732.0000:   STOP DEPTH
 STEP.F            0.5000:   STEP LENGTH
 NULL.          -999.2500:   NO VALUE
 COMP. FENIX & SCISSON INC:   COMPANY
 WELL.        31-S #31-14:   WELL
 FLD .             TEAPOT:   FIELD
 LOC .      S14 T38N R78W:   LOCATION
 CNTY.            NATRONA:   COUNTY
 STAT.            WYOMING:   STATE
 CTRY. UNITED STATES OF AMERICA:   COUNTRY
 SRVC.              Welex:   SERVICE COMPANY
 DATE.        16-FEB-1977:   LOGDATE
 API .       490251027300:   API NUMBER
~CURVE INFORMATION
#MNEM.UNIT       API CODE    CURVE DESCRIPTION
#----------   ------------   ------------------------------
 DEPT.F                  :   
 CALD.IN     45 280 60 00:   CALIPER FROM DENSITY LOG
 CORR.G/C3   45 356 01 00:   DENSITY CORRECTION
 DPHI.DEC    45 890 12 00:   DENSITY POROSITY SANDSTONE
 GRD .GAPI   45 310 01 00:   GAMMA RAY FROM DENSITY LOG
 RHOB.G/C3   45 350 01 00:   BULK DENSITY
 GURD.OHMM   07 270 05 00:   SHALLOW SHORT GUARD RESISTIVITY
 ILM .OHMM   07 120 44 00:   INDUCTION LOG MEDIUM
 ILD .OHMM   07 120 46 00:   INDUCTION LOG DEEP
 SPR .MV     07 010 01 00:   SPONTANEOUS POTENTIAL
~PARAMETER INFORMATION
#MNEM.UNIT          VALUE    DESCRIPTION
#----------   ------------   ------------------------------
 PD  .                 GL:   PERMANENT DATUM
 EPD .F              5186:   ELEVATION PERMANENT DATUM
 LMF .                 GL:   LOG MEASURED FROM
 DMF .                 GL:   DRILLING MEASURED FROM
 EKB .F              5195:   KELLING BUSHING
 EGL .F              5186:   GROUND LEVEL
 DATE.        16-FEB-1977:   RUN DATE
 RUN .                  1:   RUN NUMBER
 DD  .F               740:   DEPTH DRILLER
 DL  .F               736:   DEPTH LOGGER
 BLI .F               734:   BOTTOM LOG INTERVAL
 TLI .F                30:   TOP LOG INTERVAL
 CS  .IN            8.625:   CASING SIZE
 CBD .F                40:   CASING BOTTOM DRILLER
 CBL .F                44:   CASING BOTTOM LOGGER
 BS  .IN            7.875:   BIT SIZE
 BSD .F               740:   BIT SIZE AT DEPTH
 DFT .   OIL EMULSION MUD:   DRILLING FLUID TYPE
 DFD .                8.3:   DRILLING FLUID DENSITY
 DFV .                 48:   DRILLING FLUID VISCOSITY
 DFPH.               10.5:   DRILLING FLUID PH
 DFL .                7.5:   DRILLING FLUID LOSS
 MSS .           FLOWLINE:   MUD SAMPLE SOURCE
 RMS .OHMM           0.80:   RESISTIVITY MUD SAMPLE
 MST .F                64:   MUD SAMPLE TEMPERATURE
 RMF .OHMM           0.68:   RESISTIVITY MUD FILTRATE SAMPLE
 MFST.F                64:   MUD FILTRATE SAMPLE TEMPERATURE
 RMC .OHMM           1.01:   RESISTIVITY MUD CAKE
 MCST.F                63:   MUD CAKE SAMPLE TEMPERATURE
 MFSS.               MEAS:   MUD FILTRATE SAMPLE SOURCE
 MCSS.               MEAS:   MUD CAKE SAMPLE SOURCE
 RMB .OHMM           0.74:   RESISTIVITY MUD AT BHT
 BHT .F                69:   BOTTOM HOLE TEMPERATURE
 TCS .HRS               5:   TIME CURCULATED STOPPED
 MRT .F                69:   MAXIMUM RECORDED TEMPERATURE
 LUN .               8611:   LOGGING UNIT NUMBER
 LUL .           GILLETTE:   LOGGING UNIT LOCATION
 ENGI.           D.LAWSON:   RECORDING ENGINEER
 WITN.             K.JAPP:   WITNESSED BY
 CLNT.            A2DTECH:   CLIENT CODE
 ORIG.         2.5" PRINT:   ORIGIN OF DATA
 UWI .       490251027300:   UNIQUE WELL ID
 DICO. A2D Technologies, Inc.:   DIGITIZING COMPANY
~OTHER INFORMATION
~A   DEPT       CALD      CORR      DPHI         GRD        RHOB     GURD        ILM        ILD        SPR   
# ...
  431.5000     7.9304     0.1507     0.0958   126.2928     2.4810   853.5154     8.0280     7.2190   -53.4296
  432.0000     7.9300     0.1507     0.0923   126.4867     2.4840   841.6082     8.2652     7.2209   -53.4243
  432.5000     7.8999     0.1507     0.0898   125.1643     2.4943   850.5634     8.5573     7.3226   -53.4190
  433.0000     7.9291     0.1537     0.0881   124.2797     2.5017   859.5184     8.7966     7.3395   -53.4148
  433.5000     7.9286     0.1567     0.0887   123.3952     2.5020   862.5132     8.9194     7.4546   -53.7073
  434.0000     7.9281     0.1597     0.0879   122.5107     2.5002   865.5084     9.1688     7.5715   -53.7031
  434.5000     7.9277     0.1627     0.0824   121.6251     2.5047   862.5412     9.3017     7.6902   -53.6988
  435.0000     7.9273     0.1663     0.0777   120.6825     2.5123   862.5579     9.4461     7.8540   -53.7389
  435.5000     7.9269     0.1695     0.0763   119.6825     2.5115   862.5728     9.6903     8.0747   -53.9872
  436.0000     7.9264     0.1746     0.0774   118.2057     2.5072   865.5709     9.6916     8.1884   -53.8714
  436.5000     7.8963     0.1776     0.0804   117.7912     2.5056   871.5457     9.5608     8.3038   -53.6810
  437.0000     7.8958     0.1806     0.0816   118.0871     2.5032   877.5204     9.3034     8.3060   -53.6757
  437.5000     7.8954     0.1866     0.0792   119.2890     2.5076   880.5150     9.0527     8.4231   -53.6715
  438.0000     7.8949     0.1896     0.0761   120.7784     2.5150   880.6087     9.0538     8.4254   -53.6673
  438.5000     7.8944     0.1925     0.0745   122.5644     2.5180   880.5432     9.0550     8.4277   -53.6631
  439.0000     7.8940     0.1925     0.0753   124.6472     2.5150   880.5591     9.3083     8.4300   -53.6588
  439.5000     7.8936     0.1925     0.0774   126.1366     2.5106   877.5911     9.4382     8.3174   -53.6543
  440.0000     7.8932     0.1925     0.0808   127.6459     2.5060   873.2376     9.4395     8.3200   -53.6499
  440.5000     7.8927     0.1925     0.0864   128.6192     2.5014   866.9637     9.3119     8.2085   -53.6454
  441.0000     7.8923     0.1925     0.0893   129.8694     2.4979   865.7170     9.1251     7.9885   -53.6410
  441.5000     7.8918     0.1925     0.0887   130.9080     2.4937   868.7137     8.9886     7.8738   -53.9332
  442.0000     7.9033     0.1925     0.0887   129.6202     2.4899   868.7278     8.6982     7.7762   -53.9282
  442.5000     7.9206     0.1925     0.0929   128.0860     2.4851   865.7616     8.4637     7.8860   -54.2207
  443.0000     7.9201     0.1925     0.0973   127.0692     2.4778   865.3990     8.2356     8.0429   -54.2165
  443.5000     7.9197     0.1925     0.1001   126.7782     2.4748   858.4206     8.0084     8.1099   -54.2122
  444.0000     7.8896     0.1925     0.1006   127.0806     2.4733   849.8716     7.8883     8.2247   -54.2077
  444.5000     7.8595     0.1925     0.0971   127.6797     2.4748   847.9393     7.9363     8.1144   -54.2033
  445.0000     7.8591     0.1925     0.0949   129.7725     2.4824   852.6234     8.2838     8.0061   -54.3126
  445.5000     7.8556     0.1921     0.0953   130.0653     2.4882   856.9124     8.5286     7.8990   -54.4911
  446.0000     7.8285     0.1896     0.0970   129.7072     2.4849   859.9069     8.5891     7.6774   -54.4858
  446.5000     7.8280     0.1885     0.0988   128.9950     2.4822   859.9210     8.5902     7.4600   -54.1849
  447.0000     7.8276     0.1866     0.0989   127.6320     2.4843   862.9155     8.3587     7.2488   -54.1807
  447.5000     7.8123     0.1866     0.0964   125.3314     2.4881   859.9493     8.2458     7.0435   -54.1764
  448.0000     7.7969     0.1836     0.0958   125.9417     2.4887   856.9830     8.0177     6.8440   -54.1721
  448.5000     7.7965     0.1836     0.0966   127.7278     2.4852   850.0356     7.7725     6.6193   -54.1677
  449.0000     7.7664     0.1806     0.0980   128.9204     2.4807   842.4310     7.4373     6.4417   -54.1632
  449.5000     7.7363     0.1806     0.1005   128.3326     2.4747   832.8486     7.1165     6.3555   -54.1588
  450.0000     7.7359     0.1776     0.1039   126.8546     2.4658   821.2827     6.8095     6.3572   -54.1543
  450.5000     7.7355     0.1746     0.1089   124.9941     2.4566   809.3755     6.5352     6.2722   -54.1490
  451.0000     7.7350     0.1711     0.1148   123.4876     2.4507   797.4683     6.3591     6.3806   -54.1448
  451.5000     7.7435     0.1687     0.1178   122.3353     2.4475   788.5414     6.5369     6.4807   -53.8439
  452.0000     7.7757     0.1657     0.1178   122.1295     2.4450   785.5753     7.0990     6.5823   -53.8396
  452.5000     7.7930     0.1657     0.1172   122.2799     2.4465   813.3075     7.6104     6.7779   -53.8353
  453.0000     7.7925     0.1640     0.1159   123.3768     2.4529   839.1923     7.9251     6.9146   -53.8309
  453.5000     7.8217     0.1627     0.1140   125.1166     2.4658   849.5091     8.0670     7.0120   -53.8264
  454.0000     7.8213     0.1627     0.1120   126.6060     2.4717   851.2028     8.1922     7.1107   -53.7052
  454.5000     7.8209     0.1627     0.1088   127.5019     2.4776   848.2374     8.2616     7.2129   -53.5208
  455.0000     7.8205     0.1627     0.1042   128.1010     2.4851   845.2720     8.2630     7.3126   -53.5155
  455.5000     7.8200     0.1627     0.0982   128.0692     2.4927   848.2681     8.1514     7.3146   -53.2146
  456.0000     7.8196     0.1627     0.0929   126.8309     2.4987   851.2625     8.1524     7.3166   -52.9136
  456.5000     7.8280     0.1627     0.0881   125.2196     2.5036   854.2577     8.0424     7.3186   -52.9094
  457.0000     7.8485     0.1627     0.0846   123.3590     2.5079   854.2726     7.8189     7.3210   -52.6083
  457.5000     7.8479     0.1627     0.0828   122.9228     2.5081   854.2875     7.5966     7.4241   -52.5519
  458.0000     7.8474     0.1627     0.0840   123.3887     2.5042   854.3024     7.5118     7.4260   -52.3027
  458.5000     7.8766     0.1627     0.0853   123.6924     2.4969   854.3173     7.8720     7.4280   -52.1800
  459.0000     7.8762     0.1627     0.0865   123.6981     2.4910   851.3543     8.0478     7.4299   -51.9214
  459.5000     7.9055     0.1627     0.0880   122.5168     2.4820   851.3685     7.9394     7.4320   -51.6950
  460.0000     7.9347     0.1627     0.0905   121.0388     2.4716   848.4022     7.8321     7.4340   -51.6908
  460.5000     7.9372     0.1627     0.0942   119.5519     2.4642   842.4557     7.6211     7.3343   -51.6869
  461.0000     7.9635     0.1627     0.1000   119.9387     2.4644   833.0129     7.5182     7.1880   -51.6824
  461.5000     7.9631     0.1627     0.1042   121.8487     2.4660   819.8646     7.2091     7.0430   -51.6780
  462.0000     7.9924     0.1634     0.1077   123.3294     2.4671   807.8889     6.8919     6.8541   -51.6736
  462.5000     7.9918     0.1657     0.1101   123.4410     2.4686   799.5488     6.4794     6.7622   -51.6691
  463.0000     7.9913     0.1687     0.1113   122.7023     2.4641   797.8252     6.0557     6.5810   -51.5450
  463.5000     7.9909     0.1687     0.1125   122.2671     2.4597   797.8427     5.6375     6.3992   -51.3635
  464.0000     7.9905     0.1687     0.1117   122.5706     2.4592   803.8174     5.3389     6.1333   -51.3583
  464.5000     7.9604     0.1657     0.1105   122.8730     2.4641   806.8119     5.1950     5.8783   -51.2450
  465.0000     7.9599     0.1657     0.1086   123.4721     2.4775   768.0817     5.2675     5.5874   -51.0531
  465.5000     7.9298     0.1657     0.1046   123.7745     2.4938   725.6867     5.4148     5.5130   -51.0489
  466.0000     7.9294     0.1627     0.0822   124.9950     2.5057   749.8340     5.5719     5.5148   -51.0445
  466.5000     7.9289     0.1595     0.0846   125.9763     2.5024   809.1943     5.8309     5.5162   -51.3372
  467.0000     7.9582     0.1562     0.0869   126.9298     2.4985   825.9794     6.0956     5.5939   -51.3323
  467.5000     7.9726     0.1507     0.0899   127.7695     2.4897   824.7822     6.5497     5.7511   -51.0312
