~VERSION INFORMATION
 VERS.                2.0:   CWLS LOG ASCII STANDARD - VERSION 2.0
 WRAP.                 NO:   ONE LINE PER DEPTH STEP
~WELL INFORMATION
#MNEM.UNIT      DATA TYPE    INFORMATION
#----------   ------------   ------------------------------
 STRT.F           35.0000:   START DEPTH
 STOP.F          977.0000:   STOP DEPTH
 STEP.F            0.5000:   STEP LENGTH
 NULL.          -999.2500:   NO VALUE
 COMP. FENIX & SCISSON INC:   COMPANY
 WELL.  NPR-3 "SX" #52-14:   WELL
 FLD .             TEAPOT:   FIELD
 LOC .      S14 T38N R78W:   LOCATION
 CNTY.            NATRONA:   COUNTY
 STAT.            WYOMING:   STATE
 CTRY. UNITED STATES OF AMERICA:   COUNTRY
 SRVC.            Unknown:   SERVICE COMPANY
 DATE.        13-MAR-1978:   LOGDATE
 API .       490251059900:   API NUMBER
~CURVE INFORMATION
#MNEM.UNIT       API CODE    CURVE DESCRIPTION
#----------   ------------   ------------------------------
 DEPT.F                  :   
 CALD.IN     45 280 60 00:   CALIPER FROM DENSITY LOG
 GRD .GAPI   45 310 01 00:   GAMMA RAY FROM DENSITY LOG
 CORR.G/C3   45 356 01 00:   DENSITY CORRECTION
 RHOB.G/C3   45 350 01 00:   BULK DENSITY
 DPHI.DEC    45 890 12 00:   DENSITY POROSITY SANDSTONE
 SPR .MV     07 010 01 00:   SPONTANEOUS POTENTIAL FROM RES. LOG
 ILD .OHMM   07 120 46 00:   INDUCTION LOG DEEP
 SN  .OHMM   07 040 16 00:   SHORT NORMAL 16'
~PARAMETER INFORMATION
#MNEM.UNIT          VALUE    DESCRIPTION
#----------   ------------   ------------------------------
 PD  .                 GL:   PERMANENT DATUM
 EPD .F              5223:   ELEVATION PERMANENT DATUM
 LMF .                 KB:   LOG MEASURED FROM
 DAPD.F                 4:   FEET ABOVE PERMANENT DATUM
 DMF .                 KB:   DRILLING MEASURED FROM
 EKB .F              5227:   KELLING BUSHING
 EGL .F              5223:   GROUND LEVEL
 DATE.            3-13-78:   RUN DATE
 RUN .                  1:   RUN NUMBER
 DD  .F               975:   DEPTH DRILLER
 DL  .F               977:   DEPTH LOGGER
 BLI .F               971:   BOTTOM LOG INTERVAL
 TLI .F                50:   TOP LOG INTERVAL
 CS  .IN            8.625:   CASING SIZE
 CBD .F                40:   CASING BOTTOM DRILLER
 CBL .F                40:   CASING BOTTOM LOGGER
 BS  .IN            7.875:   BIT SIZE
 BSD .F               975:   BIT SIZE AT DEPTH
 DFT .                KCL:   DRILLING FLUID TYPE
 DFD .                8.6:   DRILLING FLUID DENSITY
 DFV .                 33:   DRILLING FLUID VISCOSITY
 DFPH.               10.5:   DRILLING FLUID PH
 DFL .               11.6:   DRILLING FLUID LOSS
 MSS .          FLOW LINE:   MUD SAMPLE SOURCE
 RMS .OHMM            .34:   RESISTIVITY MUD SAMPLE
 MST .F                60:   MUD SAMPLE TEMPERATURE
 RMF .OHMM            .36:   RESISTIVITY MUD FILTRATE SAMPLE
 MFST.F                62:   MUD FILTRATE SAMPLE TEMPERATURE
 RMC .OHMM            .75:   RESISTIVITY MUD CAKE
 MCST.F                59:   MUD CAKE SAMPLE TEMPERATURE
 MFSS.               MEAS:   MUD FILTRATE SAMPLE SOURCE
 MCSS.               MEAS:   MUD CAKE SAMPLE SOURCE
 RMB .OHMM            .27:   RESISTIVITY MUD AT BHT
 BHT .F                75:   BOTTOM HOLE TEMPERATURE
 TCS .HRS               4:   TIME CURCULATED STOPPED
 MRT .F                75:   MAXIMUM RECORDED TEMPERATURE
 LUN .               2958:   LOGGING UNIT NUMBER
 LUL .               CASP:   LOGGING UNIT LOCATION
 ENGI.             MILLER:   RECORDING ENGINEER
 WITN.            RHOADES:   WITNESSED BY
 CLNT.            A2DTECH:   CLIENT CODE
 ORIG.       2", 5" PRINT:   ORIGIN OF DATA
 UWI .       490251059900:   UNIQUE WELL ID
 DICO. A2D Technologies, Inc.:   DIGITIZING COMPANY
~OTHER INFORMATION
~A   DEPT     CALD         GRD      CORR       RHOB       DPHI        SPR        ILD         SN   
# ...
  440.0000     8.0320    85.8452     0.0085     2.4416     0.1208   -53.6276     6.8858     7.9592
  440.5000     8.0297    86.2544     0.0085     2.4408     0.1130   -53.7841     6.8347     7.9349
  441.0000     8.0274    86.6703     0.0085     2.4486     0.1112   -54.0922     6.7840     7.9105
  441.5000     8.0251    87.0846     0.0085     2.4558     0.1131   -54.3665     6.7337     7.8863
  442.0000     8.0228    87.4982     0.0085     2.4350     0.1203   -53.7769     6.7043     7.8671
  442.5000     8.0205    87.9280     0.0085     2.4344     0.1252   -53.3970     6.6719     7.8746
  443.0000     8.0183    87.6120     0.0085     2.4356     0.1251   -53.6661     6.6398     7.8809
  443.5000     8.0151    87.1366     0.0084     2.4272     0.1263   -53.9414     6.6006     7.8872
  444.0000     7.9937    87.0225     0.0104     2.4186     0.1295   -54.2118     6.6463     7.8935
  444.5000     7.9725    87.5672     0.0260     2.4102     0.1316   -53.9926     6.7264     7.8998
  445.0000     7.9515    87.8977     0.0311     2.4080     0.1316   -52.8426     6.8073     7.9061
  445.5000     7.9325    88.1798     0.0603     2.4205     0.1208   -52.5442     6.8891     7.9124
  446.0000     7.9188    87.9552     0.0672     2.4385     0.1139   -52.4640     6.9764     7.9187
  446.5000     7.9053    87.7818     0.0806     2.4570     0.1097   -52.4072     6.9548     7.9250
  447.0000     7.8917    89.8249     0.0812     2.4593     0.1327   -53.0135     6.9324     7.9313
  447.5000     7.8782    92.9682     0.0539     2.4158     0.1217   -53.6773     6.9127     7.9376
  448.0000     7.8648    93.0003     0.0807     2.4090     0.1116   -53.9898     6.9286     7.9440
  448.5000     7.8582    90.2166     0.0824     2.4605     0.1112   -53.9956     6.9590     7.9503
  449.0000     7.8665    87.1524     0.0685     2.4420     0.1108   -53.9786     6.9895     7.9566
  449.5000     7.8738    85.4946     0.0680     2.4536     0.1105   -52.8675     7.0201     7.9630
  450.0000     7.9053    86.0804     0.0699     2.4590     0.1146   -51.9929     7.0416     7.9693
  450.5000     7.9389    86.6427     0.0722     2.4957     0.1200   -52.3556     7.0230     7.9757
  451.0000     7.9573    87.6040     0.0684     2.4984     0.1116   -52.6872     7.0061     7.9820
  451.5000     7.9767    88.2327     0.0467     2.4623     0.1148   -53.0145     6.9893     7.9884
  452.0000     7.9961    88.1822     0.0270     2.4342     0.1208   -53.2403     6.9726     7.9948
  452.5000     8.0153    91.0950     0.0254     2.4321     0.1199   -53.3397     6.9560     8.0014
  453.0000     8.0136    94.0001     0.0268     2.4404     0.1207   -53.7498     6.9396     8.0087
  453.5000     8.0108    95.5129     0.0281     2.4399     0.1225   -54.3644     6.9235     8.0132
  454.0000     8.0081    92.1085     0.0378     2.4344     0.1126   -54.3640     6.8691     7.8478
  454.5000     8.0055    87.5694     0.0469     2.4555     0.1076   -53.8315     6.6562     7.6888
  455.0000     8.0028    86.3486     0.0387     2.4591     0.1220   -53.2908     6.4503     7.5330
  455.5000     8.0001    87.7582     0.0293     2.4386     0.1224   -53.3269     6.1873     7.3745
  456.0000     7.9976    91.6258     0.0242     2.4210     0.1212   -53.4879     6.1929     7.3694
  456.5000     8.0036    95.3888     0.0445     2.4200     0.1168   -53.6545     6.2001     7.3641
  457.0000     8.0205    97.3851     0.0731     2.4534     0.1095   -53.8233     6.2074     7.3589
  457.5000     8.0374    95.3912     0.0768     2.4602     0.1022   -53.9750     6.2146     7.3536
  458.0000     8.0536    91.1268     0.0765     2.4508     0.0968   -53.4091     6.2219     7.3484
  458.5000     8.0785    88.4246     0.0668     2.4785     0.1030   -52.9952     6.2292     7.3431
  459.0000     8.1002    88.6205     0.0391     2.4549     0.1141   -53.5891     6.2365     7.3379
  459.5000     8.1132    92.1698     0.0115     2.4293     0.1251   -54.2321     6.2438     7.3327
  460.0000     8.1163    94.5023     0.0021     2.4275     0.1269   -54.8770     6.2489     7.3274
  460.5000     8.1163    91.1854     0.0012     2.4347     0.1245   -55.5290     6.2578     7.3222
  461.0000     8.1162    87.1664     0.0005     2.4298     0.1216   -54.8167     6.2667     7.3171
  461.5000     8.1162    87.2655     0.0017     2.4228     0.1204   -53.8153     6.2756     7.3093
  462.0000     8.1162    91.6904     0.0030     2.4423     0.1213   -53.9559     6.2846     7.3065
  462.5000     8.1162    91.8942     0.0041     2.4402     0.1220   -54.1191     6.2936     7.5360
  463.0000     8.1162    91.6928     0.0054     2.4299     0.1199   -54.2782     6.3027     7.6587
  463.5000     8.1162    90.6239     0.0065     2.4364     0.1145   -54.4355     6.4077     7.7564
  464.0000     8.1162    89.1071     0.0077     2.4521     0.1140   -54.5900     6.5159     7.8554
  464.5000     8.1162    86.8775     0.0089     2.4481     0.1157   -54.1582     6.6258     7.9401
  465.0000     8.1162    82.8875     0.0101     2.4449     0.1136   -53.5760     6.7376     7.9407
  465.5000     8.1162    80.8189     0.0113     2.4508     0.1128   -53.8226     6.8513     7.9403
  466.0000     8.1162    84.8880     0.0127     2.4523     0.1081   -54.1962     6.9768     7.9401
  466.5000     8.1162    86.9742     0.0194     2.4562     0.1034   -54.5695     6.9293     7.9401
  467.0000     8.1162    87.0003     0.0204     2.4638     0.1004   -54.9421     6.8786     7.9401
  467.5000     8.1162    87.9320     0.0179     2.4680     0.1048   -54.9844     6.8280     7.9401
  468.0000     8.1162    88.6128     0.0153     2.4654     0.1075   -54.3427     6.7776     7.9401
  468.5000     8.1162    88.9494     0.0127     2.4587     0.1101   -54.5498     6.7276     7.9401
  469.0000     8.1162    90.6691     0.0155     2.4525     0.1090   -54.9655     6.6780     7.9401
  469.5000     8.1162    91.3860     0.0189     2.4526     0.1065   -54.6871     6.6288     7.9401
  470.0000     8.1162    92.2216     0.0223     2.4655     0.1104   -54.4217     6.5536     7.9401
  470.5000     8.1162    93.6066     0.0257     2.4695     0.0921   -54.5961     6.4444     7.9401
  471.0000     8.1162    92.8150     0.0286     2.4873     0.0832   -55.0074     6.3369     7.9401
  471.5000     8.1162    87.0783     0.0286     2.4983     0.0758   -55.4190     6.2313     7.9401
  472.0000     8.1162    80.4381     0.0257     2.5089     0.0701   -55.8283     6.1873     7.9406
  472.5000     8.1162    74.2826     0.0117     2.5385     0.0624   -56.2410     6.3149     7.9387
  473.0000     8.1162    70.2727    -0.0029     2.5269     0.0787   -55.8355     6.4256     7.9401
  473.5000     8.1162    73.6083     0.0015     2.5100     0.0736   -54.5935     6.5383     8.0956
  474.0000     8.1162    78.2010     0.0176     2.5151     0.0837   -54.3930     6.6619     8.5709
  474.5000     8.1162    82.8469     0.0225     2.4912     0.0888   -54.3890     6.8224     9.1202
  475.0000     8.1162    87.1706     0.0214     2.4904     0.0906   -54.3902     7.0007     9.1202
  475.5000     8.1162    88.8405     0.0106     2.4892     0.0977   -54.3904     7.1836     9.1202
  476.0000     8.1162    88.0865    -0.0005     2.4699     0.1065   -54.3914     7.3713     8.9408
  476.5000     8.1162    88.9485    -0.0048     2.4450     0.1163   -54.4524     7.5120     8.6849
  477.0000     8.1162    88.3438    -0.0029     2.4432     0.1156   -54.8252     7.4046     8.5168
  477.5000     8.1162    86.9393    -0.0010     2.4419     0.1141   -55.2054     7.3052     8.4464
  478.0000     8.1162    88.9507     0.0010     2.4425     0.1136   -55.5607     7.2070     8.3766
  478.5000     8.1162    90.2526     0.0028     2.4450     0.1159   -54.6337     7.1102     8.3074
  479.0000     8.1162    88.1499     0.0041     2.4460     0.1181   -54.7344     7.0147     8.2390
  479.5000     8.1162    89.2837     0.0054     2.4407     0.1203   -55.1828     6.8946     8.0524
  480.0000     8.1162    90.6187     0.0063     2.4374     0.1224   -55.6772     6.7596     7.8707
