~VERSION INFORMATION
 VERS.                2.0:   CWLS LOG ASCII STANDARD - VERSION 2.0
 WRAP.                 NO:   ONE LINE PER DEPTH STEP
~WELL INFORMATION
#MNEM.UNIT      DATA TYPE    INFORMATION
#----------   ------------   ------------------------------
 STRT.F           30.0000:   START DEPTH
 STOP.F          759.0000:   STOP DEPTH
 STEP.F            0.5000:   STEP LENGTH
 NULL.          -999.2500:   NO VALUE
 COMP. FENIX & SCISSON INC:   COMPANY
 WELL.    NPR ##3 15-S-14:   WELL
 FLD .             TEAPOT:   FIELD
 LOC .      S14 T38N R78W:   LOCATION
 CNTY.            NATRONA:   COUNTY
 STAT.            WYOMING:   STATE
 CTRY. UNITED STATES OF AMERICA:   COUNTRY
 SRVC.              Welex:   SERVICE COMPANY
 DATE.        23-FEB-1977:   LOGDATE
 API .       490251027600:   API NUMBER
~CURVE INFORMATION
#MNEM.UNIT       API CODE    CURVE DESCRIPTION
#----------   ------------   ------------------------------
 DEPT.F                  :   
 GURD.OHMM   07 220 05 00:   SHALLOW SHORT GUARD RESISTIVITY
 ILD .OHMM   07 120 46 00:   INDUCTION LOG DEEP
 ILM .OHMM   07 120 44 00:   INDUCTION LOG MEDIUM
 SPR .MV     07 010 01 00:   SPONTANEOUS POTENTIAL
 CALD.IN     45 280 60 00:   CALIPER FROM DENSITY LOG
 CORR.G/C3   45 356 01 00:   DENSITY CORRECTION
 DPHI.DEC    45 890 12 00:   DENSITY POROSITY SANDSTONE
 GRD .GAPI   45 310 01 00:   GAMMA RAY FROM DENSITY LOG
 RHOB.G/C3   45 350 01 00:   BULK DENSITY
~PARAMETER INFORMATION
#MNEM.UNIT          VALUE    DESCRIPTION
#----------   ------------   ------------------------------
 PD  .                 GL:   PERMANENT DATUM
 EPD .F            5229.2:   ELEVATION PERMANENT DATUM
 LMF .                 GL:   LOG MEASURED FROM
 DMF .                 GL:   DRILLING MEASURED FROM
 EGL .F            5229.2:   GROUND LEVEL
 DATE.        23-FEB-1977:   RUN DATE
 RUN .                  1:   RUN NUMBER
 DD  .F               764:   DEPTH DRILLER
 DL  .F               762:   DEPTH LOGGER
 BLI .F               760:   BOTTOM LOG INTERVAL
 TLI .F                40:   TOP LOG INTERVAL
 CS  .IN            8.625:   CASING SIZE
 CBD .F                40:   CASING BOTTOM DRILLER
 CBL .F                40:   CASING BOTTOM LOGGER
 BS  .IN            7.875:   BIT SIZE
 BSD .F               764:   BIT SIZE AT DEPTH
 DFT .           CHEM/GEL:   DRILLING FLUID TYPE
 DFD .                9.4:   DRILLING FLUID DENSITY
 DFV .                 50:   DRILLING FLUID VISCOSITY
 DFPH.               11.0:   DRILLING FLUID PH
 DFL .               12.2:   DRILLING FLUID LOSS
 MSS .           FLOWLINE:   MUD SAMPLE SOURCE
 RMS .OHMM           0.23:   RESISTIVITY MUD SAMPLE
 MST .F                38:   MUD SAMPLE TEMPERATURE
 RMF .OHMM           0.15:   RESISTIVITY MUD FILTRATE SAMPLE
 MFST.F                38:   MUD FILTRATE SAMPLE TEMPERATURE
 RMC .OHMM           0.54:   RESISTIVITY MUD CAKE
 MCST.F                38:   MUD CAKE SAMPLE TEMPERATURE
 MFSS.               MEAS:   MUD FILTRATE SAMPLE SOURCE
 MCSS.               MEAS:   MUD CAKE SAMPLE SOURCE
 RMB .OHMM           .148:   RESISTIVITY MUD AT BHT
 BHT .F                59:   BOTTOM HOLE TEMPERATURE
 TCS .HRS               2:   TIME CURCULATED STOPPED
 MRT .F                59:   MAXIMUM RECORDED TEMPERATURE
 LUN .               8611:   LOGGING UNIT NUMBER
 LUL .           GILLETTE:   LOGGING UNIT LOCATION
 ENGI.             C.DOAK:   RECORDING ENGINEER
 WITN.         STUEBINGER:   WITNESSED BY
 CLNT.            A2DTECH:   CLIENT CODE
 ORIG.           5" PRINT:   ORIGIN OF DATA
 UWI .       490251027600:   UNIQUE WELL ID
 DICO. A2D Technologies, Inc.:   DIGITIZING COMPANY
~OTHER INFORMATION
~A   DEPT     GURD        ILD        ILM        SPR         CALD      CORR      DPHI         GRD        RHOB 
# ...
  577.5000    18.0063    13.1238    15.7094   -26.4484     8.0990     0.1121     0.1437    86.5852     2.4056
  578.0000    18.8754    13.0846    15.3879   -26.5525     8.0840     0.1166     0.1437    88.2367     2.4027
  578.5000    18.6188    13.1752    16.1518   -26.7054     8.0690     0.1240     0.1438    89.8883     2.4042
  579.0000    17.9890    13.2664    15.8215   -26.8583     8.0540     0.1300     0.1402    91.0914     2.4079
  579.5000    18.6239    13.4507    16.2982   -27.0112     8.0240     0.1390     0.1366    92.4440     2.4162
  580.0000    19.2811    13.6439    18.4214   -27.1642     7.9940     0.1479     0.1336    91.7835     2.4244
  580.5000    19.1510    13.8405    20.4345   -27.1681     7.9340     0.1540     0.1312    87.2832     2.4229
  581.0000    18.7606    14.0192    18.9402   -27.3216     7.8741     0.1568     0.1339    85.7395     2.4154
  581.5000    18.2517    14.2140    15.9350   -27.4745     7.8591     0.1568     0.1430    86.4960     2.4027
  582.0000    18.8958    14.5112    14.6695   -27.6274     7.9790     0.1553     0.1450    87.6991     2.3990
  582.5000    20.8178    15.0205    18.8139   -27.6311     8.0090     0.1507     0.1336    86.8096     2.4150
  583.0000    27.1024    15.2292    19.0767   -27.7840     7.9490     0.1477     0.1300    85.7705     2.4287
  583.5000    28.6145    15.4408    17.9280   -28.0862     7.9040     0.1447     0.1250    84.2831     2.4492
  584.0000    26.1608    15.5477    16.9651   -28.2391     7.8741     0.1417     0.1133    82.4967     2.4709
  584.5000    22.6305    15.5624    16.0539   -28.5412     7.9208     0.1372     0.1070    80.4113     2.4912
  585.0000    18.6523    15.3347    15.2969   -28.6941     8.0580     0.1311     0.1115    84.1555     2.4867
  585.5000    17.5301    14.9173    14.6767   -28.8470     8.1889     0.1250     0.1172    85.0598     2.4545
  586.0000    17.0545    14.3124    14.4760   -29.0069     8.2189     0.1191     0.1265    83.8495     2.4425
  586.5000    17.0568    13.8252    16.2816   -29.1721     8.2189     0.1146     0.1433    85.3751     2.4088
  587.0000    17.4164    13.2579    16.2835   -29.3067     8.1739     0.1145     0.1469    86.8772     2.3976
  587.5000    17.9069    12.9053    15.6136   -29.3103     8.1139     0.1160     0.1412    86.1371     2.4170
  588.0000    17.6635    12.7284    14.8506   -29.1638     8.0690     0.1175     0.1299    85.5447     2.4308
  588.5000    16.9477    12.6409    13.7026   -29.1684     8.0690     0.1190     0.1231    86.6001     2.4448
  589.0000    16.7182    12.3820    13.9906   -29.1721     8.0690     0.1189     0.1196    87.9527     2.4560
  589.5000    17.2322    12.2123    15.3065   -29.1758     8.0990     0.1174     0.1175    89.0064     2.4590
  590.0000    17.7962    12.2123    15.8456   -29.1797     8.1439     0.1159     0.1199    90.0600     2.4403
  590.5000    17.3129    12.1283    15.4147   -29.3326     8.1889     0.1113     0.1289    91.1137     2.4321
  591.0000    18.4268    12.1283    14.9955   -29.3362     8.1887     0.1083     0.1361    90.2241     2.4223
  591.5000    18.8146    12.1283    14.5877   -29.3399     8.1739     0.1083     0.1385    89.1445     2.4134
  592.0000    17.9293    12.1283    14.4882   -29.3436     8.1739     0.1083     0.1403    87.3144     2.4059
  592.5000    17.4429    12.2969    14.9985   -29.6457     8.1589     0.1082     0.1421    85.0162     2.4014
  593.0000    17.2059    12.4677    15.1035   -29.8624     8.1289     0.1082     0.1433    82.6319     2.4037
  593.5000    16.8552    12.6450    14.8973   -29.9515     8.1139     0.1097     0.1415    80.5465     2.4132
  594.0000    16.7414    13.0055    14.8985   -30.2567     8.0990     0.1126     0.1328    83.0949     2.4306
  594.5000    16.6284    13.4507    15.1069   -30.5711     8.0990     0.1156     0.1271    83.5488     2.4381
  595.0000    16.6307    14.0192    15.4243   -31.1841     8.0840     0.1156     0.1260    81.9137     2.4404
  595.5000    17.8233    15.2292    15.9676   -31.9074     8.0690     0.1125     0.1254    82.3695     2.4389
  596.0000    20.1865    16.2048    16.6446   -32.3588     8.0690     0.1080     0.1233    84.3200     2.4441
  596.5000    22.3940    17.0066    17.3150   -32.5117     8.0690     0.1080     0.1188    85.6726     2.4546
  597.0000    23.8340    17.3623    17.5929   -32.5154     8.0840     0.1110     0.1125    84.5959     2.4719
  597.5000    24.1689    17.6035    17.5941   -32.5190     8.0840     0.1184     0.1057    83.1479     2.4875
  598.0000    23.3513    17.7254    17.3538   -32.5227     8.0990     0.1259     0.0895    81.8099     2.5093
  598.5000    22.2518    16.4959    16.8631   -32.3762     8.1139     0.1288     0.0763    83.6110     2.5266
  599.0000    20.7691    14.4675    15.6484   -32.2313     8.1439     0.1303     0.0762    85.1130     2.5221
  599.5000    17.8426    13.1737    14.2067   -32.0858     8.1589     0.1303     0.0817    84.9709     2.5116
  600.0000    16.7691    12.8164    13.7243   -31.7691     8.1739     0.1302     0.0895    84.6774     2.4914
  600.5000    16.1923    12.8186    13.5359   -31.6832     8.1739     0.1301     0.0992    82.6303     2.4787
  601.0000    15.9817    12.7322    13.6298   -31.5972     8.1589     0.1287     0.1009    84.4580     2.4817
  601.5000    15.9807    12.6459    14.1089   -31.5113     8.1570     0.1257     0.0991    85.0166     2.4914
  602.0000    15.9797    12.3889    14.5042   -31.4254     8.1540     0.1239     0.0988    82.2695     2.4838
  602.5000    15.9787    12.1367    14.3052   -31.3582     8.1510     0.1210     0.1069    81.1144     2.4748
  603.0000    15.9777    11.8897    13.7243   -31.3612     8.1480     0.1181     0.1126    79.3135     2.4659
  603.5000    16.0882    11.6478    13.9184   -31.5134     8.1450     0.1152     0.1198    77.0636     2.4570
  604.0000    16.0882    11.5587    14.2198   -31.5170     8.1420     0.1122     0.1235    77.6579     2.4486
  604.5000    16.1997    11.4122    14.5042   -31.6692     8.1390     0.1091     0.1259    79.3002     2.4419
  605.0000    16.3120    11.2574    14.6048   -31.8213     8.1360     0.1061     0.1265    80.4945     2.4351
  605.5000    16.4251    11.1050    14.5042   -32.2720     8.1189     0.1046     0.1247    81.5368     2.4336
  606.0000    16.3120    11.0301    14.9107   -32.5734     8.1180     0.1046     0.1214    83.1791     2.4441
  606.5000    15.8674    11.0316    14.6048   -32.8748     8.1171     0.1061     0.1199    84.8213     2.4546
  607.0000    15.5419    11.1095    13.7243   -33.1763     8.1162     0.1076     0.1205    84.2181     2.4516
  607.5000    15.3286    11.1110    13.2582   -33.4777     8.1154     0.1061     0.1214    82.8663     2.4463
  608.0000    15.2230    11.1125    12.9862   -33.4806     8.1145     0.1060     0.1224    82.4139     2.4418
  608.5000    15.2230    11.0375    12.8968   -33.4836     8.1288     0.1038     0.1236    84.8035     2.4388
  609.0000    15.1182    10.9631    13.7369   -33.4871     8.1429     0.1030     0.1242    85.2493     2.4366
  609.5000    15.0141    10.8147    13.5359   -33.9378     8.1567     0.1015     0.1245    83.1479     2.4358
  610.0000    15.0141    10.8162    13.1669   -34.3885     8.1558     0.1015     0.1233    84.3411     2.4366
  610.5000    15.0141    10.8176    13.0763   -34.5406     8.1701     0.1015     0.1209    89.7259     2.4413
  611.0000    15.0141    10.8191    13.7243   -34.5435     8.1690     0.1030     0.1170    92.8651     2.4533
  611.5000    15.0141    10.7461    13.3501   -34.5464     8.1681     0.1060     0.1126    93.7590     2.4634
  612.0000    15.0141    10.8220    14.3052   -34.4000     8.1521     0.1075     0.1066    91.3592     2.4785
  612.5000    15.0141    10.8235    14.1089   -34.1045     8.1364     0.1105     0.1018    90.9057     2.4837
  613.0000    15.1182    10.8249    13.9152   -33.9581     8.1355     0.1142     0.1000    91.2006     2.4829
  613.5000    15.5419    10.8264    14.2100   -33.9618     8.1346     0.1164     0.1033    89.9986     2.4769
