~VERSION INFORMATION
 VERS.                2.0:   CWLS LOG ASCII STANDARD - VERSION 2.0
 WRAP.                 NO:   ONE LINE PER DEPTH STEP
~WELL INFORMATION
#MNEM.UNIT      DATA TYPE    INFORMATION
#----------   ------------   ------------------------------
 STRT.F           90.0000:   START DEPTH
 STOP.F         1032.5000:   STOP DEPTH
 STEP.F            0.5000:   STEP LENGTH
 NULL.          -999.2500:   NO VALUE
 COMP. U S NAVY/INTEX OIL CO:   COMPANY
 WELL. NAVAL PETROLEUM RESERVE 3  #62-S-14:   WELL
 FLD .        TEAPOT DOME:   FIELD
 LOC .      S14 T38N R78W:   LOCATION
 CNTY.            NATRONA:   COUNTY
 STAT.            WYOMING:   STATE
 CTRY. UNITED STATES OF AMERICA:   COUNTRY
 SRVC.       Schlumberger:   SERVICE COMPANY
 DATE.        04-JUL-1962:   LOGDATE
 API .       490250631700:   API NUMBER
~CURVE INFORMATION
#MNEM.UNIT       API CODE    CURVE DESCRIPTION
#----------   ------------   ------------------------------
 DEPT.F                  :   
 GR  .GAPI   30 310 01 00:   GAMMA RAY
 CALM.IN     15 280 01 00:   CALIPER FROM MICRO LOG
 SPR .MV     06 010 01 00:   SPONTANEOUS POTENTIAL FROM RES.
 ASN .OHMM   06 041 16 00:   AMPLIFIED SHORT NORMAL 16"
 ILD .OHMM   06 120 46 00:   INDUCTION LOG DEEP
 CILD.MMHO   06 110 46 00:   CONDUCTIVITY INDUCTION LOG DEEP
~PARAMETER INFORMATION
#MNEM.UNIT          VALUE    DESCRIPTION
#----------   ------------   ------------------------------
 PD  .                 GL:   PERMANENT DATUM
 EPD .F              5246:   ELEVATION PERMANENT DATUM
 LMF .                 KB:   LOG MEASURED FROM
 DAPD.F                 5:   FEET ABOVE PERMANENT DATUM
 DMF .                 KB:   DRILLING MEASURED FROM
 EKB .F              5251:   KELLING BUSHING
 EGL .F              5246:   GROUND LEVEL
 DATE.             7-4-62:   RUN DATE
 RUN .                  1:   RUN NUMBER
 DD  .F              1036:   DEPTH DRILLER
 DL  .F              1033:   DEPTH LOGGER
 BLI .F              1032:   BOTTOM LOG INTERVAL
 TLI .F                90:   TOP LOG INTERVAL
 CBD .F                10:   CASING BOTTOM DRILLER
 BS  .IN             6.75:   BIT SIZE
 BSD .F              1036:   BIT SIZE AT DEPTH
 DFT .                GEL:   DRILLING FLUID TYPE
 DFD .               10.2:   DRILLING FLUID DENSITY
 DFV .                 48:   DRILLING FLUID VISCOSITY
 DFL .                4.8:   DRILLING FLUID LOSS
 MSS .          FLOW LINE:   MUD SAMPLE SOURCE
 RMS .OHMM            5.6:   RESISTIVITY MUD SAMPLE
 MST .F                70:   MUD SAMPLE TEMPERATURE
 RMF .OHMM           5.57:   RESISTIVITY MUD FILTRATE SAMPLE
 MFST.F                70:   MUD FILTRATE SAMPLE TEMPERATURE
 RMC .OHMM           5.32:   RESISTIVITY MUD CAKE
 MCST.F                70:   MUD CAKE SAMPLE TEMPERATURE
 MFSS.                  M:   MUD FILTRATE SAMPLE SOURCE
 MCSS.                  M:   MUD CAKE SAMPLE SOURCE
 RMB .OHMM            4.3:   RESISTIVITY MUD AT BHT
 BHT .F                90:   BOTTOM HOLE TEMPERATURE
 TCS .HRS               1:   TIME CURCULATED STOPPED
 MRT .F                90:   MAXIMUM RECORDED TEMPERATURE
 LUN .               2503:   LOGGING UNIT NUMBER
 LUL .               CSPR:   LOGGING UNIT LOCATION
 ENGI.             KNOBEL:   RECORDING ENGINEER
 WITN.          JORGENSEN:   WITNESSED BY
 CLNT.            A2DTECH:   CLIENT CODE
 ORIG.   1", 2", 5" PRINT:   ORIGIN OF DATA
 UWI .       490250631700:   UNIQUE WELL ID
 DICO. A2D Technologies, Inc.:   DIGITIZING COMPANY
~OTHER INFORMATION
~A   DEPT       GR       CALM        SPR          ASN        ILD      CILD  
# ...
  246.0000  -999.2500  -999.2500   -47.7438     6.4500     5.8478   178.0803
  246.5000  -999.2500  -999.2500   -47.7919     6.4164     5.7358   179.2817
  247.0000  -999.2500  -999.2500   -47.7246     6.3825     5.6238   180.3512
  247.5000  -999.2500  -999.2500   -47.6534     6.3458     5.5120   181.4207
  248.0000  -999.2500  -999.2500   -47.5826     6.0839     5.3998   182.4976
  248.5000  -999.2500  -999.2500   -47.5120     5.6344     5.4129   182.8581
  249.0000  -999.2500  -999.2500   -47.4414     5.7105     5.5281   181.2649
  249.5000  -999.2500  -999.2500   -47.3706     6.3711     5.6434   178.7949
  250.0000  -999.2500  -999.2500   -47.3001     6.5791     5.7587   176.3455
  250.5000  -999.2500  -999.2500   -47.2298     6.4279     5.8665   173.8968
  251.0000  -999.2500  -999.2500   -47.2293     6.4481     5.8802   171.4481
  251.5000  -999.2500  -999.2500   -47.3483     6.4664     5.8962   169.0085
  252.0000  -999.2500  -999.2500   -47.4664     6.4835     5.9126   166.8045
  252.5000  -999.2500  -999.2500   -47.5846     6.4684     5.9290   167.5266
  253.0000  -999.2500  -999.2500   -47.7029     6.3855     5.9454   168.2796
  253.5000  -999.2500  -999.2500   -47.8204     6.1971     5.9618   169.0341
  254.0000  -999.2500  -999.2500   -47.9396     6.1385     5.9782   169.8397
  254.5000  -999.2500  -999.2500   -47.8368     6.4322     5.9946   170.7949
  255.0000  -999.2500  -999.2500   -47.5325     6.4476     6.0110   170.6552
  255.5000  -999.2500  -999.2500   -47.2269     6.4285     6.0275   170.5155
  256.0000  -999.2500  -999.2500   -46.9186     6.4079     6.0438   170.3757
  256.5000  -999.2500  -999.2500   -46.6064     6.3775     6.0602   170.2360
  257.0000  -999.2500  -999.2500   -46.6606     6.3739     6.0767   170.0963
  257.5000  -999.2500  -999.2500   -46.7577     6.4391     6.0931   169.9371
  258.0000  -999.2500  -999.2500   -46.8538     6.5386     6.1095   168.8840
  258.5000  -999.2500  -999.2500   -46.9492     6.6076     6.1259   166.6411
  259.0000  -999.2500  -999.2500   -46.9467     6.6172     6.1424   164.3884
  259.5000  -999.2500  -999.2500   -46.8025     6.6521     6.1601   162.1174
  260.0000  -999.2500  -999.2500   -46.6592     6.7315     6.1219   159.8078
  260.5000  -999.2500  -999.2500   -46.5156     6.8015     6.0700   162.2368
  261.0000  -999.2500  -999.2500   -46.3719     6.7926     6.0178   165.3322
  261.5000  -999.2500  -999.2500   -46.2283     6.4050     5.9659   168.4276
  262.0000  -999.2500  -999.2500   -46.0879     6.0216     5.9142   171.5231
  262.5000  -999.2500  -999.2500   -46.0787     6.2928     5.8598   174.6185
  263.0000  -999.2500  -999.2500   -46.3434     6.4420     5.7460   178.2726
  263.5000  -999.2500  -999.2500   -46.6033     6.1449     5.6297   182.2966
  264.0000  -999.2500  -999.2500   -46.8652     5.9896     5.5134   186.3206
  264.5000  -999.2500  -999.2500   -47.1300     5.8629     5.3969   190.3447
  265.0000  -999.2500  -999.2500   -47.3376     5.8042     5.2783   192.1227
  265.5000  -999.2500  -999.2500   -47.0672     5.7526     5.3086   192.5096
  266.0000  -999.2500  -999.2500   -46.8818     5.7394     5.3670   192.8858
  266.5000  -999.2500  -999.2500   -46.7071     5.8358     5.4260   191.8036
  267.0000  -999.2500  -999.2500   -46.6365     5.9294     5.4847   189.2959
  267.5000  -999.2500  -999.2500   -46.7654     5.9950     5.5434   186.7728
  268.0000  -999.2500  -999.2500   -46.8903     6.0218     5.6021   184.2513
  268.5000  -999.2500  -999.2500   -46.9967     6.0219     5.6608   181.8637
  269.0000  -999.2500  -999.2500   -46.9944     5.9952     5.7195   181.8637
  269.5000  -999.2500  -999.2500   -46.9939     5.8695     5.7782   181.8637
  270.0000  -999.2500  -999.2500   -46.9948     5.8470     5.8369   181.3400
  270.5000  -999.2500  -999.2500   -46.9100     5.9492     5.8962   180.1968
  271.0000  -999.2500  -999.2500   -46.7673     6.0457     5.9571   179.0536
  271.5000  -999.2500  -999.2500   -46.6239     6.1399     5.8678   177.9104
  272.0000  -999.2500  -999.2500   -46.4802     6.2344     5.7592   176.8537
  272.5000  -999.2500  -999.2500   -46.3360     6.2885     5.6500   180.5010
  273.0000  -999.2500  -999.2500   -46.1969     6.0776     5.5412   183.5219
  273.5000  -999.2500  -999.2500   -46.1915     5.8741     5.4324   186.5354
  274.0000  -999.2500  -999.2500   -46.1922     6.0223     5.3237   187.7465
  274.5000  -999.2500  -999.2500   -46.1923     6.1733     5.2150   188.7123
  275.0000  -999.2500  -999.2500   -46.1924     5.9664     5.1683   189.6858
  275.5000  -999.2500  -999.2500   -46.1979     5.8251     5.1847   190.6594
  276.0000  -999.2500  -999.2500   -46.2289     5.8683     5.2008   191.6329
  276.5000  -999.2500  -999.2500   -46.2594     5.9586     5.2170   192.6065
  277.0000  -999.2500  -999.2500   -46.2898     5.9769     5.2331   190.7757
  277.5000  -999.2500  -999.2500   -46.3202     5.9311     5.2501   187.8168
  278.0000  -999.2500  -999.2500   -46.3506     5.8833     5.3215   184.8580
  278.5000  -999.2500  -999.2500   -46.3811     5.9676     5.5191   181.8545
  279.0000  -999.2500  -999.2500   -46.4115     6.2223     5.7150   178.7591
  279.5000  -999.2500  -999.2500   -46.4419     6.4253     5.9167   175.6636
  280.0000  -999.2500  -999.2500   -46.4723     6.4430     5.9987   172.5682
  280.5000  -999.2500  -999.2500   -46.5028     6.1441     6.0497   169.4728
  281.0000  -999.2500  -999.2500   -46.5332     5.9894     6.0997   166.8337
  281.5000  -999.2500  -999.2500   -46.5640     6.1700     6.1499   167.0410
  282.0000  -999.2500  -999.2500   -46.5939     6.4787     6.2005   167.2597
  282.5000  -999.2500  -999.2500   -46.5392     6.5032     6.2537   167.4784
  283.0000  -999.2500  -999.2500   -46.4737     6.4336     6.1887   167.6971
  283.5000  -999.2500  -999.2500   -46.4080     6.4266     6.0925   168.2454
  284.0000  -999.2500  -999.2500   -46.3425     6.4651     5.9955   169.3632
  284.5000  -999.2500  -999.2500   -46.2770     6.4992     5.8988   170.4810
  285.0000  -999.2500  -999.2500   -46.2116     6.4058     5.8016   171.5988
  285.5000  -999.2500  -999.2500   -46.1460     6.3037     5.7417   173.6761
  286.0000  -999.2500  -999.2500   -46.0808     6.2547     5.7062   176.0227
  286.5000  -999.2500  -999.2500   -46.0129     6.2319     5.6713   178.3710
  287.0000  -999.2500  -999.2500   -46.0941     6.1698     5.6364   180.7188
  287.5000  -999.2500  -999.2500   -46.2481     6.0822     5.6015   183.0661
  288.0000  -999.2500  -999.2500   -46.3821     5.9942     5.5665   185.4135
  288.5000  -999.2500  -999.2500   -46.1995     5.9058     5.5316   186.8356
  289.0000  -999.2500  -999.2500   -46.0116     5.8160     5.4967   188.0332
  289.5000  -999.2500  -999.2500   -45.8253     5.8193     5.4618   189.2308
  290.0000  -999.2500  -999.2500   -45.6394     5.8438     5.4268   190.4285
  290.5000  -999.2500  -999.2500   -45.4509     5.9262     5.3919   189.7784
  291.0000  -999.2500  -999.2500   -45.3626     6.0143     5.3569   188.0031
  291.5000  -999.2500  -999.2500   -45.2984     6.0806     5.3217   186.2278
  292.0000  -999.2500  -999.2500   -45.2364     6.0634     5.2873   184.8697
  292.5000  -999.2500  -999.2500   -45.1974     6.0471     5.2799   184.3961
  293.0000  -999.2500  -999.2500   -45.2342     6.0811     5.3790   183.9388
  293.5000  -999.2500  -999.2500   -45.2689     6.1677     5.4749   183.4815
  294.0000  -999.2500  -999.2500   -45.3035     6.2401     5.5702   183.0242
  294.5000  -999.2500  -999.2500   -45.3382     6.2339     5.6666   180.7117
  295.0000  -999.2500  -999.2500   -45.3737     6.1693     5.8240   175.9691
  295.5000  -999.2500  -999.2500   -45.4424     6.1949     5.9794   171.2265
  296.0000  -999.2500  -999.2500   -45.5504     6.2665     6.1343   166.4838
  296.5000  -999.2500  -999.2500   -45.6576     6.4649     6.2890   161.7412
  297.0000  -999.2500  -999.2500   -45.7653     6.6871     6.4439   156.9986
  297.5000  -999.2500  -999.2500   -45.8737     6.9492     6.5989   152.2559
