~VERSION INFORMATION
 VERS.                2.0:   CWLS LOG ASCII STANDARD - VERSION 2.0
 WRAP.                 NO:   ONE LINE PER DEPTH STEP
~WELL INFORMATION
#MNEM.UNIT      DATA TYPE    INFORMATION
#----------   ------------   ------------------------------
 STRT.F           12.0000:   START DEPTH
 STOP.F          448.0000:   STOP DEPTH
 STEP.F            0.5000:   STEP LENGTH
 NULL.          -999.2500:   NO VALUE
 COMP. LAWRENCE/ALLISON INC:   COMPANY
 WELL. LI2 -52-61 SX10 #10-10:   WELL
 FLD .             TEAPOT:   FIELD
 LOC .      S10 T38N R78W:   LOCATION
 CNTY.            NATRONA:   COUNTY
 STAT.            WYOMING:   STATE
 CTRY. UNITED STATES OF AMERICA:   COUNTRY
 SRVC.      Dresser Atlas:   SERVICE COMPANY
 DATE.        13-JAN-1985:   LOGDATE
 API .       490251100400:   API NUMBER
~CURVE INFORMATION
#MNEM.UNIT       API CODE    CURVE DESCRIPTION
#----------   ------------   ------------------------------
 DEPT.F                  :   
 AC  .US/F   60 520 00 00:   ACCOUSTIC
 SPR .MV     11 010 01 00:   SPONTANEOUS POTENTIAL FROM RES.
 RD  .OHMM   11 220 10 00:   RESISTIVITY DEEP
 RS  .OHMM   11 220 09 00:   RESISTIVITY SHALLOW
 RMLL.OHMM   11 270 04 00:   MICRO LATEROLOG
 GRD .GAPI   45 310 01 00:   GAMMA RAY FROM DENSITY LOG
 CALD.IN     45 280 60 00:   CALIPER FROM DENSITY LOG
 CORR.G/C3   45 356 01 00:   DENSITY CORRECTION
 DEN .G/C3   45 350 01 00:   COMPENSATED BULK DENSTIY
 PORD.DEC    45 890 12 00:   POROSITY DENSITY SANDSTONE
 CNC .DEC    42 890 03 00:   NEUTRON POROSITY SANDSTONE
~PARAMETER INFORMATION
#MNEM.UNIT          VALUE    DESCRIPTION
#----------   ------------   ------------------------------
 PD  .                 GL:   PERMANENT DATUM
 EPD .F              5156:   ELEVATION PERMANENT DATUM
 LMF .                 GL:   LOG MEASURED FROM
 DMF .                 GL:   DRILLING MEASURED FROM
 EGL .F              5156:   GROUND LEVEL
 DATE.        13-JAN-1985:   RUN DATE
 RUN .                  1:   RUN NUMBER
 DD  .F               450:   DEPTH DRILLER
 DL  .F               450:   DEPTH LOGGER
 BLI .F               448:   BOTTOM LOG INTERVAL
 TLI .F                20:   TOP LOG INTERVAL
 CS  .IN            8.625:   CASING SIZE
 CBD .F                20:   CASING BOTTOM DRILLER
 CBL .F                20:   CASING BOTTOM LOGGER
 BS  .IN            7.875:   BIT SIZE
 BSD .F               450:   BIT SIZE AT DEPTH
 DFT .            KCL-H2O:   DRILLING FLUID TYPE
 MSS .               TANK:   MUD SAMPLE SOURCE
 RMS .OHMM           0.16:   RESISTIVITY MUD SAMPLE
 MST .F                20:   MUD SAMPLE TEMPERATURE
 RMF .OHMM           0.12:   RESISTIVITY MUD FILTRATE SAMPLE
 MFST.F                20:   MUD FILTRATE SAMPLE TEMPERATURE
 RMC .OHMM            0.2:   RESISTIVITY MUD CAKE
 MCST.F                20:   MUD CAKE SAMPLE TEMPERATURE
 MFSS.               CALC:   MUD FILTRATE SAMPLE SOURCE
 MCSS.               CALC:   MUD CAKE SAMPLE SOURCE
 BHT .F               100:   BOTTOM HOLE TEMPERATURE
 TCS .HRS               2:   TIME CURCULATED STOPPED
 MRT .F               100:   MAXIMUM RECORDED TEMPERATURE
 LUN .               6270:   LOGGING UNIT NUMBER
 LUL .                 FM:   LOGGING UNIT LOCATION
 ENGI.          E. GOVETT:   RECORDING ENGINEER
 WITN.             GROOMS:   WITNESSED BY
 CLNT.            A2DTECH:   CLIENT CODE
 ORIG.        2" 5" PRINT:   ORIGIN OF DATA
 UWI .       490251100400:   UNIQUE WELL ID
 DICO. A2D Technologies, Inc.:   DIGITIZING COMPANY
 R1  . POROSITY WITH SANDSTONE:   REMARKS 1
~OTHER INFORMATION
~A   DEPT       AC        SPR         RD         RS       RMLL         GRD      CALD       CORR        DEN       PORD        CNC   
   12.0000  -999.2500  -999.2500  -999.2500  -999.2500  -999.2500    86.5961  -999.2500  -999.2500  -999.2500  -999.2500  -999.2500
   12.5000  -999.2500  -999.2500  -999.2500  -999.2500  -999.2500    85.8393  -999.2500  -999.2500  -999.2500  -999.2500  -999.2500
   13.0000  -999.2500  -999.2500  -999.2500  -999.2500  -999.2500    83.7256  -999.2500  -999.2500  -999.2500  -999.2500     0.0336
   13.5000  -999.2500  -999.2500  -999.2500  -999.2500  -999.2500    83.5761  -999.2500  -999.2500  -999.2500  -999.2500     0.0357
   14.0000  -999.2500  -999.2500  -999.2500  -999.2500  -999.2500    83.7188  -999.2500  -999.2500  -999.2500  -999.2500     0.0489
   14.5000  -999.2500  -999.2500  -999.2500  -999.2500  -999.2500    83.7098  -999.2500  -999.2500  -999.2500  -999.2500     0.0978
   15.0000  -999.2500  -999.2500  -999.2500  -999.2500  -999.2500    83.7026  -999.2500  -999.2500  -999.2500  -999.2500     0.1862
   15.5000  -999.2500  -999.2500  -999.2500  -999.2500  -999.2500    83.5455  -999.2500  -999.2500  -999.2500  -999.2500     0.3042
   16.0000  -999.2500  -999.2500  -999.2500  -999.2500  -999.2500    83.0584  -999.2500  -999.2500  -999.2500  -999.2500     0.3236
   16.5000  -999.2500  -999.2500  -999.2500  -999.2500  -999.2500    80.8307  -999.2500  -999.2500  -999.2500  -999.2500     0.3496
   17.0000  -999.2500  -999.2500  -999.2500  -999.2500  -999.2500    80.0739  -999.2500  -999.2500  -999.2500  -999.2500     0.3805
   17.5000  -999.2500  -999.2500  -999.2500  -999.2500  -999.2500    82.0157  -999.2500  -999.2500  -999.2500  -999.2500     0.3984
   18.0000  -999.2500  -999.2500  -999.2500  -999.2500  -999.2500    88.4553  -999.2500  -999.2500  -999.2500  -999.2500     0.4035
   18.5000  -999.2500  -999.2500  -999.2500  -999.2500  -999.2500    95.6445  -999.2500  -999.2500  -999.2500  -999.2500     0.3975
   19.0000  -999.2500  -999.2500  -999.2500  -999.2500  -999.2500   100.3862  -999.2500  -999.2500  -999.2500  -999.2500     0.3769
   19.5000  -999.2500  -999.2500  -999.2500  -999.2500  -999.2500   104.6238  -999.2500  -999.2500  -999.2500  -999.2500     0.3661
   20.0000  -999.2500   -19.7295   100.7735     5.4701     3.7353   106.2658  -999.2500  -999.2500  -999.2500     0.2971     0.3588
   20.5000  -999.2500   -12.2065    98.0607     7.2204     4.5991   108.2076     8.3454     0.0547     2.3566     0.2880     0.3413
   21.0000  -999.2500    -6.8524   111.0863    10.4310     5.2099   109.5498     8.3141     0.0663     2.3717     0.2501     0.3441
   21.5000  -999.2500    -3.1865   121.5523    12.7551     5.5436   110.4422     8.2980     0.0738     2.3678     0.2300     0.3516
   22.0000  -999.2500    -2.7400   133.9328    13.9553     5.7367   111.0495     8.2817     0.0783     2.3670     0.2062     0.3474
   22.5000  -999.2500    -4.7068   145.7723    14.6448     5.8989   109.9762     8.2806     0.0691     2.3911     0.1829     0.3380
   23.0000  -999.2500   -10.4368   154.8616    15.1545     6.1001   106.9705     8.2948     0.0433     2.4018     0.1862     0.3220
   23.5000  -999.2500   -14.0602   162.5247    15.2552     6.3568   105.3141     8.2934     0.0282     2.4114     0.1845     0.3102
   24.0000  -999.2500   -16.7782   169.3847    14.9323     6.4433   105.6068     8.3074     0.0220     2.4189     0.1718     0.3053
   24.5000  -999.2500   -19.0444   170.5002    15.0317     6.0063   109.1978     8.3060     0.0144     2.4264     0.1585     0.3069
   25.0000  -999.2500   -21.4611   170.4149    15.5530     5.7570   111.1957     8.3049     0.0143     2.4317     0.1531     0.3085
   25.5000  -999.2500   -22.8389   171.5535    16.0960     5.6351   112.9298     8.3039     0.0158     2.4233     0.1492     0.3052
   26.0000  -999.2500   -24.9411   175.0846    16.5445     5.6722   113.5223     8.3180     0.0278     2.4202     0.1480     0.2925
   26.5000  -999.2500   -27.0566   177.4847    16.6508     5.7479   112.9154     8.3317     0.0338     2.4203     0.1525     0.2883
   27.0000  -999.2500   -28.1180   177.3967    16.6418     5.7850   112.7601     8.3306     0.0292     2.4284     0.1562     0.2940
   27.5000  -999.2500   -29.1794   178.5643    16.7524     5.7013   114.2503     8.3445     0.0245     2.4367     0.1498     0.2880
   28.0000  -999.2500   -29.9598   178.4758    16.7433     5.5806   115.9146     8.3132     0.0307     2.4419     0.1450     0.2841
   28.5000  -999.2500   -31.0027   179.6682    16.6199     5.5776   117.0827     8.2671     0.0335     2.4358     0.1420     0.2953
   29.0000  -999.2500   -31.9134   179.5792    16.4960     5.5360   118.2749     8.2211     0.0288     2.4214     0.1435     0.3083
   29.5000  -999.2500   -33.2760   180.7611    16.3746     5.5330   117.8180     8.2200     0.0212     2.4062     0.1527     0.3120
   30.0000  -999.2500   -34.1867   181.9508    16.0297     5.4911   115.8618     8.2339     0.0196     2.4073     0.1641     0.3111
   30.5000  -999.2500   -34.7981   180.5999    15.9100     5.3006   114.0536     8.2776     0.0226     2.4212     0.1599     0.3105
   31.0000  -999.2500   -35.1064   176.7998    16.1274     5.1884   112.2474     8.2615     0.0255     2.4280     0.1527     0.3120
   31.5000  -999.2500   -34.9630   174.2879    16.4601     5.1857   110.7410     8.1855     0.0317     2.4302     0.1485     0.3250
   32.0000  -999.2500   -34.9900   171.8099    16.7978     5.4031   109.3844     8.1094     0.0450     2.4060     0.1488     0.3248
   32.5000  -999.2500   -34.9649   170.5361    16.9076     7.0834   108.9275     8.1692     0.0495     2.3923     0.1579     0.3107
   33.0000  -999.2500   -34.8338   170.4685    17.0182     8.0800   110.2696     8.2569     0.0433     2.3802     0.1754     0.2933
   33.5000  -999.2500   -34.8427   170.4009    17.1294     8.5976   111.7748     8.2861     0.0372     2.3818     0.1797     0.2875
   34.0000   139.9251   -34.6975   176.3621    17.1201    10.5800   113.4037     8.3147     0.0432     2.3937     0.1785     0.2897
   34.5000   129.9073   -34.7064   193.6122    17.2302    16.5138   112.3452     8.2837     0.0492     2.4110     0.1649     0.3031
   35.0000   123.3177   -34.7153   209.6749    17.3447    21.0551   110.0891     8.2676     0.0491     2.4147     0.1589     0.3013
   35.5000   120.2486   -34.8731   229.4295    17.5780    22.0970   111.1314     8.2515     0.0456     2.4154     0.1565     0.2958
   36.0000   117.1796   -35.0308   244.1802    17.8163    17.4312   113.3731     8.2202     0.0338     2.4237     0.1541     0.2953
   36.5000   116.1331   -35.4898   256.2378    18.1818    13.8194   114.4234     8.2191     0.0292     2.4335     0.1480     0.3037
   37.0000   115.8356   -35.9538   270.7678    18.4304    13.7452   113.3569     8.2181     0.0473     2.4402     0.1444     0.3089
   37.5000   115.0137   -36.5601   282.1966    18.8105    19.8603   112.1503     8.2170     0.0608     2.4394     0.1429     0.3147
   38.0000   114.5664   -37.0190   292.0688    18.8003    22.3416   111.0937     8.2159     0.0653     2.4371     0.1439     0.3174
   38.5000   113.7446   -37.4780   302.2865    18.9232    22.3299   111.5363     8.1996     0.0486     2.4393     0.1445     0.3259
   39.0000   112.9976   -37.6357   312.9614    18.9129    24.2579   112.2787     8.1835     0.0348     2.4438     0.1436     0.3217
   39.5000   112.5498   -38.0949   323.7745    19.1715    29.2546   113.5064     8.1524     0.0303     2.4475     0.1397     0.3060
   40.0000   112.1030   -38.7060   332.7784    19.1610    30.4895   113.9135     8.1364     0.0302     2.4505     0.1373     0.2957
   40.5000   111.8799   -39.1650   337.3403    19.2863    29.0212   112.8550     8.1353     0.0301     2.4459     0.1382     0.3042
   41.0000   112.0324   -39.7745   339.5306    19.2758    29.0463   111.7984     8.1492     0.0331     2.4466     0.1394     0.3021
   41.5000   112.2592   -40.2335   341.9891    19.2674    31.2919   109.6922     8.1479     0.0360     2.4473     0.1391     0.2946
   42.0000   111.9617   -40.6942   344.0107    19.2570    31.9392   106.6865     8.1620     0.0390     2.4472     0.1386     0.2882
