~VERSION INFORMATION
 VERS.                2.0:   CWLS LOG ASCII STANDARD - VERSION 2.0
 WRAP.                 NO:   ONE LINE PER DEPTH STEP
~WELL INFORMATION
#MNEM.UNIT      DATA TYPE    INFORMATION
#----------   ------------   ------------------------------
 STRT.F          217.0000:   START DEPTH
 STOP.F         3170.0000:   STOP DEPTH
 STEP.F            0.5000:   STEP LENGTH
 NULL.          -999.2500:   NO VALUE
 COMP. FENIX & SCISSON INC:   COMPANY
 WELL.    51 TX 33 #51-33:   WELL
 FLD .             TEAPOT:   FIELD
 LOC .      S33 T39N R78W:   LOCATION
 CNTY.            NATRONA:   COUNTY
 STAT.            WYOMING:   STATE
 CTRY. UNITED STATES OF AMERICA:   COUNTRY
 SRVC.            Unknown:   SERVICE COMPANY
 DATE.        02-APR-1978:   LOGDATE
 API .       490251068600:   API NUMBER
~CURVE INFORMATION
#MNEM.UNIT       API CODE    CURVE DESCRIPTION
#----------   ------------   ------------------------------
 DEPT.F                  :   
 TGAS.UNITS  91 830 01 00:   TOTAL GAS FROM HOTWIRE
 ROP .MIN/FT 91 810 01 00:   RATE OF DRILLING PENETRATION
~PARAMETER INFORMATION
#MNEM.UNIT          VALUE    DESCRIPTION
#----------   ------------   ------------------------------
 DATE.         2-APR-1978:   RUN DATE
 RUN .                  1:   RUN NUMBER
 BLI .F              3150:   BOTTOM LOG INTERVAL
 TLI .F               250:   TOP LOG INTERVAL
 DFT .       CHEMICAL GEL:   DRILLING FLUID TYPE
 ENGI.            R. CABS:   RECORDING ENGINEER
 CLNT.            A2DTECH:   CLIENT CODE
 ORIG.           5" PRINT:   ORIGIN OF DATA
 UWI .       490251068600:   UNIQUE WELL ID
 DICO. A2D Technologies, Inc.:   DIGITIZING COMPANY
~OTHER INFORMATION
~A   DEPT       TGAS      ROP   
# ...
 1310.5000     2.0063     2.2584
 1311.0000     1.9615     1.9858
 1311.5000     1.9598     1.9860
 1312.0000     1.9581     1.9862
 1312.5000     1.9813     1.9863
 1313.0000     2.0357     1.9865
 1313.5000     2.0902     1.9867
 1314.0000     2.1447     1.9869
 1314.5000     2.2101     1.9871
 1315.0000     2.2084     1.9873
 1315.5000     2.2941     1.9693
 1316.0000     2.3013     1.9695
 1316.5000     2.3099     1.9697
 1317.0000     2.3185     1.9699
 1317.5000     2.3271     1.9700
 1318.0000     2.3357     1.9702
 1318.5000     2.3443     1.9704
 1319.0000     2.3530     1.9706
 1319.5000     2.3616     1.9708
 1320.0000     2.3652     1.9710
 1320.5000     2.3631     1.9711
 1321.0000     2.3615     1.9713
 1321.5000     2.3526     1.9715
 1322.0000     2.3385     1.9535
 1322.5000     2.3244     1.9560
 1323.0000     2.3103     1.9584
 1323.5000     2.2962     1.9609
 1324.0000     2.2821     1.9633
 1324.5000     2.2680     1.9657
 1325.0000     2.3480     1.9682
 1325.5000     2.3287     1.9706
 1326.0000     2.1703     2.5004
 1326.5000     2.1687     2.5370
 1327.0000     2.1670     2.5371
 1327.5000     2.1652     2.5373
 1328.0000     2.0765     2.5375
 1328.5000     2.0158     1.9740
 1329.0000     1.9364     1.9612
 1329.5000     1.8570     1.9562
 1330.0000     1.7216     1.9564
 1330.5000     1.6330     1.9565
 1331.0000     1.6313     1.9567
 1331.5000     1.6296     1.9569
 1332.0000     1.6278     1.9571
 1332.5000     1.6259     1.9572
 1333.0000     1.6242     1.9574
 1333.5000     1.6226     1.9576
 1334.0000     1.6209     1.9578
 1334.5000     1.6189     1.9580
 1335.0000     1.6174     1.9582
 1335.5000     1.6157     1.9583
 1336.0000     1.6139     1.9585
 1336.5000     1.6121     1.9587
 1337.0000     1.5210     1.9589
 1337.5000     1.4261     1.9591
 1338.0000     1.2590     1.9593
 1338.5000     1.2573     1.9629
 1339.0000     1.2557     1.9664
 1339.5000     1.2539     1.9700
 1340.0000     1.2522     1.9735
 1340.5000     1.2504     1.9771
 1341.0000     1.2487     1.9786
 1341.5000     1.2470     1.9678
 1342.0000     1.2452     1.9607
 1342.5000     1.2435     1.9718
 1343.0000     1.3402     1.9902
 1343.5000     1.3589     1.9976
 1344.0000     1.3777     1.9979
 1344.5000     1.3965     2.0162
 1345.0000     1.4088     2.0164
 1345.5000     1.4067     2.0166
 1346.0000     1.3916     2.0168
 1346.5000     1.3559     2.0169
 1347.0000     1.3202     2.0171
 1347.5000     1.2845     2.0173
 1348.0000     1.2488     2.0175
 1348.5000     1.2223     1.9995
 1349.0000     1.2206     1.9996
 1349.5000     1.2189     1.9998
 1350.0000     1.1202     2.0001
 1350.5000     1.0414     1.9822
 1351.0000     1.0397     1.9826
 1351.5000     0.9511     1.9829
 1352.0000     0.9494     1.9817
 1352.5000     0.9559     1.9805
 1353.0000     0.9661     1.9794
 1353.5000     0.9763     1.9782
 1354.0000     0.9865     1.9770
 1354.5000     0.9967     1.9758
 1355.0000     1.0069     1.9747
 1355.5000     1.0171     1.9735
 1356.0000     1.0273     1.9723
 1356.5000     1.0375     1.9711
 1357.0000     1.0477     1.9699
 1357.5000     1.0579     2.1146
 1358.0000     1.0681     2.1876
 1358.5000     1.0783     2.1880
 1359.0000     1.0885     2.2066
 1359.5000     1.0930     2.2252
 1360.0000     1.0802     2.2437
 1360.5000     1.0677     1.9712
 1361.0000     1.0551     1.9717
 1361.5000     1.0426     1.9720
 1362.0000     1.0300     1.9687
 1362.5000     1.0175     1.9545
 1363.0000     1.0049     1.9549
 1363.5000     0.9923     1.9589
 1364.0000     0.9798     1.9738
 1364.5000     0.9672     1.9742
 1365.0000     0.9547     1.9746
 1365.5000     0.9421     2.2294
 1366.0000     0.9296     2.2298
 1366.5000     0.9170     2.2301
 1367.0000     0.9045     2.2488
 1367.5000     0.8919     2.2491
 1368.0000     0.8770     2.1707
 1368.5000     0.8795     2.0135
 1369.0000     0.7948     2.0139
 1369.5000     0.7974     2.0143
 1370.0000     0.8000     2.0146
 1370.5000     0.8031     2.0150
 1371.0000     0.8322     2.0153
 1371.5000     0.9193     2.0157
 1372.0000     1.0063     2.0160
 1372.5000     1.0933     2.0164
 1373.0000     1.1636     2.0200
 1373.5000     1.1661     2.0236
 1374.0000     1.1687     2.0272
 1374.5000     1.1713     2.0308
 1375.0000     1.1739     2.0344
 1375.5000     1.1765     2.2368
 1376.0000     1.1792     2.2917
 1376.5000     1.1817     2.2921
 1377.0000     1.1843     2.3106
 1377.5000     1.1874     2.3109
 1378.0000     1.2061     3.1840
 1378.5000     1.2287     3.1844
 1379.0000     1.2512     3.1847
 1379.5000     1.2738     3.1851
 1380.0000     1.2870     3.0219
 1380.5000     1.2026     2.8767
 1381.0000     1.2057     2.8953
 1381.5000     1.2007     2.7684
 1382.0000     1.1097     2.6015
 1382.5000     1.0391     2.6237
 1383.0000     0.9548     2.6240
 1383.5000     0.9440     2.6244
 1384.0000     0.8730     2.6248
 1384.5000     0.7891     2.2251
 1385.0000     0.7040     2.2436
 1385.5000     0.6202     2.2440
 1386.0000     0.5352     2.2626
 1386.5000     0.5383     2.2630
 1387.0000     0.5409     2.2633
 1387.5000     0.5435     2.2637
 1388.0000     0.6535     2.2640
 1388.5000     0.7226     1.9735
 1389.0000     0.8302     1.9738
 1389.5000     0.9889     1.9814
 1390.0000     1.1653     3.1018
 1390.5000     1.2548     3.1203
 1391.0000     1.2574     3.1208
 1391.5000     1.2424     3.1211
 1392.0000     1.1835     2.5579
 1392.5000     1.1246     2.5400
 1393.0000     1.0939     2.5586
 1393.5000     1.0096     2.5832
 1394.0000     0.9251     1.9957
 1394.5000     0.9278     1.9960
 1395.0000     0.9304     1.9964
 1395.5000     0.9330     1.9967
 1396.0000     0.9357     1.9971
 1396.5000     0.9383     1.9975
 1397.0000     0.9409     1.9978
 1397.5000     0.9439     1.9982
 1398.0000     0.9551     1.9986
 1398.5000     1.0333     1.9989
 1399.0000     1.1114     1.9993
 1399.5000     1.1896     1.9996
 1400.0000     1.2677     2.0000
 1400.5000     1.3177     1.9643
 1401.0000     1.3880     1.9660
 1401.5000     1.3861     1.9677
 1402.0000     1.3843     1.9693
 1402.5000     1.3826     1.9710
 1403.0000     1.3809     1.9727
 1403.5000     1.3791     1.9744
 1404.0000     1.3774     1.9760
 1404.5000     1.3754     1.9777
 1405.0000     1.3737     1.9794
 1405.5000     1.3236     1.9811
 1406.0000     1.2677     1.9827
 1406.5000     1.2117     1.9844
 1407.0000     1.1930     1.9861
 1407.5000     1.1911     1.9878
 1408.0000     1.1377     1.9895
 1408.5000     1.1006     1.9911
 1409.0000     1.0989     1.9928
 1409.5000     1.0972     1.9945
 1410.0000     1.1826     1.9965
 1410.5000     1.2678     2.5498
 1411.0000     1.2760     2.5687
 1411.5000     1.3513     2.5894
 1412.0000     1.3496     2.5884
 1412.5000     1.3475     2.2364
 1413.0000     1.4332     2.2371
 1413.5000     1.3442     2.2378
 1414.0000     1.3426     1.9657
 1414.5000     1.3409     1.9847
 1415.0000     1.3391     1.9854
 1415.5000     1.4244     1.9861
 1416.0000     1.5097     1.9869
 1416.5000     1.5076     1.9876
 1417.0000     1.5103     1.9884
 1417.5000     1.5350     1.9891
 1418.0000     1.5597     2.4989
 1418.5000     1.5876     2.4996
 1419.0000     1.6733     2.5003
 1419.5000     1.6712     2.5047
 1420.0000     1.8435     2.0293
 1420.5000     1.8417     2.0118
 1421.0000     1.8400     2.0125
 1421.5000     1.8383     2.0314
 1422.0000     1.8365     2.0321
 1422.5000     1.8348     2.0328
 1423.0000     1.8329     2.0153
 1423.5000     1.8312     2.0160
 1424.0000     1.8515     2.0167
 1424.5000     1.8991     2.0174
 1425.0000     1.8260     2.0181
 1425.5000     1.8243     2.0189
 1426.0000     1.8226     2.0198
 1426.5000     1.9949     2.0178
 1427.0000     1.9930     2.0153
 1427.5000     1.9913     2.0129
 1428.0000     1.9896     2.0104
 1428.5000     2.1614     2.0079
 1429.0000     2.2237     2.0055
 1429.5000     2.3322     2.0030
 1430.0000     2.3304     2.0005
 1430.5000     2.3815     1.9980
 1431.0000     2.3268     1.9956
 1431.5000     2.4122     1.9931
