~VERSION INFORMATION
 VERS.                2.0:   CWLS LOG ASCII STANDARD - VERSION 2.0
 WRAP.                 NO:   ONE LINE PER DEPTH STEP
~WELL INFORMATION
#MNEM.UNIT      DATA TYPE    INFORMATION
#----------   ------------   ------------------------------
 STRT.F           34.0000:   START DEPTH
 STOP.F          496.0000:   STOP DEPTH
 STEP.F            0.5000:   STEP LENGTH
 NULL.          -999.2500:   NO VALUE
 COMP. LAWRENCE/ALLISON INC:   COMPANY
 WELL.   55-55 SX FI #3-3:   WELL
 FLD .             TEAPOT:   FIELD
 LOC .       S3 T38N R78W:   LOCATION
 CNTY.            NATRONA:   COUNTY
 STAT.            WYOMING:   STATE
 CTRY. UNITED STATES OF AMERICA:   COUNTRY
 SRVC.       Schlumberger:   SERVICE COMPANY
 DATE.        18-JUL-1982:   LOGDATE
 API .       490251089500:   API NUMBER
~CURVE INFORMATION
#MNEM.UNIT       API CODE    CURVE DESCRIPTION
#----------   ------------   ------------------------------
 DEPT.F                  :   
 CALD.IN     45 280 60 00:   CALIPER FROM DENSITY LOG
 GRD .GAPI   45 310 01 00:   GAMMA RAY FROM DENSITY LOG
 CORR.G/C3   45 356 01 00:   DENSITY CORRECTION
 RHOB.G/C3   45 350 01 00:   BULK DENSITY
 DPHI.DEC    45 890 12 00:   DENSITY POROSITY SANDSTONE
 SPR .MV     07 010 01 00:   SPONTANEOUS POTENTIAL
 ILD .OHMM   07 120 46 00:   INDUCTION LOG DEEP
 ILM .OHMM   07 120 44 00:   INDUCTION LOG MEDIUM
 SFL .OHMM   07 220 01 00:   SHALLOW FOCUSED LOG RESISTIVITY
~PARAMETER INFORMATION
#MNEM.UNIT          VALUE    DESCRIPTION
#----------   ------------   ------------------------------
 PD  .                 GL:   PERMANENT DATUM
 EPD .F              5167:   ELEVATION PERMANENT DATUM
 LMF .                 KB:   LOG MEASURED FROM
 DAPD.F                 9:   FEET ABOVE PERMANENT DATUM
 DMF .                 KB:   DRILLING MEASURED FROM
 EKB .F              5176:   KELLING BUSHING
 EDF .F                  :   DRILLING FLOOR
 EGL .F              5167:   GROUND LEVEL
 DATE.        18-JUL-1982:   RUN DATE
 RUN .                  1:   RUN NUMBER
 DD  .F               500:   DEPTH DRILLER
 DL  .F               499:   DEPTH LOGGER
 BLI .F               436:   BOTTOM LOG INTERVAL
 TLI .F                50:   TOP LOG INTERVAL
 CS  .IN           13.375:   CASING SIZE
 CBD .F                50:   CASING BOTTOM DRILLER
 CBL .F                50:   CASING BOTTOM LOGGER
 BS  .IN            12.25:   BIT SIZE
 BSD .F               500:   BIT SIZE AT DEPTH
 DFT .         KCL FILLED:   DRILLING FLUID TYPE
 DFD .                   :   DRILLING FLUID DENSITY
 DFV .                   :   DRILLING FLUID VISCOSITY
 DFPH.                   :   DRILLING FLUID PH
 DFL .                   :   DRILLING FLUID LOSS
 MSS .           WELLHEAD:   MUD SAMPLE SOURCE
 RMS .OHMM           2.82:   RESISTIVITY MUD SAMPLE
 MST .F                80:   MUD SAMPLE TEMPERATURE
 RMF .OHMM               :   RESISTIVITY MUD FILTRATE SAMPLE
 MFST.F                  :   MUD FILTRATE SAMPLE TEMPERATURE
 RMC .OHMM               :   RESISTIVITY MUD CAKE
 MCST.F                  :   MUD CAKE SAMPLE TEMPERATURE
 MFSS.                   :   MUD FILTRATE SAMPLE SOURCE
 MCSS.                   :   MUD CAKE SAMPLE SOURCE
 RMB .OHMM           2.62:   RESISTIVITY MUD AT BHT
 BHT .F                86:   BOTTOM HOLE TEMPERATURE
 TCS .HRS            1530:   TIME CURCULATED STOPPED
 TLAB.HRS            1800:   TIME LOGGER AT BOTTOM
 MRT .F                86:   MAXIMUM RECORDED TEMPERATURE
 LUN .               8035:   LOGGING UNIT NUMBER
 LUL .             CASPER:   LOGGING UNIT LOCATION
 ENGI.              PENNY:   RECORDING ENGINEER
 WITN.             TAYLOR:   WITNESSED BY
 CLNT.            A2DTECH:   CLIENT CODE
 ORIG.           5" PRINT:   ORIGIN OF DATA
 UWI .       490251089500:   UNIQUE WELL ID
 DICO. A2D Technologies, Inc.:   DIGITIZING COMPANY
 OS  .                   :   OTHER SERVICES
 PWI .                   :   PRIMARY WELL IDENTIFIER
 R1  . POROSITY WITH SANDSTONE:   REMARKS 1
 R2  .                   :   REMARKS 2
 LSRV.                   :   LOG MNEMONIC
~OTHER INFORMATION
~A   DEPT     CALD         GRD      CORR       RHOB       DPHI        SPR        ILD        ILM        SFL   
# ...
  435.5000    12.0708    67.4436     0.0006     2.4655     0.1265   -79.7208     8.9759     8.8714     9.5254
  436.0000    12.0710    67.2180     0.0043     2.4738     0.1220   -79.5761     9.1592     9.1792     9.3892
  436.5000    12.0561    68.3459     0.0065     2.4822     0.1195   -79.5806     9.2818     9.3037     9.3203
  437.0000    12.0555    69.6992     0.0088     2.4920     0.1186   -79.8836     9.3423     9.4931     9.3800
  437.5000    12.0263    71.5038     0.0148     2.5027     0.1076   -80.0374     9.4127     9.6219     9.4452
  438.0000    12.0265    73.5607     0.0223     2.5103     0.0976   -80.0419     9.5365     9.8177     9.5686
  438.5000    12.0417    74.4361     0.0268     2.5011     0.1037   -80.1957     9.7899    10.0187     9.7612
  439.0000    12.0418    74.2105     0.0169     2.4950     0.1104   -80.2002     9.9944    10.2239    10.0296
  439.5000    12.0420    72.8210     0.0131     2.4972     0.1146   -80.2047    10.1962    10.3626    10.3053
  440.0000    12.0421    71.2782     0.0138     2.5010     0.1098   -80.3585    10.4744    10.5735    10.6621
  440.5000    12.0423    70.1504     0.0168     2.5048     0.1049   -80.5123    10.6883    10.7900    10.8800
  441.0000    12.0124    68.1203     0.0213     2.5070     0.1024   -80.6661    10.9067    10.9350    11.1803
  441.5000    11.9974    65.8647     0.0235     2.5100     0.1015   -80.8198    11.0525    11.1589    11.4069
  442.0000    12.0126    65.4135     0.0242     2.5016     0.1030   -80.9736    11.2004    11.3098    11.5610
  442.5000    11.9977    66.5414     0.0189     2.4909     0.1073   -81.1274    11.3502    11.4623    11.7953
  443.0000    12.0280    67.8947     0.0135     2.4810     0.1155   -81.1319    11.5024    11.6163    11.8722
  443.5000    12.0432    68.3459     0.0082     2.4756     0.1220   -81.2857    11.5772    11.7725    11.9479
  444.0000    12.0282    68.1203     0.0043     2.4749     0.1210   -81.2902    11.6511    11.8603    12.0225
  444.5000    12.0284    66.3158     0.0081     2.4847     0.1149   -81.4440    11.7255    12.0076    12.0158
  445.0000    12.0436    65.4135     0.0111     2.4946     0.1113   -81.4485    11.8004    12.0017    12.0090
  445.5000    12.0588    64.7368     0.0080     2.4786     0.1134   -81.6022    11.8741    11.9959    12.0023
  446.0000    12.0590    64.5113     0.0041     2.4641     0.1253   -81.6068    11.8675    12.0733    11.9956
  446.5000    12.0591    64.7368     0.0049     2.4701     0.1287   -81.4609    11.9450    12.0674    12.0721
  447.0000    12.0593    65.4135     0.0101     2.4777     0.1197   -81.4666    11.9366    12.1454    12.0654
  447.5000    12.0594    66.9925     0.0146     2.4845     0.1146   -81.4428    11.9300    12.2238    12.0586
  448.0000    12.0596    68.1925     0.0176     2.4883     0.1137   -81.3252    12.0078    12.3027    12.0533
  448.5000    12.0597    66.9925     0.0183     2.4944     0.1127   -81.3298    11.9994    12.2964    12.1305
  449.0000    12.0448    66.3158     0.0190     2.4974     0.1103   -81.3343    11.9927    12.2904    12.1235
  449.5000    12.0149    66.3158     0.0197     2.5004     0.1076   -81.3388    11.9860    12.1997    12.1168
  450.0000    12.0000    67.8938     0.0212     2.5019     0.1067   -81.3433    11.9810    12.1601    12.1101
  450.5000    11.9997    70.5893     0.0181     2.4950     0.1076   -81.6522    12.0561    11.9348    12.1009
  451.0000    11.9844    72.3826     0.0105     2.4872     0.1092   -81.6612    11.8790    11.9265    11.9255
  451.5000    11.9991    74.1758     0.0021     2.4803     0.1174   -81.6701    11.7881    11.8361    11.7527
  452.0000    11.9988    71.9089     0.0043     2.4787     0.1220   -81.6791    11.6978    11.8280    11.7437
  452.5000    11.9985    68.2886     0.0103     2.4816     0.1178   -81.6880    11.6890    11.9040    11.7348
  453.0000    11.9982    67.3779     0.0103     2.4800     0.1111   -81.6970    11.7635    11.8937    11.7258
  453.5000    11.9979    70.7473     0.0042     2.4738     0.1144   -81.7059    11.8363    11.8855    11.7984
  454.0000    11.9976    71.4156     0.0034     2.4715     0.1239   -81.7149    11.8251    11.8773    11.7828
  454.5000    12.0124    70.2737     0.0071     2.4714     0.1270   -81.7238    11.6536    11.7873    11.6991
  455.0000    12.0271    70.9391     0.0139     2.4743     0.1209   -81.8820    11.4846    11.6173    11.5295
  455.5000    12.0267    71.6073     0.0168     2.4849     0.1130   -81.8910    11.3180    11.4497    11.3624
  456.0000    12.0416    71.3677     0.0198     2.4977     0.1035   -82.0492    11.0769    11.2846    11.1884
  456.5000    12.0563    71.1309     0.0228     2.5076     0.0987   -82.0581    10.9162    10.9689    10.9495
  457.0000    12.0409    72.4730     0.0250     2.5120     0.0959   -82.0671    10.7579    10.8107    10.7260
  457.5000    12.0406    74.9430     0.0250     2.5173     0.0938   -82.0760    10.6019    10.5813    10.5705
  458.0000    12.0554    76.9618     0.0257     2.5111     0.0929   -82.0850    10.4482    10.4287    10.4173
  458.5000    12.0400    77.6272     0.0248     2.4988     0.1027   -81.9424    10.2966    10.2783    10.3376
  459.0000    12.0397    77.6159     0.0218     2.4965     0.1100   -81.8043    10.1473    10.2004    10.1877
  459.5000    12.0243    76.9280     0.0187     2.4987     0.1102   -81.6618    10.0696    10.1230    10.1098
  460.0000    12.0240    76.2400     0.0156     2.5008     0.1091   -81.5215     9.9236     9.9770     9.8930
  460.5000    11.9937    77.1310     0.0102     2.4908     0.1119   -81.3812     9.7796     9.9002     9.8173
  461.0000    11.9934    78.6987     0.0046     2.4740     0.1189   -81.2409     9.6356     9.7585     9.6751
  461.5000    12.0081    81.1687     0.0001     2.4701     0.1235   -81.1006     9.4980     9.6812     9.4691
  462.0000    12.0078    83.8642    -0.0013     2.4700     0.1263   -81.5595     9.4209     9.4746     9.3319
  462.5000    12.0075    83.4018    -0.0005     2.4714     0.1236   -82.0162     9.3531     9.2725     9.3248
  463.0000    12.0072    82.7138     0.0010     2.4744     0.1205   -82.1744     9.3460     9.2075     9.3177
  463.5000    12.0069    82.0259     0.0039     2.4804     0.1181   -82.1834     9.4039     9.2013     9.3106
  464.0000    11.9916    81.5635     0.0076     2.4864     0.1154   -82.1923     9.4621     9.2672     9.3036
  464.5000    11.9913    81.3267     0.0166     2.4947     0.1084   -82.2013     9.4547     9.3814     9.3628
  465.0000    11.9910    79.5109     0.0257     2.5060     0.1047   -82.2102     9.4475     9.3746     9.3539
  465.5000    11.9907    78.3718     0.0196     2.5059     0.1026   -82.0677     9.4403     9.3681     9.2824
  466.0000    11.9753    77.4583     0.0127     2.5035     0.1048   -82.0789     9.3666     9.3604     9.2753
  466.5000    11.9750    77.8982     0.0081     2.4996     0.1093   -81.9363     9.2307     9.2894     9.1409
  467.0000    11.9747    78.7892     0.0058     2.4934     0.1106   -81.7960     9.0969     9.1554     9.0710
  467.5000    11.9744    78.5523     0.0034     2.4862     0.1121   -81.6580     8.9031     9.0860     8.9395
  468.0000    11.9892    76.5110     0.0004     2.4816     0.1140   -81.6669     8.8349     8.8932     8.8711
  468.5000    11.9889    75.5975     0.0003     2.4778     0.1167   -81.6758     8.7068     8.7650     8.7426
  469.0000    11.9886    76.4885     0.0010     2.4763     0.1195   -81.6848     8.6401     8.6385     8.6757
  469.5000    11.9872    77.8306     0.0032     2.4794     0.1204   -81.6937     8.5148     8.5139     8.6093
  470.0000    11.9880    78.9624     0.0062     2.4815     0.1177   -81.7027     8.4497     8.4494     8.5435
  470.5000    11.9726    76.0036     0.0099     2.4814     0.1186   -81.7116     8.3271     8.3853     8.4196
  471.0000    11.9723    73.9623     0.0069     2.4797     0.1192   -81.8698     8.2064     8.3218     8.2976
  471.5000    11.9720    75.3044     0.0060     2.4805     0.1177   -81.8788     8.1436     8.2017     8.1774
