~VERSION INFORMATION
 VERS.                2.0:   CWLS LOG ASCII STANDARD - VERSION 2.0
 WRAP.                 NO:   ONE LINE PER DEPTH STEP
~WELL INFORMATION
#MNEM.UNIT      DATA TYPE    INFORMATION
#----------   ------------   ------------------------------
 STRT.F           34.0000:   START DEPTH
 STOP.F         1014.5000:   STOP DEPTH
 STEP.F            0.5000:   STEP LENGTH
 NULL.          -999.2500:   NO VALUE
 COMP. FENIX & SCISSON INC:   COMPANY
 WELL.       NPR-3 #54-14:   WELL
 FLD .             TEAPOT:   FIELD
 LOC .      S14 T38N R78W:   LOCATION
 CNTY.            NATRONA:   COUNTY
 STAT.            WYOMING:   STATE
 CTRY. UNITED STATES OF AMERICA:   COUNTRY
 SRVC.            Unknown:   SERVICE COMPANY
 DATE.        20-APR-1978:   LOGDATE
 API .       490251062100:   API NUMBER
~CURVE INFORMATION
#MNEM.UNIT       API CODE    CURVE DESCRIPTION
#----------   ------------   ------------------------------
 DEPT.F                  :   
 SPR .MV     05 010 01 00:   SPONTANEOUS POTENTIAL FROM RES.
 SN  .OHMM   05 040 16 00:   SHORT NORMAL 16"
 ILD .OHMM   05 120 46 00:   INDUCTION LOG DEEP
 CALD.IN     45 280 60 00:   CALIPER
 GRD .GAPI   45 310 01 00:   GAMMA RAY FROM DENSITY LOG
 RHOB.G/C3   45 350 01 00:   BULK DENSITY
 DPOR.DEC    45 890 12 00:   DENSITY POROSITY SANDSTONE
 CORR.G/C3   45 356 01 00:   DENSITY CORRECTION
~PARAMETER INFORMATION
#MNEM.UNIT          VALUE    DESCRIPTION
#----------   ------------   ------------------------------
 PD  .                 GL:   PERMANENT DATUM
 EPD .F              5268:   ELEVATION PERMANENT DATUM
 LMF .                 KB:   LOG MEASURED FROM
 DAPD.F                 4:   FEET ABOVE PERMANENT DATUM
 DMF .                 KB:   DRILLING MEASURED FROM
 EKB .F              5272:   KELLING BUSHING
 EGL .F              5268:   GROUND LEVEL
 DATE.          4-20-1978:   RUN DATE
 RUN .                  1:   RUN NUMBER
 DD  .F              1030:   DEPTH DRILLER
 DL  .F              1021:   DEPTH LOGGER
 BLI .F              1014:   BOTTOM LOG INTERVAL
 TLI .F                50:   TOP LOG INTERVAL
 CS  .IN            8.625:   CASING SIZE
 CBD .F                40:   CASING BOTTOM DRILLER
 BS  .IN            7.875:   BIT SIZE
 BSD .F              1030:   BIT SIZE AT DEPTH
 DFT .                KCL:   DRILLING FLUID TYPE
 DFD .                8.6:   DRILLING FLUID DENSITY
 DFV .                 33:   DRILLING FLUID VISCOSITY
 DFPH.                 10:   DRILLING FLUID PH
 DFL .                  8:   DRILLING FLUID LOSS
 MSS .          FLOW LINE:   MUD SAMPLE SOURCE
 RMS .OHMM            .34:   RESISTIVITY MUD SAMPLE
 MST .F                64:   MUD SAMPLE TEMPERATURE
 RMF .OHMM            .36:   RESISTIVITY MUD FILTRATE SAMPLE
 MFST.F                60:   MUD FILTRATE SAMPLE TEMPERATURE
 RMC .OHMM            .48:   RESISTIVITY MUD CAKE
 MCST.F                68:   MUD CAKE SAMPLE TEMPERATURE
 MFSS.               MEAS:   MUD FILTRATE SAMPLE SOURCE
 MCSS.               MEAS:   MUD CAKE SAMPLE SOURCE
 RMB .OHMM            .29:   RESISTIVITY MUD AT BHT
 BHT .F                74:   BOTTOM HOLE TEMPERATURE
 TCS .HRS               6:   TIME CURCULATED STOPPED
 MRT .F                74:   MAXIMUM RECORDED TEMPERATURE
 LUN .               2958:   LOGGING UNIT NUMBER
 LUL .               CASP:   LOGGING UNIT LOCATION
 ENGI.             MILLER:   RECORDING ENGINEER
 WITN.           MCGINELY:   WITNESSED BY
 CLNT.            A2DTECH:   CLIENT CODE
 ORIG.       2", 5" PRINT:   ORIGIN OF DATA
 UWI .       490251062100:   UNIQUE WELL ID
 DICO. A2D Technologies, Inc.:   DIGITIZING COMPANY
~OTHER INFORMATION
~A   DEPT      SPR         SN        ILD       CALD         GRD      RHOB       DPOR       CORR   
# ...
  965.5000   -30.4513     9.7885     9.5273     7.9388    89.4963     2.4880     0.1116     0.0095
  966.0000   -30.5103     9.7520     9.4428     7.9394    88.9393     2.4918     0.1088     0.0086
  966.5000   -30.5615     9.7157     9.3591     7.9399    92.9667     2.4948     0.1087     0.0077
  967.0000   -30.8909     9.6795     9.2761     7.9405    96.9033     2.4944     0.1086     0.0068
  967.5000   -31.2430     9.6434     9.1939     7.9411   100.5319     2.4937     0.1085     0.0059
  968.0000   -31.5958     9.6074     9.1123     7.9416    99.7240     2.4931     0.1085     0.0050
  968.5000   -31.9479     9.5716     9.0315     7.9422    99.5144     2.4947     0.1084     0.0041
  969.0000   -32.2991     9.5359     8.9515     7.9428   100.2147     2.4953     0.1120     0.0037
  969.5000   -32.6006     9.5004     8.7946     7.9434   100.6175     2.4885     0.1164     0.0044
  970.0000   -32.7178     9.4650     8.5778     7.9439    99.4018     2.4815     0.1164     0.0050
  970.5000   -32.8375     9.4297     8.3663     7.9445    98.3483     2.4801     0.1159     0.0057
  971.0000   -32.9574     9.2398     8.1923     7.9451    98.3699     2.4807     0.1152     0.0064
  971.5000   -33.0773     9.0176     8.1353     7.9457    98.9498     2.4824     0.1145     0.0071
  972.0000   -33.1973     8.8008     8.0786     7.9462   101.5920     2.4858     0.1138     0.0067
  972.5000   -33.3173     8.5892     8.0224     7.9468   105.2652     2.4817     0.1131     0.0045
  973.0000   -33.4374     8.3827     7.9665     7.9474   108.2271     2.4857     0.1134     0.0024
  973.5000   -33.5578     8.1811     7.9075     7.9479   108.1958     2.4884     0.1164     0.0003
  974.0000   -33.6771     7.9621     7.6081     7.9485   106.9324     2.4805     0.1193    -0.0018
  974.5000   -33.7494     7.7389     7.1338     7.9491   105.5572     2.4749     0.1220    -0.0018
  975.0000   -33.6692     7.5254     6.4309     7.9497   104.7522     2.4626     0.1306    -0.0008
  975.5000   -33.5935     7.0923     5.7967     7.9503   106.0973     2.4497     0.1386     0.0002
  976.0000   -33.5184     6.6363     5.2239     7.9508   116.9203     2.4367     0.1448     0.0011
  976.5000   -33.4450     6.2097     4.9368     7.9514   129.1454     2.4239     0.1495     0.0084
  977.0000   -33.3558     5.8096     4.9392     7.9520   131.7850     2.4138     0.1543     0.0176
  977.5000   -32.8944     5.6154     4.9533     7.9525   120.4156     2.4295     0.1414     0.0236
  978.0000   -32.4154     5.6138     5.0003     7.9531   110.9263     2.4579     0.1280     0.0215
  978.5000   -31.9735     5.8316     5.0476     7.9537   101.2132     2.4864     0.1146     0.0097
  979.0000   -31.8697     6.4224     5.0955     7.9543    99.1451     2.5062     0.1016     0.0037
  979.5000   -31.7766     7.2047     5.2203     7.9548    99.7029     2.5081     0.1022     0.0053
  980.0000   -31.6825     8.0822     6.3845     7.9554   102.4814     2.5077     0.1028     0.0068
  980.5000   -31.5881     8.6183     7.4647     7.9560   104.8833     2.5074     0.1014     0.0083
  981.0000   -31.4937     8.9114     7.7622     7.9566   104.4075     2.5071     0.1000     0.0098
  981.5000   -31.3992     9.2159     8.0622     7.9567   103.8453     2.5076     0.0990     0.0113
  982.0000   -31.3048     9.5316     8.2748     7.9556   104.8485     2.5131     0.0968     0.0128
  982.5000   -31.2103     9.7573     8.2031     7.9546   106.3922     2.5188     0.0947     0.0125
  983.0000   -31.1161     9.8935     8.1438     7.9535   108.0151     2.5244     0.0925     0.0106
  983.5000   -31.0214    10.0317     8.1295     7.9525   107.0687     2.5289     0.0938     0.0087
  984.0000   -30.9827    10.1718     8.1295     7.9515   105.4488     2.5215     0.0971     0.0068
  984.5000   -30.9930    10.3139     8.3618     7.9505   104.0786     2.5136     0.1003     0.0050
  985.0000   -31.0042    10.4579     8.6018     7.9494   103.9458     2.5059     0.1024     0.0038
  985.5000   -31.0155    10.6039     8.8486     7.9484   103.6829     2.5036     0.1036     0.0058
  986.0000   -31.0268    10.7520     9.1025     7.9474   101.9889     2.5029     0.1040     0.0077
  986.5000   -31.0380    10.9022     9.3626     7.9463   100.2701     2.5032     0.1026     0.0096
  987.0000   -31.0492    11.0545     9.6114     7.9453    98.5777     2.5089     0.0987     0.0115
  987.5000   -31.0604    11.2089     9.6919     7.9443    98.1979     2.5147     0.0951     0.0134
  988.0000   -31.0716    11.3654     9.7767     7.9433    97.9931     2.5177     0.0941     0.0154
  988.5000   -31.0828    11.5241     9.8617     7.9422    96.2854     2.5199     0.0932     0.0149
  989.0000   -31.0940    11.6508     9.9475     7.9412    97.1156     2.5271     0.0911     0.0141
  989.5000   -31.1052    11.6395    10.0340     7.9402    98.8226     2.5333     0.0897     0.0133
  990.0000   -31.1164    11.6304    10.1213     7.9391    99.3491     2.5247     0.0931     0.0125
  990.5000   -31.1276    11.6209    10.2094     7.9381    99.5887     2.5141     0.0964     0.0117
  991.0000   -31.1388    11.6117    10.2984     7.9371    99.8922     2.5109     0.0977     0.0110
  991.5000   -31.1500    11.6024    10.3872     7.9360   100.5029     2.5112     0.0988     0.0102
  992.0000   -31.1612    11.5931    10.4606     7.9350   100.6400     2.5117     0.1002     0.0094
  992.5000   -31.1722    11.5839    10.5171     7.9340    98.8173     2.5117     0.1025     0.0086
  993.0000   -31.2016    11.5746    10.5745     7.9330    94.7320     2.5057     0.1049     0.0078
  993.5000   -31.2368    11.5653    10.6322     7.9319    91.9298     2.4998     0.1058     0.0070
  994.0000   -31.2721    11.5561    10.6902     7.9309    92.6770     2.4993     0.1058     0.0062
  994.5000   -31.3074    11.5470    10.7223     7.9299    92.5461     2.5026     0.1055     0.0056
  995.0000   -31.3426    11.5281    10.6312     7.9288    91.1038     2.4987     0.1053     0.0036
  995.5000   -31.3779    11.5051    10.5682     7.9278    92.0173     2.4979     0.1056     0.0050
  996.0000   -31.4132    11.4819    10.5255     7.9268    93.0973     2.5040     0.1062     0.0067
  996.5000   -31.4484    11.4587    10.5260     7.9257    94.1784     2.5010     0.1042     0.0083
  997.0000   -31.4837    11.4356    10.5262     7.9247    94.5855     2.4982     0.1015     0.0099
  997.5000   -31.5189    11.4125    10.5262     7.9237    93.8810     2.5055     0.0987     0.0116
  998.0000   -31.5542    11.3895    10.5264     7.9227    92.0923     2.5130     0.0959     0.0132
  998.5000   -31.5894    11.3666    10.5262     7.9216    90.4484     2.5204     0.0931     0.0132
  999.0000   -31.6247    11.3436    10.5262     7.9206    90.9071     2.5219     0.0922     0.0128
  999.5000   -31.6600    11.3208    10.4269     7.9196    93.3106     2.5170     0.0947     0.0125
 1000.0000   -31.6952    11.2979    10.3335     7.9186    95.9424     2.5123     0.0971     0.0121
 1000.5000   -31.7305    11.2750    10.2410     7.9176    98.5855     2.5101     0.0981     0.0117
 1001.0000   -31.7657    11.2519    10.1493     7.9106   101.1845     2.5143     0.0959     0.0114
 1001.5000   -31.8010    11.2273    10.0585     7.9015   102.8935     2.5190     0.0942     0.0110
 1002.0000   -31.8362    11.0723     9.9684     7.8923   101.5455     2.5205     0.0955     0.0107
 1002.5000   -31.8715    10.9103     9.8792     7.8831    99.4673     2.5180     0.0968     0.0103
 1003.0000   -31.9067    10.7506     9.7907     7.8740   101.9993     2.5154     0.0976     0.0099
 1003.5000   -31.9420    10.5933     9.7031     7.8648   106.5103     2.5130     0.0976     0.0096
 1004.0000   -31.9773    10.4381     9.5563     7.8556   110.7503     2.5130     0.0976     0.0092
 1004.5000   -32.0125    10.2852     9.3989     7.8464   109.9022     2.5129     0.0959     0.0089
 1005.0000   -32.0478    10.1448     9.2440     7.8381   109.0982     2.5162     0.0943     0.0085
 1005.5000   -32.0830    10.1347     9.0917     7.8432   109.1035     2.5209     0.0932     0.0082
