~VERSION INFORMATION
 VERS.                2.0:   CWLS LOG ASCII STANDARD - VERSION 2.0
 WRAP.                 NO:   ONE LINE PER DEPTH STEP
~WELL INFORMATION
#MNEM.UNIT      DATA TYPE    INFORMATION
#----------   ------------   ------------------------------
 STRT.F           28.0000:   START DEPTH
 STOP.F          461.0000:   STOP DEPTH
 STEP.F            0.5000:   STEP LENGTH
 NULL.          -999.2500:   NO VALUE
 COMP. FENIX & SCISSON INC:   COMPANY
 WELL.       NPR-3 #47S-3:   WELL
 FLD .             TEAPOT:   FIELD
 LOC .       S3 T38N R78W:   LOCATION
 CNTY.            NATRONA:   COUNTY
 STAT.            WYOMING:   STATE
 CTRY. UNITED STATES OF AMERICA:   COUNTRY
 SRVC.            Unknown:   SERVICE COMPANY
 DATE.        06-JUL-1978:   LOGDATE
 API .       490251066400:   API NUMBER
~CURVE INFORMATION
#MNEM.UNIT       API CODE    CURVE DESCRIPTION
#----------   ------------   ------------------------------
 DEPT.F                  :   
 SPR .MV     05 010 01 00:   SPONTANEOUS POTENTIAL FROM RES.
 ILD .OHMM   05 120 46 00:   INDUCTION LOG DEEP
 SN  .OHMM   05 040 16 00:   SHORT NORMAL 16"
 GRD .GAPI   45 310 01 00:   GAMMA RAY FROM DENSITY LOG
 CALD.IN     45 280 60 00:   CALIPER FROM DENSITY LOG
 CORR.G/C3   45 356 01 00:   DENSITY CORRECTION
 DEN .G/C3   45 350 01 00:   DENSTIY
 DPHI.DEC    45 890 12 00:   DENSITY POROSITY SANDSTONE
~PARAMETER INFORMATION
#MNEM.UNIT          VALUE    DESCRIPTION
#----------   ------------   ------------------------------
 PD  .                 GL:   PERMANENT DATUM
 EPD .F              5202:   ELEVATION PERMANENT DATUM
 LMF .                 KB:   LOG MEASURED FROM
 DAPD.F                 4:   FEET ABOVE PERMANENT DATUM
 DMF .                 KB:   DRILLING MEASURED FROM
 EKB .F              5206:   KELLING BUSHING
 EGL .F              5202:   GROUND LEVEL
 DATE.        06-JUL-1978:   RUN DATE
 RUN .                  1:   RUN NUMBER
 DD  .F               460:   DEPTH DRILLER
 DL  .F               461:   DEPTH LOGGER
 BLI .F               461:   BOTTOM LOG INTERVAL
 TLI .F                40:   TOP LOG INTERVAL
 CS  .IN            8.625:   CASING SIZE
 CBD .F                40:   CASING BOTTOM DRILLER
 CBL .F                40:   CASING BOTTOM LOGGER
 BS  .IN            7.875:   BIT SIZE
 BSD .F               460:   BIT SIZE AT DEPTH
 DFT .                KCL:   DRILLING FLUID TYPE
 DFD .                8.6:   DRILLING FLUID DENSITY
 DFV .                 33:   DRILLING FLUID VISCOSITY
 DFPH.                9.5:   DRILLING FLUID PH
 MSS .           FLOWLINE:   MUD SAMPLE SOURCE
 TCS .HRS               1:   TIME CURCULATED STOPPED
 LUN .               2858:   LOGGING UNIT NUMBER
 LUL .               CASP:   LOGGING UNIT LOCATION
 ENGI.           REYNOLDS:   RECORDING ENGINEER
 WITN.           MCGENLEY:   WITNESSED BY
 CLNT.            A2DTECH:   CLIENT CODE
 ORIG.           5" PRINT:   ORIGIN OF DATA
 UWI .       490251066400:   UNIQUE WELL ID
 DICO. A2D Technologies, Inc.:   DIGITIZING COMPANY
~OTHER INFORMATION
~A   DEPT      SPR        ILD         SN         GRD      CALD       CORR        DEN       DPHI   
# ...
  109.0000   -28.3449    10.8850    11.5942    97.8573     7.5958     0.0224     2.4479     0.1393
  109.5000   -27.8778    10.8917    11.5225    97.8725     7.5970     0.0225     2.4434     0.1358
  110.0000   -28.0060    10.9737    11.4513    97.7308     7.5982     0.0227     2.4433     0.1330
  110.5000   -29.3343    11.0562    11.4610    97.7497     7.5994     0.0244     2.4528     0.1320
  111.0000   -30.1968    11.1394    11.4688    97.3055     7.5853     0.0260     2.4552     0.1323
  111.5000   -30.1761    11.1463    11.5559    96.4018     7.5865     0.0277     2.4560     0.1329
  112.0000   -30.7698    11.0766    11.5637    95.3450     7.5724     0.0308     2.4561     0.1307
  112.5000   -30.7292    11.0073    11.6515    94.5945     7.5736     0.0325     2.4569     0.1297
  113.0000   -30.8582    11.0143    11.6594    94.1501     7.5748     0.0356     2.4593     0.1195
  113.5000   -31.7252    11.0211    11.6674    94.6248     7.5761     0.0388     2.4733     0.1142
  114.0000   -34.0855    11.1055    11.5932    94.9463     7.5775     0.0389     2.4904     0.1111
  114.5000   -34.6652    11.1123    11.5215    94.3395     7.5788     0.0376     2.4843     0.1132
  115.0000   -34.6394    11.0411    11.4519    93.5835     7.5800     0.0378     2.4743     0.1169
  115.5000   -34.6188    11.0496    11.3033    93.1542     7.5812     0.0379     2.4712     0.1197
  116.0000   -34.5981    10.9788    11.1562    93.5028     7.5824     0.0396     2.4690     0.1243
  116.5000   -34.5774    10.8370    10.9358    94.8728     7.5836     0.0427     2.4668     0.1214
  117.0000   -34.5568    10.6220    10.7171    96.8788     7.6002     0.0504     2.4684     0.1261
  117.5000   -34.3873    10.3383    10.5801    97.5065     7.6320     0.0625     2.4653     0.1285
  118.0000   -34.2178    10.1332    10.4426    97.9811     7.6639     0.0731     2.4631     0.1265
  118.5000   -34.9412    10.0698    10.3780    98.6089     7.6958     0.0837     2.4655     0.1240
  119.0000   -36.7063    10.0776    10.3868    98.9303     7.7124     0.0928     2.4671     0.1250
  119.5000   -37.2808    10.0837    10.3939    98.4861     7.7136     0.0975     2.4656     0.1265
  120.0000   -38.3018    10.1596    10.4010    97.7356     7.7148     0.1145     2.4649     0.1274
  120.5000   -39.6205    10.1658    10.4080    97.2875     7.7160     0.1416     2.4658     0.1209
  121.0000   -40.0514    10.1020    10.4151    96.9964     7.7172     0.1596     2.4736     0.1143
  121.5000   -40.1796    10.0389    10.3507    97.3217     7.7184     0.1608     2.4907     0.1069
  122.0000   -40.4565     9.8400    10.3577    99.3277     7.7197     0.1431     2.5063     0.0988
  122.5000   -40.5804     9.6448    10.3648    98.8834     7.7209     0.1149     2.5148     0.0926
  123.0000   -40.7076     9.4534    10.3718    98.2860     7.7221     0.0867     2.5171     0.0907
  123.5000   -40.6870     9.1369    10.3789    97.9911     7.7080     0.0525     2.5133     0.0919
  124.0000   -40.6663     8.9531    10.3859    97.7000     7.7092     0.0363     2.4848     0.1008
  124.5000   -40.7946     8.8408    10.3930    97.5621     7.7104     0.0275     2.4694     0.1224
  125.0000   -41.0714     8.9076    10.4001    97.7342     7.7117     0.0246     2.4648     0.1255
  125.5000   -41.9534     9.0377    10.4071    97.9025     7.7131     0.0233     2.4603     0.1295
  126.0000   -42.8158     9.1058    10.4142    98.0708     7.7143     0.0235     2.4572     0.1313
  126.5000   -42.7952     9.1743    10.4213    97.9328     7.7156     0.0236     2.4589     0.1248
  127.0000   -43.5377     9.2433    10.4285    97.4886     7.7168     0.0238     2.4636     0.1257
  127.5000   -44.2659     9.2490    10.4356    96.7356     7.7180     0.0240     2.4636     0.1238
  128.0000   -44.3701     9.2546    10.4428    96.4470     7.7192     0.0241     2.4599     0.1286
  128.5000   -44.3443     9.1968    10.4500    96.6156     7.7204     0.0243     2.4553     0.1330
  129.0000   -44.3236     9.1393    10.3851    97.0899     7.7060     0.0245     2.4515     0.1314
  129.5000   -44.4517     9.0808    10.3208    95.9837     7.7225     0.0246     2.4523     0.1308
  130.0000   -45.4727     8.9621    10.2587    95.2825     7.7084     0.0248     2.4532     0.1316
  130.5000   -46.9402     8.7857    10.2657    95.3015     7.7099     0.0249     2.4517     0.1363
  131.0000   -47.0683     8.6695    10.2005    95.3167     7.7111     0.0251     2.4471     0.1371
  131.5000   -47.0477     8.4975    10.0696    97.0164     7.7124     0.0254     2.4426     0.1402
  132.0000   -47.9199     8.2731     9.9387   100.2475     7.7136     0.0284     2.4395     0.1408
  132.5000   -48.3508     8.1089     9.8755   100.7221     7.7148     0.0288     2.4427     0.1380
  133.0000   -48.3250     8.0581     9.7471   100.7373     7.7160     0.0303     2.4459     0.1376
  133.5000   -48.7507     8.0078     9.5560   100.9056     7.7172     0.0304     2.4483     0.1373
  134.0000   -49.1765     8.0128     9.4301   101.0739     7.7184     0.0306     2.4499     0.1311
  134.5000   -49.3098     8.0177     9.3075   101.0891     7.7196     0.0323     2.4523     0.1304
  135.0000   -49.4380     8.0227     9.3154   100.7942     7.7208     0.0324     2.4531     0.1353
  135.5000   -49.2633     8.0276     9.3862   100.3537     7.7067     0.0326     2.4524     0.1341
  136.0000   -49.2427     8.0881     9.4574   100.0626     7.7080     0.0342     2.4594     0.1282
  136.5000   -49.2220     8.1582     9.5292    99.7677     7.7092     0.0374     2.4587     0.1281
  137.0000   -49.0525     8.3252     9.6016    99.6298     7.7107     0.0390     2.4580     0.1287
  137.5000   -49.0319     8.3879     9.5369   100.1081     7.7119     0.0407     2.4573     0.1290
  138.0000   -49.1607     8.3341     9.4181   100.5827     7.7131     0.0393     2.4628     0.1252
  138.5000   -49.7346     8.3405     9.4899   101.5167     7.7143     0.0380     2.4675     0.1243
  139.0000   -50.7556     8.3456     9.4977   101.3788     7.7155     0.0367     2.4683     0.1249
  139.5000   -51.1815     8.4084     9.4374   100.9341     7.7166     0.0369     2.4692     0.1248
  140.0000   -51.0119     8.5302     9.4454   101.5623     7.7180     0.0385     2.4692     0.1208
  140.5000   -50.9911     8.5355     9.4518   102.8026     7.7192     0.0402     2.4701     0.1226
  141.0000   -51.1290     8.4808     9.4582   101.7458     7.7204     0.0403     2.4694     0.1238
  141.5000   -51.7232     8.4873     9.5300   102.0740     7.7216     0.0405     2.4695     0.1179
  142.0000   -51.9709     8.4925     9.6024   102.8606     7.7577     0.0407     2.4742     0.1163
  142.5000   -51.9494     8.5551     9.6089   102.1078     7.7270     0.0393     2.4750     0.1194
  143.0000   -52.5197     8.5016     9.6819   100.7345     7.7117     0.0380     2.4728     0.1212
  143.5000   -52.6530     8.6261     9.7554   101.8216     7.7117     0.0382     2.4728     0.1202
  144.0000   -53.2224     8.8115     9.7620   100.3092     7.7117     0.0383     2.4737     0.1180
  144.5000   -53.6533     8.6963     9.7687    99.8612     7.7117     0.0370     2.4737     0.1195
  145.0000   -53.4787     8.5825     9.7753   101.2584     7.7121     0.0357     2.4676     0.1223
  145.5000   -53.7557     8.4123     9.7820   102.9581     7.7127     0.0344     2.4631     0.1297
  146.0000   -54.3354     8.3025     9.7886   103.7390     7.7133     0.0345     2.4678     0.1216
  146.5000   -54.0120     8.1940     9.7953   103.7542     7.7139     0.0332     2.4678     0.1237
  147.0000   -54.5865     8.1991     9.8020   103.1568     7.7145     0.0334     2.4679     0.1243
  147.5000   -54.8687     8.2042     9.8087   104.5502     7.7151     0.0335     2.4672     0.1234
  148.0000   -54.9968     8.1527     9.8155   105.0248     7.7157     0.0337     2.4665     0.1233
  148.5000   -54.9710     8.1590     9.8222   104.7337     7.7163     0.0323     2.4658     0.1243
  149.0000   -55.1043     8.1640     9.8303   104.4388     7.7168     0.0310     2.4659     0.1266
