~VERSION INFORMATION
 VERS.                2.0:   CWLS LOG ASCII STANDARD - VERSION 2.0
 WRAP.                 NO:   ONE LINE PER DEPTH STEP
~WELL INFORMATION
#MNEM.UNIT      DATA TYPE    INFORMATION
#----------   ------------   ------------------------------
 STRT.F           31.0000:   START DEPTH
 STOP.F         1450.0000:   STOP DEPTH
 STEP.F            0.5000:   STEP LENGTH
 NULL.          -999.2500:   NO VALUE
 COMP. FENIX & SCISSON INC:   COMPANY
 WELL.    NPR-3 SX #86-14:   WELL
 FLD .             TEAPOT:   FIELD
 LOC .      S14 T38N R78W:   LOCATION
 CNTY.            NATRONA:   COUNTY
 STAT.            WYOMING:   STATE
 CTRY. UNITED STATES OF AMERICA:   COUNTRY
 SRVC.            Unknown:   SERVICE COMPANY
 DATE.        05-APR-1978:   LOGDATE
 API .       490251060800:   API NUMBER
~CURVE INFORMATION
#MNEM.UNIT       API CODE    CURVE DESCRIPTION
#----------   ------------   ------------------------------
 DEPT.F                  :   
 CALD.IN     45 280 60 00:   CALIPER
 GRD .GAPI   45 310 01 00:   GAMMA RAY FROM DENSITY LOG
 RHOB.G/C3   45 350 01 00:   BULK DENSITY
 CORR.G/C3   45 356 01 00:   DENSITY CORRECTION
 DPHI.DEC    45 890 12 00:   DENSITY POROSITY SANDSTONE
 SPR .MV     05 010 01 00:   SPONTANEOUS POTENTIAL FROM RES.
 SN  .OHMM   05 040 16 00:   SHORT NORMAL 16"
 ILD .OHMM   05 120 46 00:   INDUCTION LOG DEEP
~PARAMETER INFORMATION
#MNEM.UNIT          VALUE    DESCRIPTION
#----------   ------------   ------------------------------
 PD  .                 GL:   PERMANENT DATUM
 EPD .F              5367:   ELEVATION PERMANENT DATUM
 LMF .                 KB:   LOG MEASURED FROM
 DMF .                 KB:   DRILLING MEASURED FROM
 EKB .F              5371:   KELLING BUSHING
 EGL .F              5369:   GROUND LEVEL
 DATE.           4-5-1978:   RUN DATE
 RUN .                  1:   RUN NUMBER
 DD  .F              1455:   DEPTH DRILLER
 DL  .F              1446:   DEPTH LOGGER
 BLI .F              1440:   BOTTOM LOG INTERVAL
 TLI .F               100:   TOP LOG INTERVAL
 CS  .IN            8.625:   CASING SIZE
 CBD .F                40:   CASING BOTTOM DRILLER
 BS  .IN            7.875:   BIT SIZE
 BSD .F              1455:   BIT SIZE AT DEPTH
 DFT .                KCL:   DRILLING FLUID TYPE
 DFD .                8.6:   DRILLING FLUID DENSITY
 DFV .                 31:   DRILLING FLUID VISCOSITY
 DFPH.                 10:   DRILLING FLUID PH
 DFL .                8.4:   DRILLING FLUID LOSS
 MSS .           FLOWLINE:   MUD SAMPLE SOURCE
 RMS .OHMM            .95:   RESISTIVITY MUD SAMPLE
 MST .F                54:   MUD SAMPLE TEMPERATURE
 RMF .OHMM            .95:   RESISTIVITY MUD FILTRATE SAMPLE
 MFST.F                62:   MUD FILTRATE SAMPLE TEMPERATURE
 RMC .OHMM             .8:   RESISTIVITY MUD CAKE
 MCST.F                62:   MUD CAKE SAMPLE TEMPERATURE
 MFSS.               MEAS:   MUD FILTRATE SAMPLE SOURCE
 RMB .OHMM            .66:   RESISTIVITY MUD AT BHT
 BHT .F                78:   BOTTOM HOLE TEMPERATURE
 TCS .HRS               6:   TIME CURCULATED STOPPED
 MRT .F                78:   MAXIMUM RECORDED TEMPERATURE
 LUN .               2958:   LOGGING UNIT NUMBER
 LUL .               CASP:   LOGGING UNIT LOCATION
 ENGI.             MILLER:   RECORDING ENGINEER
 WITN.           MCGINLEY:   WITNESSED BY
 CLNT.            A2DTECH:   CLIENT CODE
 ORIG.        2" 5" PRINT:   ORIGIN OF DATA
 UWI .       490251060800:   UNIQUE WELL ID
 DICO. A2D Technologies, Inc.:   DIGITIZING COMPANY
~OTHER INFORMATION
~A   DEPT     CALD         GRD      RHOB       CORR       DPHI        SPR         SN        ILD   
# ...
  962.5000     8.0300    83.8959     2.4679     0.0020     0.0998   -40.5493     8.6164     6.7486
  963.0000     8.0300    84.4908     2.4450     0.0152     0.1050   -40.4345     8.5953     6.7155
  963.5000     8.0300    87.0541     2.4612     0.0264     0.1066   -40.5193     8.5830     6.6825
  964.0000     8.0300    89.8690     2.4572     0.0254     0.1082   -40.6070     8.7211     6.6498
  964.5000     8.0299    90.9860     2.4533     0.0242     0.1088   -40.5787     8.9064     6.6253
  965.0000     8.0300    89.2952     2.4527     0.0249     0.1076   -40.5310     8.8982     6.7265
  965.5000     8.0374    85.4123     2.4523     0.0292     0.1074   -40.4844     8.8856     6.8090
  966.0000     8.0805    84.6221     2.4592     0.0334     0.1013   -40.4324     8.8730     6.8927
  966.5000     8.1234    86.4305     2.4677     0.0359     0.0978   -40.2559     8.8604     6.9775
  967.0000     8.1301    87.9466     2.4764     0.0277     0.1017   -39.5705     8.8478     7.0182
  967.5000     8.1301    84.6581     2.4725     0.0193     0.1038   -38.9133     8.8353     7.0402
  968.0000     8.1300    83.8222     2.4648     0.0108     0.1058   -38.2646     8.8244     7.0622
  968.5000     8.1294    85.8704     2.4648     0.0077     0.1116   -37.7908     8.9498     7.1027
  969.0000     8.1281    90.6313     2.4557     0.0062     0.1138   -37.5958     9.0622     7.1504
  969.5000     8.1268    96.7492     2.4472     0.0062     0.1086   -37.3255     9.1863     7.1983
  970.0000     8.1255    96.5973     2.4582     0.0108     0.1033   -36.7191     9.3650     7.2467
  970.5000     8.1242    96.4791     2.4667     0.0142     0.1072   -36.2148     9.5472     7.3305
  971.0000     8.1229    95.5222     2.4607     0.0137     0.1122   -36.2259     9.7706     7.4413
  971.5000     8.1216    96.1266     2.4548     0.0133     0.1071   -36.2277     9.7703     7.5536
  972.0000     8.1203    97.9578     2.4553     0.0129     0.1005   -36.2290     9.7387     7.6676
  972.5000     8.1189    97.7941     2.4716     0.0124     0.0973   -36.2232     9.7131     7.7833
  973.0000     8.1176    96.6864     2.4747     0.0104     0.1008   -36.0870     9.6798     7.8356
  973.5000     8.1163    90.5667     2.4721     0.0064     0.1043   -35.6796     9.7291     7.8522
  974.0000     8.1150    88.6161     2.4662     0.0024     0.1079   -35.2784     9.8052     7.8690
  974.5000     8.1137    91.9202     2.4546     0.0038     0.1085   -34.8870     9.8820     7.8857
  975.0000     8.1125    94.6195     2.4477     0.0117     0.1067   -34.6156     9.9594     7.9415
  975.5000     8.1112    96.4855     2.4546     0.0195     0.1039   -34.4468    10.0373     8.1006
  976.0000     8.1086    92.4563     2.4662     0.0263     0.1001   -34.5049    10.1159     8.2701
  976.5000     8.0981    88.4550     2.4722     0.0257     0.0962   -34.5605    10.1371     8.4356
  977.0000     8.0875    88.8088     2.4746     0.0251     0.0977   -34.6186    10.1364     8.6169
  977.5000     8.0769    89.7772     2.4765     0.0246     0.0998   -34.6307    10.3314     8.7008
  978.0000     8.0663    90.6386     2.4753     0.0253     0.0861   -34.6309    10.5939     8.7521
  978.5000     8.0557    89.5333     2.4754     0.0303     0.0913   -34.6309    10.8176     8.8033
  979.0000     8.0451    88.3223     2.4962     0.0291     0.0962   -34.6309    10.8173     8.8548
  979.5000     8.0345    87.8838     2.4754     0.0290     0.0883   -34.6297    10.8437     8.9064
  980.0000     8.0239    88.8709     2.5113     0.0436     0.0825   -34.5619    10.8672     8.9798
  980.5000     8.0133    89.7812     2.4963     0.0396     0.0969   -34.3929    10.8909     9.0531
  981.0000     8.0081    87.7474     2.4759     0.0459     0.0986   -34.2223    10.9146     9.1271
  981.5000     8.0052    86.3114     2.4723     0.0522     0.0979   -34.0649    10.9384     9.2017
  982.0000     8.0024    89.9567     2.4681     0.0413     0.1026   -33.3549    10.9622     9.2420
  982.5000     7.9996    92.3114     2.4567     0.0345     0.1128   -32.3570    10.9861     9.1488
  983.0000     7.9968    90.2675     2.4448     0.0422     0.1161   -31.8301    11.0173     9.0856
  983.5000     7.9940    87.6175     2.4425     0.0507     0.1155   -31.8074    10.9349     9.0228
  984.0000     7.9911    87.0932     2.4441     0.0525     0.1064   -31.7843    10.8174     8.9605
  984.5000     7.9969    87.0737     2.4543     0.0433     0.1001   -31.7625    10.7012     8.8940
  985.0000     8.0084    87.3818     2.4662     0.0341     0.0993   -31.7401    10.5863     8.7966
  985.5000     8.0199    91.0875     2.4698     0.0250     0.0999   -31.7176    10.4726     8.7003
  986.0000     8.0315    94.0185     2.4749     0.0180     0.1019   -31.6952    10.3601     8.5830
  986.5000     8.0430    92.0223     2.4645     0.0181     0.1013   -31.6727    10.2489     8.6215
  987.0000     8.0546    89.6301     2.4648     0.0222     0.0976   -31.6504    10.1375     8.6719
  987.5000     8.0661    89.4730     2.4707     0.0280     0.0940   -31.6366    10.1044     8.7231
  988.0000     8.0778    93.9831     2.4794     0.0339     0.0886   -31.6367    10.0628     8.7747
  988.5000     8.0895    93.1862     2.4897     0.0347     0.0934   -31.6378    10.0213     8.8239
  989.0000     8.0881    92.4830     2.4822     0.0352     0.0958   -31.6425     9.9801     8.7403
  989.5000     8.0858    92.4982     2.4753     0.0357     0.0958   -31.6067     9.9389     8.6627
  990.0000     8.0836    92.4821     2.4776     0.0359     0.0938   -30.8466     9.8980     8.6863
  990.5000     8.0814    92.0281     2.4804     0.0470     0.0930   -30.1083     9.8604     8.7089
  991.0000     8.0792    94.9657     2.4824     0.0522     0.0940   -28.7170     9.8602     8.7316
  991.5000     8.0770    96.1674     2.4819     0.0520     0.0950   -27.2907     9.8601     8.7432
  992.0000     8.0749    91.3324     2.4610     0.0388     0.1080    -2.3481     9.8527     8.5749
  992.5000     8.0727    88.9089     2.4294     0.0247     0.1209     0.0465     9.8285     8.4469
  993.0000     8.0705    89.7477     2.4122     0.0293     0.1328     0.2775     9.8043     8.3208
  993.5000     8.0683    91.2765     2.4132     0.0405     0.1329     0.1819     9.7802     8.1965
  994.0000     8.0661    92.8560     2.4317     0.0516     0.1170     0.1254     9.7561     8.0742
  994.5000     8.0639    94.4467     2.4523     0.0432     0.1087     0.1230     9.7320     8.0133
  995.0000     8.0617    96.0476     2.4562     0.0329     0.1061     0.1628     9.7082     7.9717
  995.5000     8.0596    95.3450     2.4577     0.0096     0.1104     0.2032     9.6843     7.9302
  996.0000     8.0574    94.3146     2.4521     0.0027     0.1158     0.2436     9.5934     7.8695
  996.5000     8.0552    95.5806     2.4466     0.0021     0.1164     0.2847     9.4863     7.7275
  997.0000     8.0530    96.9014     2.4434     0.0032     0.1169     0.2752     9.3803     7.5888
  997.5000     8.0508    96.0574     2.4429     0.0060     0.1142     0.2377     9.2756     7.4525
  998.0000     8.0522    95.2136     2.4522     0.0087     0.1107     0.1994     9.1720     7.3188
  998.5000     8.0556    95.8512     2.4601     0.0098     0.1107     0.1612     9.0741     7.1874
  999.0000     8.0590    98.0105     2.4526     0.0088     0.1127     0.1230     8.9781     7.0680
  999.5000     8.0624    98.9381     2.4462     0.0067     0.1114     0.0849     8.8830     6.9893
 1000.0000     8.0658    95.5178     2.4573     0.0005     0.1063     0.0467     8.7432     6.9164
 1000.5000     8.0692    92.1843     2.4617    -0.0056     0.1068     0.0085     8.7548     6.8454
 1001.0000     8.0727    89.0233     2.4338    -0.0053     0.1072    -0.0301     8.7778     6.8103
 1001.5000     8.0761    86.3060     2.4307    -0.0006     0.1080    -0.0682     8.8007     6.8106
 1002.0000     8.0795    85.7269     2.4478     0.0040     0.1185    -0.0781     8.8238     6.9079
 1002.5000     8.0829    90.0229     2.4458     0.0037     0.1134     0.0741     8.8469     6.9807
