~VERSION INFORMATION
 VERS.                2.0:   CWLS LOG ASCII STANDARD - VERSION 2.0
 WRAP.                 NO:   ONE LINE PER DEPTH STEP
~WELL INFORMATION
#MNEM.UNIT      DATA TYPE    INFORMATION
#----------   ------------   ------------------------------
 STRT.F           60.0000:   START DEPTH
 STOP.F          945.0000:   STOP DEPTH
 STEP.F            0.5000:   STEP LENGTH
 NULL.          -999.2500:   NO VALUE
 COMP.          U.S. NAVY:   COMPANY
 WELL. RES 3 TEAPOT DOM #48S-35:   WELL
 FLD .           TEAPOT E:   FIELD
 LOC .      S35 T39N R78W:   LOCATION
 CNTY.            NATRONA:   COUNTY
 STAT.            WYOMING:   STATE
 CTRY. UNITED STATES OF AMERICA:   COUNTRY
 SRVC.       Schlumberger:   SERVICE COMPANY
 DATE.        15-JUL-1964:   LOGDATE
 API .       490250649200:   API NUMBER
~CURVE INFORMATION
#MNEM.UNIT       API CODE    CURVE DESCRIPTION
#----------   ------------   ------------------------------
 DEPT.F                  :   
 SPR .MV     05 010 01 00:   SPONTANEOUS POTENTIAL FROM RES.
 ILD .OHMM   05 120 46 00:   INDUCTION LOG DEEP
 ASN .OHMM   05 041 18 00:   AMPLIFIED SHORT NORMAL 18"
 CILD.MMHO   05 110 46 00:   CONDUCTIVITY INDUCTION LOG DEEP
 CALS.IN     60 280 50 00:   CALIPER FROM SONIC LOG
 DT  .US/F   60 520 00 00:   INTERVAL TRANSIT TIME
 GR  .GAPI   30 310 01 00:   GAMMA RAY
~PARAMETER INFORMATION
#MNEM.UNIT          VALUE    DESCRIPTION
#----------   ------------   ------------------------------
 PD  .                 GL:   PERMANENT DATUM
 EPD .F              5123:   ELEVATION PERMANENT DATUM
 LMF .                 KB:   LOG MEASURED FROM
 DAPD.F                 5:   FEET ABOVE PERMANENT DATUM
 DMF .                 KB:   DRILLING MEASURED FROM
 EKB .F              5128:   KELLING BUSHING
 EGL .F              5123:   GROUND LEVEL
 DATE.        15-JUL-1964:   RUN DATE
 RUN .                  1:   RUN NUMBER
 DD  .F               945:   DEPTH DRILLER
 DL  .F               946:   DEPTH LOGGER
 BLI .F               945:   BOTTOM LOG INTERVAL
 TLI .F                94:   TOP LOG INTERVAL
 CS  .IN            8.625:   CASING SIZE
 CBD .F                10:   CASING BOTTOM DRILLER
 BS  .IN             6.75:   BIT SIZE
 BSD .F               945:   BIT SIZE AT DEPTH
 DFT .                GEL:   DRILLING FLUID TYPE
 DFD .                9.5:   DRILLING FLUID DENSITY
 DFV .                 44:   DRILLING FLUID VISCOSITY
 DFPH.                8.0:   DRILLING FLUID PH
 DFL .               10.5:   DRILLING FLUID LOSS
 MSS .           FLOWLINE:   MUD SAMPLE SOURCE
 RMS .OHMM           3.37:   RESISTIVITY MUD SAMPLE
 MST .F                74:   MUD SAMPLE TEMPERATURE
 RMF .OHMM           2.97:   RESISTIVITY MUD FILTRATE SAMPLE
 MFST.F                78:   MUD FILTRATE SAMPLE TEMPERATURE
 MFSS.                 FP:   MUD FILTRATE SAMPLE SOURCE
 TCS .HRS             1.5:   TIME CURCULATED STOPPED
 MRT .F       T. L. T. M.:   MAXIMUM RECORDED TEMPERATURE
 LUN .               3527:   LOGGING UNIT NUMBER
 LUL .               CSPR:   LOGGING UNIT LOCATION
 ENGI.            WINKLER:   RECORDING ENGINEER
 WITN.          JORGENSEN:   WITNESSED BY
 CLNT.            A2DTECH:   CLIENT CODE
 ORIG.           2" PRINT:   ORIGIN OF DATA
 UWI .       490250649200:   UNIQUE WELL ID
 DICO. A2D Technologies, Inc.:   DIGITIZING COMPANY
~OTHER INFORMATION
~A   DEPT      SPR        ILD        ASN       CILD         CALS       DT         GR   
# ...
  515.0000   -47.6987     6.6217     7.4565   154.0884     6.6641   106.7899    77.8636
  515.5000   -47.5495     6.7699     7.4897   150.0950     6.6641   106.8884    77.5585
  516.0000   -47.5502     6.8456     7.7121   146.8785     6.6641   106.9369    78.4535
  516.5000   -47.5510     6.9664     8.0129   143.4378     6.6641   106.9855    79.3500
  517.0000   -47.4658     7.0719     8.2385   143.8207     6.6641   107.0340    81.2976
  517.5000   -47.4024     7.0727     8.3807   144.1687     6.6641   106.5217    83.0963
  518.0000   -47.4033     7.0736     8.5615   144.1509     6.6641   105.5775    82.4890
  518.5000   -47.2541     7.0742     8.7048   144.1364     6.6641   104.6333    76.3178
  519.0000   -47.2549     7.0692     8.7715   144.3712     6.6641   103.6891    75.5616
  519.5000   -47.2556     6.8509     8.8255   146.4506     6.6641   102.7449    76.9078
  520.0000   -47.2565     6.6717     8.7658   150.9067     6.6490   101.8008    75.6975
  520.5000   -47.2571     6.3783     8.2771   157.0871     6.6490   100.8566    73.1353
  521.0000   -47.2579     6.1785     8.4234   162.4497     6.6339   100.1249    73.4332
  521.5000   -47.2587     6.0629     8.6766   165.2561     6.6339    99.4908    69.0636
  522.0000   -47.1834     5.9365     8.4074   166.0000     6.6036    99.0489    68.4577
  522.5000   -47.1101     5.8808     7.9564   165.9848     6.5885   100.9346    73.4129
  523.0000   -47.2609     5.9565     8.2735   165.9692     6.5885   101.6897    81.3770
  523.5000   -47.3496     5.9821     8.3024   165.4659     6.5734    99.2797    87.2345
  524.0000   -47.6042     6.1099     8.0017   164.6564     6.5734    95.5132    89.9354
  524.5000   -47.8628     6.1838     7.4621   162.7840     6.5734    93.8568    93.9898
  525.0000   -47.8637     6.2594     7.4925   159.0887     6.5885    94.4863    96.3900
  525.5000   -47.8643     6.4184     7.5768   157.2184     6.6036    95.2919    95.6323
  526.0000   -48.0150     6.4858     7.7544   155.7978     6.6188    95.8962    90.0626
  526.5000   -48.0159     6.5615     8.0790   152.9836     6.6188    97.7062    88.8524
  527.0000   -48.0165     6.7122     8.1579   149.8533     6.6188   104.7913    88.9970
  527.5000   -48.1672     6.7879     8.1847   148.2133     6.6188   105.4836    90.1942
  528.0000   -48.1680     6.8326     8.1696   146.8784     6.6188   104.5530    92.2937
  528.5000   -48.1687     6.9604     8.0952   145.3455     6.6188   103.7411    94.0924
  529.0000   -48.1694     7.0900     8.0471   144.5758     6.6036   103.3653    90.7783
  529.5000   -48.1702     7.0908     8.0207   143.8030     6.5885   103.2161    86.7124
  530.0000   -47.9310     7.0914     8.0361   143.7858     6.5885   103.5193    87.0059
  530.5000   -47.8279     7.0922     8.2612   143.7727     6.5885   104.4251    85.6467
  531.0000   -47.7226     7.0181     8.3727   143.8864     6.5885   105.1048    81.7311
  531.5000   -47.4237     6.8350     8.4424   144.5000     6.5885   105.8861    79.9208
  532.0000   -47.2184     6.7836     8.4815   146.1111     6.5734   106.4645    84.5767
  532.5000   -47.1152     6.5705     8.5030   148.6743     6.5734   106.5413    86.2250
  533.0000   -46.9760     6.5310     8.5183   150.5149     6.5885   106.3163    79.1516
  533.5000   -46.7588     6.4969     8.5487   153.5274     6.5885   106.0167    81.5503
  534.0000   -46.6776     6.4978     8.5321   154.8482     6.5885   105.7167    83.4994
  534.5000   -46.5286     6.4519     8.4669   156.5921     6.5885   105.4921    85.1478
  535.0000   -46.5292     6.4241     8.0691   158.7859     6.6188   105.3303    83.1871
  535.5000   -46.4960     6.4250     7.8533   159.5303     6.6339   105.1936    81.9783
  536.0000   -46.3808     6.4259     7.7844   159.6566     6.6641   105.1197    81.8221
  536.5000   -46.1397     6.4266     7.7697   160.2576     6.6944   105.0457    82.1171
  537.0000   -46.0365     6.4272     7.7700   160.2424     6.7247   105.0476    81.5083
  537.5000   -45.9333     6.4281     7.7702   160.2273     6.7398   105.1997    77.4424
  538.0000   -45.9342     6.4288     7.7706   160.2121     6.7549   105.4323    77.4366
  538.5000   -45.9927     6.4432     7.7709   159.4367     6.7549   105.8812    72.6188
  539.0000   -46.0974     6.5053     7.7862   159.1237     6.7398   106.2595    72.3137
  539.5000   -46.3862     6.5488     7.8176   156.3044     6.7398   106.7131    74.7110
  540.0000   -46.4568     6.5817     7.8919   154.0891     6.7247   107.0913    75.1563
  540.5000   -46.7113     6.6574     8.0360   151.8005     6.6944   107.4695    75.1506
  541.0000   -46.9881     6.7331     8.1215   149.9643     6.6793   107.6217    75.5959
  541.5000   -46.9888     6.7602     8.1481   148.7416     6.6793   107.6985    75.8923
  542.0000   -46.9895     6.8096     8.1634   148.7273     6.6641   107.7003    70.6219
  542.5000   -46.8404     6.8105     8.1636   148.9457     6.6641   107.4757    69.8657
  543.0000   -46.8411     6.8861     8.1640   149.4546     6.6641   107.2511    76.7743
  543.5000   -46.6918     6.8966     8.1643   149.4368     6.6641   106.8004    79.1745
  544.0000   -46.6926     7.0376     8.1646   149.4242     6.6641   106.2743    83.0785
  544.5000   -46.5436     7.0382     8.1649   149.4091     6.6641   105.5184    88.0351
  545.0000   -46.5442     7.1139     8.1802   149.3923     6.6641   104.9208    89.3827
  545.5000   -46.5449     7.1147     8.2014   149.3788     6.6641   104.6962    90.2791
  546.0000   -46.5458     7.1154     8.2286   148.6060     6.6641   104.9241    92.8283
  546.5000   -46.4745     7.1162     8.2712   147.8326     6.6490   105.0009    93.5744
  547.0000   -46.3972     7.1169     8.2861   147.3460     6.6490   104.5502    94.0212
  547.5000   -46.3981     7.1178     8.3196   145.7953     6.6490   103.4213    91.6079
  548.0000   -46.3988     7.1934     8.3472   143.9798     6.6490   103.7342    88.5946
  548.5000   -46.3995     7.2003     8.4098   142.4673     6.6490   104.4796    92.0475
  549.0000   -46.4003     7.2700     8.4734   141.3713     6.6490   104.1796    92.7950
  549.5000   -46.4011     7.3810     8.6784   139.9671     6.6490   103.2014    88.5758
  550.0000   -46.5517     7.4338     8.9340   137.8773     6.6490   103.0518    90.0740
  550.5000   -46.7104     7.5720     9.0776   136.2956     6.6581   103.3551    92.3224
  551.0000   -47.1530     7.6477     9.2066   135.3965     6.6480   103.6580    93.8188
  551.5000   -47.1537     7.7234     9.2802   134.8025     6.6629   104.1116    91.7063
  552.0000   -47.3043     7.7242     9.2805   134.3031     6.6471   104.3401    88.0882
  552.5000   -47.3052     7.7999     9.2462   132.9987     6.6467   104.5670    82.3667
  553.0000   -47.3058     7.9008     9.1910   131.7273     6.6463   104.5684    79.5023
  553.5000   -47.3066     7.9537     9.1450   130.9523     6.6458   104.4192    82.9536
  554.0000   -47.3074     8.0271     9.1315   130.6011     6.6453   103.8177    83.5497
  554.5000   -47.3081     8.1343     9.2069   129.2967     6.6448   103.5177    81.8865
  555.0000   -47.3088     8.2621     9.3829   127.1199     6.6444   103.6699    81.7289
  555.5000   -47.3096     8.4041     9.5925   125.5909     6.6592   102.9182    80.3664
  556.0000   -47.4083     8.5177     9.7800   123.6770     6.6587   102.6182    82.0132
  556.5000   -47.5130     8.6455     9.8475   122.5299     6.6582   103.3732    86.6676
  557.0000   -47.6117     8.7062     9.8684   120.7628     6.6730   103.8268    90.1190
  557.5000   -47.6126     8.9012     9.8893   118.9267     6.6724   103.8369    87.8561
  558.0000   -47.7631     9.0290     9.9102   116.3789     6.6719   103.2229    80.7812
  558.5000   -47.7639     9.1582     9.9311   112.6191     6.6715   102.6257    79.8717
  559.0000   -47.7647     9.3090     9.9859   109.6311     6.6711   102.4761    79.8626
  559.5000   -47.7654     9.4874    10.0741   106.1552     6.6706   102.3272    77.4493
  560.0000   -47.5862     9.6951    10.3964   103.4837     6.6549   101.4997    76.9945
