~VERSION INFORMATION
 VERS.                2.0:   CWLS LOG ASCII STANDARD - VERSION 2.0
 WRAP.                 NO:   ONE LINE PER DEPTH STEP
~WELL INFORMATION
#MNEM.UNIT      DATA TYPE    INFORMATION
#----------   ------------   ------------------------------
 STRT.F           86.5000:   START DEPTH
 STOP.F         1282.0000:   STOP DEPTH
 STEP.F            0.5000:   STEP LENGTH
 NULL.          -999.2500:   NO VALUE
 COMP.      UNITED STATES:   COMPANY
 WELL.             NPR #3:   WELL
 FLD .        TEAPOT DOME:   FIELD
 LOC .      S14 T38N R78W:   LOCATION
 CNTY.            NATRONA:   COUNTY
 STAT.            WYOMING:   STATE
 CTRY. UNITED STATES OF AMERICA:   COUNTRY
 SRVC.       Schlumberger:   SERVICE COMPANY
 DATE.        06-JUL-1962:   LOGDATE
 API .       490250631800:   API NUMBER
~CURVE INFORMATION
#MNEM.UNIT       API CODE    CURVE DESCRIPTION
#----------   ------------   ------------------------------
 DEPT.F                  :   
 SPR .MV     05 010 01 00:   SPONTANEOUS POTENTIAL FROM RES.
 CILD.MMHO   05 110 00 00:   CONDUCTIVITY INDUCTION LOG
 ASN .OHMM   05 041 16 00:   AMPLIFIED SHORT NORMAL 16"
 ILD .OHMM   05 120 46 00:   INDUCTION LOG DEEP
 GR  .GAPI   30 310 01 00:   GAMMA RAY
~PARAMETER INFORMATION
#MNEM.UNIT          VALUE    DESCRIPTION
#----------   ------------   ------------------------------
 PD  .                 GL:   PERMANENT DATUM
 EPD .F              5288:   ELEVATION PERMANENT DATUM
 LMF .                 KB:   LOG MEASURED FROM
 DAPD.F                 5:   FEET ABOVE PERMANENT DATUM
 DMF .                 KB:   DRILLING MEASURED FROM
 EKB .F              5293:   KELLING BUSHING
 EGL .F              5288:   GROUND LEVEL
 DATE.             7-6-62:   RUN DATE
 RUN .                  1:   RUN NUMBER
 DD  .F              1286:   DEPTH DRILLER
 DL  .F              1283:   DEPTH LOGGER
 BLI .F              1282:   BOTTOM LOG INTERVAL
 TLI .F                87:   TOP LOG INTERVAL
 CBD .F                10:   CASING BOTTOM DRILLER
 BS  .IN             6.75:   BIT SIZE
 BSD .F              1286:   BIT SIZE AT DEPTH
 DFT .            GEL-OIL:   DRILLING FLUID TYPE
 DFD .               10.3:   DRILLING FLUID DENSITY
 DFV .                 53:   DRILLING FLUID VISCOSITY
 DFL .                3.6:   DRILLING FLUID LOSS
 MSS .           FLOWLINE:   MUD SAMPLE SOURCE
 RMS .OHMM           5.66:   RESISTIVITY MUD SAMPLE
 MST .F                78:   MUD SAMPLE TEMPERATURE
 RMF .OHMM           5.59:   RESISTIVITY MUD FILTRATE SAMPLE
 MFST.F                78:   MUD FILTRATE SAMPLE TEMPERATURE
 RMC .OHMM           4.47:   RESISTIVITY MUD CAKE
 MCST.F                78:   MUD CAKE SAMPLE TEMPERATURE
 MFSS.                  M:   MUD FILTRATE SAMPLE SOURCE
 MCSS.                  M:   MUD CAKE SAMPLE SOURCE
 RMB .OHMM           5.08:   RESISTIVITY MUD AT BHT
 BHT .F                88:   BOTTOM HOLE TEMPERATURE
 TCS .HRS               1:   TIME CURCULATED STOPPED
 MRT .F                88:   MAXIMUM RECORDED TEMPERATURE
 LUN .               2503:   LOGGING UNIT NUMBER
 LUL .               CSPR:   LOGGING UNIT LOCATION
 ENGI.             KNOBEL:   RECORDING ENGINEER
 WITN.          JORGENSEN:   WITNESSED BY
 CLNT.            A2DTECH:   CLIENT CODE
 ORIG.       2", 5" PRINT:   ORIGIN OF DATA
 UWI .       490250631800:   UNIQUE WELL ID
 DICO. A2D Technologies, Inc.:   DIGITIZING COMPANY
~OTHER INFORMATION
~A   DEPT      SPR       CILD        ASN        ILD         GR   
# ...
  330.5000   -42.5285   162.4234     6.2981     6.1529  -999.2500
  331.0000   -42.5304   160.0304     6.1932     6.1769  -999.2500
  331.5000   -42.5640   157.6299     6.5001     6.3568  -999.2500
  332.0000   -42.6647   155.2330     6.7702     6.5360  -999.2500
  332.5000   -42.7295   154.6542     6.9473     6.6533  -999.2500
  333.0000   -42.6703   156.6926     7.1235     6.6205  -999.2500
  333.5000   -42.5019   158.8103     7.2305     6.5309  -999.2500
  334.0000   -42.3353   160.9262     7.0816     6.4417  -999.2500
  334.5000   -42.1686   162.6712     6.8949     6.3537  -999.2500
  335.0000   -41.9997   162.6712     6.8618     6.3502  -999.2500
  335.5000   -41.9378   163.7476     6.6532     6.2796  -999.2500
  336.0000   -42.1500   166.5594     6.3169     6.1603  -999.2500
  336.5000   -42.3735   169.3729     6.0226     6.0402  -999.2500
  337.0000   -42.5942   172.1802     6.1369     5.9196  -999.2500
  337.5000   -42.6791   174.9860     6.2651     5.7980  -999.2500
  338.0000   -42.4007   176.6734     6.3008     5.7518  -999.2500
  338.5000   -42.1379   176.6990     6.2266     5.7500  -999.2500
  339.0000   -42.1239   176.7216     6.1527     5.7401  -999.2500
  339.5000   -42.2950   175.6849     6.0795     5.8507  -999.2500
  340.0000   -42.5007   175.6849     6.0353     5.8525  -999.2500
  340.5000   -42.3650   175.6849     6.0635     5.7568  -999.2500
  341.0000   -42.1664   179.0045     6.1094     5.6435  -999.2500
  341.5000   -41.9605   182.2467     6.0177     5.5292  -999.2500
  342.0000   -42.0521   185.4888     5.8642     5.4156  -999.2500
  342.5000   -42.1936   188.7309     5.7088     5.3503  -999.2500
  343.0000   -42.3270   191.9611     5.6333     5.2924  -999.2500
  343.5000   -42.2144   195.2002     5.6342     5.1594  -999.2500
  344.0000   -41.9501   198.3688     5.5749     5.0276  -999.2500
  344.5000   -41.6877   200.7258     5.4353     4.8900  -999.2500
  345.0000   -41.4141   200.7113     5.3619     4.8485  -999.2500
  345.5000   -41.3898   200.7113     5.3583     4.9688  -999.2500
  346.0000   -41.5025   198.0365     5.4180     5.1482  -999.2500
  346.5000   -41.6184   193.4837     5.5120     5.3269  -999.2500
  347.0000   -41.7344   188.6678     5.6041     5.3509  -999.2500
  347.5000   -41.8491   183.8519     5.6963     5.3514  -999.2500
  348.0000   -41.9343   179.0360     5.7897     5.4316  -999.2500
  348.5000   -41.9314   174.2201     5.9033     5.5990  -999.2500
  349.0000   -41.9333   171.3035     6.0872     5.7663  -999.2500
  349.5000   -42.1106   168.6338     6.2665     5.9330  -999.2500
  350.0000   -42.3132   165.6920     6.4458     6.0539  -999.2500
  350.5000   -42.5271   165.6865     6.4834     6.0511  -999.2500
  351.0000   -42.2929   165.6759     6.3828     6.0511  -999.2500
  351.5000   -41.9589   165.1505     6.2802     6.0512  -999.2500
  352.0000   -41.6155   164.6703     6.2681     6.0511  -999.2500
  352.5000   -41.6601   164.9257     6.2962     6.0511  -999.2500
  353.0000   -41.8814   165.2646     6.2735     6.0511  -999.2500
  353.5000   -42.1512   165.6023     6.2729     6.0511  -999.2500
  354.0000   -42.1357   165.4389     6.3750     6.0507  -999.2500
  354.5000   -42.1235   164.2233     6.4773     6.0910  -999.2500
  355.0000   -41.8083   163.0076     6.5153     6.1569  -999.2500
  355.5000   -41.4713   161.7919     6.5154     6.2230  -999.2500
  356.0000   -41.4132   160.5762     6.5179     6.2895  -999.2500
  356.5000   -41.6116   159.6681     6.5767     6.3503  -999.2500
  357.0000   -41.7308   159.6654     6.6362     6.3512  -999.2500
  357.5000   -41.6399   161.6404     6.6934     6.2806  -999.2500
  358.0000   -41.4124   163.6976     6.6971     6.1316  -999.2500
  358.5000   -41.3460   168.2771     6.5370     5.9830  -999.2500
  359.0000   -41.6777   172.4982     6.3825     5.8338  -999.2500
  359.5000   -42.0294   176.7193     6.2283     5.6848  -999.2500
  360.0000   -42.1292   180.7152     6.0846     5.5359  -999.2500
  360.5000   -41.9473   184.6944     6.0086     5.3836  -999.2500
  361.0000   -41.7312   184.6944     5.9336     5.3455  -999.2500
  361.5000   -41.5360   182.2518     5.8939     5.5205  -999.2500
  362.0000   -41.5328   176.8897     5.9214     5.7410  -999.2500
  362.5000   -41.5337   170.7232     6.1161     5.9634  -999.2500
  363.0000   -41.5339   164.5567     6.3931     6.1855  -999.2500
  363.5000   -41.5353   158.3902     6.6732     6.4061  -999.2500
  364.0000   -41.4776   152.7168     6.9504     6.6249  -999.2500
  364.5000   -41.4003   148.6645     7.0113     6.7561  -999.2500
  365.0000   -41.3364   144.6122     7.1500     6.9023  -999.2500
  365.5000   -41.4111   140.5600     7.3100     7.0473  -999.2500
  366.0000   -41.6733   137.6449     7.3707     7.1291  -999.2500
  366.5000   -41.9239   138.7400     7.2528     7.0208  -999.2500
  367.0000   -42.1699   142.4839     7.1368     6.9180  -999.2500
  367.5000   -42.3331   146.2278     7.0535     6.8155  -999.2500
  368.0000   -42.1078   149.9718     7.0089     6.7127  -999.2500
  368.5000   -42.0068   153.6922     6.8404     6.6101  -999.2500
  369.0000   -41.8835   153.6232     6.7631     6.5074  -999.2500
  369.5000   -41.7565   156.1946     6.6878     6.4047  -999.2500
  370.0000   -41.6309   159.5899     6.6207     6.3021  -999.2500
  370.5000   -41.5055   162.9782     6.5602     6.1994  -999.2500
  371.0000   -41.3787   166.3551     6.4996     6.0967  -999.2500
  371.5000   -41.3354   169.7320     6.4388     5.9940  -999.2500
  372.0000   -41.3348   173.1089     6.3781     5.8914  -999.2500
  372.5000   -41.3314   176.4858     6.3061     5.7888  -999.2500
  373.0000   -41.3335   177.6870     6.2278     5.6819  -999.2500
  373.5000   -41.0823   177.6870     6.1494     5.6512  -999.2500
  374.0000   -40.9669   177.6870     6.0715     5.6493  -999.2500
  374.5000   -40.8389   176.2691     6.0132     5.6549  -999.2500
  375.0000   -40.7068   174.1833     6.0139     5.7642  -999.2500
  375.5000   -40.5681   172.0976     6.0697     5.8708  -999.2500
  376.0000   -40.6893   169.6817     6.1989     5.9765  -999.2500
  376.5000   -40.8987   166.5646     6.3254     6.0820  -999.2500
  377.0000   -41.1126   163.4474     6.4493     6.1875  -999.2500
  377.5000   -41.3271   160.3303     6.5220     6.2931  -999.2500
  378.0000   -41.3212   157.2132     6.5919     6.3986  -999.2500
  378.5000   -41.2139   154.3794     6.6840     6.5040  -999.2500
  379.0000   -41.1076   152.8209     6.7716     6.6103  -999.2500
  379.5000   -41.0031   151.2623     6.8338     6.6514  -999.2500
  380.0000   -40.9945   150.6586     6.8758     6.6516  -999.2500
  380.5000   -41.1576   152.3333     6.8759     6.6521  -999.2500
  381.0000   -41.3182   155.0149     6.8761     6.6567  -999.2500
  381.5000   -41.4784   157.6966     6.8546     6.5204  -999.2500
  382.0000   -41.6370   160.5783     6.8149     6.3668  -999.2500
  382.5000   -41.7327   164.0155     6.5960     6.2114  -999.2500
  383.0000   -41.7444   167.4527     6.3427     6.0564  -999.2500
  383.5000   -41.3861   170.8899     6.0969     5.9018  -999.2500
  384.0000   -40.9747   174.3271     5.9685     5.7468  -999.2500
  384.5000   -40.8523   177.7643     6.0493     5.5875  -999.2500
  385.0000   -41.1021   178.6881     6.1551     5.5530  -999.2500
  385.5000   -41.1351   176.9168     6.0606     5.6687  -999.2500
  386.0000   -41.1355   174.5392     5.9713     5.7962  -999.2500
  386.5000   -41.1358   172.1478     6.0086     5.9246  -999.2500
  387.0000   -41.1822   171.3214     6.0519     5.9100  -999.2500
  387.5000   -41.2354   173.0128     6.0952     5.8011  -999.2500
  388.0000   -41.2883   174.7039     6.1393     5.6911  -999.2500
  388.5000   -41.3178   175.6849     6.1547     5.6532  -999.2500
  389.0000   -41.1787   176.6860     6.2108     5.7246  -999.2500
  389.5000   -41.0375   177.2771     6.2785     5.7146  -999.2500
  390.0000   -40.8969   179.6891     6.1300     5.6338  -999.2500
  390.5000   -40.7562   182.1012     5.9823     5.5529  -999.2500
  391.0000   -40.6157   184.5133     5.8541     5.4719  -999.2500
