~VERSION INFORMATION
 VERS.                2.0:   CWLS LOG ASCII STANDARD - VERSION 2.0
 WRAP.                 NO:   ONE LINE PER DEPTH STEP
~WELL INFORMATION
#MNEM.UNIT      DATA TYPE    INFORMATION
#----------   ------------   ------------------------------
 STRT.F           60.0000:   START DEPTH
 STOP.F          482.0000:   STOP DEPTH
 STEP.F            0.5000:   STEP LENGTH
 NULL.          -999.2500:   NO VALUE
 COMP. BROWN JOHN E&C INC:   COMPANY
 WELL. NPR 3 68 SX-3 #68-1-3:   WELL
 FLD .             TEAPOT:   FIELD
 LOC .       S3 T38N R78W:   LOCATION
 CNTY.            NATRONA:   COUNTY
 STAT.            WYOMING:   STATE
 CTRY. UNITED STATES OF AMERICA:   COUNTRY
 SRVC.     Atlas Wireline:   SERVICE COMPANY
 DATE.        29-SEP-1991:   LOGDATE
 API .       490252244800:   API NUMBER
~CURVE INFORMATION
#MNEM.UNIT       API CODE    CURVE DESCRIPTION
#----------   ------------   ------------------------------
 DEPT.F                  :   
 CALD.IN     45 280 60 00:   CALIPER FROM DENSITY LOG
 CNC .DEC    42 890 03 00:   NEUTRON POROSITY SANDSTONE
 CORR.G/C3   45 356 01 00:   DENSITY CORRECTION
 GRD .GAPI   45 310 01 00:   GAMMA RAY FROM DENSITY LOG
 PORD.DEC    45 890 12 00:   POROSITY DENSITY SANDSTONE
 RHOB.G/C3   45 350 01 00:   BULK DENSITY
 RFOC.OHMM   07 220 04 00:   RESISTIVITY FOCUSED LOG
 RILD.OHMM   07 120 46 00:   RESISTIVITY INDUCTION LOG DEEP
 RILM.OHMM   07 120 44 00:   RESISTIVITY INDUCTION LOG MEDIUM
~PARAMETER INFORMATION
#MNEM.UNIT          VALUE    DESCRIPTION
#----------   ------------   ------------------------------
 PD  .                 GL:   PERMANENT DATUM
 EPD .F              5153:   ELEVATION PERMANENT DATUM
 LMF .                 KB:   LOG MEASURED FROM
 DAPD.F                10:   FEET ABOVE PERMANENT DATUM
 DMF .                 KB:   DRILLING MEASURED FROM
 EKB .F              5163:   KELLING BUSHING
 EGL .F              5153:   GROUND LEVEL
 DATE.        29-SEP-1991:   RUN DATE
 RUN .                  1:   RUN NUMBER
 DD  .F               485:   DEPTH DRILLER
 DL  .F               485:   DEPTH LOGGER
 BLI .F               482:   BOTTOM LOG INTERVAL
 CS  .IN            8.625:   CASING SIZE
 CBD .F                98:   CASING BOTTOM DRILLER
 CBL .F               100:   CASING BOTTOM LOGGER
 BS  .IN            7.875:   BIT SIZE
 BSD .F               485:   BIT SIZE AT DEPTH
 DFT .           CHEM GEL:   DRILLING FLUID TYPE
 DFD .               15.4:   DRILLING FLUID DENSITY
 DFV .                 38:   DRILLING FLUID VISCOSITY
 DFPH.                9.0:   DRILLING FLUID PH
 DFL .                8.0:   DRILLING FLUID LOSS
 MSS .           FLOWLINE:   MUD SAMPLE SOURCE
 RMS .OHMM           1.65:   RESISTIVITY MUD SAMPLE
 MST .F                90:   MUD SAMPLE TEMPERATURE
 RMF .OHMM           1.32:   RESISTIVITY MUD FILTRATE SAMPLE
 MFST.F                90:   MUD FILTRATE SAMPLE TEMPERATURE
 RMC .OHMM           2.06:   RESISTIVITY MUD CAKE
 MCST.F                90:   MUD CAKE SAMPLE TEMPERATURE
 MFSS.               CALC:   MUD FILTRATE SAMPLE SOURCE
 MCSS.               CALC:   MUD CAKE SAMPLE SOURCE
 RMB .OHMM           1.65:   RESISTIVITY MUD AT BHT
 BHT .F                90:   BOTTOM HOLE TEMPERATURE
 TCS .HRS               1:   TIME CURCULATED STOPPED
 MRT .F                90:   MAXIMUM RECORDED TEMPERATURE
 LUN .            HL 6272:   LOGGING UNIT NUMBER
 LUL .             CASPER:   LOGGING UNIT LOCATION
 ENGI. WADDELL/ OTTERHOLT:   RECORDING ENGINEER
 WITN.             STRONG:   WITNESSED BY
 CLNT.            A2DTECH:   CLIENT CODE
 ORIG.           5" PRINT:   ORIGIN OF DATA
 UWI .       490252244800:   UNIQUE WELL ID
 DICO. A2D Technologies, Inc.:   DIGITIZING COMPANY
~OTHER INFORMATION
~A   DEPT     CALD        CNC       CORR         GRD      PORD       RHOB       RFOC       RILD       RILM   
# ...
  169.5000     8.5159     0.3337     0.0004    91.3643     0.0861     2.5106     8.4174     7.9713     7.3516
  170.0000     8.4853     0.3355    -0.0011    91.9843     0.0848     2.5129     8.3029     7.9178     7.1021
  170.5000     8.4856     0.3377    -0.0026    91.6966     0.0836     2.5121     8.0778     7.9195     6.9568
  171.0000     8.4705     0.3443    -0.0010    92.0140     0.0842     2.5090     7.8580     7.9036     6.7683
  171.5000     8.4708     0.3470     0.0006    92.9365     0.0848     2.5045     7.5386     7.4408     6.6759
  172.0000     8.4628     0.3471     0.0036    95.0693     0.0860     2.4984     7.2316     6.7028     6.2890
  172.5000     8.4559     0.3479     0.0037    96.5970     0.0878     2.4863     6.9370     6.1656     5.8122
  173.0000     8.4563     0.3503    -0.0009    96.9144     0.0920     2.4710     6.6544     5.6321     5.3103
  173.5000     8.4566     0.3567    -0.0054    95.4163     0.1043     2.4550     6.3833     4.7980     4.7846
  174.0000     8.4414     0.3757    -0.0054    91.4977     0.1217     2.4307     6.1652     3.9952     4.5266
  174.5000     8.4417     0.3872    -0.0054    88.4620     0.1371     2.4056     5.7928     3.3865     4.0501
  175.0000     8.4421     0.4030    -0.0023    87.8965     0.1553     2.3751     5.3283     3.0293     3.3098
  175.5000     8.4343     0.4285    -0.0024    87.3099     0.1774     2.3469     4.7993     2.4236     2.6263
  176.0000     8.4272     0.4595    -0.0053    87.0221     0.1974     2.3188     4.4454     2.2606     2.1648
  176.5000     8.4584     0.4944    -0.0007    86.7307     0.2301     2.2746     3.9761     2.2454     2.0767
  177.0000     8.4588     0.5131     0.0055    86.1404     0.2604     2.2190     3.7088     2.2148     2.1067
  177.5000     8.4745     0.5064     0.0085    83.7383     0.2622     2.2274     3.5083     2.2318     2.1670
  178.0000     8.4903     0.4834     0.0070    82.5428     0.2431     2.2714     3.8986     2.3267     2.3405
  178.5000     8.4906     0.4307     0.0025    83.7679     0.2119     2.3071     4.4862     2.5482     2.5280
  179.0000     8.4909     0.4178     0.0041    88.0188     0.1864     2.3531     4.9155     3.1203     2.7589
  179.5000     8.4912     0.4034     0.0086    93.1773     0.1576     2.3889     4.9863     3.6387     3.1185
  180.0000     8.4915     0.3792     0.0132    94.0999     0.1264     2.4361     5.1665     4.1554     3.5614
  180.5000     8.5073     0.3553     0.0133    94.1147     0.1029     2.4666     6.4725     4.7454     4.1823
  181.0000     8.4921     0.3531     0.0103    93.5243     0.0954     2.4871     7.2866     5.0606     4.6126
  181.5000     8.4925     0.3574     0.0042    95.3583     0.0945     2.4910     7.0876     5.6130     5.2312
  182.0000     8.4928     0.3646     0.0012    97.7937     0.0963     2.4856     6.9919     6.1045     5.5718
  182.5000     8.4931     0.3711    -0.0003    99.3214     0.0978     2.4864     6.8975     6.4562     5.7796
  183.0000     8.4934     0.3743    -0.0003   100.5465     0.0972     2.4879     6.8529     6.5483     6.0205
  183.5000     8.5092     0.3755    -0.0002    99.6536     0.0965     2.4902     6.8556     6.6417     6.0647
  184.0000     8.4939     0.3758    -0.0002    98.4581     0.0953     2.4933     6.9066     6.6430     5.7778
  184.5000     8.4943     0.3764    -0.0017    97.2589     0.0932     2.4956     7.0075     6.4508     5.5817
  185.0000     8.4946     0.3767    -0.0017    96.3698     0.0914     2.4971     7.1091     5.9856     5.4675
  185.5000     8.4949     0.3767    -0.0016    96.2456     0.0892     2.5010     7.2123     5.5445     5.3941
  186.0000     8.4952     0.3780    -0.0016    96.0968     0.0880     2.5032     7.4200     5.1002     5.2784
  186.5000     8.4801     0.3954    -0.0016    97.0449     0.0928     2.4956     7.5276     4.8243     4.8962
  187.0000     8.4649     0.4181    -0.0015    98.2955     0.1159     2.4728     6.1883     4.6598     4.5999
  187.5000     8.4427     0.4360    -0.0015   100.0784     0.1404     2.4263     5.5566     4.5009     4.3823
  188.0000     8.4346     0.4396    -0.0015   101.0010     0.1488     2.4065     5.2011     4.4395     4.2628
  188.5000     8.4544     0.4281    -0.0015   100.4106     0.1391     2.4119     5.4650     4.4406     4.1760
  189.0000     8.4662     0.4202    -0.0014    97.7023     0.1255     2.4286     5.7417     4.5039     4.2364
  189.5000     8.4665     0.4089     0.0016    94.3888     0.1158     2.4469     5.8659     4.5681     4.3595
  190.0000     8.4668     0.3911     0.0032    93.4922     0.1136     2.4545     5.9510     4.6983     4.6096
  190.5000     8.4826     0.3889     0.0047    97.4442     0.1123     2.4675     5.9534     4.9002     4.8757
  191.0000     8.4983     0.3892     0.0017   101.0899     0.1081     2.4759     6.1255     5.1127     5.0857
  191.5000     8.5015     0.3898     0.0002   102.9201     0.1048     2.4804     6.3020     5.4815     5.4168
  192.0000     8.5144     0.3865     0.0018   103.2375     0.0987     2.4873     6.2163     5.8379     5.6502
  192.5000     8.5147     0.3768     0.0049   101.7395     0.0863     2.5041     6.2631     6.3490     5.9763
  193.0000     8.5150     0.3634     0.0095   101.4517     0.0787     2.5209     6.7670     6.7149     6.3248
  193.5000     8.5153     0.3577     0.0125   103.2857     0.0772     2.5224     7.1600     6.9547     6.5941
  194.0000     8.5001     0.3553     0.0141   104.2082     0.0796     2.5193     7.3660     7.1530     6.7828
  194.5000     8.5005     0.3537     0.0080   104.5256     0.0817     2.5171     7.3696     7.3569     6.9285
  195.0000     8.5008     0.3546     0.0020   104.2342     0.0835     2.5140     7.3726     7.5144     7.0282
  195.5000     8.5011     0.3589     0.0020   103.3450     0.0841     2.5117     7.4274     7.5686     7.0306
  196.0000     8.5014     0.3582     0.0020   102.4484     0.0822     2.5117     7.4825     7.5171     6.9355
  196.5000     8.5017     0.3561     0.0021   101.5592     0.0816     2.5125     7.5911     7.4663     6.8418
  197.0000     8.5020     0.3551     0.0021   101.2708     0.0819     2.5140     7.5370     7.3643     6.7891
  197.5000     8.5023     0.3546     0.0021   101.8914     0.0834     2.5125     7.1843     7.1635     6.6587
  198.0000     8.5026     0.3561     0.0022   102.5113     0.0852     2.5095     6.9888     7.0126     6.4777
  198.5000     8.5029     0.3582     0.0022   102.8543     0.0879     2.5049     6.8937     6.7776     6.3458
  199.0000     8.5033     0.3594     0.0022   103.1467     0.0903     2.5011     6.8013     6.6386     6.2600
  199.5000     8.5036     0.3612     0.0023   103.1646     0.0924     2.4981     6.8041     6.4122     6.1754
  200.0000     8.5039     0.3635     0.0023   101.6666     0.0930     2.4950     6.7594     6.1935     6.0919
  200.5000     8.4731     0.3655     0.0023   101.3556     0.0936     2.4914     6.6341     5.6994     5.1573
  201.0000     8.4578     0.3678     0.0008   102.2935     0.0951     2.4860     6.4440     5.3177     4.8808
  201.5000     8.4580     0.3690    -0.0007   103.5159     0.0994     2.4798     6.3579     4.9963     4.6840
  202.0000     8.4427     0.3732    -0.0053   104.9686     0.1069     2.4730     6.3169     4.6618     4.1924
  202.5000     8.4428     0.3947    -0.0068   106.7766     0.1214     2.4638     6.2325     4.4727     3.8585
  203.0000     8.4430     0.4041    -0.0035   107.9824     0.1390     2.4353     5.1621     4.4437     3.9470
  203.5000     8.4431     0.4310     0.0100   108.5816     0.1529     2.4100     4.3663     4.4774     4.1434
  204.0000     8.4433     0.4138     0.0176   107.9690     0.1486     2.4052     4.4309     4.6062     4.2933
  204.5000     8.4280     0.3859     0.0146   101.9116     0.1371     2.4417     4.9586     4.8061     4.4177
  205.0000     8.4282     0.3741     0.0085    99.4850     0.1116     2.4722     5.9932     5.2281     4.6743
  205.5000     8.4438     0.3523     0.0055   100.9919     0.0982     2.4905     6.7540     5.6477     5.1212
