~VERSION INFORMATION
 VERS.                2.0:   CWLS LOG ASCII STANDARD - VERSION 2.0
 WRAP.                 NO:   ONE LINE PER DEPTH STEP
~WELL INFORMATION
#MNEM.UNIT      DATA TYPE    INFORMATION
#----------   ------------   ------------------------------
 STRT.F          588.0000:   START DEPTH
 STOP.F         1583.5000:   STOP DEPTH
 STEP.F            0.5000:   STEP LENGTH
 NULL.          -999.2500:   NO VALUE
 COMP.   FENIX & SCISSONS:   COMPANY
 WELL.   NPR 3 #23STX1-11:   WELL
 FLD .             TEAPOT:   FIELD
 LOC .      S11 T38N R78W:   LOCATION
 CNTY.            NATRONA:   COUNTY
 STAT.            WYOMING:   STATE
 CTRY. UNITED STATES OF AMERICA:   COUNTRY
 SRVC.            Unknown:   SERVICE COMPANY
 DATE.        15-JUN-1979:   LOGDATE
 API .       490251078300:   API NUMBER
~CURVE INFORMATION
#MNEM.UNIT       API CODE    CURVE DESCRIPTION
#----------   ------------   ------------------------------
 DEPT.F                  :   
 RHOB.G/C3   45 350 01 00:   BULK DENSITY
 DPHI.DEC    45 890 10 00:   DENSITY POROSITY LIMESTONE
 CORR.G/C3   45 356 01 00:   DENSITY CORRECTION
 GRD .GAPI   45 310 01 00:   GAMMA RAY FROM DENSITY LOG
 CALD.IN     45 280 60 00:   CALIPER FROM DENSITY LOG
~PARAMETER INFORMATION
#MNEM.UNIT          VALUE    DESCRIPTION
#----------   ------------   ------------------------------
 PD  .                 GL:   PERMANENT DATUM
 EPD .F              5168:   ELEVATION PERMANENT DATUM
 LMF .                 KB:   LOG MEASURED FROM
 DAPD.F                10:   FEET ABOVE PERMANENT DATUM
 DMF .                 KB:   DRILLING MEASURED FROM
 EKB .F              5178:   KELLING BUSHING
 EGL .F              5168:   GROUND LEVEL
 DATE.            6-15-79:   RUN DATE
 RUN .                  1:   RUN NUMBER
 DD  .F              1580:   DEPTH DRILLER
 DL  .F              1580:   DEPTH LOGGER
 BLI .F              1578:   BOTTOM LOG INTERVAL
 TLI .F               680:   TOP LOG INTERVAL
 CS  .IN            9.625:   CASING SIZE
 CBD .F               660:   CASING BOTTOM DRILLER
 CBL .F               670:   CASING BOTTOM LOGGER
 BS  .IN             8.75:   BIT SIZE
 BSD .F              1580:   BIT SIZE AT DEPTH
 DFT .                OIL:   DRILLING FLUID TYPE
 TCS .HRS               4:   TIME CURCULATED STOPPED
 MRT .F                80:   MAXIMUM RECORDED TEMPERATURE
 LUN .               3029:   LOGGING UNIT NUMBER
 LUL .             CASPER:   LOGGING UNIT LOCATION
 ENGI.            MULLINS:   RECORDING ENGINEER
 CLNT.            A2DTECH:   CLIENT CODE
 ORIG.     1", 2.5" PRINT:   ORIGIN OF DATA
 UWI .       490251078300:   UNIQUE WELL ID
 DICO. A2D Technologies, Inc.:   DIGITIZING COMPANY
~OTHER INFORMATION
~A   DEPT     RHOB       DPHI       CORR         GRD      CALD   
# ...
  771.0000     2.5100     0.0251     0.0167    98.0642     9.2991
  771.5000     2.5229     0.0154     0.0220    96.8223     9.2995
  772.0000     2.5329     0.0132     0.0277    94.6194     9.2999
  772.5000     2.5350     0.0113     0.0238    92.5494     9.3004
  773.0000     2.5214     0.0215     0.0127    90.9825     9.3008
  773.5000     2.5077     0.0364     0.0029    93.2319     9.3012
  774.0000     2.4952     0.0348    -0.0073    95.0813     9.3017
  774.5000     2.5031     0.0301    -0.0016    97.0809     9.3021
  775.0000     2.5107     0.0253     0.0041    95.1249     9.3025
  775.5000     2.5171     0.0241     0.0116    93.5999     9.3029
  776.0000     2.5141     0.0269     0.0070    94.0007     9.3034
  776.5000     2.5089     0.0297     0.0009    95.2491     9.3038
  777.0000     2.5008     0.0325    -0.0052    96.7787     9.3042
  777.5000     2.4934     0.0356    -0.0120    98.2961     9.3046
  778.0000     2.4983     0.0328    -0.0086    98.8389     9.3051
  778.5000     2.5038     0.0297    -0.0012    97.2594     9.3055
  779.0000     2.5098     0.0266     0.0064    97.2374     9.3059
  779.5000     2.5100     0.0267     0.0047    94.6511     9.3063
  780.0000     2.5054     0.0275     0.0004    91.9845     9.3068
  780.5000     2.5105     0.0251    -0.0037    90.6432     9.3072
  781.0000     2.5169     0.0227     0.0016    94.2857     9.3076
  781.5000     2.5231     0.0209     0.0042    97.7029     9.3081
  782.0000     2.5214     0.0209     0.0041    98.3806     9.3085
  782.5000     2.5205     0.0231     0.0041    93.9245     9.3089
  783.0000     2.5181     0.0254     0.0039    92.7920     9.3093
  783.5000     2.5103     0.0277     0.0042    91.6560     9.3098
  784.0000     2.5054     0.0300     0.0044    91.0037     9.3102
  784.5000     2.5146     0.0204     0.0139    93.3470     9.3106
  785.0000     2.5227     0.0220     0.0154    94.9601     9.3110
  785.5000     2.5153     0.0252     0.0144    94.0715     9.3114
  786.0000     2.5118     0.0283     0.0133    93.8201     9.3119
  786.5000     2.5071     0.0283     0.0122    96.0426     9.3123
  787.0000     2.5029     0.0263     0.0121    94.6650     9.3126
  787.5000     2.5126     0.0218     0.0137    93.9396     9.3148
  788.0000     2.5234     0.0174     0.0188    92.9417     9.3196
  788.5000     2.5288     0.0164     0.0240    94.5315     9.3242
  789.0000     2.5281     0.0168     0.0229    94.7675     9.3289
  789.5000     2.5250     0.0180     0.0204    91.8349     9.3336
  790.0000     2.5189     0.0206     0.0174    88.7158     9.3383
  790.5000     2.5138     0.0233     0.0169    90.9389     9.3431
  791.0000     2.5180     0.0219     0.0196    94.6656     9.3477
  791.5000     2.5222     0.0181     0.0216    98.2502     9.3524
  792.0000     2.5278     0.0173     0.0241    98.0075     9.3538
  792.5000     2.5240     0.0242     0.0229    95.2103     9.3537
  793.0000     2.5105     0.0316     0.0205    92.5459     9.3537
  793.5000     2.5035     0.0303     0.0260    91.3645     9.3537
  794.0000     2.5126     0.0219     0.0399    90.6862     9.3537
  794.5000     2.5231     0.0209     0.0424    91.1645     9.3537
  795.0000     2.5227     0.0206     0.0363    91.8045     9.3537
  795.5000     2.5188     0.0265     0.0281    94.7921     9.3537
  796.0000     2.5069     0.0325     0.0248    97.0197     9.3537
  796.5000     2.5020     0.0332     0.0278    96.4121     9.3537
  797.0000     2.4982     0.0362     0.0233    96.1376     9.3537
  797.5000     2.4922     0.0396     0.0110    97.2629     9.3537
  798.0000     2.4873     0.0405    -0.0008    97.5640     9.3537
  798.5000     2.4916     0.0376    -0.0043    95.2438     9.3537
  799.0000     2.4946     0.0376    -0.0041    93.3666     9.3537
  799.5000     2.4915     0.0381    -0.0039    91.4020     9.3537
  800.0000     2.4939     0.0358    -0.0012    93.2334     9.3537
  800.5000     2.5000     0.0320     0.0017    95.1413     9.3537
  801.0000     2.5064     0.0293     0.0040    94.8882     9.3537
  801.5000     2.5072     0.0298     0.0002    94.2947     9.3537
  802.0000     2.5009     0.0364    -0.0039    93.5537     9.3537
  802.5000     2.4928     0.0350    -0.0074    90.0580     9.3537
  803.0000     2.4986     0.0332     0.0023    88.2797     9.3537
  803.5000     2.5152     0.0217     0.0105    90.2783     9.3537
  804.0000     2.5322     0.0155     0.0196    91.8316     9.3537
  804.5000     2.5282     0.0181     0.0151    93.4577     9.3537
  805.0000     2.5236     0.0206     0.0103    91.6814     9.3537
  805.5000     2.5180     0.0232     0.0049    89.3876     9.3537
  806.0000     2.5129     0.0258    -0.0003    87.0383     9.3537
  806.5000     2.5118     0.0260    -0.0040    85.7568     9.3537
  807.0000     2.5144     0.0250    -0.0023    85.4764     9.3537
  807.5000     2.5171     0.0240    -0.0002    86.3945     9.3537
  808.0000     2.5154     0.0240     0.0018    92.9757     9.3537
  808.5000     2.5116     0.0275     0.0038    95.1222     9.3537
  809.0000     2.5140     0.0262     0.0047    95.8059     9.3537
  809.5000     2.5169     0.0249     0.0064    95.6808     9.3537
  810.0000     2.5121     0.0260     0.0078    94.8010     9.3537
  810.5000     2.5073     0.0290     0.0093    93.8920     9.3537
  811.0000     2.5016     0.0324     0.0107    94.5558     9.3537
  811.5000     2.5061     0.0303     0.0119    96.2597     9.3537
  812.0000     2.5128     0.0275     0.0097    98.4076     9.3537
  812.5000     2.5109     0.0279     0.0075    99.7658     9.3537
  813.0000     2.5052     0.0304     0.0048    96.0765     9.3537
  813.5000     2.5049     0.0308     0.0068    96.6150     9.3537
  814.0000     2.5100     0.0274     0.0130    94.5685     9.3537
  814.5000     2.5149     0.0245     0.0190    93.8566     9.3537
  815.0000     2.5155     0.0237     0.0189    93.6942     9.3537
  815.5000     2.5099     0.0263     0.0148    91.2081     9.3537
  816.0000     2.5047     0.0289     0.0110    87.7567     9.3537
  816.5000     2.5055     0.0288     0.0083    84.2934     9.3537
  817.0000     2.5182     0.0209     0.0172    83.6040     9.3537
  817.5000     2.5349     0.0140     0.0271    88.1604     9.3537
  818.0000     2.5382     0.0097     0.0355    92.5844     9.3537
  818.5000     2.5289     0.0157     0.0209    97.0019     9.3537
  819.0000     2.5255     0.0202     0.0189    99.9702     9.3537
  819.5000     2.5369     0.0138     0.0266   101.6967     9.3537
  820.0000     2.5294     0.0198     0.0230   102.0756     9.3537
  820.5000     2.5145     0.0260     0.0117   101.1897     9.3537
  821.0000     2.5076     0.0283     0.0045   100.1116     9.3537
  821.5000     2.5177     0.0221     0.0126    98.8450     9.3537
  822.0000     2.5318     0.0138     0.0232    97.2879     9.3537
  822.5000     2.5245     0.0214     0.0188    95.6935     9.3537
  823.0000     2.5120     0.0281     0.0125    95.3657     9.3537
  823.5000     2.5064     0.0312     0.0079   101.9174     9.3537
  824.0000     2.5011     0.0336     0.0033   101.0680     9.3537
  824.5000     2.4956     0.0347    -0.0017    96.9034     9.3537
  825.0000     2.4953     0.0341    -0.0024    92.5011     9.3537
  825.5000     2.5032     0.0320     0.0032    93.3869     9.3537
  826.0000     2.5107     0.0300     0.0083    95.2778     9.3537
  826.5000     2.5118     0.0279     0.0129    96.9522     9.3537
  827.0000     2.5098     0.0258     0.0150   100.8358     9.3537
  827.5000     2.5171     0.0220     0.0212   102.8609     9.3537
  828.0000     2.5225     0.0181     0.0302   103.8659     9.3537
  828.5000     2.5173     0.0211     0.0270    99.9570     9.3537
  829.0000     2.5164     0.0193     0.0200    95.9762     9.3537
  829.5000     2.5300     0.0158     0.0129    94.4749     9.3537
  830.0000     2.5377     0.0130     0.0073    95.0203     9.3537
  830.5000     2.5254     0.0238    -0.0049    93.1111     9.3537
  831.0000     2.5084     0.0291    -0.0100    91.6218     9.3537
  831.5000     2.5077     0.0275    -0.0039    97.9863     9.3537
