~VERSION INFORMATION
 VERS.                2.0:   CWLS LOG ASCII STANDARD - VERSION 2.0
 WRAP.                 NO:   ONE LINE PER DEPTH STEP
~WELL INFORMATION
#MNEM.UNIT      DATA TYPE    INFORMATION
#----------   ------------   ------------------------------
 STRT.F           23.0000:   START DEPTH
 STOP.F         1106.0000:   STOP DEPTH
 STEP.F            0.5000:   STEP LENGTH
 NULL.          -999.2500:   NO VALUE
 COMP. FENIX & SCISSON INC:   COMPANY
 WELL.       NPR-3 #67-11:   WELL
 FLD . TEAPOT DOME NPR #3:   FIELD
 LOC .      S11 T38N R78W:   LOCATION
 CNTY.            NATRONA:   COUNTY
 STAT.            WYOMING:   STATE
 CTRY. UNITED STATES OF AMERICA:   COUNTRY
 SRVC.            Unknown:   SERVICE COMPANY
 DATE.        06-MAR-1978:   LOGDATE
 API .       490251059100:   API NUMBER
~CURVE INFORMATION
#MNEM.UNIT       API CODE    CURVE DESCRIPTION
#----------   ------------   ------------------------------
 DEPT.F                  :   
 ILD .OHMM   05 120 46 00:   INDUCTION LOG DEEP
 SN  .OHMM   05 040 16 00:   SHORT NORMAL 16"
 SPR .MV     05 010 01 00:   SPONTANEOUS POTENTIAL FROM RES.
 CALD.IN     45 280 60 00:   CALIPER
 GRD .GAPI   45 310 01 00:   GAMMA RAY FROM DENSITY LOG
 CORR.G/C3   45 356 01 00:   DENSITY CORRECTION
 DPHI.DEC    45 890 12 00:   DENSITY POROSITY SANDSTONE
 RHOB.G/C3   45 350 01 00:   BULK DENSITY
~PARAMETER INFORMATION
#MNEM.UNIT          VALUE    DESCRIPTION
#----------   ------------   ------------------------------
 PD  .                 GL:   PERMANENT DATUM
 EPD .F              5243:   ELEVATION PERMANENT DATUM
 LMF .                 KB:   LOG MEASURED FROM
 DAPD.F                 4:   FEET ABOVE PERMANENT DATUM
 DMF .                 KB:   DRILLING MEASURED FROM
 EKB .F              5247:   KELLING BUSHING
 EGL .F              5243:   GROUND LEVEL
 DATE.           3-6-1978:   RUN DATE
 RUN .                  1:   RUN NUMBER
 DD  .F              1104:   DEPTH DRILLER
 DL  .F              1108:   DEPTH LOGGER
 BLI .F              1102:   BOTTOM LOG INTERVAL
 TLI .F                40:   TOP LOG INTERVAL
 CS  .IN            8.625:   CASING SIZE
 CBD .F                40:   CASING BOTTOM DRILLER
 CBL .F                40:   CASING BOTTOM LOGGER
 BS  .IN            7.875:   BIT SIZE
 BSD .F              1104:   BIT SIZE AT DEPTH
 DFT .         LIGNO/SULF:   DRILLING FLUID TYPE
 DFD .                8.6:   DRILLING FLUID DENSITY
 DFV .                 31:   DRILLING FLUID VISCOSITY
 DFL .                  8:   DRILLING FLUID LOSS
 MSS .            MUD PIT:   MUD SAMPLE SOURCE
 RMS .OHMM              2:   RESISTIVITY MUD SAMPLE
 MST .F                58:   MUD SAMPLE TEMPERATURE
 RMF .OHMM            1.2:   RESISTIVITY MUD FILTRATE SAMPLE
 MFST.F                64:   MUD FILTRATE SAMPLE TEMPERATURE
 RMC .OHMM              3:   RESISTIVITY MUD CAKE
 MCST.F                64:   MUD CAKE SAMPLE TEMPERATURE
 MFSS.               MEAS:   MUD FILTRATE SAMPLE SOURCE
 RMB .OHMM            1.5:   RESISTIVITY MUD AT BHT
 BHT .F                78:   BOTTOM HOLE TEMPERATURE
 TCS .HRS               4:   TIME CURCULATED STOPPED
 MRT .F                78:   MAXIMUM RECORDED TEMPERATURE
 LUN .               2959:   LOGGING UNIT NUMBER
 LUL .               CASP:   LOGGING UNIT LOCATION
 ENGI.             MILLER:   RECORDING ENGINEER
 WITN.           MCGINLEY:   WITNESSED BY
 CLNT.            A2DTECH:   CLIENT CODE
 ORIG.       2", 5" PRINT:   ORIGIN OF DATA
 UWI .       490251059100:   UNIQUE WELL ID
 DICO. A2D Technologies, Inc.:   DIGITIZING COMPANY
~OTHER INFORMATION
~A   DEPT      ILD         SN        SPR       CALD         GRD      CORR       DPHI       RHOB   
# ...
  590.0000     5.9442     6.7408   -25.4782     7.6570    85.6686     0.0278     0.1203     2.4659
  590.5000     5.9291     6.5933   -25.2254     7.6722    83.5524     0.0315     0.1198     2.4673
  591.0000     5.9140     6.5649   -25.3758     7.6871    83.3311     0.0336     0.1193     2.4662
  591.5000     5.8670     6.5368   -25.5154     7.6983    84.5917     0.0348     0.1188     2.4662
  592.0000     5.7669     6.5087   -25.5363     7.6910    87.7350     0.0359     0.1209     2.4701
  592.5000     5.7465     6.4798   -25.3951     7.6840    92.0491     0.0367     0.1265     2.4742
  593.0000     5.7465     6.5628   -25.2533     7.6771    96.2106     0.0303     0.1295     2.4618
  593.5000     5.7465     6.6477   -25.2447     7.6702    96.2764     0.0252     0.1288     2.4483
  594.0000     5.8187     6.7337   -25.3172     7.6633    95.1388     0.0270     0.1282     2.4444
  594.5000     5.9130     6.8208   -25.4428     7.6578    94.2409     0.0287     0.1338     2.4456
  595.0000     6.0087     6.9127   -25.3065     7.6540    94.0998     0.0304     0.1319     2.4467
  595.5000     6.1061     6.9965   -24.9576     7.6503    93.7698     0.0332     0.1295     2.4478
  596.0000     6.1714     7.1086   -24.8606     7.6466    90.3161     0.0436     0.1272     2.4489
  596.5000     6.2464     7.2225   -24.9566     7.6429    86.2743     0.0450     0.1248     2.4517
  597.0000     6.3223     7.3382   -25.0339     7.6392    85.7681     0.0450     0.1225     2.4565
  597.5000     6.4202     7.4557   -25.0959     7.6355    86.6873     0.0450     0.1201     2.4613
  598.0000     6.4054     7.5120   -25.1574     7.6318    87.6347     0.0450     0.1208     2.4660
  598.5000     6.3775     7.4912   -25.2001     7.6280    88.1843     0.0450     0.1219     2.4683
  599.0000     6.3502     7.4757   -25.1992     7.6244    85.4677     0.0449     0.1230     2.4626
  599.5000     6.3232     7.4601   -25.1992     7.6201    83.0865     0.0486     0.1233     2.4573
  600.0000     6.2462     7.4430   -25.1992     7.6575    82.2503     0.0550     0.1230     2.4584
  600.5000     6.1484     7.4869   -25.1991     7.7167    81.4187     0.0589     0.1226     2.4664
  601.0000     6.0606     7.5362   -25.1990     7.7828    80.5885     0.0594     0.1222     2.4917
  601.5000     5.9748     7.6521   -25.1997     7.7986    78.1887     0.0361     0.1219     2.4832
  602.0000     5.8903     7.4749   -25.2005     7.7990    75.0488     0.0126     0.1238     2.4663
  602.5000     5.8070     7.2395   -25.3362     7.7988    74.7526     0.0157     0.1259     2.4536
  603.0000     5.7465     7.2395   -25.6200     7.7988    81.1283     0.0192     0.1232     2.4552
  603.5000     5.7649     7.1175   -25.9115     7.7988    93.8883     0.0200     0.1217     2.4571
  604.0000     5.7929     6.9768   -26.1019     7.7988    93.5899     0.0182     0.1248     2.4590
  604.5000     5.8209     6.9528   -26.0856     7.7989    91.7380     0.0164     0.1279     2.4573
  605.0000     5.8491     6.9300   -25.6167     7.7789    91.8143     0.0146     0.1309     2.4532
  605.5000     5.8854     6.9127   -25.1386     7.7405    92.3779     0.0130     0.1300     2.4490
  606.0000     5.9586     6.9651   -25.0662     7.7021    87.8888     0.0163     0.1275     2.4447
  606.5000     6.0327     7.0079   -25.1551     7.6637    81.8242     0.0200     0.1250     2.4479
  607.0000     6.1077     7.0416   -25.2497     7.6258    81.6007     0.0249     0.1225     2.4543
  607.5000     6.1837     7.0615   -25.3433     7.5977    86.0171     0.0383     0.1198     2.4609
  608.0000     6.2447     7.0812   -25.3021     7.5873    89.6144     0.0468     0.1217     2.4629
  608.5000     6.2617     7.1009   -25.0788     7.5795    89.7315     0.0506     0.1246     2.4617
  609.0000     6.2786     7.1207   -25.0011     7.5797    91.1933     0.0544     0.1207     2.4636
  609.5000     6.2956     7.1406   -25.0000     7.5797    92.3076     0.0586     0.1162     2.4665
  610.0000     6.3126     7.1604   -24.9994     7.5797    92.2833     0.0630     0.1178     2.4694
  610.5000     6.3297     7.1727   -24.9975     7.5797    93.2650     0.0569     0.1200     2.4689
  611.0000     6.3468     7.1660   -25.0100     7.5796    95.0630     0.0487     0.1223     2.4680
  611.5000     6.3612     7.1571   -25.3383     7.5797    95.8716     0.0429     0.1246     2.4656
  612.0000     6.3295     7.1483   -25.3243     7.5818    94.2225     0.0428     0.1232     2.4601
  612.5000     6.2883     7.1394   -25.2361     7.5966    90.7509     0.0481     0.1217     2.4555
  613.0000     6.2471     7.1306   -25.1455     7.6114    92.1921     0.0535     0.1208     2.4608
  613.5000     6.2062     7.1217   -25.0572     7.6262    94.3811     0.0593     0.1204     2.4664
  614.0000     6.1656     7.1131   -25.1619     7.6410    94.4663     0.0615     0.1258     2.4721
  614.5000     6.1253     7.0966   -25.5919     7.6563    92.7775     0.0373     0.1247     2.4654
  615.0000     6.0853     7.0638   -26.0186     7.6579    88.9276     0.0131     0.1233     2.4489
  615.5000     6.0597     7.0314   -26.4389     7.6561    88.8974     0.0139     0.1235     2.4498
  616.0000     6.0399     6.9992   -26.7234     7.6543    88.8989     0.0148     0.1244     2.4572
  616.5000     6.0201     6.9768   -26.2125     7.6524    89.2644     0.0134     0.1253     2.4604
  617.0000     6.0004     6.9768   -25.7062     7.6506    91.5794     0.0120     0.1262     2.4571
  617.5000     5.9808     6.9768   -25.5654     7.6487    93.1225     0.0107     0.1276     2.4536
  618.0000     5.9628     6.9768   -25.5182     7.6469    91.8181     0.0093     0.1295     2.4501
  618.5000     5.9628     6.9766   -25.4745     7.6450    89.6177     0.0090     0.1286     2.4466
  619.0000     6.0082     6.9780   -25.4305     7.6432    88.5684     0.0091     0.1277     2.4486
  619.5000     6.0439     6.9752   -25.3860     7.6413    88.4771     0.0127     0.1268     2.4516
  620.0000     6.0798     7.0416   -25.3416     7.6395    89.6444     0.0231     0.1260     2.4617
  620.5000     6.1160     7.0459   -25.2972     7.6376    91.0452     0.0244     0.1251     2.4720
  621.0000     6.1523     7.0552   -25.2528     7.6358    90.5036     0.0228     0.1242     2.4795
  621.5000     6.1873     7.0646   -25.2084     7.6339    86.8550     0.0212     0.1233     2.4777
  622.0000     6.2034     7.0740   -25.1639     7.6321    83.2164     0.0196     0.1225     2.4698
  622.5000     6.2285     7.0835   -25.1193     7.6302    82.4577     0.0201     0.1216     2.4620
  623.0000     6.2538     7.0929   -25.0746     7.6284    87.3322     0.0220     0.1197     2.4593
  623.5000     6.2792     7.1023   -25.0319     7.6265    91.5941     0.0240     0.1175     2.4695
  624.0000     6.3047     7.1118   -25.0451     7.6247    93.5119     0.0302     0.1163     2.4821
  624.5000     6.3303     7.1213   -25.2187     7.6228    91.7907     0.0413     0.1164     2.4855
  625.0000     6.3560     7.1308   -25.3909     7.6210    89.8651     0.0408     0.1166     2.4836
  625.5000     6.3612     7.1403   -25.2743     7.6201    89.5505     0.0318     0.1224     2.4767
  626.0000     6.3589     7.1498   -25.3045     7.6238    91.5833     0.0225     0.1306     2.4615
  626.5000     6.4226     7.1593   -25.5116     7.6274    93.7231     0.0152     0.1274     2.4511
  627.0000     6.4372     7.1684   -25.7193     7.6309    93.3905     0.0174     0.1222     2.4505
  627.5000     6.4630     7.2482   -25.9423     7.6345    92.3187     0.0194     0.1207     2.4543
  628.0000     6.4897     7.3797   -25.7242     7.6381    92.0243     0.0214     0.1198     2.4680
  628.5000     6.5169     7.5137   -25.3165     7.6425    91.7661     0.0241     0.1198     2.4650
  629.0000     6.5399     7.6503   -25.2027     7.6475    91.5069     0.0234     0.1198     2.4648
  629.5000     6.7210     7.7897   -25.1980     7.6525    91.2499     0.0214     0.1198     2.4714
  630.0000     6.8653     7.9401   -25.1987     7.6575    91.2056     0.0194     0.1198     2.4765
