~VERSION INFORMATION
 VERS.                2.0:   CWLS LOG ASCII STANDARD - VERSION 2.0
 WRAP.                 NO:   ONE LINE PER DEPTH STEP
~WELL INFORMATION
#MNEM.UNIT      DATA TYPE    INFORMATION
#----------   ------------   ------------------------------
 STRT.F           30.0000:   START DEPTH
 STOP.F          691.0000:   STOP DEPTH
 STEP.F            0.5000:   STEP LENGTH
 NULL.          -999.2500:   NO VALUE
 COMP. U.S. DEPARTMENT OF ENERGY:   COMPANY
 WELL. NAVAL PETROLEUM RESERVE #3 #77-S-34:   WELL
 FLD .        TEAPOT DOME:   FIELD
 LOC .      S34 T39N R78W:   LOCATION
 CNTY.            NATRONA:   COUNTY
 STAT.            WYOMING:   STATE
 CTRY. UNITED STATES OF AMERICA:   COUNTRY
 SRVC.              Welex:   SERVICE COMPANY
 DATE.        26-APR-1977:   LOGDATE
 API .       490251034700:   API NUMBER
~CURVE INFORMATION
#MNEM.UNIT       API CODE    CURVE DESCRIPTION
#----------   ------------   ------------------------------
 DEPT.F                  :   
 CALD.IN     45 280 60 00:   CALIPER FROM DENSITY LOG
 CORR.G/C3   45 356 01 00:   DENSITY CORRECTION
 DPHI.DEC    45 890 12 00:   DENSITY POROSITY SANDSTONE
 RHOB.G/C3   45 350 01 00:   BULK DENSITY
 GRD .GAPI   45 310 01 00:   GAMMA RAY FROM DENSITY LOG
 ILD .OHMM   07 120 46 00:   INDUCTION LOG DEEP
 ILM .OHMM   07 120 44 00:   INDUCTION LOG MEDIUM
 SGRD.OHMM   07 220 05 00:   SHALLOW GUARD RESISTIVITY
 SPR .MV     07 010 01 00:   SPONTANEOUS POTENTIAL FROM RES.
~PARAMETER INFORMATION
#MNEM.UNIT          VALUE    DESCRIPTION
#----------   ------------   ------------------------------
 PD  .                 GL:   PERMANENT DATUM
 EPD .F              5075:   ELEVATION PERMANENT DATUM
 LMF .                 GL:   LOG MEASURED FROM
 DMF .                 GL:   DRILLING MEASURED FROM
 EGL .F              5075:   GROUND LEVEL
 DATE.          4-26-1977:   RUN DATE
 RUN .                  1:   RUN NUMBER
 DD  .F               700:   DEPTH DRILLER
 DL  .F               693:   DEPTH LOGGER
 BLI .F               691:   BOTTOM LOG INTERVAL
 TLI .F                35:   TOP LOG INTERVAL
 CS  .IN            8.625:   CASING SIZE
 CBD .F                40:   CASING BOTTOM DRILLER
 CBL .F                39:   CASING BOTTOM LOGGER
 BS  .IN            7.875:   BIT SIZE
 BSD .F               700:   BIT SIZE AT DEPTH
 DFT .            KCL MUD:   DRILLING FLUID TYPE
 DFD .                9.5:   DRILLING FLUID DENSITY
 DFV .                 35:   DRILLING FLUID VISCOSITY
 DFPH.               10.5:   DRILLING FLUID PH
 DFL .                 12:   DRILLING FLUID LOSS
 MSS .           FLOWLINE:   MUD SAMPLE SOURCE
 RMS .OHMM            .32:   RESISTIVITY MUD SAMPLE
 MST .F                66:   MUD SAMPLE TEMPERATURE
 RMF .OHMM            .28:   RESISTIVITY MUD FILTRATE SAMPLE
 MFST.F                66:   MUD FILTRATE SAMPLE TEMPERATURE
 RMC .OHMM            .49:   RESISTIVITY MUD CAKE
 MCST.F                66:   MUD CAKE SAMPLE TEMPERATURE
 RMB .OHMM            .28:   RESISTIVITY MUD AT BHT
 BHT .F                74:   BOTTOM HOLE TEMPERATURE
 TCS .HRS             1.5:   TIME CURCULATED STOPPED
 MRT .F                74:   MAXIMUM RECORDED TEMPERATURE
 LUN .               8611:   LOGGING UNIT NUMBER
 LUL .           GILLETTE:   LOGGING UNIT LOCATION
 ENGI.            C. DOAK:   RECORDING ENGINEER
 WITN.       MR. ROB LYON:   WITNESSED BY
 CLNT.            A2DTECH:   CLIENT CODE
 ORIG.           5" PRINT:   ORIGIN OF DATA
 UWI .       490251034700:   UNIQUE WELL ID
 DICO. A2D Technologies, Inc.:   DIGITIZING COMPANY
~OTHER INFORMATION
~A   DEPT       CALD      CORR      DPHI         RHOB       GRD       ILD        ILM       SGRD        SPR   
# ...
  212.5000     7.9283     0.0263     0.1253     2.4549   123.0195     6.7759     7.7299     9.6094   -41.9656
  213.0000     7.9283     0.0232     0.1253     2.4639   126.0125     6.8228     7.8924     9.2228   -42.1137
  213.5000     7.9283     0.0232     0.1253     2.4684   127.6596     6.8700     8.0582     9.3539   -42.1119
  214.0000     7.9283     0.0232     0.1238     2.4654   128.2596     6.9654     8.1711     9.5534   -42.1105
  214.5000     7.9283     0.0186     0.1247     2.4707   125.8715     7.0136     8.2289     9.6893   -42.1091
  215.0000     7.9283     0.0141     0.1331     2.4662   126.3228     7.0136     8.2300     9.7596   -41.9579
  215.5000     7.9283     0.0080     0.1420     2.4505   125.1305     6.9175     8.1184     9.8303   -41.9565
  216.0000     7.9283     0.0020     0.1450     2.4356   122.8911     6.7759     7.8988     9.5008   -41.9551
  216.5000     7.9283     0.0005     0.1462     2.4304   121.1002     6.6362     7.6326     9.1185   -41.9537
  217.0000     7.9283     0.0035     0.1450     2.4319   120.8041     6.4567     7.4261     8.8291   -41.9519
  217.5000     7.9283     0.0065     0.1453     2.4327   122.4518     6.3246     7.2252     8.5763   -42.1003
  218.0000     7.9283     0.0049     0.1474     2.4312   123.0526     6.1525     7.0297     8.2877   -42.0986
  218.5000     7.9264     0.0019     0.1504     2.4251   122.3080     6.0683     6.9344     8.1199   -42.0972
  219.0000     7.9133    -0.0011     0.1534     2.4230   122.1613     5.9852     6.8404     7.9568   -42.0954
  219.5000     7.9133    -0.0042     0.1552     2.4208   122.7627     5.9441     6.8416     7.9041   -42.0940
  220.0000     7.8984    -0.0073     0.1567     2.4171   122.9150     5.9441     6.8424     7.8529   -41.9432
  220.5000     7.9283    -0.0087     0.1573     2.4148   123.0673     5.9441     6.9385     7.8014   -42.0912
  221.0000     7.9283    -0.0088     0.1558     2.4141   122.7719     5.9441     6.9874     7.8586   -42.0895
  221.5000     7.9581    -0.0043     0.1513     2.4171   120.6820     5.9852     7.0852     8.0256   -42.2379
  222.0000     7.9806     0.0002     0.1465     2.4209   117.3963     6.0266     7.1844     8.1565   -41.9372
  222.5000     7.9893     0.0077     0.1414     2.4286   115.3065     6.1103     7.3356     8.3708   -41.6365
  223.0000     8.0030     0.0136     0.1375     2.4389   113.2173     6.1525     7.3873     8.5487   -41.6351
  223.5000     8.0179     0.0121     0.1349     2.4472   114.4160     6.2380     7.4393     8.6741   -41.6337
  224.0000     8.0179     0.0106     0.1355     2.4502   116.6609     6.3246     7.4403     8.7943   -41.7818
  224.5000     8.0179     0.0075     0.1390     2.4471   118.0090     6.5014     7.4415     8.8580   -41.7800
  225.0000     8.0179     0.0105     0.1408     2.4427   118.6105     6.5916     7.4425     8.8609   -41.7786
  225.5000     8.0030     0.0165     0.1358     2.4443   117.4174     6.6372     7.4949     8.8638   -41.7772
  226.0000     7.9880     0.0210     0.1319     2.4533   118.9150     6.6844     7.4959     8.8674   -41.7758
  226.5000     7.9880     0.0209     0.1286     2.4593   119.9642     6.7759     7.6011     8.9935   -41.6246
  227.0000     7.9843     0.0164     0.1331     2.4563   119.6687     6.8228     7.6546     9.0587   -41.6232
  227.5000     7.9731     0.0134     0.1405     2.4511   118.6252     6.8700     7.7085     9.1244   -41.6218
  228.0000     7.9731     0.0103     0.1444     2.4429   117.7312     6.9175     7.8165     9.3189   -41.6203
  228.5000     7.9731     0.0103     0.1450     2.4376   119.2288     6.8700     7.8178     9.4515   -41.6186
  229.0000     7.9731     0.0120     0.1447     2.4339   122.3713     6.8228     7.8728     9.5859   -41.7670
  229.5000     7.9731     0.0147     0.1450     2.4355   124.1678     6.7294     7.8738     9.7320   -42.0642
  230.0000     7.9731     0.0171     0.1438     2.4355   125.3664     6.5916     7.8208     9.4696   -42.2123
  230.5000     7.9731     0.0192     0.1414     2.4362   125.8177     6.5014     7.7681     8.8354   -42.3604
  231.0000     7.9731     0.0222     0.1399     2.4385   125.6717     6.4124     7.6628     8.8397   -42.5085
  231.5000     7.9731     0.0206     0.1390     2.4430   125.0766     6.3246     7.5592     8.7229   -42.5067
  232.0000     7.9731     0.0206     0.1372     2.4475   124.6303     6.2380     7.5083     8.3083   -42.5049
  232.5000     7.9731     0.0191     0.1355     2.4506   124.6338     6.1951     7.4065     7.7662   -42.3541
  233.0000     7.9731     0.0160     0.1399     2.4498   125.8332     6.1951     7.3566     7.8780   -42.3527
  233.5000     7.9581     0.0160     0.1411     2.4461   127.0318     6.1525     7.3070     8.2719   -42.2018
  234.0000     7.9581     0.0145     0.1396     2.4416   127.9315     6.1525     7.3082     8.5076   -42.0506
  234.5000     7.9731     0.0129     0.1372     2.4409   128.6817     6.1525     7.3599     8.6898   -42.0492
  235.0000     7.9731     0.0099     0.1369     2.4484   129.1336     6.1525     7.3609     8.6354   -42.0477
  235.5000     7.9880     0.0052     0.1408     2.4455   129.1364     6.1525     7.4640     8.3467   -42.1958
  236.0000     7.9880     0.0008     0.1444     2.4380   127.4950     6.1525     7.5166     7.9571   -42.1941
  236.5000     7.9880    -0.0022     0.1474     2.4328   124.5083     6.1951     7.6221     8.2975   -42.0432
  237.0000     8.0030    -0.0022     0.1492     2.4283   121.9707     6.2380     7.6757     8.7124   -42.0418
  237.5000     7.9880     0.0038     0.1501     2.4261   120.9272     6.2811     7.6767     8.8991   -42.0404
  238.0000     8.0030     0.0082     0.1465     2.4254   120.4809     6.2811     7.6777     8.8422   -41.8892
  238.5000     8.0179     0.0127     0.1399     2.4329   120.0359     6.2811     7.7321     8.7253   -41.8878
  239.0000     8.0179     0.0157     0.1366     2.4426   120.6374     6.2811     7.7331     8.6696   -41.9053
  239.5000     8.0329     0.0186     0.1352     2.4479   122.2844     6.2811     7.6810     8.9177   -41.8849
  240.0000     8.0329     0.0203     0.1349     2.4502   123.7820     6.2811     7.6820     9.6922   -41.8832
  240.5000     8.0478     0.0216     0.1364     2.4494   125.8775     6.3246     7.6832     8.7448   -41.5828
  241.0000     8.0478     0.0246     0.1387     2.4479   128.8705     6.3683     7.6842     8.6879   -41.5814
  241.5000     8.0478     0.0245     0.1352     2.4487   130.3681     6.4124     7.5801     8.9365   -41.2807
  242.0000     8.0478     0.0260     0.1310     2.4525   132.0152     6.4567     7.5810     9.0028   -40.9804
  242.5000     8.0478     0.0230     0.1286     2.4577   129.7758     6.5014     7.4783     8.8838   -40.8295
  243.0000     8.0179     0.0199     0.1313     2.4570   128.4334     6.5014     7.4795     8.7061   -40.6786
  243.5000     8.0030     0.0154     0.1346     2.4526   129.4832     6.5464     7.5322     9.0797   -40.6769
  244.0000     7.9880     0.0109     0.1384     2.4466   130.3829     6.5916     7.5331     9.5337   -40.6755
  244.5000     7.9581     0.0093     0.1393     2.4429   130.3857     6.6832     7.5864     9.2150   -40.5246
  245.0000     7.9581     0.0123     0.1352     2.4481   129.6418     6.7294     7.5874     8.9069   -40.5182
  245.5000     7.9581     0.0183     0.1310     2.4564   129.1955     6.7759     7.6409     8.7892   -40.3720
  246.0000     7.9731     0.0243     0.1283     2.4616   129.7969     6.8700     7.6419     9.1664   -40.3705
  246.5000     7.9731     0.0257     0.1262     2.4639   129.9492     6.8700     7.6959     9.4928   -40.3691
  247.0000     7.9880     0.0272     0.1247     2.4669   129.9528     6.8700     7.8037     9.7632   -40.5172
  247.5000     7.9880     0.0272     0.1238     2.4700   129.9556     6.8700     7.9130     9.9723   -40.6653
  248.0000     7.9880     0.0256     0.1241     2.4692   129.9584     6.8700     8.0238     9.9773   -40.6635
  248.5000     7.9880     0.0256     0.1274     2.4670   129.8116     6.8700     8.1364     9.9823   -40.6621
