~VERSION INFORMATION
 VERS.                2.0:   CWLS LOG ASCII STANDARD - VERSION 2.0
 WRAP.                 NO:   ONE LINE PER DEPTH STEP
~WELL INFORMATION
#MNEM.UNIT      DATA TYPE    INFORMATION
#----------   ------------   ------------------------------
 STRT.F           29.0000:   START DEPTH
 STOP.F          882.0000:   STOP DEPTH
 STEP.F            0.5000:   STEP LENGTH
 NULL.          -999.2500:   NO VALUE
 COMP. FENIX & SCISSON INC:   COMPANY
 WELL. NAVAL PETROLEUM RESERVE 3 S-14 #42-14:   WELL
 FLD .             TEAPOT:   FIELD
 LOC .      S14 T38N R78W:   LOCATION
 CNTY.            NATRONA:   COUNTY
 STAT.            WYOMING:   STATE
 CTRY. UNITED STATES OF AMERICA:   COUNTRY
 SRVC.              Welex:   SERVICE COMPANY
 DATE.        03-MAY-1977:   LOGDATE
 API .       490251035400:   API NUMBER
~CURVE INFORMATION
#MNEM.UNIT       API CODE    CURVE DESCRIPTION
#----------   ------------   ------------------------------
 DEPT.F                  :   
 CALD.IN     45 280 60 00:   CALIPER FROM DENSITY LOG
 GRD .GAPI   45 310 01 00:   GAMMA RAY FROM DENSITY LOG
 CORR.G/C3   45 356 01 00:   DENSITY CORRECTION
 DPHI.DEC    45 890 12 00:   DENSITY POROSITY SANDSTONE
 RHOB.G/C3   45 350 01 00:   BULK DENSITY
 SPR .MV     07 010 01 00:   SPONTANEOUS POTENTIAL
 ILD .OHMM   07 120 46 00:   INDUCTION LOG DEEP
 ILM .OHMM   07 120 44 00:   INDUCTION LOG MEDIUM
 SGRD.OHMM   07 221 05 00:   SHALLOW SHORT GUARD RESISTIVITY
~PARAMETER INFORMATION
#MNEM.UNIT          VALUE    DESCRIPTION
#----------   ------------   ------------------------------
 PD  .                 GL:   PERMANENT DATUM
 EPD .F              5206:   ELEVATION PERMANENT DATUM
 LMF .                 GL:   LOG MEASURED FROM
 DMF .                 GL:   DRILLING MEASURED FROM
 EGL .F              5206:   GROUND LEVEL
 DATE.        03-MAY-1977:   RUN DATE
 RUN .                  1:   RUN NUMBER
 DD  .F               855:   DEPTH DRILLER
 DL  .F               884:   DEPTH LOGGER
 BLI .F               882:   BOTTOM LOG INTERVAL
 TLI .F                28:   TOP LOG INTERVAL
 CS  .IN            8.625:   CASING SIZE
 BS  .IN               12:   BIT SIZE
 BSD .F               855:   BIT SIZE AT DEPTH
 DFT .            KCL MUD:   DRILLING FLUID TYPE
 DFD .                8.7:   DRILLING FLUID DENSITY
 BHT .F                75:   BOTTOM HOLE TEMPERATURE
 TCS .HRS            0130:   TIME CURCULATED STOPPED
 MRT .F                75:   MAXIMUM RECORDED TEMPERATURE
 ENGI.            C. DOAK:   RECORDING ENGINEER
 WITN.            R. LYON:   WITNESSED BY
 CLNT.            A2DTECH:   CLIENT CODE
 ORIG.           5" PRINT:   ORIGIN OF DATA
 UWI .       490251035400:   UNIQUE WELL ID
 DICO. A2D Technologies, Inc.:   DIGITIZING COMPANY
~OTHER INFORMATION
~A   DEPT       CALD      GRD       CORR       DPHI         RHOB      SPR        ILD        ILM       SGRD   
# ...
  832.0000     7.9486   112.9362     0.0265     0.1260     2.4657   -36.8415     9.9337     8.9729    12.8869
  832.5000     7.9484   112.4839     0.0235     0.1293     2.4552   -36.6979    10.1394     9.0334    13.1535
  833.0000     7.9483   114.2745     0.0250     0.1314     2.4529   -36.7068    10.3476     8.9071    13.3331
  833.5000     7.9481   117.4124     0.0414     0.1320     2.4537   -36.5649    10.5648     8.9706    13.2376
  834.0000     7.9480   116.3588     0.0399     0.1293     2.4731   -36.4231    10.8527     9.0897    13.2333
  834.5000     7.9478   110.6644     0.0428     0.1194     2.4805   -36.4320    11.0010     9.0879    13.6952
  835.0000     7.9477   107.5149     0.0443     0.1193     2.4722   -36.4392    11.2279     9.1496    13.9794
  835.5000     7.9475   104.6279     0.0443     0.1224     2.4752   -36.4463    11.3020     9.1473    14.1703
  836.0000     7.9474   109.4481     0.0383     0.1224     2.4707   -36.4535    11.2974     9.1455    14.2641
  836.5000     7.9472   109.5934     0.0337     0.1242     2.4640   -36.4606    11.1385     9.1437    13.9648
  837.0000     7.9471   110.0353     0.0322     0.1272     2.4610   -36.4680    10.9053     9.1414    13.3953
  837.5000     7.9469   111.9757     0.0307     0.1293     2.4595   -36.4768    10.6778     9.0766    13.0264
  838.0000     7.9468   112.4611     0.0247     0.1296     2.4632   -36.4839    10.7484     8.9502    13.5746
  838.5000     7.9466   107.7440     0.0291     0.1278     2.4699   -36.4911    10.8953     8.8867    14.3429
  839.0000     7.9465   108.6635     0.0336     0.1225     2.4781   -36.4982    11.0424     8.8850    14.7412
  839.5000     7.9463   111.8015     0.0366     0.1099     2.4990   -36.5054    11.1154     8.9508    14.9425
  840.0000     7.9312   114.7897     0.0380     0.1090     2.5049   -36.5126    11.1888     9.0676    14.7197
  840.5000     7.9311   111.6403     0.0305     0.1123     2.4944   -36.5215    11.2627     9.1287    13.9358
  841.0000     7.9309   109.2393     0.0350     0.1129     2.4870   -36.5287    11.2580     9.1902    13.3659
  841.5000     7.9308   111.7828     0.0364     0.1102     2.4990   -36.5358    11.4110     9.2521    12.9979
  842.0000     7.9157   114.8145     0.0334     0.1048     2.5033   -36.5430    11.7271     9.3140    12.9057
  842.5000     7.9155   115.2100     0.0259     0.1099     2.4973   -36.5501    11.8865     9.3121    13.3553
  843.0000     7.9303   114.0052     0.0182     0.1146     2.4861   -36.5574    11.8824     9.2457    13.8303
  843.5000     7.9302   112.3528     0.0154     0.1176     2.4771   -36.5662    11.8775     9.1169    14.3029
  844.0000     7.9301   111.8993     0.0243     0.1185     2.4793   -36.7224    11.3126     8.9899    14.5988
  844.5000     7.9449   115.3353     0.0243     0.1185     2.4816   -36.7296    10.6265     8.9262    14.0989
  845.0000     7.9746   116.2425     0.0213     0.1180     2.4799   -36.5859    10.1913     8.9244    13.7107
  845.5000     8.0043   116.9690     0.0242     0.1168     2.4793   -36.7858    10.2586     8.9226    13.6126
  846.0000     8.0490   118.0111     0.0287     0.1114     2.4837   -36.9569    10.3301     8.9204    13.7034
  846.5000     8.0788   118.6056     0.0302     0.0998     2.4934   -37.1280    10.5392     8.8572    12.8723
  847.0000     8.0786   117.8499     0.0316     0.0995     2.4979   -37.2991    10.5349     8.8554    13.0489
  847.5000     8.0037   115.7483     0.0421     0.0971     2.5121   -37.4956    10.5314     8.7320    13.1360
  848.0000     7.9438   110.6467     0.0420     0.0923     2.5384   -37.8057    10.3117     8.6104    13.1316
  848.5000     7.9287   115.8851     0.0375     0.0938     2.5225   -37.9668    10.0967     8.4228    11.9990
  849.0000     7.9285   116.6292     0.0375     0.0971     2.5068   -38.1279     9.9538     8.1999    11.6686
  849.5000     7.9284   115.4244     0.0419     0.0977     2.5015   -38.2890     9.8139     8.0857    12.3289
  850.0000     7.9283   114.7633     0.0434     0.0927     2.5149   -38.5991     9.8080     8.0039    12.0881
  850.5000     7.9305   114.3630     0.0449     0.0915     2.5157   -38.7787     9.7647     7.8481    11.3403
  851.0000     7.9326   114.0565     0.0448     0.0894     2.5209   -39.0733     9.6694     7.6924    11.9813
  851.5000     7.9348   114.4985     0.0448     0.0864     2.5247   -39.3834     9.4677     7.4324    12.3986
  852.0000     7.9370   122.5734     0.0418     0.0849     2.5320   -39.5445     9.1429     7.2774    11.4066
  852.5000     7.9391   121.9675     0.0341     0.0915     2.5193   -39.8546     8.5884     7.1750    10.7891
  853.0000     7.9413   119.5652     0.0298     0.0942     2.5185   -40.0157     8.2308     7.1726    10.7121
  853.5000     7.9434   121.0551     0.0342     0.0931     2.5111   -40.3258     8.1764     7.1702    10.9321
  854.0000     7.9456   124.4109     0.0372     0.0865     2.5297   -40.6359     8.5790     7.2709    11.0815
  854.5000     7.9478   128.2248     0.0387     0.0937     2.5334   -40.7973     8.9395     7.4175    11.3100
  855.0000     7.9499   130.3135     0.0356     0.0991     2.5043   -40.9611     9.2508     7.5183    11.6223
  855.5000     7.9499   131.0549     0.0266     0.1045     2.4945   -41.1222     9.4424     7.6204    12.0331
  856.0000     7.9491   126.8562     0.0251     0.1114     2.4863   -41.5813     9.5040     7.6707    12.5314
  856.5000     7.9334   124.5808     0.0236     0.1227     2.4743   -41.8915     9.4353     7.7214    12.8785
  857.0000     7.9327   122.4989     0.0235     0.1299     2.4563   -42.2016     9.3025     7.6121    13.0545
  857.5000     7.9320   123.6894     0.0220     0.1356     2.4481   -42.3626     9.0450     7.5051    13.1407
  858.0000     7.9313   125.9278     0.0220     0.1389     2.4428   -42.5237     8.7953     7.3926    12.6888
  858.5000     7.9304   129.3714     0.0219     0.1380     2.4443   -42.5360     8.4350     7.1451    12.3386
  859.0000     7.9296   127.1094     0.0144     0.1408     2.4383   -42.5508     8.2022     6.9478    11.9153
  859.5000     7.9289   119.7670     0.0114     0.1369     2.4375   -42.4109     7.7047     6.8501    10.8117
  860.0000     7.9282    89.2210     0.0189     0.1255     2.4472   -42.4259     7.3382     6.8006     5.8813
  860.5000     7.9275    51.0390     0.0263     0.1184     2.4666   -42.2859     6.9883     6.3882     4.3075
  861.0000     7.9266    50.8822     0.0263     0.1151     2.4787   -42.1489     6.6961     6.0007     8.3048
  861.5000     7.9232    50.7254     0.0233     0.1142     2.4838   -42.0120     6.3835     5.7549     8.8971
  862.0000     7.9138    50.7183     0.0217     0.1214     2.4823   -41.8780     6.3813     5.6735     2.4071
  862.5000     7.9044    50.8609     0.0217     0.1274     2.4658   -41.8900     6.4686     5.7506     3.0852
  863.0000     7.8951    50.8521     0.0217     0.1295     2.4591   -41.4580     6.6933     6.0757     9.5893
  863.5000     7.8857    50.8450     0.0216     0.1244     2.4590   -41.1720     7.0716     6.4191    10.7818
  864.0000     7.8764    50.8379     0.0201     0.1232     2.4642   -40.7370     7.6280     6.7819     9.9888
  864.5000     7.8670    50.8307     0.0171     0.1219     2.4711   -40.4510     8.3471     7.1652    10.4084
  865.0000     7.8576    50.8219     0.0156     0.1176     2.4724   -40.1619     8.8854     7.4148    10.9967
  865.5000     7.8483    50.8148     0.0245     0.1131     2.4761   -39.8759     9.3116     7.5677    11.4587
  866.0000     7.8389    50.8077     0.0275     0.1089     2.4873   -39.7416     9.6359     7.6705    11.6215
  866.5000     7.8288    50.8006     0.0275     0.1056     2.4933   -39.6050     9.7668     7.6673    11.6911
  867.0000     7.8430    50.7934     0.0244     0.1027     2.4933   -39.4680     9.6294     7.6119    11.6057
  867.5000     7.8728    50.7846     0.0244     0.1018     2.4932   -39.1850     9.4940     7.5569    11.5228
  868.0000     7.8864    50.7775     0.0275     0.1012     2.4940   -39.0450     9.2960     7.3483    11.5989
