~VERSION INFORMATION
 VERS.                2.0:   CWLS LOG ASCII STANDARD - VERSION 2.0
 WRAP.                 NO:   ONE LINE PER DEPTH STEP
~WELL INFORMATION
#MNEM.UNIT      DATA TYPE    INFORMATION
#----------   ------------   ------------------------------
 STRT.F            2.0000:   START DEPTH
 STOP.F          508.0000:   STOP DEPTH
 STEP.F            0.1000:   STEP LENGTH
 NULL.          -999.2500:   NO VALUE
 COMP. LAWRENCE/ALLISON INC:   COMPANY
 WELL.      48-41 SX #3-3:   WELL
 FLD .             TEAPOT:   FIELD
 LOC .       S3 T38N R78W:   LOCATION
 CNTY.            NATRONA:   COUNTY
 STAT.            WYOMING:   STATE
 CTRY. UNITED STATES OF AMERICA:   COUNTRY
 SRVC.           Gearhart:   SERVICE COMPANY
 DATE.        09-JUL-1988:   LOGDATE
 API .       490251123300:   API NUMBER
~CURVE INFORMATION
#MNEM.UNIT       API CODE    CURVE DESCRIPTION
#----------   ------------   ------------------------------
 DEPT.F                  :   
 GRR .GAPI   07 310 01 00:   GAMMA RAY
 RILD.OHMM   07 120 46 00:   INDUCTION LOG DEEP RESISTIVITY
 RILM.OHMM   07 120 44 00:   INDUCTION LOG MEDIUM RESISTIVITY
~PARAMETER INFORMATION
#MNEM.UNIT          VALUE    DESCRIPTION
#----------   ------------   ------------------------------
 PD  .                 GL:   PERMANENT DATUM
 EPD .F              5200:   ELEVATION PERMANENT DATUM
 LMF .                 KB:   LOG MEASURED FROM
 DAPD.F                 5:   FEET ABOVE PERMANENT DATUM
 DMF .                 KB:   DRILLING MEASURED FROM
 EKB .F              5205:   KELLING BUSHING
 EDF .F              5204:   DRILLING FLOOR
 EGL .F              5200:   GROUND LEVEL
 DATE.        09-JUL-1988:   RUN DATE
 RUN .                  1:   RUN NUMBER
 DD  .F               510:   DEPTH DRILLER
 DL  .F               516:   DEPTH LOGGER
 BLI .F               508:   BOTTOM LOG INTERVAL
 TLI .F               1.5:   TOP LOG INTERVAL
 CS  .IN            9.625:   CASING SIZE
 CBD .F                40:   CASING BOTTOM DRILLER
 CBL .F                45:   CASING BOTTOM LOGGER
 BS  .IN             8.75:   BIT SIZE
 BSD .F               510:   BIT SIZE AT DEPTH
 DFT .                AIR:   DRILLING FLUID TYPE
 TCS .HRS            1800:   TIME CURCULATED STOPPED
 TLAB.HRS            1843:   TIME LOGGER AT BOTTOM
 MRT .F                70:   MAXIMUM RECORDED TEMPERATURE
 LUN .               7597:   LOGGING UNIT NUMBER
 LUL .           GILLETTE:   LOGGING UNIT LOCATION
 ENGI.         WEATHERMON:   RECORDING ENGINEER
 WITN.              FIVAS:   WITNESSED BY
 CLNT.            A2DTECH:   CLIENT CODE
 ORIG.           5" PRINT:   ORIGIN OF DATA
 UWI .       490251123300:   UNIQUE WELL ID
 DICO. A2D Technologies, Inc.:   DIGITIZING COMPANY
~OTHER INFORMATION
~A    DEPT      GRR      RILD       RILM   
# ...
  256.8000   121.0289     6.8078     6.7692
  256.9000   120.7471     6.8078     6.7898
  257.0000   120.5311     6.8078     6.8008
  257.1000   120.1162     6.8270     6.8370
  257.2000   119.9599     6.8665     6.8370
  257.3000   120.2740     6.9062     6.8723
  257.4000   120.7754     6.9509     6.9122
  257.5000   121.3577     6.9509     6.9323
  257.6000   121.7787     6.9782     6.9445
  257.7000   122.2801     7.0185     6.9805
  257.8000   122.6746     7.0479     6.9805
  257.9000   122.9261     7.0509     7.0548
  258.0000   123.1814     7.0969     7.0779
  258.1000   123.7782     7.1327     7.0994
  258.2000   123.9818     7.1462     7.1270
  258.3000   124.3844     7.1655     7.1324
  258.4000   124.8861     7.1959     7.1766
  258.5000   125.3876     7.1959     7.2156
  258.6000   125.8956     7.1959     7.2264
  258.7000   126.1438     7.1959     7.2494
  258.8000   126.3952     7.1686     7.2915
  258.9000   126.7907     7.1462     7.3272
  259.0000   127.2921     7.1462     7.3272
  259.1000   127.7526     7.1440     7.3272
  259.2000   128.0145     7.0969     7.3598
  259.3000   128.2555     7.0621     7.3781
  259.4000   128.6952     7.0215     7.3781
  259.5000   129.0599     6.9992     7.3781
  259.6000   129.3112     6.9893     7.3781
  259.7000   129.5286     6.9473     7.3781
  259.8000   129.2284     6.8552     7.3781
  259.9000   128.9972     6.8220     7.3781
  260.0000   128.7481     6.7827     7.3781
  260.1000   128.3695     6.7268     7.3695
  260.2000   127.8705     6.6587     7.3269
  260.3000   127.3979     6.6203     7.2767
  260.4000   127.1241     6.5760     7.2425
  260.5000   126.6745     6.5133     7.1750
  260.6000   126.3492     6.4620     7.0924
  260.7000   126.1003     6.4248     7.0016
  260.8000   125.8513     6.3878     6.8795
  260.9000   125.6024     6.3501     6.6964
  261.0000   125.3214     6.2646     6.6000
  261.1000   125.3225     6.2054     6.4626
  261.2000   125.8235     6.1343     6.3306
  261.3000   126.5750     6.0640     6.2126
  261.4000   127.3901     6.0019     6.0661
  261.5000   128.3918     5.9674     5.8303
  261.6000   129.5519     5.9267     5.7156
  261.7000   130.3960     5.8990     5.5848
  261.8000   131.2387     5.8651     5.4715
  261.9000   132.2059     5.8177     5.3687
  262.0000   133.4015     5.7647     5.2479
  262.1000   134.4032     5.7645     5.1470
  262.2000   135.5924     5.7249     5.1207
  262.3000   136.4075     5.7249     5.0710
  262.4000   137.1053     5.7051     5.0268
  262.5000   137.8078     5.6853     4.9978
  262.6000   138.7605     5.6853     4.9719
  262.7000   139.5198     5.6853     4.9719
  262.8000   139.7688     5.6853     4.9719
  262.9000   140.2165     5.6853     4.9719
  263.0000   140.5732     5.6853     4.9719
  263.1000   140.7312     5.6853     4.9626
  263.2000   140.5652     5.6853     4.9375
  263.3000   139.5270     5.6853     4.9375
  263.4000   138.8065     5.7178     4.9375
  263.5000   138.2463     5.7249     4.9165
  263.6000   137.3345     5.7442     4.9035
  263.7000   136.0849     5.7774     4.9134
  263.8000   134.8354     5.8108     4.9550
  263.9000   133.5011     5.8451     5.0762
  264.0000   132.3355     5.8782     5.1903
  264.1000   131.4496     5.9122     5.2886
  264.2000   130.5701     5.9662     5.3813
  264.3000   129.4920     6.0354     5.4757
  264.4000   128.2971     6.0993     5.5658
  264.5000   127.4752     6.1357     5.6319
  264.6000   126.5718     6.2046     5.6963
  264.7000   125.7471     6.2766     5.7892
  264.8000   124.9979     6.3494     5.8704
  264.9000   124.3203     6.4231     5.9388
  265.0000   123.8212     6.5036     6.0080
  265.1000   123.2593     6.6217     6.0780
  265.2000   123.0415     6.6953     6.1624
  265.3000   122.6252     6.7435     6.1914
  265.4000   122.2420     6.7825     6.2274
  265.5000   121.9930     6.8357     6.2789
  265.6000   121.7568     6.9150     6.3437
  265.7000   121.7583     6.9992     6.3826
  265.8000   121.5477     7.0763     6.5135
  265.9000   121.4588     7.1584     6.6087
  266.0000   121.4600     7.2415     6.6996
  266.1000   121.4040     7.3254     6.7777
  266.2000   121.1608     7.4103     6.8667
  266.3000   121.1622     7.5015     6.9869
  266.4000   121.1632     7.5833     7.1270
  266.5000   121.1644     7.6712     7.1982
  266.6000   121.1656     7.7602     7.3103
  266.7000   121.1668     7.8350     7.4385
  266.8000   121.1680     7.8863     7.5449
  266.9000   121.1692     7.9842     7.5955
  267.0000   121.3675     8.0272     7.7446
  267.1000   121.7644     8.1077     7.7842
  267.2000   122.2659     8.1768     7.8608
  267.3000   122.7249     8.2396     7.9524
  267.4000   122.9853     8.3291     8.0451
  267.5000   122.9864     8.3811     8.1340
  267.6000   123.3673     8.4706     8.1858
  267.7000   123.5921     8.5334     8.2288
  267.8000   123.6802     8.5827     8.3109
  267.9000   123.9318     8.6167     8.3826
  268.0000   124.1992     8.6167     8.4157
  268.1000   124.2003     8.6167     8.4157
  268.2000   124.2015     8.6167     8.4157
  268.3000   124.0716     8.6520     8.4157
  268.4000   123.9023     8.6766     8.4157
  268.5000   123.9034     8.6919     8.4420
  268.6000   123.9048     8.7370     8.4742
  268.7000   123.6790     8.7370     8.4742
  268.8000   123.6054     8.7370     8.4742
  268.9000   123.6066     8.7723     8.5211
  269.0000   123.6802     8.7977     8.5331
  269.1000   123.9107     8.7977     8.5331
  269.2000   123.9121     8.8024     8.5513
  269.3000   124.1328     8.8589     8.5924
  269.4000   124.5522     8.8589     8.5924
  269.5000   124.8205     8.8589     8.5924
  269.6000   124.8870     8.8839     8.5924
  269.7000   125.1384     8.9205     8.6217
  269.8000   125.4276     8.9205     8.6521
  269.9000   125.6411     8.9205     8.6619
  270.0000   125.8924     8.9205     8.7122
  270.1000   126.0344     8.9205     8.7122
  270.2000   125.9775     8.9205     8.7122
  270.3000   125.7351     8.9205     8.7431
  270.4000   125.7366     8.9205     8.7727
  270.5000   125.5325     8.9205     8.7839
  270.6000   125.4371     8.9205     8.8337
  270.7000   125.4383     8.9205     8.8337
  270.8000   125.3888     8.9205     8.8337
  270.9000   125.1391     8.9205     8.8337
  271.0000   124.8909     8.9205     8.8337
  271.1000   124.6420     8.9205     8.8337
  271.2000   124.2467     8.9205     8.8337
  271.3000   123.6525     8.9205     8.8337
  271.4000   122.9465     8.9205     8.8337
  271.5000   122.4314     8.9205     8.8337
  271.6000   121.9483     8.9205     8.8337
  271.7000   121.2586     8.9205     8.8337
  271.8000   120.5094     8.9205     8.8337
  271.9000   119.7600     8.9205     8.8337
  272.0000   119.0104     8.9205     8.8337
  272.1000   118.2155     8.9205     8.8337
  272.2000   117.7469     8.9205     8.8337
  272.3000   117.2478     8.9205     8.8337
  272.4000   116.8804     8.9205     8.8337
  272.5000   116.6314     8.9205     8.8337
  272.6000   116.3825     8.9205     8.8337
  272.7000   116.1111     8.9205     8.8337
  272.8000   115.8846     8.9205     8.8337
  272.9000   115.8118     8.9205     8.8337
  273.0000   115.6882     8.9205     8.8337
  273.1000   115.4393     8.9205     8.8337
  273.2000   115.1904     8.9205     8.8337
  273.3000   114.9118     8.9205     8.8337
  273.4000   114.6925     8.9205     8.8337
  273.5000   114.7812     8.9205     8.8337
  273.6000   115.6196     8.9205     8.8337
  273.7000   117.0565     8.8886     8.8337
  273.8000   118.3376     8.8589     8.8337
  273.9000   120.3489     8.8589     8.8337
  274.0000   122.2680     8.8581     8.8337
  274.1000   124.0363     8.7977     8.8337
  274.2000   125.2081     8.7977     8.8337
  274.3000   125.9010     8.7668     8.8337
  274.4000   126.3952     8.7370     8.8337
  274.5000   126.6910     8.7370     8.7940
  274.6000   126.8980     8.7370     8.7727
  274.7000   127.1494     8.7370     8.7727
  274.8000   127.2977     8.7370     8.7727
  274.9000   127.2989     8.7370     8.7727
