~VERSION INFORMATION
 VERS.                2.0:   CWLS LOG ASCII STANDARD - VERSION 2.0
 WRAP.                 NO:   ONE LINE PER DEPTH STEP
~WELL INFORMATION
#MNEM.UNIT      DATA TYPE    INFORMATION
#----------   ------------   ------------------------------
 STRT.F           90.5000:   START DEPTH
 STOP.F          836.0000:   STOP DEPTH
 STEP.F            0.5000:   STEP LENGTH
 NULL.          -999.2500:   NO VALUE
 COMP.          U.S. NAVY:   COMPANY
 WELL.    NPR #3 #38-S-35:   WELL
 FLD .           TEAPOT E:   FIELD
 LOC .      S35 T39N R78W:   LOCATION
 CNTY.            NATRONA:   COUNTY
 STAT.            WYOMING:   STATE
 CTRY. UNITED STATES OF AMERICA:   COUNTRY
 SRVC. Schlumberger Well Surveying Corp:   SERVICE COMPANY
 DATE.        21-JUL-1963:   LOGDATE
 API .       490250649100:   API NUMBER
~CURVE INFORMATION
#MNEM.UNIT       API CODE    CURVE DESCRIPTION
#----------   ------------   ------------------------------
 DEPT.F                  :   
 SPR .MV     05 010 01 00:   SPONTANEOUS POTENTIAL FROM RES.
 ASN .OHMM   05 041 16 00:   AMPLIFIED SHORT NORMAL 16"
 ILD .OHMM   05 120 46 00:   INDUCTION LOG DEEP
 CILD.MMHO   05 110 46 00:   CONDUCTIVITY INDUCTION LOG DEEP
 DT  .US/F   60 520 33 00:   INTERVAL TRANSIT TIME
 GR  .GAPI   30 310 01 00:   GAMMA RAY
~PARAMETER INFORMATION
#MNEM.UNIT          VALUE    DESCRIPTION
#----------   ------------   ------------------------------
 LMF .                 KB:   LOG MEASURED FROM
 DMF .                 KB:   DRILLING MEASURED FROM
 EKB .F              5119:   KELLING BUSHING
 EGL .F              5114:   GROUND LEVEL
 DATE.          7-21-1963:   RUN DATE
 RUN .                  1:   RUN NUMBER
 DD  .F               836:   DEPTH DRILLER
 DL  .F               837:   DEPTH LOGGER
 BLI .F               836:   BOTTOM LOG INTERVAL
 TLI .F                90:   TOP LOG INTERVAL
 CBD .F                12:   CASING BOTTOM DRILLER
 BS  .IN             6.75:   BIT SIZE
 BSD .F               836:   BIT SIZE AT DEPTH
 DFT .            GEL-OIL:   DRILLING FLUID TYPE
 DFD .                9.2:   DRILLING FLUID DENSITY
 DFV .                 85:   DRILLING FLUID VISCOSITY
 DFPH.                  8:   DRILLING FLUID PH
 DFL .                3.6:   DRILLING FLUID LOSS
 MSS .           FLOWLINE:   MUD SAMPLE SOURCE
 RMS .OHMM           2.95:   RESISTIVITY MUD SAMPLE
 MST .F                88:   MUD SAMPLE TEMPERATURE
 RMF .OHMM           2.31:   RESISTIVITY MUD FILTRATE SAMPLE
 MFST.F                88:   MUD FILTRATE SAMPLE TEMPERATURE
 RMC .OHMM           2.65:   RESISTIVITY MUD CAKE
 MCST.F                88:   MUD CAKE SAMPLE TEMPERATURE
 MFSS.                  M:   MUD FILTRATE SAMPLE SOURCE
 MCSS.                  M:   MUD CAKE SAMPLE SOURCE
 TCS .HRS               1:   TIME CURCULATED STOPPED
 LUN .               2523:   LOGGING UNIT NUMBER
 LUL .              CSPR.:   LOGGING UNIT LOCATION
 ENGI.             KNOBEL:   RECORDING ENGINEER
 WITN.          JORGENSON:   WITNESSED BY
 CLNT.            A2DTECH:   CLIENT CODE
 ORIG.      2" , 5" PRINT:   ORIGIN OF DATA
 UWI .       490250649100:   UNIQUE WELL ID
 DICO. A2D Technologies, Inc.:   DIGITIZING COMPANY
~OTHER INFORMATION
~A   DEPT      SPR        ASN        ILD       CILD         DT         GR   
   90.5000   -44.1000  -999.2500  -999.2500  -999.2500  -999.2500  -999.2500
   91.0000   -44.1000     5.9760     5.5556   164.6647  -999.2500  -999.2500
   91.5000   -44.0788     6.3163     5.5556   164.7765  -999.2500  -999.2500
   92.0000   -43.9415     6.1392     5.5556   165.0906  -999.2500  -999.2500
   92.5000   -43.8478     6.2572     5.5594   165.3449  -999.2500  -999.2500
   93.0000   -43.7533     6.3380     5.6642   165.6641  -999.2500  -999.2500
   93.5000   -43.6590     6.3819     5.6648   165.1947  -999.2500  -999.2500
   94.0000   -43.5648     6.4266     5.6704   164.7022  -999.2500  -999.2500
   94.5000   -43.4705     6.4171     5.6775   164.2128  -999.2500  -999.2500
   95.0000   -43.3762     6.3912     5.6845   163.7234  -999.2500  -999.2500
   95.5000   -43.2819     6.3978     5.6914   163.2340  -999.2500  -999.2500
   96.0000   -43.1876     6.4438     5.6983   162.7446  -999.2500  -999.2500
   96.5000   -43.0932     6.4906     5.7052   162.2553  -999.2500  -999.2500
   97.0000   -42.9977     6.4683     5.7122   161.7659  -999.2500  -999.2500
   97.5000   -42.9054     6.4344     5.7191   161.2765  -999.2500  -999.2500
   98.0000   -43.0074     6.4002     5.7260   160.7871  -999.2500  -999.2500
   98.5000   -43.1231     6.3764     5.7330   160.2977  -999.2500  -999.2500
   99.0000   -43.2379     6.4761     5.7399   159.8083  -999.2500  -999.2500
   99.5000   -43.3525     6.5872     5.7468   159.3189  -999.2500  -999.2500
  100.0000   -43.4713     6.6978     5.7531   158.8296  -999.2500  -999.2500
  100.5000   -43.5288     6.8090     5.8030   158.3402  -999.2500  -999.2500
  101.0000   -43.5692     6.8581     5.8689   157.8508  -999.2500  -999.2500
  101.5000   -43.6092     6.7823     5.9352   156.8985  -999.2500  -999.2500
  102.0000   -43.6494     6.6914     6.0013   155.6444  -999.2500  -999.2500
  102.5000   -43.6913     6.5981     6.0675   154.3904  -999.2500  -999.2500
  103.0000   -43.6871     6.6362     6.1336   153.1363  -999.2500  -999.2500
  103.5000   -43.6698     6.8137     6.1997   151.8823  -999.2500  -999.2500
  104.0000   -43.6522     6.9897     6.2659   149.0119  -999.2500  -999.2500
  104.5000   -43.6348     7.1729     6.3320   145.7772  -999.2500  -999.2500
  105.0000   -43.6173     7.2490     6.3982   142.5425  -999.2500  -999.2500
  105.5000   -43.5999     7.2939     6.4643   139.3079  -999.2500  -999.2500
  106.0000   -43.5825     7.3394     6.5304   137.9179  -999.2500  -999.2500
  106.5000   -43.5650     7.4264     6.5967   137.0092  -999.2500  -999.2500
  107.0000   -43.5476     7.5138     6.6627   136.1004  -999.2500  -999.2500
  107.5000   -43.5298     7.6012     6.7291   135.1917  -999.2500  -999.2500
  108.0000   -43.5127     7.6674     6.7563   134.2830  -999.2500  -999.2500
  108.5000   -43.5226     7.7213     6.7569   133.3742  -999.2500  -999.2500
  109.0000   -43.6253     7.6899     6.7568   132.4655  -999.2500  -999.2500
  109.5000   -43.7239     7.6216     6.7568   131.5490  -999.2500  -999.2500
  110.0000   -43.8226     7.6733     6.7568   130.6348  -999.2500  -999.2500
  110.5000   -43.9213     7.7333     6.7568   131.5275  -999.2500  -999.2500
  111.0000   -44.0200     7.7608     6.7562   132.4555  -999.2500  -999.2500
  111.5000   -44.1187     7.6756     6.7291   133.3793  -999.2500  -999.2500
  112.0000   -44.2174     7.6223     6.6728   134.3014  -999.2500  -999.2500
  112.5000   -44.3163     7.5989     6.6167   135.2235  -999.2500  -999.2500
  113.0000   -44.4155     7.6100     6.5603   136.1456  -999.2500  -999.2500
  113.5000   -44.5046     7.6038     6.5041   137.0677  -999.2500  -999.2500
  114.0000   -44.4924     7.5384     6.4478   137.9897  -999.2500  -999.2500
  114.5000   -44.1820     7.4043     6.3915   138.9118  -999.2500  -999.2500
  115.0000   -43.8565     7.2603     6.3353   140.0526  -999.2500  -999.2500
  115.5000   -43.5324     7.2177     6.2790   142.0120  -999.2500  -999.2500
  116.0000   -43.2087     7.2252     6.2227   143.9715  -999.2500  -999.2500
  116.5000   -42.8849     7.2343     6.1665   145.9309  -999.2500  -999.2500
  117.0000   -42.5609     7.1704     6.1104   147.8904  -999.2500  -999.2500
  117.5000   -42.2348     7.0548     6.0544   149.4517  -999.2500  -999.2500
  118.0000   -41.9102     6.9384     5.9788   150.7564  -999.2500  -999.2500
  118.5000   -41.9717     6.8279     5.9039   152.0623  -999.2500  -999.2500
  119.0000   -42.0705     6.7826     5.8292   153.3684  -999.2500  -999.2500
  119.5000   -42.1679     6.7345     5.7546   154.6747  -999.2500  -999.2500
  120.0000   -42.2648     6.6860     5.6800   155.9810  -999.2500  -999.2500
  120.5000   -42.3617     6.6376     5.6053   157.2909  -999.2500  -999.2500
  121.0000   -42.4585     6.6030     5.5307   160.0432  -999.2500  -999.2500
  121.5000   -42.5554     6.6562     5.4560   163.3959  -999.2500  -999.2500
  122.0000   -42.6525     6.6683     5.3809   166.7419  -999.2500  -999.2500
  122.5000   -42.7497     6.5189     5.3353   170.0861  -999.2500  -999.2500
  123.0000   -42.8435     6.3838     5.3045   173.6737  -999.2500  -999.2500
  123.5000   -42.7727     6.2799     5.2738   176.3518  -999.2500  -999.2500
  124.0000   -42.4808     6.1749     5.2431   179.2164  -999.2500  -999.2500
  124.5000   -42.1915     6.0712     5.2123   182.0954  -999.2500  -999.2500
  125.0000   -41.8974     5.8803     5.1815   184.6847  -999.2500  -999.2500
  125.5000   -41.5188     5.4184     5.1563   183.7806  -999.2500  -999.2500
  126.0000   -41.1401     5.0943     5.1718   182.9556  -999.2500  -999.2500
  126.5000   -41.0672     5.6324     5.1866   182.1306  -999.2500  -999.2500
  127.0000   -41.0333     6.0871     5.2013   181.3055  -999.2500  -999.2500
  127.5000   -40.9990     6.2715     5.2161   180.4805  -999.2500  -999.2500
  128.0000   -40.9644     6.1814     5.2308   179.6554  -999.2500  -999.2500
  128.5000   -40.9296     6.0911     5.2455   178.8304  -999.2500  -999.2500
  129.0000   -40.8771     6.0007     5.2602   176.9730  -999.2500  -999.2500
  129.5000   -40.7288     5.9347     5.2749   174.8829  -999.2500  -999.2500
  130.0000   -40.5807     5.9367     5.2897   172.6727  -999.2500  -999.2500
  130.5000   -40.4328     5.8963     5.3044   172.9189  -999.2500  -999.2500
  131.0000   -40.2850     5.8416     5.3192   173.1802  -999.2500  -999.2500
  131.5000   -40.1372     5.9225     5.3338   173.4414  -999.2500  -999.2500
  132.0000   -39.9894     6.0275     5.3487   173.9988  -999.2500  -999.2500
  132.5000   -39.8416     6.0772     5.3172   176.9249  -999.2500  -999.2500
  133.0000   -39.6938     5.9959     5.2470   179.8510  -999.2500  -999.2500
  133.5000   -39.5460     5.8914     5.1763   182.7772  -999.2500  -999.2500
  134.0000   -39.3982     5.7866     5.1056   185.7033  -999.2500  -999.2500
  134.5000   -39.2504     5.6820     5.0350   187.8647  -999.2500  -999.2500
  135.0000   -39.1026     5.5773     4.9643   188.4147  -999.2500  -999.2500
  135.5000   -38.9548     5.4712     4.8942   188.9648  -999.2500  -999.2500
  136.0000   -38.8070     5.4695     4.8665   189.5148  -999.2500  -999.2500
  136.5000   -38.6590     5.4868     4.8934   189.6897  -999.2500  -999.2500
  137.0000   -38.5116     5.5723     4.9198   188.5438  -999.2500  -999.2500
  137.5000   -38.3627     5.7159     4.9465   186.3923  -999.2500  -999.2500
  138.0000   -38.3610     5.8583     4.9730   184.2407  -999.2500  -999.2500
  138.5000   -38.4638     5.8913     4.9996   182.8629  -999.2500  -999.2500
  139.0000   -38.5686     5.7950     5.0262   183.5160  -999.2500  -999.2500
  139.5000   -38.6734     5.7110     5.0528   184.1692  -999.2500  -999.2500
  140.0000   -38.7780     5.6952     5.0793   184.8223  -999.2500  -999.2500
  140.5000   -38.8826     5.6779     5.1057   185.4755  -999.2500  -999.2500
  141.0000   -38.9883     5.6593     5.1322   186.1286  -999.2500  -999.2500
  141.5000   -39.0949     5.6808     5.1715   186.5484  -999.2500  -999.2500
  142.0000   -39.0640     5.7154     5.2850   185.5983  -999.2500  -999.2500
