~VERSION INFORMATION
 VERS.                2.0:   CWLS LOG ASCII STANDARD - VERSION 2.0
 WRAP.                 NO:   ONE LINE PER DEPTH STEP
~WELL INFORMATION
#MNEM.UNIT      DATA TYPE    INFORMATION
#----------   ------------   ------------------------------
 STRT.F           15.0000:   START DEPTH
 STOP.F          550.0000:   STOP DEPTH
 STEP.F            0.5000:   STEP LENGTH
 NULL.          -999.2500:   NO VALUE
 COMP. LAWRENCE/ALLISON INC:   COMPANY
 WELL. NPR 3 #43-21 SX 10:   WELL
 FLD .             TEAPOT:   FIELD
 LOC .      S10 T38N R78W:   LOCATION
 CNTY.            NATRONA:   COUNTY
 STAT.            WYOMING:   STATE
 CTRY. UNITED STATES OF AMERICA:   COUNTRY
 SRVC.           Gearhart:   SERVICE COMPANY
 DATE.        05-JUL-1986:   LOGDATE
 API .       490251110100:   API NUMBER
~CURVE INFORMATION
#MNEM.UNIT       API CODE    CURVE DESCRIPTION
#----------   ------------   ------------------------------
 DEPT.F                  :   
 GRR .GAPI   07 310 01 00:   GAMMA RAY
 RILD.OHMM   07 120 46 00:   INDUCTION LOG DEEP
 RILM.OHMM   07 120 44 00:   INDUCTION LOG MEDIUM
~PARAMETER INFORMATION
#MNEM.UNIT          VALUE    DESCRIPTION
#----------   ------------   ------------------------------
 PD  .                 GL:   PERMANENT DATUM
 EPD .F              5205:   ELEVATION PERMANENT DATUM
 LMF .                 KB:   LOG MEASURED FROM
 DAPD.F                 5:   FEET ABOVE PERMANENT DATUM
 DMF .                 KB:   DRILLING MEASURED FROM
 EKB .F              5210:   KELLING BUSHING
 EGL .F              5205:   GROUND LEVEL
 DATE.        05-JUL-1986:   RUN DATE
 RUN .                  1:   RUN NUMBER
 DD  .F               560:   DEPTH DRILLER
 DL  .F               560:   DEPTH LOGGER
 BLI .F               550:   BOTTOM LOG INTERVAL
 TLI .F                15:   TOP LOG INTERVAL
 CS  .IN            8.625:   CASING SIZE
 CBD .F                47:   CASING BOTTOM DRILLER
 CBL .F                47:   CASING BOTTOM LOGGER
 BS  .IN            7.875:   BIT SIZE
 BSD .F               560:   BIT SIZE AT DEPTH
 DFT .                AIR:   DRILLING FLUID TYPE
 TCS .HRS            2100:   TIME CURCULATED STOPPED
 TLAB.HRS            2230:   TIME LOGGER AT BOTTOM
 MRT .F                83:   MAXIMUM RECORDED TEMPERATURE
 LUN .               7609:   LOGGING UNIT NUMBER
 LUL .           GILLETTE:   LOGGING UNIT LOCATION
 ENGI.              BAUER:   RECORDING ENGINEER
 WITN.              FIVAS:   WITNESSED BY
 CLNT.            A2DTECH:   CLIENT CODE
 ORIG.           5" PRINT:   ORIGIN OF DATA
 UWI .       490251110100:   UNIQUE WELL ID
 DICO. A2D Technologies, Inc.:   DIGITIZING COMPANY
~OTHER INFORMATION
~A   DEPT      GRR       RILD       RILM   
# ...
  379.0000    60.5784    23.6328    22.5653
  379.5000    61.6114    24.9938    24.3715
  380.0000    66.9711    27.7656    26.6947
  380.5000    70.6240    29.7802    28.8313
  381.0000    72.4505    30.6225    30.0642
  381.5000    73.0594    30.8335    30.4814
  382.0000    72.4505    31.0444    30.4726
  382.5000    70.6240    30.6032    30.0390
  383.0000    69.7108    29.9586    29.6115
  383.5000    70.9285    29.1223    28.9859
  384.0000    71.8417    28.5090    28.5734
  384.5000    71.8417    28.1053    27.9697
  385.0000    71.8417    27.5133    27.3787
  385.5000    73.3638    26.7453    26.9891
  386.0000    75.4947    26.1820    26.4188
  386.5000    77.9300    25.9933    26.2265
  387.0000    79.7565    25.9878    26.2192
  387.5000    78.2344    25.9823    26.2118
  388.0000    74.8858    25.7950    26.0210
  388.5000    75.1903    25.6090    25.8316
  389.0000    76.1035    25.6036    25.6435
  389.5000    76.4079    25.5983    25.6363
  390.0000    75.7991    25.5929    25.6291
  390.5000    75.1903    25.4084    25.6219
  391.0000    75.1903    25.4030    25.4354
  391.5000    75.1903    25.3977    25.0735
  392.0000    74.2770    25.3924    25.0664
  392.5000    71.5373    25.3870    25.2363
  393.0000    68.4931    25.3817    25.0266
  393.5000    69.4064    25.1987    24.8421
  394.0000    72.4505    24.6680    24.3149
  394.5000    75.7991    24.1484    23.9667
  395.0000    77.0167    23.6398    23.4896
  395.5000    77.3212    23.1419    22.8323
  396.0000    77.3212    22.4959    22.1934
  396.5000    77.6256    22.1774    21.8776
  397.0000    77.6256    21.7103    21.5663
  397.5000    77.9300    21.4029    21.2595
  398.0000    77.6256    21.0998    20.9570
  398.5000    77.6256    20.9477    20.9511
  399.0000    77.9300    20.7967    20.9452
  399.5000    78.2344    20.9389    20.9394
  400.0000    77.6251    21.2307    21.1073
  400.5000    76.7095    21.2277    21.4055
  401.0000    79.4455    21.5251    21.5282
  401.5000    81.5733    21.6738    21.5263
  402.0000    84.0056    21.5190    21.5248
  402.5000    81.5673    21.5085    21.5233
  403.0000    75.7804    21.2128    21.5218
  403.5000    74.2553    21.0613    21.3696
  404.0000    73.9478    21.0584    21.2185
  404.5000    75.4668    21.0422    20.9210
  405.0000    77.2903    20.7442    20.9196
  405.5000    78.8093    20.4505    20.7716
  406.0000    77.5886    20.0366    20.4804
  406.5000    76.9768    19.6159    20.3356
  407.0000    77.8870    19.3395    19.7707
  407.5000    81.8413    19.0470    19.2215
  408.0000    83.9699    18.7773    18.6875
  408.5000    82.7485    18.2531    18.2965
  409.0000    81.5278    17.6193    17.7883
  409.5000    81.5248    17.1275    17.2941
  410.0000    82.7394    16.9082    17.0516
  410.5000    83.6503    16.6699    16.6948
  411.0000    80.2980    16.6676    16.4607
  411.5000    78.7729    16.5486    16.3444
  412.0000    76.6389    16.4304    16.3432
  412.5000    76.9403    16.4281    16.2277
  413.0000    78.4594    16.3108    16.1129
  413.5000    79.9784    16.1944    15.7758
  414.0000    80.8894    15.9662    15.6642
  414.5000    76.6238    15.8522    15.5535
  415.0000    76.6207    15.7390    15.3354
  415.5000    78.1395    15.5172    15.3343
  416.0000    79.0505    15.4064    15.2259
  416.5000    80.8739    15.2964    15.2248
  417.0000    80.2613    15.1872    15.1172
  417.5000    80.2583    14.9732    15.0103
  418.0000    79.6464    14.7622    14.9042
  418.5000    80.2529    14.7601    14.9031
  419.0000    81.1632    14.6548    14.7977
  419.5000    80.8549    14.4483    14.6931
  420.0000    80.2431    14.2447    14.4871
  420.5000    79.3268    14.2427    14.3847
  421.0000    79.0193    14.1410    14.1830
  421.5000    79.0163    13.8441    14.1820
  422.0000    81.1442    13.8422    14.2812
  422.5000    84.4897    13.8402    14.2799
  423.0000    87.8352    13.8383    14.1790
  423.5000    90.2675    13.9339    14.1780
  424.0000    89.9600    13.9320    14.0777
  424.5000    87.5217    13.9300    14.0768
  425.0000    83.8657    14.0267    14.0758
  425.5000    80.5141    14.0243    14.0748
  426.0000    78.0757    14.1217    14.0738
  426.5000    78.9859    14.2192    14.0728
  427.0000    82.0270    14.2167    14.0718
  427.5000    87.5035    14.2148    13.9723
  428.0000    88.7188    14.1133    13.9713
  428.5000    86.8886    14.0125    13.9704
  429.0000    86.2767    13.9124    13.8716
  429.5000    86.8825    13.9105    13.7735
  430.0000    87.4890    13.8112    13.6761
  430.5000    88.3985    13.7126    13.6752
  431.0000    89.0043    13.6147    13.5785
  431.5000    89.9145    13.4228    13.4825
  432.0000    91.1291    13.4209    13.2934
  432.5000    92.0401    13.3251    13.2925
  433.0000    90.2098    13.3232    13.1987
  433.5000    89.5979    13.3214    13.2909
  434.0000    90.2037    13.3195    13.2897
  434.5000    92.0272    13.4120    13.2888
  435.0000    92.0241    13.4097    13.2878
  435.5000    91.7167    13.4078    13.2869
  436.0000    90.1916    13.4059    13.2860
  436.5000    89.8841    13.4040    13.2850
  437.0000    90.4899    13.4021    13.2841
  437.5000    92.3134    13.2133    13.2832
  438.0000    95.6589    13.1189    13.2822
  438.5000    95.9610    13.0253    13.1883
  439.0000    94.4351    12.9323    13.0034
  439.5000    92.6056    12.8399    12.9115
  440.0000    92.2982    12.7483    12.8202
  440.5000    94.7304    12.6572    12.6404
  441.0000    96.8583    12.6555    12.5510
  441.5000    98.9862    12.4771    12.4623
  442.0000   100.8096    12.3881    12.2876
  442.5000    98.9801    12.2996    12.2007
  443.0000    95.0197    12.2118    12.1144
  443.5000    91.6681    12.1246    11.9445
  444.0000    91.5920    11.9537    11.8601
  444.5000    95.3150    11.8684    11.7762
  445.0000    95.9209    11.7012    11.5298
  445.5000    95.9177    11.5363    11.4483
  446.0000    92.8706    11.2941    11.2088
  446.5000    91.8904    11.0570    11.0516
  447.0000    95.2998    10.8249    10.8203
  447.5000    98.0365    10.5976    10.4461
  448.0000   100.1644    10.3025     9.8745
  448.5000    99.5525    10.0156     9.1395
  449.0000    99.5495     9.5337     8.4592
  449.5000    99.5464     8.6394     7.9963
  450.0000   100.1522     8.0521     7.4011
  450.5000   101.0513     7.5569     7.3175
  451.0000   104.9965     7.1424     6.9947
  451.5000   110.1593     6.7982     6.7523
  452.0000   114.4090     6.7020     6.5183
  452.5000   117.1365     6.6536     6.2924
  453.0000   114.6890     6.7467     6.2038
  453.5000   107.6754     6.9375     6.4699
  454.0000   101.5749     7.2343     6.8430
  454.5000    96.6921     7.8139     7.3400
  455.0000    94.5491     8.8033     7.9287
  455.5000    94.5369     9.1161     8.4450
  456.0000    95.7424     9.4400     8.9949
  456.5000   100.2964     9.7754     9.4470
  457.0000   103.0240    10.0519     9.7834
  457.5000   104.8383    10.2644    10.0608
  458.0000   105.4380    10.5542    10.2736
  458.5000   104.5096    10.8527    10.7144
  459.0000   102.6709    11.0821    11.0959
  459.5000    99.3102    11.3151    11.2514
  460.0000    95.6451    11.4734    11.4894
  460.5000    95.9373    11.7973    11.7325
  461.0000    97.1458    11.9617    11.8135
  461.5000    96.2174    12.2139    12.0635
  462.0000    96.8171    12.4721    12.3187
  462.5000    98.6284    12.7344    12.5793
  463.0000   100.4427    12.8222    12.8454
  463.5000   102.2570    13.1841    13.0254
  464.0000    99.2007    13.2750    13.2078
  464.5000    98.5827    13.4600    13.4873
  465.0000    99.1794    13.5520    13.5804
  465.5000    99.1642    13.6447    13.6743
  466.0000    98.8476    13.7380    13.8658
  466.5000    97.9222    13.7344    13.9616
  467.0000    98.8233    13.8283    13.9596
  467.5000   100.3332    13.8254    14.0561
  468.0000    96.6681    13.9206    14.1532
  468.5000    94.2206    13.9170    14.0521
  469.0000    91.7731    13.9140    14.0502
  469.5000    90.5433    13.9111    14.0482
