~VERSION INFORMATION
 VERS.                2.0:   CWLS LOG ASCII STANDARD - VERSION 2.0
 WRAP.                 NO:   ONE LINE PER DEPTH STEP
~WELL INFORMATION
#MNEM.UNIT      DATA TYPE    INFORMATION
#----------   ------------   ------------------------------
 STRT.F           32.0000:   START DEPTH
 STOP.F          662.0000:   STOP DEPTH
 STEP.F            0.5000:   STEP LENGTH
 NULL.          -999.2500:   NO VALUE
 COMP.    FENIX & SCISSON:   COMPANY
 WELL.   NPR 67SX34 #3-34:   WELL
 FLD .             TEAPOT:   FIELD
 LOC .      S34 T39N R78W:   LOCATION
 CNTY.            NATRONA:   COUNTY
 STAT.            WYOMING:   STATE
 CTRY. UNITED STATES OF AMERICA:   COUNTRY
 SRVC.            Unknown:   SERVICE COMPANY
 DATE.        03-SEP-1978:   LOGDATE
 API .       490251070500:   API NUMBER
~CURVE INFORMATION
#MNEM.UNIT       API CODE    CURVE DESCRIPTION
#----------   ------------   ------------------------------
 DEPT.F                  :   
 ILD .OHMM   05 120 46 00:   INDUCTION LOG DEEP
 SN  .OHMM   05 040 00 00:   SHORT NORMAL
 SPR .MV     05 010 01 00:   SPONTANEOUS POTENTIAL FROM RES.
 CALD.IN     45 280 60 00:   CALIPER FROM DENSITY LOG
 DEN .G/C3   45 350 01 00:   COMPENSATED BULK DENSTIY
 DPHI.DEC    45 890 12 00:   DENSITY POROSITY SANDSTONE
 DRHO.G/C3   45 356 01 00:   DENSITY CORRECTION
 GRD .GAPI   45 310 01 00:   GAMMA RAY FROM DENSITY LOG
~PARAMETER INFORMATION
#MNEM.UNIT          VALUE    DESCRIPTION
#----------   ------------   ------------------------------
 PD  .                 GL:   PERMANENT DATUM
 EPD .F              5076:   ELEVATION PERMANENT DATUM
 LMF .                 KB:   LOG MEASURED FROM
 DAPD.F                 4:   FEET ABOVE PERMANENT DATUM
 DMF .                 KB:   DRILLING MEASURED FROM
 EKB .F              5080:   KELLING BUSHING
 EGL .F              5076:   GROUND LEVEL
 DATE.        03-SEP-1978:   RUN DATE
 RUN .                  1:   RUN NUMBER
 DD  .F               660:   DEPTH DRILLER
 DL  .F               662:   DEPTH LOGGER
 BLI .F               662:   BOTTOM LOG INTERVAL
 TLI .F                40:   TOP LOG INTERVAL
 CS  .IN            8.625:   CASING SIZE
 CBD .F                40:   CASING BOTTOM DRILLER
 BS  .IN            7.875:   BIT SIZE
 BSD .F               660:   BIT SIZE AT DEPTH
 DFT .                KCL:   DRILLING FLUID TYPE
 DFD .                9.0:   DRILLING FLUID DENSITY
 DFV .                 34:   DRILLING FLUID VISCOSITY
 MSS .           FLOWLINE:   MUD SAMPLE SOURCE
 RMS .OHMM            1.4:   RESISTIVITY MUD SAMPLE
 MST .F                65:   MUD SAMPLE TEMPERATURE
 RMF .OHMM            3.2:   RESISTIVITY MUD FILTRATE SAMPLE
 MFST.F                77:   MUD FILTRATE SAMPLE TEMPERATURE
 RMC .OHMM            2.1:   RESISTIVITY MUD CAKE
 MCST.F                78:   MUD CAKE SAMPLE TEMPERATURE
 MFSS.               MEAS:   MUD FILTRATE SAMPLE SOURCE
 TCS .HRS               1:   TIME CURCULATED STOPPED
 LUN .               3006:   LOGGING UNIT NUMBER
 LUL .               CASP:   LOGGING UNIT LOCATION
 ENGI.             MILLER:   RECORDING ENGINEER
 WITN.           MCGINLEY:   WITNESSED BY
 CLNT.            A2DTECH:   CLIENT CODE
 ORIG.        2" 5" PRINT:   ORIGIN OF DATA
 UWI .       490251070500:   UNIQUE WELL ID
 DICO. A2D Technologies, Inc.:   DIGITIZING COMPANY
~OTHER INFORMATION
~A   DEPT      ILD         SN        SPR       CALD        DEN       DPHI       DRHO         GRD  
# ...
  477.5000    15.2252    12.9370     2.4060     7.6664     2.3705     0.2100     0.0606    62.0268
  478.0000    15.2262    12.9360     1.8045     7.6519     2.3532     0.2292     0.0275    63.6662
  478.5000    15.3331    12.9351     1.0526     7.6374     2.3382     0.2349     0.0094    64.2623
  479.0000    15.2285    12.9343     0.7519     7.6081     2.3231     0.2280     0.0049    62.9210
  479.5000    15.1245    12.9332     0.7519     7.6086     2.3299     0.2244     0.0048    60.6855
  480.0000    15.0212    12.8433     0.7519     7.5940     2.3351     0.2256     0.0048    59.4537
  480.5000    14.8054    12.7541     0.7519     7.5796     2.3343     0.2289     0.0048    61.7288
  481.0000    14.5129    12.7533     0.7519     7.5800     2.3299     0.2295     0.0047    61.1326
  481.5000    14.2159    12.6646     0.6015     7.5954     2.3261     0.2316     0.0047    61.1326
  482.0000    14.0214    12.5764     0.4511     7.6108     2.3253     0.2307     0.0031    62.3249
  482.5000    13.8252    12.4890     0.4511     7.6112     2.3261     0.2355     0.0016    64.5604
  483.0000    13.7355    12.4022     0.1504     7.6138     2.3223     0.2376     0.0030    65.9016
  483.5000    13.6418    12.4013     0.0000     7.6271     2.3193     0.2367     0.0075    65.7526
  484.0000    13.6428    12.2301     0.1504     7.6126     2.3208     0.2261     0.0134    64.2623
  484.5000    13.6438    12.1451     0.3008     7.5980     2.3299     0.2136     0.0164    63.0586
  485.0000    13.4572    12.0607     0.4511     7.5835     2.3386     0.2046     0.0149    63.0700
  485.5000    13.2735    12.0566     0.4511     7.5690     2.3546     0.2004     0.0133    62.2822
  486.0000    13.2744    11.8935     0.3008     7.5696     2.3666     0.2085     0.0133    61.2817
  486.5000    13.0929    11.8927     0.1504     7.5551     2.3636     0.2124     0.0117    62.4739
  487.0000    12.9139    11.8919     0.3008     7.5249     2.3583     0.2121     0.0100    63.9642
  487.5000    12.8258    11.8911     0.3008     7.4963     2.3545     0.2137     0.0041    65.1565
  488.0000    12.7382    11.8902     0.4511     7.4668     2.3515     0.2181     0.0041    64.1133
  488.5000    12.7393    11.9720     0.3008     7.4523     2.3508     0.2223     0.0040    59.9404
  489.0000    12.8285    11.9711     0.1504     7.4379     2.3453     0.2232     0.0040    58.8972
  489.5000    12.8296    12.0533     0.0000     7.4084     2.3417     0.2202     0.0055    59.6493
  490.0000    12.7418    12.0523     0.0000     7.3939     2.3440     0.2232     0.0069    61.1723
  490.5000    12.7428    12.0515     0.0000     7.3796     2.3432     0.2222     0.0084    61.8778
  491.0000    12.7437    11.9677     0.0000     7.3352     2.3395     0.2253     0.0098    62.4739
  491.5000    12.6567    11.8846    -0.1504     7.2909     2.3372     0.2280     0.0098    63.8152
  492.0000    12.5703    11.8836    -0.3008     7.3213     2.3350     0.2253     0.0082    64.4113
  492.5000    12.5713    11.8828    -0.6015     7.3665     2.3327     0.2286     0.0052    62.7720
  493.0000    12.4846    11.8002    -0.7519     7.4117     2.3319     0.2298     0.0051    60.6855
  493.5000    12.3893    11.7995    -1.2030     7.4420     2.3297     0.2223     0.0096    62.6230
  494.0000    12.2307    11.7987    -1.3534     7.4723     2.3312     0.2175     0.0171    64.1172
  494.5000    12.0638    11.7165    -1.6541     7.5026     2.3387     0.2136     0.0245    63.7232
  495.0000    11.8168    11.7157    -1.8045     7.5179     2.3462     0.2088     0.0321    60.6855
  495.5000    11.4954    11.7150    -1.9549     7.5034     2.3529     0.2040     0.0349    59.3443
  496.0000    11.4168    11.6271    -1.9549     7.4876     2.3702     0.2000     0.0334    58.8972
  496.5000    11.3388    11.5525    -1.9549     7.4595     2.3747     0.1956     0.0333    60.0894
  497.0000    11.2616    11.6320    -1.8045     7.4450     2.3769     0.1905     0.0363    61.7288
  497.5000    11.1848    11.6311    -1.8045     7.4156     2.3824     0.1872     0.0408    63.0700
  498.0000    11.2633    11.6303    -1.8045     7.4311     2.3934     0.1842     0.0392    65.3055
  498.5000    11.2640    11.6294    -1.8045     7.4614     2.3949     0.1875     0.0392    65.7531
  499.0000    11.2648    11.7094    -1.9549     7.5066     2.3942     0.1941     0.0360    66.1997
  499.5000    11.1879    11.7085    -2.2556     7.5667     2.3889     0.1968     0.0346    66.4978
  500.0000    11.2662    11.6270    -2.5564     7.5970     2.3814     0.1869     0.0375    65.6036
  500.5000    11.1878    11.6262    -2.7052     7.5825     2.3874     0.1734     0.0510    61.3561
  501.0000    11.0334    11.7062    -2.7238     7.6427     2.4046     0.1611     0.0660    59.4998
  501.5000    10.9567    11.7053    -3.0028     7.6730     2.4226     0.1496     0.0766    59.6517
  502.0000    10.9558    11.7857    -3.1517     7.6884     2.4369     0.1527     0.0809    62.7842
  502.5000    10.9551    11.8666    -3.1503     7.7037     2.4489     0.1467     0.0808    62.3393
  503.0000    10.9543    11.8656    -3.1489     7.7042     2.4504     0.1407     0.0808    63.6842
  503.5000    10.9536    11.9471    -3.1471     7.6897     2.4542     0.1449     0.0808    65.4755
  504.0000    10.9529    11.8639    -3.2961     7.6902     2.4579     0.1401     0.0822    66.2235
  504.5000    10.9520    11.8631    -3.2947     7.6757     2.4594     0.1452     0.0807    66.0774
  505.0000    10.9513    11.8623    -3.4436     7.6762     2.4571     0.1509     0.0759    66.2300
  505.5000    10.9506    11.6988    -3.4418     7.6617     2.4526     0.1585     0.0641    66.5310
  506.0000    10.9499    11.5300    -3.4404     7.6621     2.4436     0.1735     0.0505    65.6397
  506.5000    10.9490    11.2999    -3.4390     7.6775     2.4288     0.1761     0.0279    65.4928
  507.0000    10.8728    11.0673    -3.4376     7.6780     2.4091     0.1728     0.0189    66.0925
  507.5000    10.7228    10.8396    -3.4358     7.6784     2.4075     0.1743     0.0098    66.8406
  508.0000    10.7221    10.7632    -3.7355     7.6789     2.4135     0.1713     0.0083    66.6944
  508.5000    10.7212    10.6892    -4.0345     7.6942     2.4150     0.1752     0.0067    67.1451
  509.0000    10.7205    10.7628    -4.3338     7.6947     2.4135     0.1773     0.0037    67.7441
  509.5000    10.7944    10.7619    -4.6331     7.6951     2.4113     0.1785     0.0036    68.6412
  510.0000    10.7935    10.7612    -4.6313     7.6806     2.4045     0.1743     0.0051    69.5383
  510.5000    10.7927    10.7604    -4.6299     7.6810     2.4105     0.1581     0.0081    69.6902
  511.0000    10.8669    10.6856    -4.6285     7.6816     2.4255     0.1608     0.0125    67.0105
  511.5000    10.9416    10.6849    -4.7775     7.6820     2.4338     0.1578     0.0094    62.2444
  512.0000    11.0168    10.6842    -4.7757     7.6824     2.4360     0.1653     0.0049    62.7302
  512.5000    10.9400    10.6835    -4.9246     7.6978     2.4345     0.1716     0.0034    63.4424
  513.0000    10.7889    10.6826    -4.7728     7.6982     2.4270     0.1755     0.0018    61.5086
  513.5000    10.7138    10.6819    -4.7714     7.6987     2.4119     0.1746     0.0018    60.6166
  514.0000    10.6393    10.6812    -4.9203     7.6991     2.4120     0.1669     0.0017    61.9615
  514.5000    10.6386    10.6805    -4.9186     7.6996     2.4217     0.1573     0.0032    67.3295
  515.0000    10.6379    10.7102    -4.9172     7.7001     2.4330     0.1564     0.0048    70.0150
  515.5000    10.6371    10.7532    -5.0662     7.7154     2.4375     0.1543     0.0076    70.6140
  516.0000    10.7102    10.7523    -5.0647     7.7159     2.4397     0.1510     0.0106    70.4678
  516.5000    10.7095    10.8261    -5.0632     7.7013     2.4419     0.1477     0.0105    71.2166
  517.0000    10.7087    10.7508    -4.9111     7.6869     2.4479     0.1453     0.0090    71.9647
  517.5000    10.7079    10.8245    -4.9097     7.6575     2.4533     0.1498     0.0074    70.7753
