~VERSION INFORMATION
 VERS.                2.0:   CWLS LOG ASCII STANDARD - VERSION 2.0
 WRAP.                 NO:   ONE LINE PER DEPTH STEP
~WELL INFORMATION
#MNEM.UNIT      DATA TYPE    INFORMATION
#----------   ------------   ------------------------------
 STRT.F            0.0000:   START DEPTH
 STOP.F         1027.0000:   STOP DEPTH
 STEP.F            0.1000:   STEP LENGTH
 NULL.          -999.2500:   NO VALUE
 COMP.       F D SERV INC:   COMPANY
 WELL.   77-1 X 27 #77-27:   WELL
 FLD .             TEAPOT:   FIELD
 LOC .      S27 T39N R78W:   LOCATION
 CNTY.            NATRONA:   COUNTY
 STAT.            WYOMING:   STATE
 CTRY. UNITED STATES OF AMERICA:   COUNTRY
 SRVC.      Western Atlas:   SERVICE COMPANY
 DATE.        04-NOV-1991:   LOGDATE
 API .       490252248600:   API NUMBER
~CURVE INFORMATION
#MNEM.UNIT       API CODE    CURVE DESCRIPTION
#----------   ------------   ------------------------------
 DEPT.F                  :   
 GRR .GAPI   07 310 01 00:   GAMMA RAY
 RILD.OHMM   07 120 46 00:   INDUCTION LOG DEEP RESISTIVITY
 RFOC.OHMM   07 220 04 00:   RESISTIVITY FOCUSED LOG
 RILM.OHMM   07 120 44 00:   INDUCTION LOG MEDIUM RESISTIVITY
 SPR .MV     07 010 01 00:   SPONTANEOUS POTENTIAL
~PARAMETER INFORMATION
#MNEM.UNIT          VALUE    DESCRIPTION
#----------   ------------   ------------------------------
 PD  .                 GL:   PERMANENT DATUM
 EPD .F              5077:   ELEVATION PERMANENT DATUM
 LMF .                 KB:   LOG MEASURED FROM
 DAPD.F                10:   FEET ABOVE PERMANENT DATUM
 DMF .                 KB:   DRILLING MEASURED FROM
 EKB .F              5087:   KELLING BUSHING
 EDF .F              5086:   DRILLING FLOOR
 EGL .F              5077:   GROUND LEVEL
 DATE.        04-NOV-1991:   RUN DATE
 RUN .                  1:   RUN NUMBER
 DD  .F              1030:   DEPTH DRILLER
 DL  .F              1030:   DEPTH LOGGER
 BLI .F              1027:   BOTTOM LOG INTERVAL
 CS  .IN            9.625:   CASING SIZE
 CBD .F                50:   CASING BOTTOM DRILLER
 CBL .F                52:   CASING BOTTOM LOGGER
 BS  .IN             8.75:   BIT SIZE
 BSD .F              1030:   BIT SIZE AT DEPTH
 DFT .          KCL WATER:   DRILLING FLUID TYPE
 MSS .           FLOWLINE:   MUD SAMPLE SOURCE
 RMS .OHMM            .24:   RESISTIVITY MUD SAMPLE
 MST .F                72:   MUD SAMPLE TEMPERATURE
 RMB .OHMM            .19:   RESISTIVITY MUD AT BHT
 BHT .F                90:   BOTTOM HOLE TEMPERATURE
 TCS .HRS               2:   TIME CURCULATED STOPPED
 MRT .F                90:   MAXIMUM RECORDED TEMPERATURE
 LUN .            HL-6274:   LOGGING UNIT NUMBER
 LUL .             CASPER:   LOGGING UNIT LOCATION
 ENGI.             RAUTIO:   RECORDING ENGINEER
 WITN.             STRONG:   WITNESSED BY
 CLNT.            A2DTECH:   CLIENT CODE
 ORIG.           5" PRINT:   ORIGIN OF DATA
 UWI .       490252248600:   UNIQUE WELL ID
 DICO. A2D Technologies, Inc.:   DIGITIZING COMPANY
~OTHER INFORMATION
~A    DEPT      GRR      RILD       RFOC       RILM        SPR   
# ...
  439.2000   107.3311     5.9041     6.6105     6.0274   -31.3321
  439.3000   107.5445     5.9036     6.6478     6.0302   -31.2018
  439.4000   107.5464     5.9032     6.6853     6.0690   -31.2012
  439.5000   107.7792     5.9028     6.7244     6.0392   -31.2006
  439.6000   108.0742     5.9024     6.7982     6.0268   -31.2000
  439.7000   108.2600     5.9020     6.8756     6.0266   -31.1994
  439.8000   108.4537     5.9248     6.9538     6.0264   -31.1988
  439.9000   108.8073     5.9423     7.0207     6.0263   -31.1981
  440.0000   109.1766     5.9418     7.0603     6.0261   -31.1976
  440.1000   109.4522     5.9414     7.1057     6.0259   -31.1247
  440.2000   109.7434     5.9756     7.1402     6.0258   -31.0467
  440.3000   110.2612     5.9820     7.1805     6.0256   -31.0461
  440.4000   110.2638     5.9815     7.2038     6.0223   -31.0455
  440.5000   110.5740     5.9811     7.2034     5.9836   -31.0449
  440.6000   110.7171     5.9807     7.2030     5.9835   -31.0443
  440.7000   110.7193     5.9803     7.2026     5.9833   -31.0437
  440.8000   110.6904     5.9799     7.1713     5.9832   -31.0431
  440.9000   110.4994     5.9795     7.1520     5.9830   -31.0425
  441.0000   110.3279     5.9791     7.1516     5.9828   -31.0419
  441.1000   110.1466     5.9786     7.1473     5.9827   -31.0413
  441.2000   109.9653     5.9782     7.1013     5.9825   -30.9708
  441.3000   109.7334     5.9778     7.0658     5.9823   -30.8904
  441.4000   109.3687     5.9774     7.0253     5.9822   -30.8898
  441.5000   108.9413     5.9770     6.9851     5.9820   -30.8892
  441.6000   108.7911     5.9766     6.9452     5.9818   -30.8886
  441.7000   108.6098     5.9762     6.9052     5.9817   -30.8880
  441.8000   108.4285     5.9757     6.8659     5.9815   -30.8874
  441.9000   108.2758     5.9753     6.8266     5.9813   -30.8868
  442.0000   108.2786     5.9749     6.8089     5.9812   -30.8862
  442.1000   108.2807     5.9745     6.7957     5.9810   -30.8856
  442.2000   108.2829     5.9660     6.7568     5.9808   -30.8850
  442.3000   108.3746     5.9324     6.7140     5.9807   -30.9518
  442.4000   108.5120     5.9320     6.6797     5.9805   -31.0734
  442.5000   108.5217     5.9316     6.6415     5.9803   -31.1951
  442.6000   108.7414     5.9311     6.6035     5.9802   -31.3317
  442.7000   109.0433     5.9307     6.5657     5.9800   -31.4384
  442.8000   109.1946     5.9303     6.5281     5.9798   -31.4802
  442.9000   109.1969     5.9299     6.4908     5.9797   -31.4796
  443.0000   109.1991     5.9295     6.4537     5.9795   -31.4790
  443.1000   109.2015     5.9291     6.4375     5.9868   -31.4784
  443.2000   109.0341     5.9287     6.4371     6.0208   -31.4778
  443.3000   108.9813     5.9323     6.4368     6.0206   -31.3849
  443.4000   108.8086     5.9487     6.4364     6.0204   -31.3270
  443.5000   108.5367     5.9652     6.4694     6.0203   -31.2889
  443.6000   108.5335     5.9683     6.5059     6.0315   -31.1760
  443.7000   108.3170     5.9679     6.5426     6.0618   -31.1754
  443.8000   108.3189     5.9675     6.5795     6.0616   -31.1748
  443.9000   108.3211     5.9670     6.6157     6.0615   -31.1743
  444.0000   108.3892     5.9666     6.6152     6.0843   -31.1737
  444.1000   108.5999     5.9662     6.6758     6.1033   -31.1731
  444.2000   109.0017     5.9658     6.7069     6.1031   -31.1724
  444.3000   109.3385     5.9654     6.7205     6.1029   -31.1719
  444.4000   109.7078     5.9690     6.7584     6.1028   -31.1713
  444.5000   110.0772     5.9855     6.7995     6.1298   -31.1707
  444.6000   110.4021     6.0021     6.8349     6.1449   -31.1701
  444.7000   110.5913     6.0052     6.9011     6.1447   -31.1695
  444.8000   110.9605     6.0048     6.9603     6.1445   -31.1688
  444.9000   111.1840     6.0044     6.9892     6.1443   -31.1683
  445.0000   111.3698     6.0082     6.9904     6.1755   -31.1677
  445.1000   111.5556     6.0453     7.0370     6.1867   -31.1671
  445.2000   111.7183     6.0449     7.0367     6.2025   -31.1864
  445.3000   111.4965     6.0445     7.0363     6.2294   -31.3155
  445.4000   111.4985     6.0441     7.0359     6.2292   -31.4298
  445.5000   111.2522     6.0437     7.0355     6.2291   -31.4641
  445.6000   110.8874     6.0433     7.0351     6.2011   -31.4635
  445.7000   110.4382     6.0428     7.0347     6.1857   -31.4629
  445.8000   109.7087     6.0424     7.0343     6.1735   -31.4673
  445.9000   109.3438     6.0420     7.0539     6.1405   -31.6113
  446.0000   108.9790     6.0416     7.0825     6.1230   -31.6108
  446.1000   108.8196     6.0412     7.0821     6.1054   -31.6825
  446.2000   108.8219     6.0407     7.0817     6.0997   -31.7593
  446.3000   108.8241     6.0403     7.0478     6.0996   -31.7587
  446.4000   108.8266     6.0399     7.0320     6.0994   -31.7580
  446.5000   108.8286     6.0395     7.0316     6.0987   -31.7575
  446.6000   108.8308     6.0391     7.0312     6.0640   -31.7569
  446.7000   108.7519     6.0386     7.0308     6.0568   -31.8137
  446.8000   108.6108     6.0382     7.0304     6.0566   -31.9054
  446.9000   108.6130     6.0378     7.0009     6.0564   -31.9048
  447.0000   108.6153     6.0374     6.9811     6.0563   -31.9042
  447.1000   108.4759     6.0370     6.9807     6.0561   -31.9036
  447.2000   108.1939     6.0366     6.9775     6.0559   -31.9030
  447.3000   107.8291     6.0361     6.9316     6.0322   -31.9147
  447.4000   107.4644     6.0357     6.9313     6.0138   -31.9496
  447.5000   107.0549     6.0353     6.9309     6.0136   -31.9845
  447.6000   106.4126     6.0349     6.9144     6.0126   -32.0194
  447.7000   105.9208     6.0345     6.8822     5.9717   -32.0543
  447.8000   105.4769     6.0340     6.8818     5.9716   -32.0892
  447.9000   104.8905     6.0336     6.8815     5.9518   -32.1241
  448.0000   104.1467     6.0065     6.8811     5.9300   -32.1590
  448.1000   103.7878     5.9911     6.8807     5.9298   -32.1939
  448.2000   103.4230     5.9907     6.8803     5.9296   -32.2288
  448.3000   103.2552     5.9903     6.8799     5.8988   -32.2637
  448.4000   103.1425     5.9898     6.8795     5.8884   -32.2985
  448.5000   102.7777     5.9894     6.8792     5.8882   -32.3334
  448.6000   102.3641     5.9890     6.8536     5.8881   -32.3437
  448.7000   102.2070     5.9886     6.8144     5.8879   -32.3431
  448.8000   101.9077     5.9806     6.7754     5.8877   -32.3425
  448.9000   101.4659     5.9463     6.7360     5.8876   -32.3419
  449.0000   100.9895     5.9123     6.6981     5.8874   -32.3413
  449.1000   100.8032     5.8784     6.6887     5.8751   -32.3407
  449.2000   100.8054     5.8633     6.6473     5.8464   -32.4100
  449.3000   100.9451     5.8628     6.5959     5.8462   -32.5317
  449.4000   101.1308     5.8624     6.5955     5.8461   -32.6384
  449.5000   101.4274     5.8620     6.5951     5.8459   -32.6377
  449.6000   102.0234     5.8321     6.5948     5.8458   -32.7469
  449.7000   103.2870     5.8207     6.5944     5.8456   -32.7862
  449.8000   104.2304     5.8203     6.5940     5.8454   -32.7856
  449.9000   105.1020     5.8199     6.5937     5.8453   -32.7850
  450.0000   106.0479     5.8195     6.5933     5.8451   -32.7844
  450.1000   107.2984     5.7995     6.6036     5.8450   -32.7838
  450.2000   108.5489     5.7795     6.6139     5.8448   -32.7832
  450.3000   109.9023     5.7595     6.6243     5.8446   -32.7826
  450.4000   111.8336     5.7395     6.6346     5.8445   -32.7820
  450.5000   112.3676     5.7195     6.6181     5.8443   -32.7814
  450.6000   112.6488     5.6982     6.5933     5.8442   -32.7808
  450.7000   112.9344     5.6980     6.5883     5.8440   -32.7802
  450.8000   113.1880     5.7214     6.5477     5.8438   -32.8690
  450.9000   113.1898     5.7540     6.5477     5.8451   -32.9287
  451.0000   113.1918     5.7868     6.5477     5.8841   -32.9282
  451.1000   113.1934     5.8197     6.5477     5.8840   -32.9275
  451.2000   113.1952     5.8570     6.5477     5.8838   -32.9269
  451.3000   113.1970     5.8862     6.5477     5.8837   -33.0342
