~VERSION INFORMATION
 VERS.                2.0:   CWLS LOG ASCII STANDARD - VERSION 2.0
 WRAP.                 NO:   ONE LINE PER DEPTH STEP
~WELL INFORMATION
#MNEM.UNIT      DATA TYPE    INFORMATION
#----------   ------------   ------------------------------
 STRT.F           29.0000:   START DEPTH
 STOP.F          720.0000:   STOP DEPTH
 STEP.F            0.5000:   STEP LENGTH
 NULL.          -999.2500:   NO VALUE
 COMP.    FENIX & SCISSON:   COMPANY
 WELL. RES 3 TEAPOT DOM #21-S-14:   WELL
 FLD .        TEAPOT DOME:   FIELD
 LOC .      S14 T38N R78W:   LOCATION
 CNTY.            NATRONA:   COUNTY
 STAT.            WYOMING:   STATE
 CTRY. UNITED STATES OF AMERICA:   COUNTRY
 SRVC.            Unknown:   SERVICE COMPANY
 DATE.        25-MAY-1978:   LOGDATE
 API .       490251063300:   API NUMBER
~CURVE INFORMATION
#MNEM.UNIT       API CODE    CURVE DESCRIPTION
#----------   ------------   ------------------------------
 DEPT.F                  :   
 CALD.IN     45 280 60 00:   CALIPER FROM DENSITY LOG
 CORR.G/C3   45 356 01 00:   DENSITY CORRECTION
 DPHI.DEC    45 890 12 00:   DENSITY POROSITY SANDSTONE
 GRD .GAPI   45 310 01 00:   GAMMA RAY FROM DENSITY LOG
 RHOB.G/C3   45 350 01 00:   BULK DENSITY
 ILD .OHMM   05 120 46 00:   INDUCTION LOG DEEP
 SN  .OHMM   05 040 16 00:   SHORT NORMAL 16"
 SPR .MV     05 010 01 00:   SPONTANEOUS POTENTIAL FROM RES.
~PARAMETER INFORMATION
#MNEM.UNIT          VALUE    DESCRIPTION
#----------   ------------   ------------------------------
 PD  .                 GL:   PERMANENT DATUM
 EPD .F              5232:   ELEVATION PERMANENT DATUM
 LMF .                 KB:   LOG MEASURED FROM
 DAPD.F                 4:   FEET ABOVE PERMANENT DATUM
 DMF .                 KB:   DRILLING MEASURED FROM
 EKB .F              5236:   KELLING BUSHING
 EGL .F              5232:   GROUND LEVEL
 DATE.        25-MAY-1978:   RUN DATE
 RUN .                  1:   RUN NUMBER
 DD  .F               716:   DEPTH DRILLER
 DL  .F               727:   DEPTH LOGGER
 BLI .F               720:   BOTTOM LOG INTERVAL
 TLI .F                44:   TOP LOG INTERVAL
 CS  .IN            8.625:   CASING SIZE
 CBD .F                40:   CASING BOTTOM DRILLER
 CBL .F                44:   CASING BOTTOM LOGGER
 BS  .IN            7.875:   BIT SIZE
 BSD .F               716:   BIT SIZE AT DEPTH
 DFT .                KCL:   DRILLING FLUID TYPE
 DFD .                8.6:   DRILLING FLUID DENSITY
 DFV .                 31:   DRILLING FLUID VISCOSITY
 DFPH.                9.5:   DRILLING FLUID PH
 DFL .               10.8:   DRILLING FLUID LOSS
 MSS .            MUD PIT:   MUD SAMPLE SOURCE
 RMS .OHMM           0.32:   RESISTIVITY MUD SAMPLE
 MST .F                82:   MUD SAMPLE TEMPERATURE
 RMF .OHMM           0.34:   RESISTIVITY MUD FILTRATE SAMPLE
 MFST.F                72:   MUD FILTRATE SAMPLE TEMPERATURE
 RMC .OHMM            0.8:   RESISTIVITY MUD CAKE
 MCST.F                72:   MUD CAKE SAMPLE TEMPERATURE
 MFSS.               MEAS:   MUD FILTRATE SAMPLE SOURCE
 RMB .OHMM           0.35:   RESISTIVITY MUD AT BHT
 BHT .F                74:   BOTTOM HOLE TEMPERATURE
 TCS .HRS               1:   TIME CURCULATED STOPPED
 MRT .F                74:   MAXIMUM RECORDED TEMPERATURE
 LUN .               2958:   LOGGING UNIT NUMBER
 LUL .               CASP:   LOGGING UNIT LOCATION
 ENGI.             MILLER:   RECORDING ENGINEER
 WITN.           MCGINLEY:   WITNESSED BY
 CLNT.            A2DTECH:   CLIENT CODE
 ORIG.           5" PRINT:   ORIGIN OF DATA
 UWI .       490251063300:   UNIQUE WELL ID
 DICO. A2D Technologies, Inc.:   DIGITIZING COMPANY
~OTHER INFORMATION
~A   DEPT     CALD       CORR       DPHI         GRD      RHOB        ILD         SN        SPR   
# ...
  393.5000     7.4619     0.0094     0.1179    80.5463     2.4612     7.8228     7.8588   -27.5558
  394.0000     7.4634     0.0006     0.1202    77.3890     2.4761     7.8304     7.8659   -27.5395
  394.5000     7.4651     0.0039     0.1187    77.8871     2.4695     7.8367     7.8742   -27.5265
  395.0000     7.4666     0.0057     0.1204    78.1778     2.4688     7.7891     7.8811   -27.5135
  395.5000     7.4680     0.0042     0.1294    77.6024     2.4644     7.7953     7.8319   -27.3516
  396.0000     7.4695     0.0000     0.1299    77.0184     2.4525     7.8016     7.7848   -27.3386
  396.5000     7.4709    -0.0028     0.1311    78.8311     2.4511     7.7540     7.7396   -27.1767
  397.0000     7.4724    -0.0042     0.1340    80.0424     2.4496     7.7070     7.6928   -27.1637
  397.5000     7.4738    -0.0025     0.1346    81.2538     2.4483     7.7134     7.5940   -27.1503
  398.0000     7.4582     0.0037     0.1302    83.2657     2.4507     7.7211     7.5402   -27.1344
  398.5000     7.4322     0.0039     0.1267    84.8749     2.4560     7.6214     7.4528   -27.1213
  399.0000     7.4337     0.0041     0.1261    84.8922     2.4576     7.6266     7.4593   -27.1083
  399.5000     7.4351     0.0028     0.1260    79.5364     2.4569     7.6336     7.4658   -27.0953
  400.0000     7.4391     0.0000     0.1321    75.3427     2.4555     7.6284     7.4183   -27.0855
  400.5000     7.4572     0.0002     0.1409    75.9853     2.4474     7.5672     7.4127   -27.1694
  401.0000     7.4689     0.0004     0.1367    77.9386     2.4430     7.5061     7.4071   -27.1994
  401.5000     7.4850     0.0036     0.1366    79.1457     2.4371     7.4026     7.4015   -27.1830
  402.0000     7.5011     0.0097     0.1303    75.1288     2.4506     7.4607     7.3958   -27.1639
  402.5000     7.5022    -0.0006     0.1375    75.5896     2.4477     7.4677     7.4024   -27.3009
  403.0000     7.4868     0.0027     0.1368    76.3830     2.4448     7.4231     7.4102   -27.7276
  403.5000     7.4747    -0.0016     0.1314    80.9920     2.4479     7.4301     7.4166   -27.8646
  404.0000     7.4761    -0.0044     0.1394    84.1394     2.4502     7.3859     7.3703   -27.9940
  404.5000     7.4773    -0.0012     0.1400    84.4509     2.4436     7.3945     7.3783   -27.9777
  405.0000     7.4784     0.0005     0.1355    83.2699     2.4399     7.3504     7.3847   -28.2559
  405.5000     7.4945     0.0022     0.1324    82.0888     2.4460     7.3573     7.3911   -28.2402
  406.0000     7.5256     0.0024     0.1309    80.3108     2.4513     7.3133     7.3990   -28.2244
  406.5000     7.5570     0.0025     0.1305    82.1253     2.4529     7.3204     7.4054   -28.2087
  407.0000     7.5877     0.0027     0.1305    83.1960     2.4515     7.2767     7.3592   -28.1929
  407.5000     7.5891     0.0059     0.1302    83.6367     2.4524     7.2351     7.3672   -28.1771
  408.0000     7.5604     0.0121     0.1274    83.7989     2.4577     7.2418     7.3225   -28.1575
  408.5000     7.4270     0.0138     0.1250    83.3642     2.4593     7.1970     7.2786   -28.1417
  409.0000     7.1442     0.0155     0.1238    78.8996     2.4616     7.1556     7.2849   -28.2787
  409.5000     6.9809     0.0082     0.1237    77.5693     2.4624     7.1625     7.1927   -28.4118
  410.0000     6.8625     0.0009     0.1452    76.0898     2.4580     7.0709     7.1001   -28.3921
  410.5000     6.7123     0.0071     0.1499    75.3565     2.4297     6.9805     7.0072   -27.9299
  411.0000     7.0744     0.0133     0.1487    75.3728     2.4253     6.8454     6.9171   -27.6161
  411.5000     7.3745     0.0194     0.1478    78.0723     2.4254     6.6653     6.7358   -27.7496
  412.0000     7.4501     0.0507     0.1450    79.8764     2.4285     6.4899     6.5992   -27.7299
  412.5000     7.4216     0.0768     0.1285    80.1879     2.4331     6.3629     6.2983   -27.7141
  413.0000     7.4228     0.0814     0.1203    80.2009     2.4489     6.1888     6.0061   -27.6984
  413.5000     7.3791     0.0816     0.1096    80.2139     2.4684     5.9511     5.7672   -27.0874
  414.0000     7.1561     0.0893     0.1042    80.2270     2.4849     5.8736     5.7312   -26.1547
  414.5000     7.2263     0.0954     0.1012    80.2403     2.4963     5.8387     5.7772   -25.4150
  415.0000     7.4128     0.0807     0.1212    79.6592     2.5016     5.8859     5.9033   -25.5520
  415.5000     7.4139     0.0445     0.1316    76.9856     2.4942     6.0562     6.0753   -26.1276
  416.0000     7.4151     0.0102     0.1334    77.5957     2.4569     6.3235     6.3379   -26.8559
  416.5000     7.4163     0.0034     0.1327    77.9039     2.4472     6.5927     6.6119   -27.7330
  417.0000     7.4174     0.0021     0.1345    77.0247     2.4466     6.6905     6.8031   -27.8661
  417.5000     7.4186     0.0008     0.1356    75.9929     2.4459     6.7431     6.8090   -27.8497
  418.0000     7.4046     0.0010     0.1344    77.8030     2.4460     6.6553     6.7679   -27.8306
  418.5000     7.3889     0.0012     0.1343    79.0258     2.4469     6.6171     6.7740   -27.9676
  419.0000     7.3772     0.0044     0.1346    82.0053     2.4477     6.6235     6.7329   -27.9479
  419.5000     7.3786     0.0062     0.1345    86.9437     2.4478     6.6311     6.7402   -27.9322
  420.0000     7.3798     0.0078     0.1312    87.5505     2.4486     6.6373     6.7460   -28.0655
  420.5000     7.3810     0.0065     0.1267    79.0593     2.4517     6.6434     6.7519   -28.1983
  421.0000     7.3821     0.0022     0.1282    73.2514     2.4548     6.6496     6.7111   -28.3313
  421.5000     7.3683     0.0009     0.1323    73.0920     2.4526     6.6098     6.6707   -28.3116
  422.0000     7.3538     0.0011     0.1358    75.9721     2.4445     6.5707     6.6305   -28.2959
  422.5000     7.3258     0.0013     0.1391    76.2788     2.4431     6.5783     6.5906   -28.2801
  423.0000     7.3123     0.0030     0.1405    77.3366     2.4392     6.4927     6.5058   -28.2644
  423.5000     7.2982     0.0017     0.1408    79.7376     2.4350     6.4540     6.4220   -28.2485
  424.0000     7.2997     0.0003     0.1446    84.6760     2.4336     6.3730     6.3407   -28.2289
  424.5000     7.3307     0.0006     0.1476    85.1335     2.4307     6.2915     6.3021   -28.2132
  425.0000     7.3618     0.0008     0.1575    81.4185     2.4286     6.1683     6.1717   -28.1974
  425.5000     7.3629     0.0010     0.1630    80.6852     2.4219     5.9996     5.9341   -28.1817
  426.0000     7.3641     0.0026     0.1684    81.1463     2.4026     5.6121     5.6198   -28.1659
  426.5000     7.3655     0.0073     0.1797    81.1622     2.3890     5.3157     5.3591   -28.1502
  427.0000     7.3667     0.0151     0.1794    80.2797     2.3779     5.2117     5.2175   -28.1339
  427.5000     7.3679     0.0326     0.1617    77.6062     2.3752     5.1096     5.0797   -28.1147
  428.0000     7.3690     0.0079     0.1500    73.4401     2.3955     4.9752     4.9420   -27.9502
  428.5000     7.3702    -0.0024     0.1448    75.2441     2.4150     4.8071     4.7827   -27.7856
  429.0000     7.3713    -0.0022     0.1442    77.7944     2.4256     4.6532     4.6886   -27.6211
  429.5000     7.3725     0.0010     0.1367    79.1507     2.4316     4.6576     4.7252   -27.4565
  430.0000     7.3587     0.0102     0.1241    76.3781     2.4437     4.8925     5.0676   -27.2917
  430.5000     7.3449     0.0179     0.1208    75.8932     2.4626     5.5065     5.6649   -27.2722
  431.0000     7.3464     0.0089     0.1231    78.8945     2.4686     5.9053     5.9960   -27.2565
  431.5000     7.3475     0.0018     0.1302    80.1015     2.4604     6.1641     6.3394   -27.2407
  432.0000     7.3487    -0.0010     0.1320    80.2638     2.4545     6.3842     6.5227   -27.3738
  432.5000     7.3498     0.0007     0.1323    80.1276     2.4516     6.5238     6.6192   -27.3580
  433.0000     7.3510     0.0009     0.1316    79.8421     2.4517     6.6206     6.8106   -27.1935
  433.5000     7.3522     0.0056     0.1292    79.5566     2.4548     6.7188     6.9113   -27.1528
