~VERSION INFORMATION
 VERS.                2.0:   CWLS LOG ASCII STANDARD - VERSION 2.0
 WRAP.                 NO:   ONE LINE PER DEPTH STEP
~WELL INFORMATION
#MNEM.UNIT      DATA TYPE    INFORMATION
#----------   ------------   ------------------------------
 STRT.F           90.0000:   START DEPTH
 STOP.F         1032.5000:   STOP DEPTH
 STEP.F            0.5000:   STEP LENGTH
 NULL.          -999.2500:   NO VALUE
 COMP. U S NAVY/INTEX OIL CO:   COMPANY
 WELL. NAVAL PETROLEUM RESERVE 3  #62-S-14:   WELL
 FLD .        TEAPOT DOME:   FIELD
 LOC .      S14 T38N R78W:   LOCATION
 CNTY.            NATRONA:   COUNTY
 STAT.            WYOMING:   STATE
 CTRY. UNITED STATES OF AMERICA:   COUNTRY
 SRVC.       Schlumberger:   SERVICE COMPANY
 DATE.        04-JUL-1962:   LOGDATE
 API .       490250631700:   API NUMBER
~CURVE INFORMATION
#MNEM.UNIT       API CODE    CURVE DESCRIPTION
#----------   ------------   ------------------------------
 DEPT.F                  :   
 GR  .GAPI   30 310 01 00:   GAMMA RAY
 CALM.IN     15 280 01 00:   CALIPER FROM MICRO LOG
 SPR .MV     06 010 01 00:   SPONTANEOUS POTENTIAL FROM RES.
 ASN .OHMM   06 041 16 00:   AMPLIFIED SHORT NORMAL 16"
 ILD .OHMM   06 120 46 00:   INDUCTION LOG DEEP
 CILD.MMHO   06 110 46 00:   CONDUCTIVITY INDUCTION LOG DEEP
~PARAMETER INFORMATION
#MNEM.UNIT          VALUE    DESCRIPTION
#----------   ------------   ------------------------------
 PD  .                 GL:   PERMANENT DATUM
 EPD .F              5246:   ELEVATION PERMANENT DATUM
 LMF .                 KB:   LOG MEASURED FROM
 DAPD.F                 5:   FEET ABOVE PERMANENT DATUM
 DMF .                 KB:   DRILLING MEASURED FROM
 EKB .F              5251:   KELLING BUSHING
 EGL .F              5246:   GROUND LEVEL
 DATE.             7-4-62:   RUN DATE
 RUN .                  1:   RUN NUMBER
 DD  .F              1036:   DEPTH DRILLER
 DL  .F              1033:   DEPTH LOGGER
 BLI .F              1032:   BOTTOM LOG INTERVAL
 TLI .F                90:   TOP LOG INTERVAL
 CBD .F                10:   CASING BOTTOM DRILLER
 BS  .IN             6.75:   BIT SIZE
 BSD .F              1036:   BIT SIZE AT DEPTH
 DFT .                GEL:   DRILLING FLUID TYPE
 DFD .               10.2:   DRILLING FLUID DENSITY
 DFV .                 48:   DRILLING FLUID VISCOSITY
 DFL .                4.8:   DRILLING FLUID LOSS
 MSS .          FLOW LINE:   MUD SAMPLE SOURCE
 RMS .OHMM            5.6:   RESISTIVITY MUD SAMPLE
 MST .F                70:   MUD SAMPLE TEMPERATURE
 RMF .OHMM           5.57:   RESISTIVITY MUD FILTRATE SAMPLE
 MFST.F                70:   MUD FILTRATE SAMPLE TEMPERATURE
 RMC .OHMM           5.32:   RESISTIVITY MUD CAKE
 MCST.F                70:   MUD CAKE SAMPLE TEMPERATURE
 MFSS.                  M:   MUD FILTRATE SAMPLE SOURCE
 MCSS.                  M:   MUD CAKE SAMPLE SOURCE
 RMB .OHMM            4.3:   RESISTIVITY MUD AT BHT
 BHT .F                90:   BOTTOM HOLE TEMPERATURE
 TCS .HRS               1:   TIME CURCULATED STOPPED
 MRT .F                90:   MAXIMUM RECORDED TEMPERATURE
 LUN .               2503:   LOGGING UNIT NUMBER
 LUL .               CSPR:   LOGGING UNIT LOCATION
 ENGI.             KNOBEL:   RECORDING ENGINEER
 WITN.          JORGENSEN:   WITNESSED BY
 CLNT.            A2DTECH:   CLIENT CODE
 ORIG.   1", 2", 5" PRINT:   ORIGIN OF DATA
 UWI .       490250631700:   UNIQUE WELL ID
 DICO. A2D Technologies, Inc.:   DIGITIZING COMPANY
~OTHER INFORMATION
~A   DEPT       GR       CALM        SPR          ASN        ILD      CILD  
# ...
  662.0000  -999.2500  -999.2500   -46.6912     7.9668     7.7238   139.4498
  662.5000  -999.2500  -999.2500   -46.6180     7.8677     7.7126   139.7366
  663.0000  -999.2500  -999.2500   -46.8155     7.8383     7.7015   140.0235
  663.5000  -999.2500  -999.2500   -47.0108     7.8278     7.6904   140.3103
  664.0000  -999.2500  -999.2500   -47.2052     7.8371     7.6792   140.5972
  664.5000  -999.2500  -999.2500   -47.4002     7.8713     7.6684   140.7816
  665.0000  -999.2500  -999.2500   -47.5939     7.8715     7.6348   140.7823
  665.5000  -999.2500  -999.2500   -47.7819     7.8455     7.5948   140.7815
  666.0000  -999.2500  -999.2500   -47.5642     7.7896     7.5546   140.7797
  666.5000  -999.2500  -999.2500   -47.4462     7.7306     7.5144   140.9271
  667.0000  -999.2500  -999.2500   -47.3236     7.7056     7.4742   141.3255
  667.5000  -999.2500  -999.2500   -47.1965     7.7398     7.4341   141.7239
  668.0000  -999.2500  -999.2500   -47.0950     7.8002     7.3939   142.1223
  668.5000  -999.2500  -999.2500   -47.0015     7.8253     7.3538   142.5208
  669.0000  -999.2500  -999.2500   -47.1555     7.8263     7.3136   142.9192
  669.5000  -999.2500  -999.2500   -47.3242     7.8024     7.2734   143.3176
  670.0000  -999.2500  -999.2500   -47.4909     7.7727     7.2333   143.7160
  670.5000  -999.2500  -999.2500   -47.5943     7.7132     7.1931   144.1144
  671.0000  -999.2500  -999.2500   -47.5059     7.6469     7.1529   144.5128
  671.5000  -999.2500  -999.2500   -47.4144     7.6066     7.1124   144.9113
  672.0000  -999.2500  -999.2500   -47.3232     7.6122     7.0695   145.3097
  672.5000  -999.2500  -999.2500   -47.2308     7.6171     7.1547   145.7081
  673.0000  -999.2500  -999.2500   -47.2299     7.6225     7.2690   145.1042
  673.5000  -999.2500  -999.2500   -47.2873     7.6525     7.3840   143.3472
  674.0000  -999.2500  -999.2500   -47.3535     7.7274     7.4988   141.5902
  674.5000  -999.2500  -999.2500   -47.5462     7.8680     7.6136   139.8332
  675.0000  -999.2500  -999.2500   -47.5998     8.0040     7.7288   138.0762
  675.5000  -999.2500  -999.2500   -47.5245     8.1328     7.8465   136.3191
  676.0000  -999.2500  -999.2500   -47.4057     8.2334     7.8183   134.5592
  676.5000  -999.2500  -999.2500   -47.2881     8.2500     7.7597   132.7970
  677.0000  -999.2500  -999.2500   -47.2107     8.3718     7.7005   132.0182
  677.5000  -999.2500  -999.2500   -47.3152     8.4463     7.6584   133.2736
  678.0000  -999.2500  -999.2500   -47.4166     8.3068     7.6425   134.5426
  678.5000  -999.2500  -999.2500   -47.5163     8.1109     7.6263   135.2030
  679.0000  -999.2500  -999.2500   -47.5651     8.2270     7.6101   135.9261
  679.5000  -999.2500  -999.2500   -47.3926     8.2590     7.5941   136.6433
  680.0000  -999.2500  -999.2500   -47.2263     8.1051     7.5777   137.3604
  680.5000  -999.2500  -999.2500   -47.0095     8.0070     7.5514   138.0776
  681.0000  -999.2500  -999.2500   -46.8026     7.9545     7.4816   138.7776
  681.5000  -999.2500  -999.2500   -46.8944     7.9182     7.4131   140.3006
  682.0000  -999.2500  -999.2500   -46.9966     7.8847     7.3446   141.7873
  682.5000  -999.2500  -999.2500   -47.0981     7.8465     7.2761   143.2750
  683.0000  -999.2500  -999.2500   -47.1950     7.8023     7.2077   144.7606
  683.5000  -999.2500  -999.2500   -47.0905     7.7391     7.1392   146.2565
  684.0000  -999.2500  -999.2500   -46.9650     7.6357     7.0708   148.0074
  684.5000  -999.2500  -999.2500   -46.8370     7.5284     7.0022   149.9198
  685.0000  -999.2500  -999.2500   -46.8443     7.4233     6.9428   151.8322
  685.5000  -999.2500  -999.2500   -46.9206     7.3285     6.8950   153.7446
  686.0000  -999.2500  -999.2500   -46.9941     7.2357     6.8470   154.9319
  686.5000  -999.2500  -999.2500   -46.9340     7.1694     6.7997   155.4339
  687.0000  -999.2500  -999.2500   -46.8620     7.1432     6.7829   155.8061
  687.5000  -999.2500  -999.2500   -46.7900     7.1808     6.8800   153.8931
  688.0000  -999.2500  -999.2500   -46.7183     7.2343     6.9739   152.0440
  688.5000  -999.2500  -999.2500   -46.6466     7.3262     7.0675   150.2011
  689.0000  -999.2500  -999.2500   -46.5748     7.4222     7.1611   148.3605
  689.5000  -999.2500  -999.2500   -46.5029     7.5184     7.2547   146.5245
  690.0000  -999.2500  -999.2500   -46.4318     7.6144     7.3483   144.7896
  690.5000  -999.2500  -999.2500   -46.4144     7.6995     7.4419   143.0160
  691.0000  -999.2500  -999.2500   -46.5145     7.7559     7.5354   141.3427
  691.5000  -999.2500  -999.2500   -46.6111     7.7973     7.6291   139.6693
  692.0000  -999.2500  -999.2500   -46.7076     7.8420     7.7226   138.5857
  692.5000  -999.2500  -999.2500   -46.8042     7.9338     7.8157   137.8686
  693.0000  -999.2500  -999.2500   -46.9007     8.0322     7.8464   137.1514
  693.5000  -999.2500  -999.2500   -46.9973     8.0899     7.8040   136.4343
  694.0000  -999.2500  -999.2500   -47.0938     8.1398     7.7624   135.7171
  694.5000  -999.2500  -999.2500   -47.1904     8.1535     7.7205   135.0000
  695.0000  -999.2500  -999.2500   -47.2871     8.1258     7.6787   134.9699
  695.5000  -999.2500  -999.2500   -47.3847     8.0963     7.6369   135.6871
  696.0000  -999.2500  -999.2500   -47.3204     8.0547     7.5950   136.4042
  696.5000  -999.2500  -999.2500   -47.2143     8.0111     7.5532   137.1214
  697.0000  -999.2500  -999.2500   -47.1066     7.9506     7.5114   137.8385
  697.5000  -999.2500  -999.2500   -46.9990     7.8928     7.4695   138.5557
  698.0000  -999.2500  -999.2500   -46.8915     7.8657     7.4277   139.3250
  698.5000  -999.2500  -999.2500   -46.7840     7.8458     7.3858   140.4398
  699.0000  -999.2500  -999.2500   -46.6766     7.8457     7.3438   141.5546
  699.5000  -999.2500  -999.2500   -46.5691     7.8465     7.3016   142.6694
  700.0000  -999.2500  -999.2500   -46.4614     7.8186     7.2679   143.7842
  700.5000  -999.2500  -999.2500   -46.3534     7.7890     7.3273   144.7896
  701.0000  -999.2500  -999.2500   -46.2474     7.7846     7.3856   142.2035
  701.5000  -999.2500  -999.2500   -46.2583     7.8141     7.4434   139.8158
  702.0000  -999.2500  -999.2500   -46.5327     7.8573     7.5006   137.4409
  702.5000  -999.2500  -999.2500   -46.7954     8.0621     7.5543   135.0695
  703.0000  -999.2500  -999.2500   -47.0617     8.2786     7.7131   132.6977
  703.5000  -999.2500  -999.2500   -47.3327     8.4565     7.8797   130.3259
  704.0000  -999.2500  -999.2500   -47.5489     8.5995     8.0470   127.9541
  704.5000  -999.2500  -999.2500   -47.4895     8.7421     8.2134   125.5823
  705.0000  -999.2500  -999.2500   -47.4288     8.8849     8.3612   123.2105
  705.5000  -999.2500  -999.2500   -47.4476     9.0139     8.5025   120.8387
  706.0000  -999.2500  -999.2500   -47.5615     9.1125     8.6556   118.4669
  706.5000  -999.2500  -999.2500   -47.5516     9.2441     8.8097   116.0951
  707.0000  -999.2500  -999.2500   -47.4907     9.3760     8.9636   113.7233
  707.5000  -999.2500  -999.2500   -47.4293     9.5707     9.1175   111.3515
  708.0000  -999.2500  -999.2500   -47.4548     9.7568     9.2713   108.9798
  708.5000  -999.2500  -999.2500   -47.5847     9.9724     9.4252   107.2077
  709.0000  -999.2500  -999.2500   -47.7133    10.2885     9.5791   105.3030
  709.5000  -999.2500  -999.2500   -47.8425    10.4143     9.7329   103.3982
  710.0000  -999.2500  -999.2500   -47.9719    10.6308     9.8863   101.4878
  710.5000  -999.2500  -999.2500   -48.1001    10.8376     9.9704    99.7079
  711.0000  -999.2500  -999.2500   -48.1837    11.0438     9.9699    98.9109
  711.5000  -999.2500  -999.2500   -48.1129    11.0721     9.9700    98.0106
  712.0000  -999.2500  -999.2500   -48.0460    11.0515     9.9699    97.1015
  712.5000  -999.2500  -999.2500   -47.9792    11.0040     9.9705    96.1924
  713.0000  -999.2500  -999.2500   -47.9119    10.9572     9.9333    95.9576
  713.5000  -999.2500  -999.2500   -47.8464    10.9103     9.8784    97.0291
