~VERSION INFORMATION
 VERS.                2.0:   CWLS LOG ASCII STANDARD - VERSION 2.0
 WRAP.                 NO:   ONE LINE PER DEPTH STEP
~WELL INFORMATION
#MNEM.UNIT      DATA TYPE    INFORMATION
#----------   ------------   ------------------------------
 STRT.F          748.0000:   START DEPTH
 STOP.F         2238.0000:   STOP DEPTH
 STEP.F            0.5000:   STEP LENGTH
 NULL.          -999.2500:   NO VALUE
 COMP. LAWRENCE/ALLISON INC:   COMPANY
 WELL. NPR 3 #36-2-SHX-10:   WELL
 FLD .             TEAPOT:   FIELD
 LOC .      S10 T38N R78W:   LOCATION
 CNTY.            NATRONA:   COUNTY
 STAT.            WYOMING:   STATE
 CTRY. UNITED STATES OF AMERICA:   COUNTRY
 SRVC.            Unknown:   SERVICE COMPANY
 DATE.        02-JUN-1984:   LOGDATE
 API .       490256012900:   API NUMBER
~CURVE INFORMATION
#MNEM.UNIT       API CODE    CURVE DESCRIPTION
#----------   ------------   ------------------------------
 DEPT.F                  :   
 ROP .MIN/FT 91 810 01 00:   RATE OF DRILLING PENETRATION
 TGAS.UNITS  91 830 01 00:   TOTAL GAS FROM HOTWIRE
~PARAMETER INFORMATION
#MNEM.UNIT          VALUE    DESCRIPTION
#----------   ------------   ------------------------------
 EKB .F              5223:   KELLING BUSHING
 EGL .F              5213:   GROUND LEVEL
 DATE.             6-2-84:   RUN DATE
 DD  .F              2238:   DEPTH DRILLER
 BLI .F              2238:   BOTTOM LOG INTERVAL
 TLI .F               740:   TOP LOG INTERVAL
 CS  .IN            8.625:   CASING SIZE
 CBD .F               717:   CASING BOTTOM DRILLER
 LUN .               T-83:   LOGGING UNIT NUMBER
 ENGI.            JOHNSON:   RECORDING ENGINEER
 WITN.           SCHERGER:   WITNESSED BY
 CLNT.            A2DTECH:   CLIENT CODE
 ORIG.           5" PRINT:   ORIGIN OF DATA
 UWI .       490256012900:   UNIQUE WELL ID
 DICO. A2D Technologies, Inc.:   DIGITIZING COMPANY
~OTHER INFORMATION
~A   DEPT        ROP     TGAS   
# ...
 1355.5000     1.4409   118.9820
 1356.0000     1.5026   122.1289
 1356.5000     1.4421   122.1491
 1357.0000     1.3007   119.0426
 1357.5000     1.1997   115.9361
 1358.0000     1.0379   113.8746
 1358.5000     0.9573   114.9415
 1359.0000     0.9599   119.1283
 1359.5000     0.9683   122.2735
 1360.0000     0.9767   119.1704
 1360.5000     0.9851   118.1438
 1361.0000     0.9935   115.0441
 1361.5000     1.0019   115.0659
 1362.0000     1.0103   115.0861
 1362.5000     1.0187   118.2330
 1363.0000     1.0271   119.2948
 1363.5000     1.0355   123.4833
 1364.0000     1.0439   127.6651
 1364.5000     0.9657   123.5170
 1365.0000     0.8243   119.3755
 1365.5000     0.7640   116.2740
 1366.0000     0.7442   115.2509
 1366.5000     0.8061   149.4480
 1367.0000     0.9694   248.6279
 1367.5000     1.1531   245.5248
 1368.0000     1.2960   170.5450
 1368.5000     1.2764   120.5584
 1369.0000     1.1349   120.5833
 1369.5000     1.0542   120.6042
 1370.0000     1.0345   120.6290
 1370.5000     1.2793   119.6008
 1371.0000     2.0523   115.4611
 1371.5000     2.5206   108.1896
 1372.0000     2.5213    91.5448
 1372.5000     2.5218    69.6916
 1373.0000     2.5226    54.0868
 1373.5000     2.5233    48.8919
 1374.0000     2.5240    44.7522
 1374.5000     2.3442    44.7740
 1375.0000     2.0613    41.6641
 1375.5000     1.7784    40.6427
 1376.0000     1.4497    40.6696
 1376.5000     1.4503    40.3729
 1377.0000     1.4510    39.8093
 1377.5000     1.4517    39.2457
 1378.0000     1.4524    38.6821
 1378.5000     1.4125    38.1185
 1379.0000     1.3318    37.5549
 1379.5000     1.2515    36.9913
 1380.0000     1.2316    36.4277
 1380.5000     1.2528    35.8641
 1381.0000     1.3146    35.3005
 1381.5000     1.4372    34.7369
 1382.0000     1.5598    34.1733
 1382.5000     1.4791    33.6097
 1383.0000     1.3985    33.0461
 1383.5000     1.2571    32.4825
 1384.0000     1.1969    31.9189
 1384.5000     1.2179    31.3553
 1385.0000     1.2999    30.7917
 1385.5000     1.4022    30.2281
 1386.0000     1.4842    29.6645
 1386.5000     1.4849    29.1009
 1387.0000     1.4856    28.5373
 1387.5000     1.4863    27.9736
 1388.0000     1.4870    27.4100
 1388.5000     1.4877    26.8464
 1389.0000     1.4884    26.2828
 1389.5000     1.4891    25.7192
 1390.0000     1.4288    25.1556
 1390.5000     1.3280    24.5920
 1391.0000     1.1662    24.0284
 1391.5000     1.0854    23.4648
 1392.0000     1.0863    22.9012
 1392.5000     1.1073    22.3376
 1393.0000     1.1690    21.7740
 1393.5000     1.2510    21.2104
 1394.0000     1.3330    20.6468
 1394.5000     1.3133    20.0832
 1395.0000     1.1921    19.5196
 1395.5000     1.0912    18.9560
 1396.0000     1.0308    18.3924
 1396.5000     1.0927    17.8288
 1397.0000     1.2560    17.2652
 1397.5000     1.3380    16.7016
 1398.0000     1.2777    70.8463
 1398.5000     1.2377   142.0818
 1399.0000     1.1773   135.2755
 1399.5000     1.0563    72.5381
 1400.0000     1.0523    23.9600
 1400.5000     1.0473    20.8501
 1401.0000     1.0423    17.7521
 1401.5000     1.0386    16.7255
 1402.0000     1.2020    14.6691
 1402.5000     1.4145    13.6426
 1403.0000     1.6271    13.6695
 1403.5000     1.8396    16.8163
 1404.0000     2.0178    19.9615
 1404.5000     1.7519    22.0650
 1405.0000     1.5062    22.0869
 1405.5000     1.2605    25.2320
 1406.0000     1.0247    25.2539
 1406.5000     1.0241    25.2741
 1407.0000     1.0234    24.2509
 1407.5000     1.0227    22.1844
 1408.0000     1.0220    25.3363
 1408.5000     1.0214    30.5665
 1409.0000     1.0207    42.0450
 1409.5000     1.0200    51.4402
 1410.0000     1.0193    58.7537
 1410.5000     1.0187    63.9822
 1411.0000     1.0180    67.1291
 1411.5000     1.0173    66.1025
 1412.0000     1.0166    64.0377
 1412.5000     1.0159    59.8946
 1413.0000     1.0153    54.7081
 1413.5000     1.0150    50.5599
 1414.0000     1.0972    46.4202
 1414.5000     1.1996    42.8757
 1415.0000     1.3426    42.9223
 1415.5000     1.4246    41.9106
 1416.0000     1.5066    41.9639
 1416.5000     1.5277    42.0072
 1417.0000     1.5078    43.0889
 1417.5000     1.5088    45.2155
 1418.0000     1.5094    46.2971
 1418.5000     1.4288    50.5071
 1419.0000     1.3482    54.7137
 1419.5000     1.2676    59.9654
 1420.0000     1.2277    64.1720
 1420.5000     1.2079    66.2986
 1421.0000     1.2115    67.3803
 1421.5000     1.2161    67.4236
 1422.0000     1.2206    66.4152
 1422.5000     1.2251    63.3368
 1423.0000     1.2296    60.2518
 1423.5000     1.2342    56.1251
 1424.0000     1.2387    50.9567
 1424.5000     1.2432    43.7150
 1425.0000     1.2477    38.5500
 1425.5000     1.2523    35.4516
 1426.0000     1.2159    31.3316
 1426.5000     1.1149    30.3266
 1427.0000     0.9734    30.3832
 1427.5000     0.8726    30.4232
 1428.0000     0.8121    30.4665
 1428.5000     0.8740    27.3748
 1429.0000     0.9560    22.2131
 1429.5000     1.0380    18.0864
 1430.0000     1.0591    14.9947
 1430.5000     1.0598   227.5346
 1431.0000     1.0605   196.3413
 1431.5000     1.0612   148.4646
 1432.0000     1.0619    89.1329
 1432.5000     1.1465    80.8395
 1433.0000     1.3489    76.7028
 1433.5000     1.5512    72.5794
 1434.0000     1.6947    65.3377
 1434.5000     1.5329    50.7977
 1435.0000     1.4523    43.5360
 1435.5000     1.3717    40.4643
 1436.0000     1.2911    40.5076
 1436.5000     1.2104    39.4926
 1437.0000     1.1298    39.5492
 1437.5000     1.0696    36.4642
 1438.0000     1.0499    36.5780
 1438.5000     1.0303    36.7454
 1439.0000     1.0336    36.9127
 1439.5000     1.0375    37.0801
 1440.0000     1.0415    37.2475
 1440.5000     1.0454    37.4148
 1441.0000     1.0494    37.5822
 1441.5000     1.0534    37.7496
 1442.0000     1.0558    37.9169
 1442.5000     1.0565    38.0843
 1443.0000     1.1182    38.2517
 1443.5000     1.1596    38.4191
 1444.0000     1.2212    38.5864
 1444.5000     1.2017    38.7538
 1445.0000     1.1210    38.9212
 1445.5000     0.9794    39.0885
 1446.0000     0.8785    39.2559
 1446.5000     0.8181    39.4233
 1447.0000     0.8393    39.5906
 1447.5000     0.9214    39.7580
 1448.0000     0.9830    39.9254
 1448.5000     1.0651    40.0928
 1449.0000     1.0861    40.2601
 1449.5000     1.0663    40.4275
 1450.0000     1.0664    40.5949
 1450.5000     1.0648    66.7166
 1451.0000     1.0633    74.0383
 1451.5000     1.0618    55.3416
 1452.0000     1.0603    44.9615
 1452.5000     1.0588    28.3415
 1453.0000     1.0572    28.1100
 1453.5000     1.0557    27.6821
 1454.0000     1.0542    27.2542
 1454.5000     1.0527    26.8262
 1455.0000     1.0512    26.3983
 1455.5000     1.0496    25.9704
 1456.0000     1.0481    25.5424
 1456.5000     1.0466    25.1145
 1457.0000     1.0451    24.6866
 1457.5000     1.0436    24.5778
 1458.0000     1.0420    25.6728
 1458.5000     1.0405    29.8828
 1459.0000     1.0390    38.2561
 1459.5000     1.0375    53.9244
 1460.0000     1.0360    66.4643
 1460.5000     1.0344    69.6193
 1461.0000     1.0329    50.9226
 1461.5000     1.0314    41.5876
 1462.0000     1.0299    38.4925
 1462.5000     1.0284   109.5913
 1463.0000     1.0268   238.5858
 1463.5000     1.0253   155.2991
 1464.0000     1.0668    80.3391
 1464.5000     1.1081    43.3848
 1465.0000     1.1698    40.0272
 1465.5000     1.2518    37.7440
 1466.0000     1.3135    34.6589
 1466.5000     1.3346    34.7156
 1467.0000     1.3353    34.7555
 1467.5000     1.3360    36.8822
 1468.0000     1.2755    37.9605
 1468.5000     1.1748    38.0000
 1469.0000     1.0940    38.0417
 1469.5000     0.9526    38.0833
 1470.0000     0.8719    38.1250
 1470.5000     0.7711    38.1667
 1471.0000     0.6702    38.2083
 1471.5000     0.6098    38.2500
 1472.0000     0.6107    38.2917
 1472.5000     0.6927    38.3333
 1473.0000     0.7747    38.3750
 1473.5000     0.8364    38.4167
 1474.0000     0.8574    38.4583
 1474.5000     0.8785    38.5000
 1475.0000     0.9198    38.5417
 1475.5000     0.9205    38.5833
 1476.0000     0.8804    38.6250
 1476.5000     0.8607    38.6667
