~VERSION INFORMATION
 VERS.                2.0:   CWLS LOG ASCII STANDARD - VERSION 2.0
 WRAP.                 NO:   ONE LINE PER DEPTH STEP
~WELL INFORMATION
#MNEM.UNIT      DATA TYPE    INFORMATION
#----------   ------------   ------------------------------
 STRT.F           30.0000:   START DEPTH
 STOP.F         1178.5000:   STOP DEPTH
 STEP.F            0.5000:   STEP LENGTH
 NULL.          -999.2500:   NO VALUE
 COMP. FENIX & SCISSON INC:   COMPANY
 WELL.     64-S-14 #14-14:   WELL
 FLD .        TEAPOT DOME:   FIELD
 LOC .      S14 T38N R78W:   LOCATION
 CNTY.            NATRONA:   COUNTY
 STAT.            WYOMING:   STATE
 CTRY. UNITED STATES OF AMERICA:   COUNTRY
 SRVC.            Unknown:   SERVICE COMPANY
 DATE.        19-APR-1978:   LOGDATE
 API .       490251061400:   API NUMBER
~CURVE INFORMATION
#MNEM.UNIT       API CODE    CURVE DESCRIPTION
#----------   ------------   ------------------------------
 DEPT.F                  :   
 SPR .MV     05 010 01 00:   SPONTANEOUS POTENTIAL
 SN  .OHMM   05 040 16 00:   SHORT NORMAL 16'
 ILD .OHMM   05 120 46 00:   INDUCTION LOG DEEP
 CALD.IN     45 280 60 00:   CALIPER
 GRD .GAPI   45 310 01 00:   GAMMA RAY FROM DENSITY LOG
 RHOB.G/C3   45 350 01 00:   BULK DENSITY
 DPHI.DEC    45 890 12 00:   DENSITY POROSITY SANDSTONE
 CORR.G/C3   45 356 01 00:   DENSITY CORRECTION
~PARAMETER INFORMATION
#MNEM.UNIT          VALUE    DESCRIPTION
#----------   ------------   ------------------------------
 PD  .                 GL:   PERMANENT DATUM
 EPD .F              5235:   ELEVATION PERMANENT DATUM
 LMF .                 KB:   LOG MEASURED FROM
 DMF .                 KB:   DRILLING MEASURED FROM
 EKB .F              5299:   KELLING BUSHING
 EGL .F              5295:   GROUND LEVEL
 DATE.          4-19-1978:   RUN DATE
 RUN .                  1:   RUN NUMBER
 DD  .F              1180:   DEPTH DRILLER
 DL  .F              1182:   DEPTH LOGGER
 BLI .F              1176:   BOTTOM LOG INTERVAL
 TLI .F                50:   TOP LOG INTERVAL
 CS  .IN            8.625:   CASING SIZE
 CBD .F                40:   CASING BOTTOM DRILLER
 CBL .F                50:   CASING BOTTOM LOGGER
 BS  .IN            7.875:   BIT SIZE
 BSD .F              1180:   BIT SIZE AT DEPTH
 DFT .                KCL:   DRILLING FLUID TYPE
 DFD .                8.7:   DRILLING FLUID DENSITY
 DFV .                 33:   DRILLING FLUID VISCOSITY
 DFPH.               10.5:   DRILLING FLUID PH
 DFL .               12.3:   DRILLING FLUID LOSS
 MSS .            MUD PIT:   MUD SAMPLE SOURCE
 RMS .OHMM            .54:   RESISTIVITY MUD SAMPLE
 MST .F                62:   MUD SAMPLE TEMPERATURE
 RMF .OHMM            .65:   RESISTIVITY MUD FILTRATE SAMPLE
 MFST.F                60:   MUD FILTRATE SAMPLE TEMPERATURE
 RMC .OHMM            .35:   RESISTIVITY MUD CAKE
 MCST.F                60:   MUD CAKE SAMPLE TEMPERATURE
 MFSS.           MEASURED:   MUD FILTRATE SAMPLE SOURCE
 RMB .OHMM            .42:   RESISTIVITY MUD AT BHT
 BHT .F                80:   BOTTOM HOLE TEMPERATURE
 TCS .HRS               2:   TIME CURCULATED STOPPED
 MRT .F                80:   MAXIMUM RECORDED TEMPERATURE
 LUN .               2955:   LOGGING UNIT NUMBER
 LUL .               CASP:   LOGGING UNIT LOCATION
 ENGI.             MILLER:   RECORDING ENGINEER
 WITN.           MCGINLEY:   WITNESSED BY
 CLNT.            A2DTECH:   CLIENT CODE
 ORIG.      2" & 5" PRINT:   ORIGIN OF DATA
 UWI .       490251061400:   UNIQUE WELL ID
 DICO. A2D Technologies, Inc.:   DIGITIZING COMPANY
~OTHER INFORMATION
~A   DEPT      SPR         SN        ILD       CALD         GRD      RHOB       DPHI       CORR   
# ...
  556.5000   -38.2650    10.9530    13.2100     7.7344    52.1420     2.4877     0.1160     0.0190
  557.0000   -38.6363    11.4367    13.7923     7.7262    58.6920     2.4660     0.1156    -0.0082
  557.5000   -39.1291    11.9417    14.4002     7.7177    65.0310     2.4255     0.1407     0.0055
  558.0000   -39.6257    12.2631    15.0349     7.7077    71.4126     2.3843     0.1589     0.0208
  558.5000   -40.1208    12.5327    15.4734     7.7618    73.9723     2.3714     0.1741     0.0225
  559.0000   -40.6151    12.5327    15.1924     7.7856    73.4379     2.3663     0.1805     0.0226
  559.5000   -40.8394    12.4734    13.9592     7.8105    72.6662     2.3634     0.1777     0.0225
  560.0000   -40.8834    11.6361    12.7521     7.8349    72.3899     2.3684     0.1734     0.0279
  560.5000   -41.1087    10.2655    11.6495     7.8596    73.0262     2.3766     0.1692     0.0343
  561.0000   -41.2496     9.7640    10.6422     7.8698    73.2937     2.3850     0.1650     0.0313
  561.5000   -41.3812     9.2619     9.7220     7.8700    73.2906     2.3934     0.1607     0.0294
  562.0000   -41.5614     9.0108     8.8813     7.8699    73.3380     2.4018     0.1563     0.0280
  562.5000   -41.7805     8.9286     8.2974     7.8690    73.9784     2.4092     0.1508     0.0284
  563.0000   -42.0005     8.9286     8.1467     7.9031    79.5763     2.4116     0.1453     0.0315
  563.5000   -42.2216     8.9284     7.9180     7.9420    86.8760     2.4162     0.1398     0.0347
  564.0000   -42.4403     8.9270     7.9314     7.9811    91.4808     2.4399     0.1343     0.0266
  564.5000   -42.6334     8.9242     7.7852     8.0213    94.3676     2.4523     0.1320     0.0170
  565.0000   -42.6267     8.9351     7.5767     8.0339    93.7163     2.4501     0.1334     0.0090
  565.5000   -42.6262     8.3823     7.3636     8.0410    93.1503     2.4480     0.1344     0.0104
  566.0000   -42.6252     7.8082     7.3672     8.0480    91.6747     2.4483     0.1329     0.0146
  566.5000   -42.6215     7.2733     7.0756     8.0550    89.6005     2.4509     0.1312     0.0191
  567.0000   -42.6179     6.7751     6.5594     8.0622    89.4194     2.4534     0.1294     0.0235
  567.5000   -42.6143     6.3110     6.0814     8.0699    92.3633     2.4614     0.1277     0.0265
  568.0000   -42.6107     5.8787     5.6377     8.0402    94.6925     2.4733     0.1260     0.0265
  568.5000   -42.6071     5.4933     5.2473     8.0117    94.1557     2.4727     0.1243     0.0265
  569.0000   -42.6035     5.4198     5.1771     8.0342    93.0561     2.4653     0.1260     0.0265
  569.5000   -42.5999     5.3580     5.1180     8.0561    91.9515     2.4578     0.1291     0.0265
  570.0000   -42.5963     5.2956     5.0584     8.0661    92.0540     2.4546     0.1314     0.0265
  570.5000   -42.5928     5.2974     5.0601     8.0400    93.4257     2.4532     0.1321     0.0265
  571.0000   -42.5892     5.2992     5.0618     8.0144    92.3769     2.4518     0.1327     0.0265
  571.5000   -42.5856     5.3010     5.0635     7.9888    91.2292     2.4504     0.1334     0.0265
  572.0000   -42.5820     5.3028     5.0653     7.9634    90.0919     2.4490     0.1340     0.0266
  572.5000   -42.5784     5.3046     5.0670     7.9535    89.4982     2.4492     0.1317     0.0264
  573.0000   -42.5748     5.3064     5.0687     7.9608    89.5009     2.4548     0.1293     0.0236
  573.5000   -42.5712     5.3082     5.0704     7.9684    89.5110     2.4615     0.1269     0.0205
  574.0000   -42.5676     5.3100     5.0722     7.9588    88.9500     2.4623     0.1260     0.0176
  574.5000   -42.5640     5.3118     5.0739     7.9385    88.2013     2.4571     0.1293     0.0146
  575.0000   -42.5604     5.3136     5.0756     7.9180    87.8997     2.4518     0.1323     0.0116
  575.5000   -42.5569     5.3154     5.0774     7.8973    88.0502     2.4525     0.1336     0.0086
  576.0000   -42.5533     5.3172     5.0791     7.8973    90.1542     2.4519     0.1345     0.0056
  576.5000   -42.5497     5.3190     5.0808     7.9086    92.3660     2.4400     0.1381     0.0026
  577.0000   -42.5461     5.3208     5.0825     7.9203    93.2978     2.4385     0.1396     0.0026
  577.5000   -42.5425     5.3226     5.0843     7.9292    93.4880     2.4394     0.1392     0.0036
  578.0000   -42.5389     5.3245     5.0860     7.8471    95.1926     2.4446     0.1365     0.0046
  578.5000   -42.5353     5.3263     5.0877     7.7824    96.9401     2.4482     0.1336     0.0055
  579.0000   -42.5317     5.3281     5.0894     7.8874    96.6196     2.4462     0.1352     0.0065
  579.5000   -42.5281     5.3299     5.0912     7.9419    93.2716     2.4446     0.1356     0.0075
  580.0000   -42.5245     5.3317     5.0929     7.9639    89.9816     2.4471     0.1332     0.0084
  580.5000   -42.5209     5.3335     5.0946     7.9851    88.3676     2.4495     0.1308     0.0073
  581.0000   -42.5173     5.3353     5.0964     8.0064    90.8530     2.4520     0.1319     0.0059
  581.5000   -42.5138     5.3372     5.0981     8.0276    92.0192     2.4502     0.1339     0.0046
  582.0000   -42.5102     5.3390     5.0998     8.0301    90.4114     2.4471     0.1349     0.0045
  582.5000   -42.5066     5.3407     5.1014     8.0300    89.6831     2.4476     0.1324     0.0052
  583.0000   -42.5030     5.3426     5.1045     8.0300    91.0318     2.4538     0.1294     0.0070
  583.5000   -42.4994     5.3444     5.1040     8.0300    91.2984     2.4584     0.1290     0.0089
  584.0000   -42.4958     5.3983     5.1898     8.0300    91.3041     2.4571     0.1296     0.0107
  584.5000   -42.4922     5.4510     5.2728     8.0300    91.3000     2.4573     0.1285     0.0125
  585.0000   -42.4886     5.5042     5.3572     8.0300    91.3042     2.4604     0.1280     0.0144
  585.5000   -42.4850     5.5579     5.4430     8.0297    91.0451     2.4596     0.1280     0.0148
  586.0000   -42.4814     5.6122     5.5302     8.0410    90.6599     2.4588     0.1280     0.0152
  586.5000   -42.4779     5.6669     5.5605     8.0538    90.0527     2.4580     0.1269     0.0155
  587.0000   -42.4743     5.7222     5.5801     8.0667    87.8524     2.4583     0.1258     0.0158
  587.5000   -42.4707     5.7781     5.5999     8.0794    85.6156     2.4629     0.1248     0.0162
  588.0000   -42.4671     5.8345     5.6197     8.0895    83.3220     2.4663     0.1260     0.0166
  588.5000   -42.4635     5.9107     5.6465     8.0844    83.4175     2.4648     0.1268     0.0188
  589.0000   -42.4599     5.9070     5.6420     8.0793    85.2154     2.4636     0.1264     0.0209
  589.5000   -42.4563     5.8996     5.6352     8.0741    87.0179     2.4643     0.1255     0.0216
  590.0000   -42.4527     5.8923     5.6284     8.0733    88.8069     2.4651     0.1244     0.0173
  590.5000   -42.4491     5.8852     5.6216     8.1416    90.2519     2.4659     0.1244     0.0132
  591.0000   -42.4455     5.8780     5.6148     8.1505    90.7197     2.4660     0.1252     0.0091
  591.5000   -42.4420     5.8710     5.6081     8.1325    90.7847     2.4615     0.1305     0.0051
  592.0000   -42.4384     5.8634     5.6013     8.1077    90.8642     2.4524     0.1372     0.0026
  592.5000   -42.4348     5.8573     5.5939     8.0829    91.2911     2.4473     0.1365     0.0005
  593.0000   -42.4312     5.7923     5.5328     8.0581    91.9644     2.4496     0.1337     0.0012
  593.5000   -42.4285     5.7321     5.4754     8.0332    91.9813     2.4518     0.1315     0.0017
  594.0000   -42.4286     5.6726     5.4186     8.0085    89.0629     2.4532     0.1303     0.0022
  594.5000   -42.4286     5.5950     5.3444     7.9899    86.2119     2.4516     0.1290     0.0028
  595.0000   -42.4286     5.6030     5.3498     8.0109    84.5679     2.4504     0.1278     0.0098
  595.5000   -42.4286     5.6149     5.3578     8.0560    84.3159     2.4552     0.1265     0.0169
  596.0000   -42.4286     5.6268     5.3657     8.1007    84.9284     2.4620     0.1252     0.0185
  596.5000   -42.4286     5.6387     5.3738     8.1520    85.6374     2.4627     0.1260     0.0186
