~VERSION INFORMATION
 VERS.                2.0:   CWLS LOG ASCII STANDARD - VERSION 2.0
 WRAP.                 NO:   ONE LINE PER DEPTH STEP
~WELL INFORMATION
#MNEM.UNIT      DATA TYPE    INFORMATION
#----------   ------------   ------------------------------
 STRT.F           29.0000:   START DEPTH
 STOP.F          500.0000:   STOP DEPTH
 STEP.F            0.5000:   STEP LENGTH
 NULL.          -999.2500:   NO VALUE
 COMP.    FENIX & SCISSON:   COMPANY
 WELL.        NPR #48-S-3:   WELL
 FLD .             TEAPOT:   FIELD
 LOC .       S3 T38N R78W:   LOCATION
 CNTY.            NATRONA:   COUNTY
 STAT.            WYOMING:   STATE
 CTRY. UNITED STATES OF AMERICA:   COUNTRY
 SRVC.              Welex:   SERVICE COMPANY
 DATE.        24-APR-1977:   LOGDATE
 API .       490251034900:   API NUMBER
~CURVE INFORMATION
#MNEM.UNIT       API CODE    CURVE DESCRIPTION
#----------   ------------   ------------------------------
 DEPT.F                  :   
 SPR .MV     07 010 01 00:   SPONTANEOUS POTENTIAL
 ILD .OHMM   07 120 46 00:   INDUCTION LOG DEEP
 ILM .OHMM   07 120 44 00:   INDUCTION LOG MEDIUM
 SGRD.OHMM   07 221 05 00:   SHALLOW SHORT GUARD RESISTIVITY
 GRD .GAPI   45 310 01 00:   GAMMA RAY FROM DENSITY LOG
 CALD.IN     45 280 60 00:   CALIPER FROM DENSITY LOG
 CORR.G/C3   45 356 01 00:   DENSITY CORRECTION
 RHOB.G/C3   45 350 01 00:   BULK DENSITY
 DPHI.DEC    45 890 12 00:   DENSITY POROSITY SANDSTONE
~PARAMETER INFORMATION
#MNEM.UNIT          VALUE    DESCRIPTION
#----------   ------------   ------------------------------
 PD  .                 GL:   PERMANENT DATUM
 EPD .F              5199:   ELEVATION PERMANENT DATUM
 LMF .                 GL:   LOG MEASURED FROM
 DMF .                 GL:   DRILLING MEASURED FROM
 EGL .F              5199:   GROUND LEVEL
 DATE.        24-APR-1977:   RUN DATE
 RUN .                  1:   RUN NUMBER
 DD  .F               500:   DEPTH DRILLER
 DL  .F               499:   DEPTH LOGGER
 BLI .F               497:   BOTTOM LOG INTERVAL
 TLI .F                30:   TOP LOG INTERVAL
 CS  .IN            8.625:   CASING SIZE
 BS  .IN               12:   BIT SIZE
 BSD .F               500:   BIT SIZE AT DEPTH
 DFT .             KCLMUD:   DRILLING FLUID TYPE
 DFD .                8.9:   DRILLING FLUID DENSITY
 TCS .HRS               1:   TIME CURCULATED STOPPED
 MRT .F                70:   MAXIMUM RECORDED TEMPERATURE
 ENGI.          T. JOYNER:   RECORDING ENGINEER
 WITN.            R. LYON:   WITNESSED BY
 CLNT.            A2DTECH:   CLIENT CODE
 ORIG.           5" PRINT:   ORIGIN OF DATA
 UWI .       490251034900:   UNIQUE WELL ID
 DICO. A2D Technologies, Inc.:   DIGITIZING COMPANY
~OTHER INFORMATION
~A   DEPT      SPR        ILD        ILM       SGRD        GRD         CALD      CORR        RHOB     DPHI   
# ...
   65.5000   -48.4139     6.8920     8.4720    13.5960   132.3515     7.7916    -0.0059     2.4745     0.1075
   66.0000   -48.4004     6.9003     8.5322    13.8000   130.6033     7.7915    -0.0052     2.4827     0.1022
   66.5000   -48.5386     6.9618     8.6525    13.9961   129.1112     7.7913    -0.0037     2.4871     0.0980
   67.0000   -48.5217     7.0620     8.7745    14.0058   127.0230     7.7911    -0.0030     2.4870     0.0962
   67.5000   -48.6599     7.1196     8.8983    14.0155   123.4075     7.7909    -0.0038     2.4870     0.0959
   68.0000   -48.9431     7.1843     8.8998    14.0251   119.4185     7.7907    -0.0031     2.4847     0.0968
   68.5000   -49.0779     7.2865     8.9631    14.1321   122.8444     7.7905    -0.0039     2.4809     0.0998
   69.0000   -49.3611     7.3535     8.9646    14.4517   127.0155     7.7903    -0.0047     2.4778     0.1016
   69.5000   -49.4959     7.4654     8.9662    14.8681   129.1002     7.7902    -0.0048     2.4755     0.1025
   70.0000   -49.6308     7.5702     9.1247    14.9651   130.7373     7.7900    -0.0056     2.4732     0.1034
   70.5000   -50.0590     7.6849     9.0677    14.4498   129.0962     7.7898    -0.0056     2.4709     0.1049
   71.0000   -50.1972     7.8014     9.0150    14.1805   126.2629     7.8046    -0.0064     2.4672     0.1085
   71.5000   -50.6254     7.8108     9.0228    14.1927   125.0693     7.8193    -0.0072     2.4637     0.1121
   72.0000   -50.7636     7.8764     8.9664    14.3008   128.0477     7.8191    -0.0087     2.4603     0.1148
   72.5000   -51.0468     7.7777     8.9123    14.2122   127.3004     7.8339    -0.0103     2.4549     0.1181
   73.0000   -51.1816     7.6249     8.8585    14.0269   126.4044     7.8487    -0.0118     2.4496     0.1202
   73.5000   -51.3164     7.5292     8.8681    13.8417   125.0614     7.8484    -0.0119     2.4511     0.1226
   74.0000   -51.2995     7.4864     8.8127    13.6613   122.8241     7.8632    -0.0097     2.4562     0.1185
   74.5000   -51.2860     7.4438     8.8222    13.5766   119.6927     7.8630    -0.0090     2.4659     0.1137
   75.0000   -51.2725     7.3526     8.7671    13.5883   121.3298     7.8628    -0.0075     2.4780     0.1107
   75.5000   -51.2589     7.2582     8.5963    13.6919   122.5203     7.8627    -0.0061     2.4935     0.1071
   76.0000   -51.3971     7.1200     8.4856    13.7013   123.4128     7.8625    -0.0061     2.4994     0.1024
   76.5000   -51.6770     7.0307     8.3745    13.5227   124.7795     7.8623    -0.0054     2.5009     0.1000
   77.0000   -51.9602     6.9425     8.2684    13.3464   126.5385     7.8621    -0.0047     2.4866     0.1012
   77.5000   -52.0950     6.9009     8.2167    13.0818   130.4115     7.8619    -0.0047     2.4701     0.1117
   78.0000   -52.0815     6.8143     8.2256    12.8225   133.9865     7.8617    -0.0048     2.4655     0.1135
   78.5000   -52.0679     6.7776     8.2327    12.6532   133.0905     7.8615    -0.0048     2.4767     0.1084
   79.0000   -52.0544     6.7858     8.2398    12.4882   128.7664     7.8614    -0.0056     2.4894     0.1024
   79.5000   -52.0409     6.7940     8.3041    12.3276   125.0389     7.8462    -0.0057     2.4998     0.0956
   80.0000   -52.0273     6.8022     8.3690    12.3361   121.3113     7.8610    -0.0057     2.5072     0.0905
   80.5000   -51.8654     6.8577     8.4343    12.4301   117.8819     7.8608    -0.0065     2.5132     0.0830
   81.0000   -51.7035     6.9136     8.5002    12.6990   118.4935     7.8457    -0.0065     2.5161     0.0804
   81.5000   -51.5416     6.9700     8.6858    13.0635   119.6663     7.8454    -0.0066     2.5145     0.0792
   82.0000   -51.2313     7.0268     8.7537    13.4386   120.7077     7.8453    -0.0066     2.5115     0.0798
   82.5000   -51.0694     7.0841     8.8832    13.5410   122.0472     7.8451    -0.0059     2.5084     0.0813
   83.0000   -50.9066     7.1915     8.9526    13.3622   124.2935     7.8449    -0.0052     2.5039     0.0858
   83.5000   -50.7418     7.3511     8.9603    13.2794   128.1535     7.8447    -0.0045     2.4986     0.0909
   84.0000   -50.4352     7.5142     9.0303    13.3829   131.2814     7.8445    -0.0038     2.4970     0.0912
   84.5000   -50.4216     7.6281     9.1008    13.5783   132.3233     7.8443    -0.0039     2.4984     0.0882
   85.0000   -50.4080     7.7974     9.1719    14.0649   129.7876     7.8441    -0.0032     2.5014     0.0870
   85.5000   -50.3944     7.8609     9.2435    14.3667   123.8044     7.8440    -0.0032     2.5028     0.0873
   86.0000   -50.3808     7.8704     9.3156    14.0819   122.1835     7.8438    -0.0025     2.4968     0.0918
   86.5000   -50.5161     7.8800     9.3237    13.9946   124.5658     7.8436    -0.0025     2.4952     0.0930
   87.0000   -50.5020     7.8895     9.2671    14.2014   128.1407     7.8434    -0.0026     2.4944     0.0930
   87.5000   -50.6374     7.7905     9.2112    14.6066   127.5244     7.8283    -0.0019     2.4943     0.0930
   88.0000   -50.7722     7.7438     9.1557    14.3195   125.7523     7.8281    -0.0019     2.4958     0.0921
   88.5000   -51.0520     7.6490     9.1639    13.9390   124.7073     7.8279    -0.0020     2.4987     0.0916
   89.0000   -51.0385     7.6032     9.1083    13.6603   124.4075     7.8277    -0.0028     2.4964     0.0916
   89.5000   -51.0249     7.5599     9.1164    13.8622   129.7708     7.8275    -0.0036     2.4911     0.0934
   90.0000   -50.8630     7.5714     9.0612    14.4584   132.3026     7.8124    -0.0044     2.4903     0.0964
   90.5000   -50.8495     7.5260     9.0693    13.9774   130.0649     7.8122    -0.0051     2.4850     0.1015
   91.0000   -50.6876     7.5374     9.0771    13.5101   129.6161     7.8120    -0.0067     2.4722     0.1059
   91.5000   -50.6741     7.5988     9.1480    13.3340   130.3595     7.8118    -0.0075     2.4549     0.1122
   92.0000   -50.5122     7.6080     9.2194    13.4379   130.8147     7.8116    -0.0075     2.4459     0.1185
   92.5000   -50.4986     7.6701     9.2914    13.7286   130.5045     7.8115    -0.0076     2.4420     0.1227
   93.0000   -50.3367     7.7326     9.3639    14.1228   128.8634     7.8113    -0.0076     2.4413     0.1251
   93.5000   -50.1748     7.7957     9.4370    14.2304   126.1791     7.8261    -0.0077     2.4442     0.1251
   94.0000   -50.0129     7.8593     9.5107    13.7570   121.5574     7.8259    -0.0077     2.4554     0.1233
   94.5000   -49.9994     7.9233     9.6515    13.3915   119.3197     7.8406    -0.0078     2.4696     0.1195
   95.0000   -49.8375     8.0434     9.7943    13.4935   118.8708     7.8404    -0.0078     2.4807     0.1135
   95.5000   -49.8239     8.1090    10.0083    14.1714   117.9749     7.8403    -0.0079     2.4860     0.1042
   96.0000   -49.8104     8.2890    10.2269    14.9865   116.6318     7.8400    -0.0079     2.4889     0.1004
   96.5000   -49.7969     8.4145    10.4503    15.3107   116.7791     7.8548    -0.0079     2.4903     0.0977
   97.0000   -49.7833     8.6013    10.6049    15.5343   117.9691     7.8696    -0.0080     2.4902     0.0947
   97.5000   -49.6214     8.7922    10.8366    15.8703   119.1596     7.8993    -0.0080     2.4887     0.0944
   98.0000   -49.4595     8.9254    10.9970    16.1021   119.9030     7.9140    -0.0081     2.4819     0.0965
   98.5000   -49.4460     9.1235    11.1597    16.3372   120.0503     7.9139    -0.0081     2.4811     0.0992
   99.0000   -49.2841     9.3260    11.2469    16.4617   118.1107     7.9136    -0.0082     2.4892     0.0959
   99.5000   -49.2706     9.5330    11.4925    16.4730   112.5952     7.9135    -0.0082     2.4915     0.0939
  100.0000   -49.2604     9.7140    11.5822    16.4844   116.5308     7.8984    -0.0083     2.4899     0.0942
  100.5000   -49.3570     9.9517    11.8284    16.6112   117.8716     7.8765    -0.0047     2.4911     0.0942
  101.0000   -49.3866    10.1747    12.0955    17.0894   119.4423     7.8523    -0.0010     2.4922     0.0942
  101.5000   -49.3736    10.4688    12.1904    17.4604   119.7382     7.8517     0.0000     2.4952     0.0933
