~VERSION INFORMATION
 VERS.                2.0:   CWLS LOG ASCII STANDARD - VERSION 2.0
 WRAP.                 NO:   ONE LINE PER DEPTH STEP
~WELL INFORMATION
#MNEM.UNIT      DATA TYPE    INFORMATION
#----------   ------------   ------------------------------
 STRT.F           38.0000:   START DEPTH
 STOP.F          637.0000:   STOP DEPTH
 STEP.F            0.5000:   STEP LENGTH
 NULL.          -999.2500:   NO VALUE
 COMP. FENIX & SCISSON INC:   COMPANY
 WELL.    NPR ##3 57-S-34:   WELL
 FLD .             TEAPOT:   FIELD
 LOC .      S34 T39N R78W:   LOCATION
 CNTY.            NATRONA:   COUNTY
 STAT.            WYOMING:   STATE
 CTRY. UNITED STATES OF AMERICA:   COUNTRY
 SRVC.              Welex:   SERVICE COMPANY
 DATE.        12-MAR-1977:   LOGDATE
 API .       490251030600:   API NUMBER
~CURVE INFORMATION
#MNEM.UNIT       API CODE    CURVE DESCRIPTION
#----------   ------------   ------------------------------
 DEPT.F                  :   
 SPR .MV     07 010 01 00:   SPONTANEOUS POTENTIAL
 ILM .OHMM   07 120 44 00:   INDUCTION LOG MEDIUM
 ILD .OHMM   07 120 46 00:   INDUCTION LOG DEEP
 SGRD.OHMM   07 221 05 00:   SHALLOW SHORT GUARD RESISTIVITY
 CALD.IN     45 280 60 00:   CALIPER FROM DENSITY LOG
 GRD .GAPI   45 310 01 00:   GAMMA RAY FROM DENSITY LOG
 CORR.G/C3   45 356 01 00:   DENSITY CORRECTION
 DPHI.DEC    45 890 12 00:   DENSITY POROSITY SANDSTONE
 RHOB.G/C3   45 350 01 00:   BULK DENSITY
~PARAMETER INFORMATION
#MNEM.UNIT          VALUE    DESCRIPTION
#----------   ------------   ------------------------------
 PD  .                 GL:   PERMANENT DATUM
 EPD .F              5107:   ELEVATION PERMANENT DATUM
 LMF .                 GL:   LOG MEASURED FROM
 DMF .                 GL:   DRILLING MEASURED FROM
 EGL .F              5107:   GROUND LEVEL
 DATE.          3-12-1977:   RUN DATE
 RUN .                  1:   RUN NUMBER
 DD  .F               650:   DEPTH DRILLER
 DL  .F               637:   DEPTH LOGGER
 BLI .F               636:   BOTTOM LOG INTERVAL
 TLI .F                46:   TOP LOG INTERVAL
 CS  .IN            8.625:   CASING SIZE
 CBD .F                45:   CASING BOTTOM DRILLER
 CBL .F                46:   CASING BOTTOM LOGGER
 BS  .IN            7.875:   BIT SIZE
 BSD .F               650:   BIT SIZE AT DEPTH
 DFT .            KCL MUD:   DRILLING FLUID TYPE
 DFD .                8.9:   DRILLING FLUID DENSITY
 DFV .                 35:   DRILLING FLUID VISCOSITY
 MSS .            MUD PIT:   MUD SAMPLE SOURCE
 RMS .OHMM            .53:   RESISTIVITY MUD SAMPLE
 MST .F                68:   MUD SAMPLE TEMPERATURE
 RMF .OHMM            .41:   RESISTIVITY MUD FILTRATE SAMPLE
 MFST.F                69:   MUD FILTRATE SAMPLE TEMPERATURE
 RMC .OHMM            .62:   RESISTIVITY MUD CAKE
 MCST.F                65:   MUD CAKE SAMPLE TEMPERATURE
 MFSS.           MEASURED:   MUD FILTRATE SAMPLE SOURCE
 MCSS.           MEASURED:   MUD CAKE SAMPLE SOURCE
 RMB .OHMM            .60:   RESISTIVITY MUD AT BHT
 BHT .F                60:   BOTTOM HOLE TEMPERATURE
 TCS .HRS               1:   TIME CURCULATED STOPPED
 MRT .F                60:   MAXIMUM RECORDED TEMPERATURE
 LUN .               0716:   LOGGING UNIT NUMBER
 LUL .             VERNAL:   LOGGING UNIT LOCATION
 ENGI.        E. CALLAHAN:   RECORDING ENGINEER
 WITN.         STUEBUNGER:   WITNESSED BY
 CLNT.            A2DTECH:   CLIENT CODE
 ORIG.           5" PRINT:   ORIGIN OF DATA
 UWI .       490251030600:   UNIQUE WELL ID
 DICO. A2D Technologies, Inc.:   DIGITIZING COMPANY
~OTHER INFORMATION
~A   DEPT      SPR        ILM        ILD       SGRD       CALD        GRD       CORR       DPHI       RHOB   
# ...
  585.5000   -20.1965    10.7661     8.9493    11.9437     7.8486    98.9364     0.0626     0.1130     2.4673
  586.0000   -21.6972    10.7661     8.8869    11.8613     7.8489    99.5046     0.0672     0.1130     2.4674
  586.5000   -22.1484    10.6919     8.8863    11.7795     7.8337   102.6238     0.0688     0.1127     2.4682
  587.0000   -22.1502    10.5332     8.8857    11.6983     7.8341   102.3569     0.0812     0.1115     2.4704
  587.5000   -20.5024    10.2571     8.8238    11.6176     7.8344   102.0508     0.0921     0.0985     2.4936
  588.0000   -17.2055    10.1863     8.8232    11.6176     7.8347   102.5210     0.0937     0.0944     2.4990
  588.5000   -14.2085    10.1863     8.8226    11.6983     7.8350   106.0859     0.0922     0.0926     2.4983
  589.0000   -15.4093    10.1863     8.7611    11.6983     7.8353   103.4590     0.0922     0.0919     2.4967
  589.5000   -20.8582    10.1161     8.7001    11.6983     7.8511   102.0704     0.0860     0.0950     2.4921
  590.0000   -23.5085    10.1161     8.6995    11.6176     7.8514   102.0750     0.0799     0.0990     2.4820
  590.5000   -24.1096    10.1161     8.5794    11.5375     7.8517   103.1632     0.0737     0.1009     2.4759
  591.0000   -23.3614    10.1161     8.5196    11.4579     7.8520   107.5022     0.0691     0.1015     2.4751
  591.5000   -22.9131    10.0463     8.4539    11.3789     7.8523   107.6604     0.0691     0.1018     2.4759
  592.0000   -22.7646     9.9770     8.2858    11.1451     7.8526   106.5814     0.0754     0.1012     2.4898
  592.5000   -22.6161     9.7720     8.2281    10.9162     7.8529   107.9804     0.0831     0.0919     2.5014
  593.0000   -22.3181     9.6377     8.1145    10.7661     7.8533   110.6166     0.0878     0.0875     2.5030
  593.5000   -22.4694     9.5713     8.0024    10.5449     7.8536   112.4788     0.0801     0.0907     2.4984
  594.0000   -22.9207     9.5053     7.8919    10.3283     7.8539   115.1150     0.0770     0.0957     2.4875
  594.5000   -23.5218     9.3746     7.7223    10.1863     7.8542   116.9772     0.0817     0.0993     2.4829
  595.0000   -23.8231     9.1820     7.4658     9.9770     7.8700   118.0654     0.0895     0.0996     2.4852
  595.5000   -23.4747     8.9802     7.2615     9.7720     7.8858   123.0235     0.0957     0.0951     2.4930
  596.0000   -22.6269     8.6276     7.0628     9.6377     7.8861   125.3490     0.0880     0.0928     2.4945
  596.5000   -22.0287     8.2767     6.8695     9.5053     7.8864   121.4848     0.0772     0.1012     2.4752
  597.0000   -21.5803     7.8854     6.5897     9.3746     7.8712   120.0962     0.0757     0.1048     2.4721
  597.5000   -20.9821     7.3582     6.2215     9.1041     7.8560   123.0420     0.0757     0.1138     2.4667
  598.0000   -20.3838     6.7251     5.6583     8.5090     7.8409   124.1302     0.0773     0.1203     2.4520
  598.5000   -20.0854     5.9962     5.3163     7.8310     7.8257   126.7664     0.0820     0.1216     2.4489
  599.0000   -19.9369     5.3893     5.0646     7.0102     7.8106   128.1642     0.0882     0.1219     2.4458
  599.5000   -19.7888     5.0991     4.8920     5.3893     7.8109   129.8716     0.0944     0.1184     2.4574
  600.0000   -19.6794     5.2096     4.8580     4.5019     7.8576   131.7337     0.0960     0.1191     2.4505
  600.5000   -19.3452     5.8966     4.9263     7.1079     7.8576   134.9768     0.0944     0.1209     2.4435
  601.0000   -19.3513     6.4964     5.1003     9.0558     7.8576   133.5751     0.0944     0.1256     2.4365
  601.5000   -19.0551     7.0102     5.2805     9.5053     7.8576   119.6351     0.0944     0.1209     2.4527
  602.0000   -18.7601     7.4093     5.4670     9.7047     7.8421   113.8994     0.0882     0.1125     2.4721
  602.5000   -18.1665     7.8854     5.8189     9.8399     7.8421   105.5341     0.0805     0.1050     2.4902
  603.0000   -17.1219     8.2274     6.2022     9.9082     7.8421   105.5261     0.0851     0.0877     2.5078
  603.5000   -17.4267     8.6276     6.7307     9.9158     7.8421   105.8276     0.0944     0.0837     2.5146
  604.0000   -17.7314     8.8698     7.0656    10.0463     7.8421   104.7359     0.1037     0.0738     2.5270
  604.5000   -17.4364     9.0558     7.3659    10.0463     7.8576   102.0962     0.0991     0.0775     2.5160
  605.0000   -15.7921     9.1820     7.5735    10.1161     7.8576   102.5799     0.0913     0.0784     2.5262
  605.5000   -14.4328     9.3746     7.6799    10.2571     7.8576   102.7012     0.1022     0.0676     2.5339
  606.0000   -14.9035     9.5053     7.8419    10.4722     7.8576   103.1579     0.1037     0.0676     2.5293
  606.5000   -20.0058     9.5713     7.9520    10.7661     7.8576   109.3413     0.1022     0.0707     2.5292
  607.0000   -25.7075     9.7047     8.1198    10.9920     7.8576   111.3456     0.0991     0.0725     2.5292
  607.5000   -34.1081     9.7833     8.3488    11.1451     7.8576   113.0403     0.0944     0.0710     2.5277
  608.0000   -38.4608     9.9082     8.6437    11.2312     7.8576   112.8380     0.0960     0.0713     2.5228
  608.5000   -42.0891     9.9770     9.0111    11.4579     7.8594   110.5493     0.0820     0.0737     2.5159
  609.0000   -45.0675    10.0463     9.0122    11.5375     7.8731   110.0768     0.0712     0.0790     2.5005
  609.5000   -40.4257    10.1161     9.0132    11.7795     7.8885   109.7591     0.0619     0.0889     2.4974
  610.0000   -33.8339    10.2571     9.0142    12.0266     7.9040   109.4434     0.0573     0.0911     2.5021
  610.5000   -28.1416    10.5449     9.0778    12.1942     7.9040   110.8359     0.0681     0.0796     2.5152
  611.0000   -23.6487    10.8426     9.0879    12.1101     7.9040   110.5263     0.0776     0.0774     2.5191
  611.5000   -21.1049    11.1451     9.2066    12.1942     7.8885   110.2167     0.0696     0.0886     2.5074
  612.0000   -22.9089    11.3789     9.3359    12.3642     7.8885   110.9907     0.0635     0.0976     2.4927
  612.5000   -28.6109    11.4579     9.4671    12.5462     7.8885   111.9195     0.0573     0.0992     2.4850
  613.0000   -30.2649    11.5375     9.5339    12.7994     7.8885   111.9195     0.0573     0.1007     2.4809
  613.5000   -32.9784    11.6983     9.5350    12.7112     7.8731   112.3084     0.0588     0.1000     2.4772
  614.0000   -34.8327    11.6983     9.4703    12.7112     7.8731   113.7771     0.0635     0.0944     2.4890
  614.5000   -35.6769    11.5375     9.4714    12.7112     7.8731   115.9443     0.0851     0.0910     2.5012
  615.0000   -34.1837    11.3789     9.4724    12.6235     7.8576   112.6935     0.0820     0.0944     2.5004
  615.5000   -33.2890    11.3789     9.4081    12.7112     7.7957   105.8824     0.0789     0.0963     2.4872
  616.0000   -32.3944    11.6176     9.3443    12.7112     7.7647   102.0124     0.0789     0.0969     2.4810
  616.5000   -32.5492    11.6983     9.3456    12.7994     7.7492   101.8576     0.0821     0.0960     2.4934
  617.0000   -30.6050    11.7795     9.2819    12.8883     7.7647   102.3220     0.0882     0.0941     2.4965
  617.5000   -26.2621    11.7795     9.2190    12.6235     7.7647    96.2848     0.0898     0.0897     2.4941
  618.0000   -19.6702    11.6176     9.1567    12.5365     7.7647    58.1469     0.0728     0.1008     2.4848
  618.5000   -12.8691    11.3789     9.1538    12.3642     7.7802  -999.2500     0.0666     0.1083     2.4798
  619.0000    -5.4968    11.2225     9.0955    12.3642     7.7802  -999.2500     0.0573     0.1133     2.4722
  619.5000     0.2539    11.1451     9.0968    12.4500     7.7802  -999.2500     0.0449     0.1148     2.4616
  620.0000    -7.5470    11.0683     9.0978    12.7112     7.7802  -999.2500     0.0356     0.1170     2.4554
  620.5000   -14.1486    11.1451     9.1620    12.8883     7.7831  -999.2500     0.0433     0.1173     2.4546
  621.0000   -18.3514    11.1451     9.2908    13.0679     7.7863  -999.2500     0.0530     0.1160     2.4553
  621.5000   -18.8048    11.2225     9.4213    12.9679     7.7895  -999.2500     0.0588     0.1120     2.4669
