~VERSION INFORMATION
 VERS.                2.0:   CWLS LOG ASCII STANDARD - VERSION 2.0
 WRAP.                 NO:   ONE LINE PER DEPTH STEP
~WELL INFORMATION
#MNEM.UNIT      DATA TYPE    INFORMATION
#----------   ------------   ------------------------------
 STRT.F           86.5000:   START DEPTH
 STOP.F         1282.0000:   STOP DEPTH
 STEP.F            0.5000:   STEP LENGTH
 NULL.          -999.2500:   NO VALUE
 COMP.      UNITED STATES:   COMPANY
 WELL.             NPR #3:   WELL
 FLD .        TEAPOT DOME:   FIELD
 LOC .      S14 T38N R78W:   LOCATION
 CNTY.            NATRONA:   COUNTY
 STAT.            WYOMING:   STATE
 CTRY. UNITED STATES OF AMERICA:   COUNTRY
 SRVC.       Schlumberger:   SERVICE COMPANY
 DATE.        06-JUL-1962:   LOGDATE
 API .       490250631800:   API NUMBER
~CURVE INFORMATION
#MNEM.UNIT       API CODE    CURVE DESCRIPTION
#----------   ------------   ------------------------------
 DEPT.F                  :   
 SPR .MV     05 010 01 00:   SPONTANEOUS POTENTIAL FROM RES.
 CILD.MMHO   05 110 00 00:   CONDUCTIVITY INDUCTION LOG
 ASN .OHMM   05 041 16 00:   AMPLIFIED SHORT NORMAL 16"
 ILD .OHMM   05 120 46 00:   INDUCTION LOG DEEP
 GR  .GAPI   30 310 01 00:   GAMMA RAY
~PARAMETER INFORMATION
#MNEM.UNIT          VALUE    DESCRIPTION
#----------   ------------   ------------------------------
 PD  .                 GL:   PERMANENT DATUM
 EPD .F              5288:   ELEVATION PERMANENT DATUM
 LMF .                 KB:   LOG MEASURED FROM
 DAPD.F                 5:   FEET ABOVE PERMANENT DATUM
 DMF .                 KB:   DRILLING MEASURED FROM
 EKB .F              5293:   KELLING BUSHING
 EGL .F              5288:   GROUND LEVEL
 DATE.             7-6-62:   RUN DATE
 RUN .                  1:   RUN NUMBER
 DD  .F              1286:   DEPTH DRILLER
 DL  .F              1283:   DEPTH LOGGER
 BLI .F              1282:   BOTTOM LOG INTERVAL
 TLI .F                87:   TOP LOG INTERVAL
 CBD .F                10:   CASING BOTTOM DRILLER
 BS  .IN             6.75:   BIT SIZE
 BSD .F              1286:   BIT SIZE AT DEPTH
 DFT .            GEL-OIL:   DRILLING FLUID TYPE
 DFD .               10.3:   DRILLING FLUID DENSITY
 DFV .                 53:   DRILLING FLUID VISCOSITY
 DFL .                3.6:   DRILLING FLUID LOSS
 MSS .           FLOWLINE:   MUD SAMPLE SOURCE
 RMS .OHMM           5.66:   RESISTIVITY MUD SAMPLE
 MST .F                78:   MUD SAMPLE TEMPERATURE
 RMF .OHMM           5.59:   RESISTIVITY MUD FILTRATE SAMPLE
 MFST.F                78:   MUD FILTRATE SAMPLE TEMPERATURE
 RMC .OHMM           4.47:   RESISTIVITY MUD CAKE
 MCST.F                78:   MUD CAKE SAMPLE TEMPERATURE
 MFSS.                  M:   MUD FILTRATE SAMPLE SOURCE
 MCSS.                  M:   MUD CAKE SAMPLE SOURCE
 RMB .OHMM           5.08:   RESISTIVITY MUD AT BHT
 BHT .F                88:   BOTTOM HOLE TEMPERATURE
 TCS .HRS               1:   TIME CURCULATED STOPPED
 MRT .F                88:   MAXIMUM RECORDED TEMPERATURE
 LUN .               2503:   LOGGING UNIT NUMBER
 LUL .               CSPR:   LOGGING UNIT LOCATION
 ENGI.             KNOBEL:   RECORDING ENGINEER
 WITN.          JORGENSEN:   WITNESSED BY
 CLNT.            A2DTECH:   CLIENT CODE
 ORIG.       2", 5" PRINT:   ORIGIN OF DATA
 UWI .       490250631800:   UNIQUE WELL ID
 DICO. A2D Technologies, Inc.:   DIGITIZING COMPANY
~OTHER INFORMATION
~A   DEPT      SPR       CILD        ASN        ILD         GR   
# ...
  757.5000   -45.5704    74.5785    13.0547    13.5636  -999.2500
  758.0000   -44.6699    76.2636    12.5555    13.5435  -999.2500
  758.5000   -44.3245    81.0703    12.0575    12.9590  -999.2500
  759.0000   -43.9737    88.5332    11.5630    12.3532  -999.2500
  759.5000   -43.4000    95.9960    11.0520    11.7515  -999.2500
  760.0000   -42.5252   103.6091    10.5541    11.0448  -999.2500
  760.5000   -40.2751   115.0469     9.8389     9.9289  -999.2500
  761.0000   -38.0218   126.7195     9.0211     8.9435  -999.2500
  761.5000   -35.7691   138.3994     8.2449     8.0550  -999.2500
  762.0000   -33.4848   150.0911     7.4059     7.5417  -999.2500
  762.5000   -32.5481   161.7846     7.0502     7.1279  -999.2500
  763.0000   -32.1595   168.8270     6.6776     6.7170  -999.2500
  763.5000   -32.1697   174.2424     6.3912     6.3066  -999.2500
  764.0000   -32.1712   175.6849     6.2580     5.9511  -999.2500
  764.5000   -32.1711   175.4579     6.1961     5.9497  -999.2500
  765.0000   -32.1713   173.6668     6.2306     5.9867  -999.2500
  765.5000   -32.1713   171.8759     6.2965     6.0544  -999.2500
  766.0000   -32.1713   170.0838     6.3634     6.1223  -999.2500
  766.5000   -32.1713   168.2925     6.4331     6.1905  -999.2500
  767.0000   -32.1714   166.6748     6.4575     6.2505  -999.2500
  767.5000   -32.1712   166.6754     6.4529     6.2316  -999.2500
  768.0000   -32.1711   166.6754     6.3800     6.1525  -999.2500
  768.5000   -32.1414   166.3416     6.3087     6.0732  -999.2500
  769.0000   -32.0795   165.6474     6.2357     6.0518  -999.2500
  769.5000   -32.0186   164.9532     6.1938     6.0768  -999.2500
  770.0000   -31.9686   164.2590     6.2565     6.1323  -999.2500
  770.5000   -31.9070   163.5647     6.3279     6.1876  -999.2500
  771.0000   -31.8445   162.8705     6.3991     6.2429  -999.2500
  771.5000   -31.7824   162.1763     6.4711     6.2985  -999.2500
  772.0000   -31.7729   161.4821     6.4949     6.3513  -999.2500
  772.5000   -31.7728   160.7879     6.4755     6.3286  -999.2500
  773.0000   -31.7729   160.6691     6.4556     6.3009  -999.2500
  773.5000   -31.7729   162.5799     6.4346     6.2731  -999.2500
  774.0000   -31.7729   164.4456     6.3805     6.2454  -999.2500
  774.5000   -31.7729   166.3113     6.3256     6.2178  -999.2500
  775.0000   -31.7730   168.1770     6.2710     6.1901  -999.2500
  775.5000   -31.7734   170.0427     6.2165     6.1625  -999.2500
  776.0000   -31.7714   171.9085     6.1618     6.1348  -999.2500
  776.5000   -31.7081   172.6818     6.1064     6.1072  -999.2500
  777.0000   -31.6418   172.6818     6.0954     6.0793  -999.2500
  777.5000   -31.5757   171.2901     6.0943     6.0496  -999.2500
  778.0000   -31.5097   168.8631     6.1161     6.1277  -999.2500
  778.5000   -31.4437   166.4362     6.1893     6.2267  -999.2500
  779.0000   -31.3777   164.0092     6.2788     6.3265  -999.2500
  779.5000   -31.3116   161.5823     6.4161     6.4261  -999.2500
  780.0000   -31.2448   159.1553     6.5555     6.5256  -999.2500
  780.5000   -31.1776   156.7284     6.6759     6.6276  -999.2500
  781.0000   -31.1865   154.3015     6.6666     6.6513  -999.2500
  781.5000   -31.2780   152.6607     6.6485     6.6521  -999.2500
  782.0000   -31.3697   152.6607     6.6362     6.6520  -999.2500
  782.5000   -31.2712   152.2174     6.6780     6.6759  -999.2500
  783.0000   -31.1560   150.7959     6.7502     6.7224  -999.2500
  783.5000   -31.0416   149.3744     6.8216     6.7689  -999.2500
  784.0000   -30.9272   147.9529     6.8932     6.8156  -999.2500
  784.5000   -30.8083   146.5314     6.9641     6.8623  -999.2500
  785.0000   -30.7810   145.1099     7.0210     6.9091  -999.2500
  785.5000   -30.8687   143.6884     7.0568     6.9516  -999.2500
  786.0000   -30.9560   142.6502     7.0887     6.9523  -999.2500
  786.5000   -31.0419   144.4053     7.1194     6.9523  -999.2500
  787.0000   -31.1272   146.0116     7.1360     6.9522  -999.2500
  787.5000   -31.1464   147.6471     7.0943     6.8970  -999.2500
  788.0000   -31.0832   149.2727     7.0009     6.8326  -999.2500
  788.5000   -31.0205   150.8947     6.9078     6.7680  -999.2500
  789.0000   -30.9572   152.5171     6.8144     6.7034  -999.2500
  789.5000   -30.8939   154.1394     6.7210     6.6389  -999.2500
  790.0000   -30.8307   155.7618     6.6277     6.5744  -999.2500
  790.5000   -30.7675   157.3842     6.5360     6.5099  -999.2500
  791.0000   -30.7041   158.8563     6.4685     6.4454  -999.2500
  791.5000   -30.6399   159.7609     6.4017     6.3808  -999.2500
  792.0000   -30.5820   160.6691     6.3753     6.3157  -999.2500
  792.5000   -30.6860   160.6691     6.3935     6.2539  -999.2500
  793.0000   -30.7971   160.6691     6.4151     6.2866  -999.2500
  793.5000   -30.9074   160.0905     6.4152     6.3236  -999.2500
  794.0000   -31.0173   159.0955     6.3882     6.3601  -999.2500
  794.5000   -31.1273   158.1004     6.3761     6.3966  -999.2500
  795.0000   -31.1745   157.1054     6.4157     6.4330  -999.2500
  795.5000   -31.1242   156.1103     6.4847     6.4694  -999.2500
  796.0000   -31.0350   155.6639     6.5541     6.5058  -999.2500
  796.5000   -30.9451   155.6639     6.6240     6.5434  -999.2500
  797.0000   -30.8550   155.6639     6.6554     6.5383  -999.2500
  797.5000   -30.7751   155.6639     6.6433     6.5209  -999.2500
  798.0000   -30.8456   155.6639     6.5992     6.5029  -999.2500
  798.5000   -30.9397   155.6639     6.5564     6.4850  -999.2500
  799.0000   -31.0339   154.9260     6.5357     6.4671  -999.2500
  799.5000   -31.1282   154.1219     6.5475     6.4613  -999.2500
  800.0000   -31.1753   153.3177     6.6502     6.5472  -999.2500
  800.5000   -31.1746   152.5135     6.7545     6.6346  -999.2500
  801.0000   -31.1061   151.7093     6.8586     6.7215  -999.2500
  801.5000   -31.0290   150.9052     6.9626     6.8068  -999.2500
  802.0000   -30.9622   150.6586     7.0565     6.8130  -999.2500
  802.5000   -30.9163   153.4115     7.0560     6.6618  -999.2500
  803.0000   -30.8710   156.9795     6.8742     6.5151  -999.2500
  803.5000   -30.8259   160.5476     6.6685     6.3683  -999.2500
  804.0000   -30.7766   164.1156     6.4633     6.2211  -999.2500
  804.5000   -30.6216   167.6837     6.2806     6.0745  -999.2500
  805.0000   -30.4546   171.2517     6.1981     5.9281  -999.2500
  805.5000   -30.2894   173.3710     6.1611     5.8276  -999.2500
  806.0000   -30.2008   175.2922     6.1241     5.7776  -999.2500
  806.5000   -30.2830   176.6860     6.0858     5.7509  -999.2500
  807.0000   -30.3601   176.6860     6.0756     5.7508  -999.2500
  807.5000   -30.4374   177.5569     6.1147     5.7515  -999.2500
  808.0000   -30.5126   178.5560     6.1619     5.7132  -999.2500
  808.5000   -30.5783   179.5550     6.1750     5.6582  -999.2500
  809.0000   -30.3825   179.6891     6.1642     5.6655  -999.2500
  809.5000   -30.0535   179.6891     6.1388     5.6827  -999.2500
  810.0000   -29.7756   178.2209     6.0639     5.7000  -999.2500
  810.5000   -29.9609   176.0008     5.9810     5.7171  -999.2500
  811.0000   -30.1476   173.1646     5.9344     5.7334  -999.2500
  811.5000   -30.3326   170.2262     5.9403     5.7554  -999.2500
  812.0000   -30.5178   167.2879     6.0809     5.8948  -999.2500
  812.5000   -30.7047   164.4131     6.2176     6.0337  -999.2500
  813.0000   -30.8172   161.6157     6.3490     6.1718  -999.2500
  813.5000   -30.9221   158.8184     6.4745     6.3099  -999.2500
  814.0000   -31.0256   156.0210     6.5548     6.4468  -999.2500
  814.5000   -31.1289   153.2237     6.6233     6.5548  -999.2500
  815.0000   -31.2323   152.0601     6.6820     6.5519  -999.2500
  815.5000   -31.3370   153.7251     6.7008     6.5514  -999.2500
  816.0000   -31.3545   155.3935     6.7183     6.5372  -999.2500
  816.5000   -31.3238   155.6694     6.6649     6.4693  -999.2500
  817.0000   -31.2926   156.7863     6.6042     6.4027  -999.2500
  817.5000   -31.2611   159.3666     6.5430     6.3361  -999.2500
  818.0000   -31.2296   161.9498     6.4818     6.2695  -999.2500
