~VERSION INFORMATION
 VERS.                2.0:   CWLS LOG ASCII STANDARD - VERSION 2.0
 WRAP.                 NO:   ONE LINE PER DEPTH STEP
~WELL INFORMATION
#MNEM.UNIT      DATA TYPE    INFORMATION
#----------   ------------   ------------------------------
 STRT.F           11.0000:   START DEPTH
 STOP.F          915.0000:   STOP DEPTH
 STEP.F            0.5000:   STEP LENGTH
 NULL.          -999.2500:   NO VALUE
 COMP. U S NAVY/INTEX OIL CO:   COMPANY
 WELL.       N.P.R. #3-35:   WELL
 FLD .           TEAPOT E:   FIELD
 LOC .      S35 T39N R78W:   LOCATION
 CNTY.            NATRONA:   COUNTY
 STAT.            WYOMING:   STATE
 CTRY. UNITED STATES OF AMERICA:   COUNTRY
 SRVC.       Schlumberger:   SERVICE COMPANY
 DATE.        25-JUL-1953:   LOGDATE
 API .       490250653700:   API NUMBER
~CURVE INFORMATION
#MNEM.UNIT       API CODE    CURVE DESCRIPTION
#----------   ------------   ------------------------------
 DEPT.F                  :   
 SPR .MV     05 010 01 00:   SPONTANEOUS POTENTIAL FROM RES.
 CILD.MMHO   05 110 46 00:   CONDUCTIVITY INDUCTION LOG DEEP
 ILD .OHMM   05 120 46 00:   INDUCTION LOG DEEP
 ASN .OHMM   05 041 16 00:   AMPLIFIED SHORT NORMAL 16"
 GR  .GAPI   30 310 01 00:   GAMMA RAY
~PARAMETER INFORMATION
#MNEM.UNIT          VALUE    DESCRIPTION
#----------   ------------   ------------------------------
 EPD .F              5097:   ELEVATION PERMANENT DATUM
 LMF .                 KB:   LOG MEASURED FROM
 DMF .                 KB:   DRILLING MEASURED FROM
 EKB .F              5102:   KELLING BUSHING
 EGL .F              5097:   GROUND LEVEL
 DATE.           7-2-1963:   RUN DATE
 RUN .                  1:   RUN NUMBER
 DD  .F               916:   DEPTH DRILLER
 DL  .F               916:   DEPTH LOGGER
 BLI .F               915:   BOTTOM LOG INTERVAL
 TLI .F                90:   TOP LOG INTERVAL
 CS  .IN            8.625:   CASING SIZE
 CBD .F                10:   CASING BOTTOM DRILLER
 BS  .IN             6.75:   BIT SIZE
 BSD .F               916:   BIT SIZE AT DEPTH
 DFT .            GEL/OIL:   DRILLING FLUID TYPE
 DFD .                9.6:   DRILLING FLUID DENSITY
 DFV .                 67:   DRILLING FLUID VISCOSITY
 DFPH.                  9:   DRILLING FLUID PH
 DFL .                4.2:   DRILLING FLUID LOSS
 MSS .          FLOW LINE:   MUD SAMPLE SOURCE
 RMS .OHMM           2.92:   RESISTIVITY MUD SAMPLE
 MST .F                86:   MUD SAMPLE TEMPERATURE
 RMF .OHMM            2.6:   RESISTIVITY MUD FILTRATE SAMPLE
 MFST.F                86:   MUD FILTRATE SAMPLE TEMPERATURE
 RMC .OHMM           2.49:   RESISTIVITY MUD CAKE
 MCST.F                86:   MUD CAKE SAMPLE TEMPERATURE
 MFSS.                  M:   MUD FILTRATE SAMPLE SOURCE
 MCSS.                  M:   MUD CAKE SAMPLE SOURCE
 TCS .HRS              .5:   TIME CURCULATED STOPPED
 LUN .               4507:   LOGGING UNIT NUMBER
 ENGI.             KNOBEL:   RECORDING ENGINEER
 WITN.          JORGENSON:   WITNESSED BY
 CLNT.            A2DTECH:   CLIENT CODE
 ORIG.       2", 5" PRINT:   ORIGIN OF DATA
 UWI .       490250653700:   UNIQUE WELL ID
 DICO. A2D Technologies, Inc.:   DIGITIZING COMPANY
~OTHER INFORMATION
~A   DEPT      SPR       CILD        ILD        ASN          GR  
# ...
  804.0000   -28.4330   166.7557     5.9737     7.3685    48.7866
  804.5000   -28.5534   151.6320     6.6699     8.2402    49.8918
  805.0000   -28.8319   136.5033     7.8635     9.0761    51.2236
  805.5000   -29.2188   121.3868     8.6717     9.9069    51.1855
  806.0000   -29.6838   112.4582     9.0689    10.6467    47.3323
  806.5000   -30.1516   111.2019     8.9936    10.6889    44.7989
  807.0000   -30.6359   112.1113     8.9116    10.7179    45.3620
  807.5000   -31.0268   112.9398     8.8306    10.7493    44.0498
  808.0000   -31.4225   113.8510     8.7651    10.7808    46.2023
  808.5000   -31.6152   110.7885     8.8924    10.8108    46.8658
  809.0000   -31.3126   104.0994     9.1887    10.8408    42.4671
  809.5000   -31.0261    97.3773    10.0156    10.9238    43.0624
  810.0000   -30.7321    90.6578    10.8241    11.3277    39.6753
  810.5000   -30.4523    83.9454    11.6677    12.8076    32.7817
  811.0000   -31.8086    77.2337    12.3964    14.2183    23.6768
  811.5000   -33.6100    70.5155    13.0386    15.6173    14.0986
  812.0000   -36.7573    63.7867    14.5952    17.1563     4.2547
  812.5000   -39.9279    57.1024    16.1117    19.3599     0.0000
  813.0000   -43.1332    53.1116    17.6162    22.3473     0.0000
  813.5000   -43.4296    50.2865    19.1605    25.3014     0.0000
  814.0000   -43.6411    47.7440    19.7919    24.9389     1.5510
  814.5000   -44.0248    46.6341    20.1318    24.3966     3.2958
  815.0000   -44.1853    45.6251    20.4576    24.6637     4.1887
  815.5000   -43.8936    44.6162    20.9153    25.0453     4.0022
  816.0000   -44.4742    43.6072    21.5044    26.3838     3.9506
  816.5000   -46.1217    42.5045    22.0974    28.9087     6.4970
  817.0000   -48.3301    42.1978    22.6614    30.7290     6.9879
  817.5000   -49.9837    41.8556    22.7934    32.5814     6.3536
  818.0000   -50.9507    41.5154    22.5745    33.2287     5.3361
  818.5000   -51.7336    41.1773    22.4490    33.5975     4.8969
  819.0000   -51.7446    40.8388    22.6788    31.9308     5.4759
  819.5000   -50.2469    40.5003    22.9223    30.3820     7.7965
  820.0000   -48.7651    40.8130    23.0791    29.7197    10.3760
  820.5000   -47.2747    41.6413    22.4595    30.5192    11.2555
  821.0000   -47.8803    42.4698    21.7701    31.6195     9.8744
  821.5000   -50.3244    43.2982    21.5955    32.7289     6.4852
  822.0000   -52.7450    42.3225    21.9802    34.1603     5.2094
  822.5000   -54.9949    40.3987    22.4246    33.3708     8.9899
  823.0000   -55.1137    41.2982    22.8174    31.7954    10.0014
  823.5000   -52.1527    42.2975    22.5472    30.2205    13.4384
  824.0000   -49.5880    43.2969    22.2370    28.8330    17.4052
  824.5000   -47.8809    44.3094    21.9303    28.1583    19.6389
  825.0000   -48.3106    43.7724    21.8317    28.1428    17.8051
  825.5000   -50.2223    42.5728    22.0487    28.1119    14.8041
  826.0000   -50.2244    41.3765    22.2532    28.0770    14.0171
  826.5000   -49.0671    40.1841    22.2961    27.6845    17.0294
  827.0000   -49.3308    39.3494    21.8710    27.0268    16.5316
  827.5000   -50.4907    41.9841    21.3116    27.6163    15.9255
  828.0000   -51.4503    44.3793    20.6038    26.7138    16.7477
  828.5000   -52.0321    46.7745    19.9002    25.3855    18.5978
  829.0000   -50.4892    49.1697    19.2219    24.0556    17.1616
  829.5000   -48.6913    51.5648    18.3295    22.7181    19.2975
  830.0000   -47.6424    53.9600    17.4767    21.3956    18.2015
  830.5000   -47.7343    56.3552    16.7901    20.4781    17.3155
  831.0000   -47.7667    58.7504    16.2649    19.9862    17.4923
  831.5000   -46.5344    61.3851    15.7392    19.4944    18.3842
  832.0000   -44.8890    62.9975    15.2154    18.7762    19.4994
  832.5000   -43.2563    64.7890    14.6914    17.4900    16.5819
  833.0000   -42.9918    66.5805    14.2879    17.1411    12.0580
  833.5000   -42.9933    68.3720    14.0047    17.0912    12.1720
  834.0000   -42.6014    70.1635    13.7213    17.0363    13.1829
  834.5000   -41.7549    71.9551    13.4387    16.5580    12.4143
  835.0000   -40.8036    73.7466    13.1578    16.1056    10.0732
  835.5000   -40.7541    75.5381    12.9544    15.6579     9.3120
  836.0000   -41.1810    75.7291    12.9590    15.2089    16.3446
  836.5000   -40.7837    75.2341    12.9591    14.7566    17.4567
  837.0000   -39.9749    74.7392    12.9590    14.4855    17.2697
  837.5000   -39.8525    74.2442    12.9562    15.0317    17.9696
  838.0000   -39.9678    73.7492    13.0932    15.3594    18.7110
  838.5000   -40.4323    73.2543    13.2820    15.3671    17.5627
  839.0000   -41.2556    72.7593    13.3650    15.5099    14.0175
  839.5000   -42.0749    72.2640    13.3165    15.5589    15.5710
  840.0000   -42.8975    71.7694    13.2693    15.4715    16.6906
  840.5000   -43.7266    71.2744    13.2215    15.3868    17.6499
  841.0000   -43.2592    70.8290    13.1737    15.3017    16.4102
  841.5000   -42.4099    71.1684    13.1260    15.2165    15.4339
  842.0000   -41.7046    71.4771    13.0783    15.1314    17.9413
  842.5000   -41.1760    71.7857    13.0306    15.0464    18.4569
  843.0000   -40.6552    72.0943    12.9832    14.9613    15.2323
  843.5000   -40.3265    72.4029    12.9358    14.8762    14.9582
  844.0000   -40.6063    72.7116    12.8834    14.7911    17.2381
  844.5000   -40.8708    73.0202    12.7676    14.7060    19.8415
  845.0000   -41.0980    73.3288    12.7326    14.6209    20.3502
  845.5000   -40.9001    73.6374    12.7216    14.5356    21.4552
  846.0000   -40.7012    73.9461    12.7096    14.4513    23.3033
  846.5000   -40.5018    74.2547    12.6967    14.3669    24.1643
  847.0000   -40.0959    74.5633    12.6840    14.4229    24.4522
  847.5000   -39.6618    74.8719    12.6713    14.6196    25.3201
  848.0000   -39.5795    75.5171    12.6589    14.8162    26.1205
  848.5000   -39.8607    76.4987    12.6438    14.9460    25.7368
  849.0000   -40.0644    77.4803    12.5005    14.7071    26.2957
  849.5000   -39.7836    78.4620    12.3403    14.4790    28.9326
  850.0000   -39.2323    79.4436    12.1799    14.2531    29.2868
  850.5000   -38.6821    80.4253    12.0197    14.0274    28.9245
  851.0000   -38.5583    81.4069    11.8595    13.8018    29.7449
  851.5000   -38.9011    82.3885    11.6994    13.5761    30.3123
  852.0000   -39.2433    83.3702    11.5391    13.3503    29.0159
  852.5000   -39.5897    84.3518    11.3785    13.1245    27.6903
  853.0000   -39.9401    84.7573    11.2173    12.8979    24.4308
  853.5000   -40.2460    85.0839    11.0762    12.6736    21.6941
  854.0000   -39.6155    85.4106    11.1805    12.6956    21.4257
  854.5000   -38.9547    85.1823    11.2868    12.7548    21.8770
  855.0000   -38.3054    84.6766    11.3919    12.8146    21.9528
  855.5000   -37.7174    84.1712    11.4886    12.8742    21.8302
  856.0000   -37.5867    83.6651    11.4907    12.9336    21.7001
  856.5000   -37.4833    83.1609    11.4531    12.9930    21.6054
  857.0000   -37.3893    82.6570    11.4095    13.0526    21.6075
  857.5000   -37.5561    82.6368    11.3659    13.1130    21.6075
  858.0000   -37.9516    83.2287    11.3223    13.1640    21.6075
  858.5000   -38.3425    83.8211    11.2799    13.0444    21.6075
  859.0000   -38.1352    84.4152    11.2430    12.9217    21.6075
  859.5000   -37.6191    85.0091    11.2069    12.8000    21.6075
  860.0000   -37.1016    85.6029    11.1708    12.6784    21.6075
  860.5000   -36.5840    86.1967    11.1346    12.5569  -999.2500
  861.0000   -36.5060    86.7905    11.0990    12.4352  -999.2500
  861.5000   -36.5052    87.3843    11.0801    12.3145  -999.2500
  862.0000   -36.5064    87.1941    11.1366    12.1946  -999.2500
  862.5000   -36.5064    86.1490    11.1918    12.1160  -999.2500
  863.0000   -36.4826    85.1039    11.2472    12.0352  -999.2500
  863.5000   -36.3515    84.0588    11.3400    12.0548  -999.2500
  864.0000   -36.1485    83.0136    11.4944    12.1266  -999.2500
  864.5000   -35.8760    81.9685    11.6480    12.1979  -999.2500
