~VERSION INFORMATION
 VERS.                2.0:   CWLS LOG ASCII STANDARD - VERSION 2.0
 WRAP.                 NO:   ONE LINE PER DEPTH STEP
~WELL INFORMATION
#MNEM.UNIT      DATA TYPE    INFORMATION
#----------   ------------   ------------------------------
 STRT.F           36.0000:   START DEPTH
 STOP.F         2324.5000:   STOP DEPTH
 STEP.F            0.5000:   STEP LENGTH
 NULL.          -999.2500:   NO VALUE
 COMP. FENIX & SCISSON INC:   COMPANY
 WELL.           SX #57-3:   WELL
 FLD .             TEAPOT:   FIELD
 LOC .       S3 T38N R78W:   LOCATION
 CNTY.            NATRONA:   COUNTY
 STAT.            WYOMING:   STATE
 CTRY. UNITED STATES OF AMERICA:   COUNTRY
 SRVC.           BIRDWELL:   SERVICE COMPANY
 DATE.        15-JUN-1978:   LOGDATE
 API .       490251028800:   API NUMBER
~CURVE INFORMATION
#MNEM.UNIT       API CODE    CURVE DESCRIPTION
#----------   ------------   ------------------------------
 DEPT.F                  :   
 CALD.IN     45 280 60 00:   CALIPER FROM DENSITY LOG
 GRD .GAPI   45 310 01 00:   GAMMA RAY FROM DENSITY LOG
 CORR.G/C3   45 356 01 00:   DENSITY CORRECTION
 RHOB.G/C3   45 350 01 00:   BULK DENSITY
 DPHI.DEC    45 890 12 00:   DENSITY POROSITY SANDSTONE
 SPR .MV     07 010 01 00:   SPONTANEOUS POTENTIAL
 ILD .OHMM   07 120 46 00:   INDUCTION LOG DEEP
 ILM .OHMM   07 120 44 00:   INDUCTION LOG MEDIUM
 SGRD.OHMM   07 220 05 00:   SHALLOW GUARD RESISTIVITY
~PARAMETER INFORMATION
#MNEM.UNIT          VALUE    DESCRIPTION
#----------   ------------   ------------------------------
 PD  .                 GL:   PERMANENT DATUM
 EPD .F              5184:   ELEVATION PERMANENT DATUM
 LMF .                 KB:   LOG MEASURED FROM
 DAPD.F                10:   FEET ABOVE PERMANENT DATUM
 DMF .                 KB:   DRILLING MEASURED FROM
 EKB .F              5184:   KELLING BUSHING
 EGL .F              5184:   GROUND LEVEL
 DATE.            6-15-78:   RUN DATE
 RUN .                  1:   RUN NUMBER
 DD  .F              2340:   DEPTH DRILLER
 DL  .F              2324:   DEPTH LOGGER
 BLI .F              2324:   BOTTOM LOG INTERVAL
 TLI .F                50:   TOP LOG INTERVAL
 CS  .IN            9.625:   CASING SIZE
 CBD .F               600:   CASING BOTTOM DRILLER
 CBL .F               601:   CASING BOTTOM LOGGER
 BS  .IN             8.75:   BIT SIZE
 BSD .F              2340:   BIT SIZE AT DEPTH
 DFT .           AIR MIST:   DRILLING FLUID TYPE
 BHT .F                68:   BOTTOM HOLE TEMPERATURE
 MRT .F                68:   MAXIMUM RECORDED TEMPERATURE
 LUN .               2958:   LOGGING UNIT NUMBER
 LUL .               CASP:   LOGGING UNIT LOCATION
 ENGI.           REYNOLDS:   RECORDING ENGINEER
 WITN.           MCGINLEY:   WITNESSED BY
 CLNT.            A2DTECH:   CLIENT CODE
 ORIG.   2" 2.5" 5" PRINT:   ORIGIN OF DATA
 UWI .       490251028800:   UNIQUE WELL ID
 DICO. A2D Technologies, Inc.:   DIGITIZING COMPANY
~OTHER INFORMATION
~A   DEPT       CALD      GRD        CORR      RHOB         DPHI      SPR        ILD        ILM       SGRD   
# ...
 1313.5000     8.7502   139.0726     0.0514     2.5301     0.0158  -999.2500  -999.2500  -999.2500  -999.2500
 1314.0000     8.7652   138.3309     0.0553     2.5280     0.0158  -999.2500  -999.2500  -999.2500  -999.2500
 1314.5000     8.7849   137.7964     0.0596     2.5272     0.0158  -999.2500  -999.2500  -999.2500  -999.2500
 1315.0000     8.8010   137.9998     0.0640     2.5289     0.0123  -999.2500  -999.2500  -999.2500  -999.2500
 1315.5000     8.8146   137.9462     0.0691     2.5301     0.0093  -999.2500  -999.2500  -999.2500  -999.2500
 1316.0000     8.7793   136.9100     0.0755     2.5343     0.0089  -999.2500  -999.2500  -999.2500  -999.2500
 1316.5000     8.7728   136.8800     0.0827     2.5408     0.0078  -999.2500  -999.2500  -999.2500  -999.2500
 1317.0000     8.7591   139.1134     0.0855     2.5391     0.0058  -999.2500  -999.2500  -999.2500  -999.2500
 1317.5000     8.7459   139.6387     0.0906     2.5410     0.0028  -999.2500  -999.2500  -999.2500  -999.2500
 1318.0000     8.7454   136.4871     0.0970     2.5450     0.0000  -999.2500  -999.2500  -999.2500  -999.2500
 1318.5000     8.7452   132.8462     0.0975     2.5487    -0.0008  -999.2500  -999.2500  -999.2500  -999.2500
 1319.0000     8.7446   132.2781     0.0913     2.5499     0.0012  -999.2500  -999.2500  -999.2500  -999.2500
 1319.5000     8.7444   132.6437     0.0855     2.5479     0.0039  -999.2500  -999.2500  -999.2500  -999.2500
 1320.0000     8.7184   136.5060     0.0795     2.5465     0.0037  -999.2500  -999.2500  -999.2500  -999.2500
 1320.5000     8.6824   141.3821     0.0750     2.5447     0.0015  -999.2500  -999.2500  -999.2500  -999.2500
 1321.0000     8.6770   143.9945     0.0743     2.5478    -0.0008  -999.2500  -999.2500  -999.2500  -999.2500
 1321.5000     8.7092   143.7429     0.0736     2.5523    -0.0008  -999.2500  -999.2500  -999.2500  -999.2500
 1322.0000     8.7377   143.3812     0.0730     2.5537     0.0031  -999.2500  -999.2500  -999.2500  -999.2500
 1322.5000     8.7689   142.3564     0.0723     2.5512     0.0079  -999.2500  -999.2500  -999.2500  -999.2500
 1323.0000     8.7803   141.3984     0.0717     2.5495     0.0126  -999.2500  -999.2500  -999.2500  -999.2500
 1323.5000     8.7651   140.2677     0.0712     2.5452     0.0126  -999.2500  -999.2500  -999.2500  -999.2500
 1324.0000     8.7472   140.7440     0.0729     2.5394     0.0126  -999.2500  -999.2500  -999.2500  -999.2500
 1324.5000     8.7797   141.7499     0.0751     2.5331     0.0109  -999.2500  -999.2500  -999.2500  -999.2500
 1325.0000     8.8518   140.7937     0.0773     2.5329     0.0091  -999.2500  -999.2500  -999.2500  -999.2500
 1325.5000     8.9139   139.6747     0.0792     2.5353     0.0073  -999.2500  -999.2500  -999.2500  -999.2500
 1326.0000     8.9727   140.3286     0.0822     2.5380     0.0055  -999.2500  -999.2500  -999.2500  -999.2500
 1326.5000     8.9150   141.4164     0.0816     2.5411     0.0088  -999.2500  -999.2500  -999.2500  -999.2500
 1327.0000     8.8528   140.1971     0.0788     2.5414     0.0120  -999.2500  -999.2500  -999.2500  -999.2500
 1327.5000     8.7809   139.2281     0.0759     2.5374     0.0151  -999.2500  -999.2500  -999.2500  -999.2500
 1328.0000     8.7399   140.2010     0.0734     2.5346     0.0230  -999.2500  -999.2500  -999.2500  -999.2500
 1328.5000     8.7387   143.8723     0.0719     2.5266     0.0261  -999.2500  -999.2500  -999.2500  -999.2500
 1329.0000     8.7321   145.4535     0.0756     2.5133     0.0231  -999.2500  -999.2500  -999.2500  -999.2500
 1329.5000     8.7266   142.3675     0.0754     2.5110     0.0206  -999.2500  -999.2500  -999.2500  -999.2500
 1330.0000     8.7213   138.3022     0.0826     2.5167     0.0202  -999.2500  -999.2500  -999.2500  -999.2500
 1330.5000     8.7162   139.9285     0.0882     2.5215     0.0234  -999.2500  -999.2500  -999.2500  -999.2500
 1331.0000     8.7101   140.7865     0.0943     2.5208     0.0269  -999.2500  -999.2500  -999.2500  -999.2500
 1331.5000     8.7038   139.5746     0.0902     2.5153     0.0261  -999.2500  -999.2500  -999.2500  -999.2500
 1332.0000     8.6747   139.3724     0.0850     2.5087     0.0194  -999.2500  -999.2500  -999.2500  -999.2500
 1332.5000     8.6487   140.9039     0.0846     2.5139     0.0047  -999.2500  -999.2500  -999.2500  -999.2500
 1333.0000     8.6226   143.0560     0.0895     2.5298    -0.0015  -999.2500  -999.2500  -999.2500  -999.2500
 1333.5000     8.5955   144.9630     0.0895     2.5455    -0.0063  -999.2500  -999.2500  -999.2500  -999.2500
 1334.0000     8.6156   146.0357     0.0857     2.5563    -0.0054  -999.2500  -999.2500  -999.2500  -999.2500
 1334.5000     8.6561   148.3817     0.0827     2.5598    -0.0047  -999.2500  -999.2500  -999.2500  -999.2500
 1335.0000     8.6944   149.1905     0.0793     2.5624    -0.0040  -999.2500  -999.2500  -999.2500  -999.2500
 1335.5000     8.7339   150.1144     0.0785     2.5620    -0.0033  -999.2500  -999.2500  -999.2500  -999.2500
 1336.0000     8.7262   152.2445     0.0771     2.5587    -0.0018  -999.2500  -999.2500  -999.2500  -999.2500
 1336.5000     8.6973   148.0912     0.0759     2.5557     0.0002  -999.2500  -999.2500  -999.2500  -999.2500
 1337.0000     8.6690   147.1427     0.0750     2.5525     0.0016  -999.2500  -999.2500  -999.2500  -999.2500
 1337.5000     8.6703   147.8392     0.0760     2.5494     0.0016  -999.2500  -999.2500  -999.2500  -999.2500
 1338.0000     8.7235   145.1190     0.0770     2.5483     0.0024  -999.2500  -999.2500  -999.2500  -999.2500
 1338.5000     8.7269   141.2482     0.0779     2.5498     0.0037  -999.2500  -999.2500  -999.2500  -999.2500
 1339.0000     8.6716   139.1377     0.0789     2.5487     0.0049  -999.2500  -999.2500  -999.2500  -999.2500
 1339.5000     8.7552   135.7917     0.0778     2.5481     0.0064  -999.2500  -999.2500  -999.2500  -999.2500
 1340.0000     8.7756   131.4374     0.0764     2.5439     0.0082  -999.2500  -999.2500  -999.2500  -999.2500
 1340.5000     8.7572   133.4817     0.0750     2.5401     0.0100  -999.2500  -999.2500  -999.2500  -999.2500
 1341.0000     8.7399   138.6264     0.0730     2.5360     0.0118  -999.2500  -999.2500  -999.2500  -999.2500
 1341.5000     8.7252   142.3997     0.0710     2.5319     0.0136  -999.2500  -999.2500  -999.2500  -999.2500
 1342.0000     8.7066   141.5731     0.0691     2.5306     0.0142  -999.2500  -999.2500  -999.2500  -999.2500
 1342.5000     8.7071   139.6019     0.0675     2.5313     0.0142  -999.2500  -999.2500  -999.2500  -999.2500
 1343.0000     8.6961   139.0092     0.0707     2.5322     0.0140  -999.2500  -999.2500  -999.2500  -999.2500
 1343.5000     8.6781   141.2437     0.0739     2.5326     0.0137  -999.2500  -999.2500  -999.2500  -999.2500
 1344.0000     8.6748   144.0170     0.0772     2.5321     0.0135  -999.2500  -999.2500  -999.2500  -999.2500
 1344.5000     8.7080   149.5347     0.0806     2.5317     0.0132  -999.2500  -999.2500  -999.2500  -999.2500
 1345.0000     8.7393   151.9133     0.0838     2.5313     0.0130  -999.2500  -999.2500  -999.2500  -999.2500
 1345.5000     8.7724   151.8501     0.0867     2.5305     0.0127  -999.2500  -999.2500  -999.2500  -999.2500
 1346.0000     8.8066   152.2949     0.0843     2.5332     0.0110  -999.2500  -999.2500  -999.2500  -999.2500
 1346.5000     8.8080   149.8763     0.0820     2.5364     0.0102  -999.2500  -999.2500  -999.2500  -999.2500
 1347.0000     8.7499   147.5311     0.0795     2.5402     0.0117  -999.2500  -999.2500  -999.2500  -999.2500
 1347.5000     8.8113   147.2549     0.0770     2.5337     0.0126  -999.2500  -999.2500  -999.2500  -999.2500
 1348.0000     8.8968   143.9776     0.0746     2.5301     0.0126  -999.2500  -999.2500  -999.2500  -999.2500
 1348.5000     8.9528   140.6202     0.0721     2.5314     0.0126  -999.2500  -999.2500  -999.2500  -999.2500
 1349.0000     8.9650   138.7046     0.0707     2.5244     0.0126  -999.2500  -999.2500  -999.2500  -999.2500
 1349.5000     8.9845   140.7153     0.0700     2.5257     0.0126  -999.2500  -999.2500  -999.2500  -999.2500
