~VERSION INFORMATION
 VERS.                2.0:   CWLS LOG ASCII STANDARD - VERSION 2.0
 WRAP.                 NO:   ONE LINE PER DEPTH STEP
~WELL INFORMATION
#MNEM.UNIT      DATA TYPE    INFORMATION
#----------   ------------   ------------------------------
 STRT.F           17.0000:   START DEPTH
 STOP.F          565.5000:   STOP DEPTH
 STEP.F            0.5000:   STEP LENGTH
 NULL.          -999.2500:   NO VALUE
 COMP. LAWRENCE/ALLISON INC:   COMPANY
 WELL. NPR 3 #83-56 SX 10:   WELL
 FLD .             TEAPOT:   FIELD
 LOC .      S10 T38N R78W:   LOCATION
 CNTY.            NATRONA:   COUNTY
 STAT.            WYOMING:   STATE
 CTRY. UNITED STATES OF AMERICA:   COUNTRY
 SRVC.           Gearhart:   SERVICE COMPANY
 DATE.        11-JUN-1986:   LOGDATE
 API .       490251108300:   API NUMBER
~CURVE INFORMATION
#MNEM.UNIT       API CODE    CURVE DESCRIPTION
#----------   ------------   ------------------------------
 DEPT.F                  :   
 GRR .GAPI   07 310 01 00:   GAMMA RAY FROM RES. LOG.
 RILD.OHMM   07 120 46 00:   INDUCTION LOG DEEP RESISTIVITY
 RILM.OHMM   07 120 44 00:   INDUCTION LOG MEDIUM RESISTIVITY
~PARAMETER INFORMATION
#MNEM.UNIT          VALUE    DESCRIPTION
#----------   ------------   ------------------------------
 PD  .                 GL:   PERMANENT DATUM
 EPD .F              5174:   ELEVATION PERMANENT DATUM
 LMF .                 KB:   LOG MEASURED FROM
 DMF .                 KB:   DRILLING MEASURED FROM
 EKB .F              5174:   KELLING BUSHING
 EGL .F              5174:   GROUND LEVEL
 DATE.            6-11-86:   RUN DATE
 RUN .                  1:   RUN NUMBER
 DD  .F               580:   DEPTH DRILLER
 DL  .F               576:   DEPTH LOGGER
 BLI .F               565:   BOTTOM LOG INTERVAL
 TLI .F                15:   TOP LOG INTERVAL
 CS  .IN            8.625:   CASING SIZE
 CBD .F                42:   CASING BOTTOM DRILLER
 CBL .F                42:   CASING BOTTOM LOGGER
 BS  .IN            7.875:   BIT SIZE
 BSD .F               580:   BIT SIZE AT DEPTH
 DFT .                AIR:   DRILLING FLUID TYPE
 TCS .HRS            0300:   TIME CURCULATED STOPPED
 TLAB.HRS            0445:   TIME LOGGER AT BOTTOM
 MRT .F                95:   MAXIMUM RECORDED TEMPERATURE
 LUN .               7609:   LOGGING UNIT NUMBER
 LUL .           GILLETTE:   LOGGING UNIT LOCATION
 ENGI.              BAUER:   RECORDING ENGINEER
 WITN.           JENNINGS:   WITNESSED BY
 CLNT.            A2DTECH:   CLIENT CODE
 ORIG.       2", 5" PRINT:   ORIGIN OF DATA
 UWI .       490251108300:   UNIQUE WELL ID
 DICO. A2D Technologies, Inc.:   DIGITIZING COMPANY
~OTHER INFORMATION
~A   DEPT       GRR      RILD       RILM   
# ...
  472.0000   104.2793    12.7588    12.6426
  472.5000   101.5586    12.6968    12.6427
  473.0000    98.8111    12.6546    12.6433
  473.5000    97.1714    12.6125    12.5526
  474.0000    96.0115    12.5705    12.4384
  474.5000    96.4471    12.5286    12.3249
  475.0000    99.6407    12.4870    12.2126
  475.5000   102.8047    12.4454    12.1013
  476.0000   105.9594    12.3855    11.9910
  476.5000   109.1517    12.2301    11.8817
  477.0000   109.7519    12.0766    11.7734
  477.5000   109.2399    11.9250    11.6662
  478.0000   109.3052    11.7754    11.5365
  478.5000   110.8280    11.6276    11.3969
  479.0000   110.3112    11.4817    11.2591
  479.5000   109.6217    11.3376    11.1229
  480.0000   109.4791    11.1954    10.9883
  480.5000   109.9658    11.0548    10.8554
  481.0000   108.1408    10.9160    10.7241
  481.5000   104.6254    10.6528    10.5944
  482.0000   101.2621    10.3810    10.4662
  482.5000   101.3534    10.1160    10.3396
  483.0000   105.3439     9.8544    10.2160
  483.5000   109.2209     9.4767     9.8806
  484.0000   113.1535     8.7255     9.5698
  484.5000   115.5933     8.1036     8.8086
  485.0000   118.0158     7.5545     8.1444
  485.5000   120.4281     6.9944     7.5332
  486.0000   123.0413     6.4758     7.0131
  486.5000   127.1878     6.0907     6.5950
  487.0000   136.6282     5.8497     6.2018
  487.5000   145.9143     5.6101     5.8320
  488.0000   147.7341     5.5423     5.5423
  488.5000   132.0482     5.9960     5.5938
  489.0000   120.8556     6.4587     5.9971
  489.5000   114.2253     6.9579     6.4852
  490.0000   113.9029     7.4952     7.0129
  490.5000   115.9610     8.0740     7.5836
  491.0000   118.0092     8.7056     8.2008
  491.5000   116.9896     9.3941     8.8682
  492.0000   115.7847     9.9012     9.3934
  492.5000   114.8195    10.0643     9.6137
  493.0000   116.5104    10.2242     9.8392
  493.5000   118.4363    10.3884    10.0699
  494.0000   121.1851    10.5553    10.3061
  494.5000   125.2645    10.7249    10.5483
  495.0000   124.2453    10.8972    10.7994
  495.5000   122.7986    11.0723    10.9634
  496.0000   121.4134    11.2496    11.1314
  496.5000   122.0210    11.4186    11.3026
  497.0000   123.5158    11.5943    11.4763
  497.5000   125.0487    11.7625    11.6528
  498.0000   125.0834    11.9326    11.8320
  498.5000   124.0127    12.1052    12.0139
  499.0000   121.2361    12.2802    12.1987
  499.5000   116.9981    12.4578    12.3862
  500.0000   112.8246    12.6380    12.4772
  500.5000   108.5893    12.7814    12.5541
  501.0000   106.8000    12.8502    12.6316
  501.5000   108.9773    12.9176    12.7095
  502.0000   112.4572    12.9856    12.7879
  502.5000   116.0598    13.0540    12.8668
  503.0000   116.8398    13.1228    12.9462
  503.5000   115.4202    13.1920    13.0260
  504.0000   114.0801    13.2615    13.1064
  504.5000   113.3447    13.3653    13.1873
  505.0000   112.6005    13.3257    13.2421
  505.5000   113.3849    13.2495    13.1034
  506.0000   116.4794    13.1736    12.9998
  506.5000   119.6443    13.0983    12.8969
  507.0000   118.1700    13.0233    12.7949
  507.5000   114.1364    12.9488    12.6937
  508.0000   110.9074    12.8747    12.5933
  508.5000   108.9735    12.8010    12.4937
  509.0000   107.0406    12.7278    12.3949
  509.5000   106.7774    12.6550    12.2968
  510.0000   109.3569    12.5825    12.1996
  510.5000   112.7527    12.4950    12.1031
  511.0000   113.1789    12.3520    12.0074
  511.5000   113.0464    12.2105    11.8948
  512.0000   112.8912    12.0707    11.7653
  512.5000   113.4437    11.9302    11.6371
  513.0000   114.1822    11.7815    11.5104
  513.5000   114.9243    11.6347    11.3850
  514.0000   116.3501    11.4897    11.2610
  514.5000   118.5181    11.3465    11.1383
  515.0000   121.9290    11.2051    11.0170
  515.5000   125.4497    11.0655    10.8970
  516.0000   128.0786    10.9276    10.7784
  516.5000   128.5663    10.7914    10.6323
  517.0000   128.4924    10.6569    10.4330
  517.5000   131.9597    10.5241    10.2374
  518.0000   136.1290    10.4259    10.0455
  518.5000   139.0094    10.3341     9.8443
  519.0000   133.1748    10.2639     9.8137
  519.5000   126.8113    10.1997     9.7809
  520.0000   124.9349    10.1363     9.7485
  520.5000   125.8160    10.0732     9.7160
  521.0000   127.4307    10.0105     9.6837
  521.5000   126.4341     9.9481     9.6514
  522.0000   125.2260     9.9075     9.6193
  522.5000   125.1706     9.8720     9.5872
  523.0000   126.5449     9.8367     9.5553
  523.5000   127.9011     9.8015     9.5235
  524.0000   129.2949     9.7665     9.4918
  524.5000   128.5406     9.5881     9.3739
  525.0000   126.6701     9.3308     9.2388
  525.5000   125.4975     9.0803     9.1058
  526.0000   127.3042     8.9151     8.9731
  526.5000   130.0284     8.8130     8.9042
  527.0000   130.1201     8.7121     8.8170
  527.5000   128.2649     8.6123     8.7241
  528.0000   128.7843     8.4964     8.9701
  528.5000   130.5030     8.3677    10.3225
  529.0000   129.6601     8.2408    11.5897
  529.5000   129.2429     8.1159    12.2369
  530.0000   130.4579     7.9984    12.2960
  530.5000   131.6156     7.8832    11.1412
  531.0000   132.7665     7.7696    10.1335
  531.5000   133.0811     7.6657     9.2170
  532.0000   131.4247     7.7442     8.3833
  532.5000   127.4142     7.8192     7.7367
  533.0000   124.1100     7.8825     7.9288
  533.5000   122.9648     8.0866     8.1854
  534.0000   122.6151     8.2964     8.4503
  534.5000   124.8443     8.5115     8.7239
  535.0000   128.5813     8.7805     9.0062
  535.5000   132.1342     9.0749     9.2977
  536.0000   130.1707     9.3792     9.5986
  536.5000   127.0679     9.6937     9.9359
  537.0000   124.5519     9.8489    10.0095
  537.5000   124.2127     9.8625    10.0905
  538.0000   126.3421     9.8762    10.1722
  538.5000   128.5767     9.8898    10.2553
  539.0000   130.8092     9.9035    10.3120
  539.5000   131.5603     9.9171    10.2844
  540.0000   129.8914     9.9346    10.2607
  540.5000   126.0635     9.9060    10.2371
  541.0000   122.7534     9.8591    10.2095
  541.5000   122.3251     9.8125    10.1468
  542.0000   123.7785     9.7661    10.0845
  542.5000   127.1757     9.7198    10.0226
  543.0000   130.5365     9.6739     9.9611
  543.5000   133.8705     9.6281     9.9000
  544.0000   134.8838     9.5826     9.8392
  544.5000   131.6236     9.5372     9.7789
  545.0000   128.3662     9.4921     9.7189
  545.5000   125.1270     9.3211     9.6592
  546.0000   121.9083     9.0766     9.5999
  546.5000   121.3844     8.7557     9.3723
  547.0000   122.8748     8.3847     9.0263
  547.5000   122.6350     8.0296     8.6146
  548.0000   122.3329     7.6653     8.2079
  548.5000   122.2976     6.9764     7.8814
  549.0000   122.7919     6.3099     7.2134
  549.5000   123.3265     5.5229     6.7328
  550.0000   121.5091     4.8414     5.8778
  550.5000   119.4064     4.2440     5.1670
  551.0000   118.0606     3.7892     4.5421
  551.5000   118.1127     3.4990     3.9928
  552.0000  -999.2500     3.2309     3.5099
  552.5000  -999.2500     2.9515     3.1822
  553.0000  -999.2500     2.9637     2.9975
  553.5000  -999.2500     2.9790     2.9515
  554.0000  -999.2500     3.1438     3.0345
  554.5000  -999.2500     3.3317     3.1508
  555.0000  -999.2500     3.5884     3.4947
  555.5000  -999.2500     4.1005     3.8762
  556.0000  -999.2500     4.6856     4.2685
  556.5000  -999.2500     5.3542     4.8270
  557.0000  -999.2500     5.9385     5.4585
  557.5000  -999.2500     6.4165     6.1727
  558.0000  -999.2500     6.9330     6.8147
  558.5000  -999.2500     7.4911     7.4014
  559.0000  -999.2500     7.8911     7.8398
  559.5000  -999.2500     8.0719     7.9560
  560.0000  -999.2500     8.2569     8.0739
  560.5000  -999.2500     8.4460     8.1936
  561.0000  -999.2500     8.5353     8.3150
  561.5000  -999.2500     8.5973     8.4103
  562.0000  -999.2500     8.6594     8.4199
  562.5000  -999.2500     8.7271     8.4361
