~VERSION INFORMATION
 VERS.                2.0:   CWLS LOG ASCII STANDARD - VERSION 2.0
 WRAP.                 NO:   ONE LINE PER DEPTH STEP
~WELL INFORMATION
#MNEM.UNIT      DATA TYPE    INFORMATION
#----------   ------------   ------------------------------
 STRT.F           20.0000:   START DEPTH
 STOP.F          436.5000:   STOP DEPTH
 STEP.F            0.5000:   STEP LENGTH
 NULL.          -999.2500:   NO VALUE
 COMP. FENIX & SCISSON INC:   COMPANY
 WELL. NPR 3 SX-10 #55-10:   WELL
 FLD .        YEAPOT DOME:   FIELD
 LOC .      S10 T38N R78W:   LOCATION
 CNTY.            NATRONA:   COUNTY
 STAT.            WYOMING:   STATE
 CTRY. UNITED STATES OF AMERICA:   COUNTRY
 SRVC.           BIRDWELL:   SERVICE COMPANY
 DATE.        06-JUN-1978:   LOGDATE
 API .       490251062900:   API NUMBER
~CURVE INFORMATION
#MNEM.UNIT       API CODE    CURVE DESCRIPTION
#----------   ------------   ------------------------------
 DEPT.F                  :   
 GRD .GAPI   45 310 01 00:   GAMMA RAY FROM DENSITY LOG
 CALD.IN     45 280 60 00:   CALIPER FROM DENSITY LOG
 RHOB.G/C3   45 350 01 00:   BULK DENSITY
 DPHI.DEC    45 890 12 00:   DENSITY POROSITY SANDSTONE
 CORR.G/C3   45 356 01 00:   DENSITY CORRECTION
 SPR .MV     05 010 01 00:   SPONTANEOUS POTENTIAL FROM RES.
 SN  .OHMM   05 040 16 00:   SHORT NORMAL 16"
 ILD .OHMM   05 120 46 00:   INDUCTION LOG DEEP
~PARAMETER INFORMATION
#MNEM.UNIT          VALUE    DESCRIPTION
#----------   ------------   ------------------------------
 PD  .                 GL:   PERMANENT DATUM
 EPD .F              5202:   ELEVATION PERMANENT DATUM
 LMF .                 KB:   LOG MEASURED FROM
 DAPD.F                 4:   FEET ABOVE PERMANENT DATUM
 DMF .                 KB:   DRILLING MEASURED FROM
 EKB .F              5206:   KELLING BUSHING
 EGL .F              5202:   GROUND LEVEL
 DATE.             6-6-78:   RUN DATE
 RUN .                  1:   RUN NUMBER
 DD  .F               425:   DEPTH DRILLER
 DL  .F               436:   DEPTH LOGGER
 BLI .F               432:   BOTTOM LOG INTERVAL
 TLI .F                40:   TOP LOG INTERVAL
 CS  .IN            8.625:   CASING SIZE
 CBD .F                40:   CASING BOTTOM DRILLER
 CBL .F                40:   CASING BOTTOM LOGGER
 BS  .IN            7.875:   BIT SIZE
 BSD .F               425:   BIT SIZE AT DEPTH
 DFT .            KCL/OIL:   DRILLING FLUID TYPE
 DFD .                8.6:   DRILLING FLUID DENSITY
 DFV .                 34:   DRILLING FLUID VISCOSITY
 DFPH.                 10:   DRILLING FLUID PH
 DFL .                7.6:   DRILLING FLUID LOSS
 MSS .                PIT:   MUD SAMPLE SOURCE
 TCS .HRS               4:   TIME CURCULATED STOPPED
 LUN .               2958:   LOGGING UNIT NUMBER
 LUL .               CASP:   LOGGING UNIT LOCATION
 ENGI.            POINTER:   RECORDING ENGINEER
 WITN.           MCGINLEY:   WITNESSED BY
 CLNT.            A2DTECH:   CLIENT CODE
 ORIG. 1", 2", 2.5", 5" PRINT:   ORIGIN OF DATA
 UWI .       490251062900:   UNIQUE WELL ID
 DICO. A2D Technologies, Inc.:   DIGITIZING COMPANY
~OTHER INFORMATION
~A   DEPT       GRD      CALD       RHOB       DPHI       CORR        SPR         SN        ILD   
# ...
  263.0000    62.1537     8.2934     2.3601     0.1945     0.0325   -27.3114    16.8524    13.8991
  263.5000    62.3579     8.2906     2.3690     0.1893     0.0325   -27.2751    16.8938    13.8981
  264.0000    62.4596     8.2878     2.3712     0.1879     0.0326   -27.2388    16.9354    14.1836
  264.5000    62.5634     8.2851     2.3694     0.1893     0.0325   -27.2025    16.9770    14.5498
  265.0000    62.6429     8.2821     2.3678     0.1907     0.0325   -27.1662    17.0228    14.9266
  265.5000    62.8561     8.2820     2.3635     0.1920     0.0326   -27.1298    17.2880    15.3129
  266.0000    62.0509     8.2811     2.3577     0.1937     0.0326   -27.0935    17.5862    15.7091
  266.5000    60.5721     8.2826     2.3527     0.1963     0.0341   -27.0572    17.8896    16.1155
  267.0000    59.2295     8.2812     2.3487     0.1989     0.0361   -27.0209    18.1983    16.5324
  267.5000    57.8110     8.2753     2.3592     0.1958     0.0380   -26.9846    18.5122    16.9602
  268.0000    57.2782     8.1724     2.3677     0.1867     0.0399   -26.9483    18.8316    17.3504
  268.5000    57.4814     8.0680     2.3976     0.1742     0.0365   -26.9119    19.1565    17.4337
  269.0000    57.6046     7.9412     2.4216     0.1618     0.0308   -26.8756    19.4870    17.5174
  269.5000    57.7119     7.8829     2.4505     0.1493     0.0255   -26.8391    19.7087    17.6015
  270.0000    57.8825     7.9139     2.4409     0.1413     0.0214   -26.8033    19.9086    17.6860
  270.5000    57.9762     8.3475     2.4199     0.1521     0.0287   -26.7643    20.1094    17.7709
  271.0000    57.9510     8.5463     2.4005     0.1687     0.0354   -26.9121    20.2767    17.8562
  271.5000    56.3508     8.5810     2.3773     0.1813     0.0413   -27.1551    20.2554    17.9420
  272.0000    54.8658     8.5880     2.3833     0.1822     0.0438   -27.4012    20.2361    18.0281
  272.5000    53.3457     8.5583     2.3956     0.1757     0.0465   -27.6470    20.2167    18.1564
  273.0000    51.9626     8.5302     2.4068     0.1664     0.0491   -27.8928    20.1973    18.0026
  273.5000    53.4363     8.5034     2.4072     0.1663     0.0526   -28.1383    20.1780    17.7100
  274.0000    54.8134     8.4751     2.4079     0.1711     0.0599   -28.4008    20.1587    17.4222
  274.5000    56.2461     8.4476     2.4129     0.1633     0.0706   -28.7274    20.1397    17.1391
  275.0000    57.5444     8.4198     2.4041     0.1660     0.0565   -29.0619    20.1201    16.8606
  275.5000    58.9469     8.3921     2.3930     0.1737     0.0372   -29.3960    20.1042    16.5866
  276.0000    59.5645     8.3644     2.3817     0.1813     0.0318   -29.7281    19.8515    16.3170
  276.5000    59.9427     8.3367     2.3708     0.1876     0.0317   -30.1311    19.4228    15.9963
  277.0000    60.3468     8.3090     2.3660     0.1893     0.0313   -30.6906    19.0043    15.4802
  277.5000    60.7291     8.2812     2.3614     0.1917     0.0306   -31.2471    18.5949    14.9807
  278.0000    61.7632     8.2536     2.3624     0.1931     0.0303   -31.6504    18.1945    14.5004
  278.5000    63.0015     8.2258     2.3706     0.1897     0.0299   -31.8464    17.8027    14.1593
  279.0000    64.3246     8.1981     2.3787     0.1831     0.0287   -32.0441    17.4193    13.9281
  279.5000    64.6871     8.1707     2.3863     0.1765     0.0300   -32.2414    17.0442    13.7007
  280.0000    65.0428     8.1423     2.3948     0.1722     0.0191   -32.4390    16.6768    13.4770
  280.5000    65.3326     8.1157     2.3936     0.1737     0.0179   -32.6366    16.3180    13.2569
  281.0000    65.8610     8.0856     2.3916     0.1751     0.0189   -32.8327    15.9599    13.0405
  281.5000    66.7971     8.0836     2.3894     0.1766     0.0207   -33.0288    15.9525    12.8854
  282.0000    67.6660     8.0828     2.3863     0.1781     0.0217   -33.2185    15.9451    12.8170
  282.5000    68.5107     8.0837     2.3834     0.1795     0.0231   -33.4092    15.9376    12.7490
  283.0000    69.2003     8.0830     2.3799     0.1813     0.0244   -33.5994    15.9301    12.6774
  283.5000    69.4939     8.0833     2.3789     0.1818     0.0257   -33.7730    15.9226    12.7127
  284.0000    69.2675     8.0842     2.3777     0.1824     0.0270   -33.7884    15.9151    12.7512
  284.5000    68.6820     8.0807     2.3768     0.1832     0.0283   -33.8101    15.9077    12.7895
  285.0000    68.1165     8.1111     2.3757     0.1842     0.0296   -33.8323    15.9002    12.8279
  285.5000    68.4509     8.1677     2.3747     0.1851     0.0309   -33.8546    15.8927    12.8663
  286.0000    69.1762     8.2197     2.3741     0.1860     0.0322   -33.8768    15.8853    12.9049
  286.5000    69.4726     8.2770     2.3775     0.1840     0.0326   -33.8990    15.8778    12.9401
  287.0000    68.9958     8.3162     2.3806     0.1822     0.0325   -33.9211    15.8704    12.9864
  287.5000    68.5500     8.3117     2.3843     0.1805     0.0325   -33.9416    15.8629    13.0326
  288.0000    68.6018     8.0899     2.3842     0.1789     0.0325   -33.9484    15.8555    13.0790
  288.5000    69.1748     7.8145     2.3804     0.1810     0.0325   -34.5300    15.8480    13.1267
  289.0000    69.7154     7.6640     2.3772     0.1830     0.0325   -35.1497    15.8406    13.1526
  289.5000    70.2323     7.6537     2.3734     0.1852     0.0326   -35.2556    15.8332    12.9029
  290.0000    70.7173     7.6881     2.3724     0.1858     0.0326   -35.3353    15.8259    12.7275
  290.5000    70.5432     7.7355     2.3741     0.1857     0.0338   -35.4179    15.8179    12.5546
  291.0000    70.3604     7.8163     2.3753     0.1853     0.0350   -35.5011    15.7798    12.4330
  291.5000    70.1526     7.9597     2.3699     0.1872     0.0365   -35.5842    15.6848    12.3975
  292.0000    69.9979     8.2375     2.3642     0.1907     0.0403   -35.6674    15.5912    12.3621
  292.5000    70.3184     8.5149     2.3621     0.1908     0.0452   -35.7505    15.4981    12.3268
  293.0000    71.3769     8.5273     2.3630     0.1910     0.0502   -35.8337    15.4057    12.2916
  293.5000    72.7785     8.5417     2.3635     0.1912     0.0549   -35.9168    15.3137    12.2565
  294.0000    72.2196     8.5472     2.3643     0.1913     0.0597   -36.0000    15.1799    12.2215
  294.5000    70.8957     8.5569     2.3602     0.1939     0.0581   -36.0832    14.8918    12.1866
  295.0000    69.6267     8.5134     2.3504     0.1986     0.0561   -36.1663    14.6069    12.1518
  295.5000    68.3636     8.4464     2.3398     0.2033     0.0539   -36.2495    14.4192    12.1171
  296.0000    67.5510     8.3373     2.3300     0.2079     0.0518   -36.3326    14.4231    12.0826
  296.5000    67.0414     8.1449     2.3123     0.2183     0.0497   -36.4158    14.4221    12.0481
  297.0000    66.4480     7.9559     2.2879     0.2346     0.0475   -36.4989    14.4221    12.0139
  297.5000    66.7277     7.7127     2.2584     0.2595     0.0454   -36.5821    14.2894    11.9811
  298.0000    67.1232     7.8517     2.2313     0.2575     0.0434   -36.6653    14.1390    11.9511
  298.5000    67.5045     8.1485     2.1961     0.2282     0.0409   -36.7485    13.9898    11.9211
  299.0000    67.9296     8.1042     2.1510     0.2387     0.0431   -36.8324    13.7916    11.8858
  299.5000    67.6194     8.0539     2.1056     0.2568     0.0485   -36.9146    13.5257    11.9982
  300.0000    67.1938     7.9907     2.0597     0.2749     0.0534   -36.9326    13.2648    12.1355
  300.5000    66.7464     7.9900     2.0139     0.2930     0.0577   -36.7511    13.0087    12.2744
  301.0000    66.3204     8.0746     1.9951     0.3112     0.0656   -36.5784    12.7585    12.4460
  301.5000    65.8840     8.8500     1.9322     0.3293     0.0756   -36.4110    12.5589    12.3691
  302.0000    65.4498     8.4311     1.8793     0.3474     0.0856   -36.0360    12.5634    12.2711
  302.5000    65.0159     7.8099     1.8262     0.3656     0.0960   -35.6235    12.6774    12.1739
  303.0000    64.5821     8.0373     1.7732     0.3832     0.1117   -35.1859    12.8819    12.0775
