~VERSION INFORMATION
 VERS.                2.0:   CWLS LOG ASCII STANDARD - VERSION 2.0
 WRAP.                 NO:   ONE LINE PER DEPTH STEP
~WELL INFORMATION
#MNEM.UNIT      DATA TYPE    INFORMATION
#----------   ------------   ------------------------------
 STRT.F           14.0000:   START DEPTH
 STOP.F          623.5000:   STOP DEPTH
 STEP.F            0.5000:   STEP LENGTH
 NULL.          -999.2500:   NO VALUE
 COMP. LAWRENCE/ALLISON INC:   COMPANY
 WELL.   23-61 STX #10-10:   WELL
 FLD .             TEAPOT:   FIELD
 LOC .      S10 T38N R78W:   LOCATION
 CNTY.            NATRONA:   COUNTY
 STAT.            WYOMING:   STATE
 CTRY. UNITED STATES OF AMERICA:   COUNTRY
 SRVC.           Gearhart:   SERVICE COMPANY
 DATE.        02-JUL-1986:   LOGDATE
 API .       490251107700:   API NUMBER
~CURVE INFORMATION
#MNEM.UNIT       API CODE    CURVE DESCRIPTION
#----------   ------------   ------------------------------
 DEPT.F                  :   
 GRR .GAPI   07 310 01 00:   GAMMA RAY FROM RES. LOG
 RILD.OHMM   07 120 46 00:   INDUCTION LOG DEEP RESISTIVITY
 RILM.OHMM   07 120 44 00:   INDUCTION LOG MEDIUM
~PARAMETER INFORMATION
#MNEM.UNIT          VALUE    DESCRIPTION
#----------   ------------   ------------------------------
 PD  .                 GL:   PERMANENT DATUM
 EPD .F              5251:   ELEVATION PERMANENT DATUM
 LMF .                 KB:   LOG MEASURED FROM
 DAPD.F                 5:   FEET ABOVE PERMANENT DATUM
 DMF .                 KB:   DRILLING MEASURED FROM
 EKB .F              5256:   KELLING BUSHING
 EGL .F              5251:   GROUND LEVEL
 DATE.             7-2-86:   RUN DATE
 RUN .                  1:   RUN NUMBER
 DD  .F               648:   DEPTH DRILLER
 DL  .F               633:   DEPTH LOGGER
 BLI .F               623:   BOTTOM LOG INTERVAL
 TLI .F                15:   TOP LOG INTERVAL
 CS  .IN            8.625:   CASING SIZE
 CBD .F                47:   CASING BOTTOM DRILLER
 CBL .F                47:   CASING BOTTOM LOGGER
 BS  .IN            7.875:   BIT SIZE
 BSD .F               648:   BIT SIZE AT DEPTH
 DFT .               FOAM:   DRILLING FLUID TYPE
 BHT .F                82:   BOTTOM HOLE TEMPERATURE
 TCS .HRS            0930:   TIME CURCULATED STOPPED
 TLAB.HRS            1240:   TIME LOGGER AT BOTTOM
 MRT .F                82:   MAXIMUM RECORDED TEMPERATURE
 LUN .               7609:   LOGGING UNIT NUMBER
 LUL .           GILLETTE:   LOGGING UNIT LOCATION
 ENGI.              BAUER:   RECORDING ENGINEER
 WITN.           JENNINGS:   WITNESSED BY
 CLNT.            A2DTECH:   CLIENT CODE
 ORIG.       2", 5" PRINT:   ORIGIN OF DATA
 UWI .       490251107700:   UNIQUE WELL ID
 DICO. A2D Technologies, Inc.:   DIGITIZING COMPANY
~OTHER INFORMATION
~A   DEPT       GRR      RILD       RILM   
# ...
  378.0000   126.1361     8.1979     7.9526
  378.5000   125.9545     8.1772     7.9479
  379.0000   120.8918     8.1565     7.9432
  379.5000   119.4364     8.1359     7.9385
  380.0000   121.9923     8.1196     7.9338
  380.5000   124.6697     8.1143     7.9291
  381.0000   126.2618     8.1052     7.9244
  381.5000   125.3702     8.0962     7.9197
  382.0000   123.7700     8.0872     7.9150
  382.5000   122.1701     8.0782     7.9103
  383.0000   120.8849     8.0692     7.9056
  383.5000   122.1965     8.0604     7.9009
  384.0000   124.0698     8.0512     7.8984
  384.5000   125.9434     8.0444     7.8005
  385.0000   125.8910     7.8772     7.6536
  385.5000   125.3836     7.7194     7.5094
  386.0000   124.9450     7.5647     7.3681
  386.5000   126.5036     7.4132     7.2294
  387.0000   128.6251     7.2646     7.0925
  387.5000   132.2113     7.1189     6.9452
  388.0000   135.7169     6.9780     6.7581
  388.5000   137.5428     6.8417     6.5761
  389.0000   132.7629     6.6560     6.3990
  389.5000   128.1003     6.4752     6.2267
  390.0000   123.8503     6.2994     6.0590
  390.5000   124.0411     6.1284     5.8959
  391.0000   125.3521     5.9619     5.7371
  391.5000   126.6526     5.8001     5.5826
  392.0000   125.6470     5.7471     5.3833
  392.5000   123.6443     5.9223     5.4854
  393.0000   121.5624     6.0448     5.6416
  393.5000   121.9919     6.1354     5.8022
  394.0000   123.4849     6.4285     5.9672
  394.5000   124.5788     6.7140     6.2093
  395.0000   122.5341     6.9665     6.4613
  395.5000   120.1575     7.1077     6.7235
  396.0000   119.4704     7.1984     6.9077
  396.5000   121.9163     7.2589     6.9926
  397.0000   124.3087     7.0995     6.9974
  397.5000   124.3417     6.8985     6.5313
  398.0000   123.4492     6.5831     6.2411
  398.5000   123.3948     6.2821     5.9742
  399.0000   125.1949     5.9948     5.7210
  399.5000   128.0826     5.7207     5.4784
  400.0000   130.8078     5.3833     5.2461
  400.5000   132.7482     5.4576     5.0899
  401.0000   129.7312     5.5653     5.1558
  401.5000   126.4118     5.7080     5.3262
  402.0000   122.9579     5.9359     5.5272
  402.5000   122.1643     6.1714     5.9137
  403.0000   122.1330     6.4163     6.1459
  403.5000   121.3018     6.6708     6.3980
  404.0000   122.3749     6.9355     6.6576
  404.5000   122.2183     7.2107     6.9277
  405.0000   118.5416     7.4968     7.2089
  405.5000   114.8461     7.7943     7.5015
  406.0000   115.6815     8.1199     7.8221
  406.5000   120.6203     8.1556     7.8565
  407.0000   125.4627     8.2036     7.9027
  407.5000   127.6835     8.2518     7.9491
  408.0000   123.6692     8.3003     7.9961
  408.5000   119.7339     8.3506     8.0439
  409.0000   116.1789     8.3569     8.0895
  409.5000   115.0180     8.3651     8.1477
  410.0000   113.9973     8.3733     8.1961
  410.5000   114.1644     8.3814     8.1831
  411.0000   115.0390     8.3896     8.1721
  411.5000   115.9044     8.3978     8.1612
  412.0000   116.7723     8.4060     8.1503
  412.5000   117.1947     8.4143     8.1394
  413.0000   114.3455     8.4224     8.1285
  413.5000   111.4432     8.4368     8.1207
  414.0000   108.7683     8.4768     8.1552
  414.5000   108.7470     8.5167     8.1848
  415.0000   109.2507     8.5567     8.2144
  415.5000   109.7677     8.5969     8.2448
  416.0000   109.7176     8.6374     8.2743
  416.5000   109.1500     8.6686     8.0529
  417.0000   108.8214     8.4083     7.7310
  417.5000   111.1514     8.0086     7.4216
  418.0000   113.8355     7.6280     7.1246
  418.5000   116.5130     7.2654     6.8395
  419.0000   118.4092     6.9201     6.5658
  419.5000   115.2989     6.6735     6.3690
  420.0000   112.2169     6.9335     6.4556
  420.5000   109.8564     7.2355     6.5387
  421.0000   111.8370     7.5750     6.9255
  421.5000   114.0119     8.0009     7.3868
  422.0000   116.1402     8.4508     7.8787
  422.5000   115.2162     8.9260     8.4035
  423.0000   111.7448     9.4279     8.9149
  423.5000   108.3177     9.9581     9.3202
  424.0000   107.2691    10.4140     9.7106
  424.5000   108.5768    10.6299    10.1173
  425.0000   110.0234    10.8502    10.2080
  425.5000   110.0588    11.0516    10.3042
  426.0000   106.2811    11.6831    10.4746
  426.5000   100.1480    12.4235    10.8843
  427.0000    91.9074    13.2108    11.3681
  427.5000    83.4978    14.0480    12.3489
  428.0000    79.5336    14.9382    13.4142
  428.5000    75.7203    15.8507    14.5715
  429.0000    71.8995    16.5708    15.5163
  429.5000    68.1197    17.3287    16.4005
  430.0000    64.6086    18.1148    17.1936
  430.5000    61.2191    18.8535    17.7959
  431.0000    59.2419    18.9984    17.6992
  431.5000    57.1829    18.4602    17.0573
  432.0000    56.9139    17.7654    16.4386
  432.5000    58.7638    17.1478    15.8423
  433.0000    59.6384    16.2894    15.2677
  433.5000    59.8305    15.4739    14.7139
  434.0000    60.0096    14.6992    14.1802
  434.5000    60.1870    14.0630    13.8092
  435.0000    60.3464    13.9116    13.5526
  435.5000    59.7919    13.7003    13.1978
  436.0000    61.5380    13.7947    13.2888
  436.5000    65.6187    13.9573    13.4455
  437.0000    69.6947    14.1219    13.6040
  437.5000    72.5691    14.3956    13.8677
  438.0000    69.0926    14.8412    14.2969
  438.5000    64.9444    15.3005    14.7394
  439.0000    66.9377    15.7740    15.1955
  439.5000    70.3740    16.1436    15.5516
  440.0000    73.8021    16.5470    15.9402
  440.5000    75.6557    16.9605    16.3385
  441.0000    75.2018    17.3843    16.7467
  441.5000    75.1710    17.7500    17.1128
  442.0000    79.4142    18.0292    17.4165
  442.5000    83.4106    18.3131    17.7255
  443.0000    81.4124    18.6016    18.0399
  443.5000    76.4646    18.8946    18.3599
  444.0000    71.5933    19.1923    18.6856
  444.5000    68.8973    19.3567    18.9984
  445.0000    71.5115    19.3826    18.9676
  445.5000    76.2946    19.4130    18.9209
  446.0000    79.3888    19.4433    18.8742
  446.5000    80.5720    19.4737    18.8295
  447.0000    78.0169    19.5040    18.6677
  447.5000    75.5691    19.5397    18.4943
  448.0000    73.5045    19.4583    18.3215
  448.5000    75.6868    19.3385    18.1505
  449.0000    77.8803    19.2205    17.9629
  449.5000    80.0596    19.1033    18.0046
  450.0000    80.1291    18.9984    18.0514
  450.5000    77.8441    18.9038    18.0983
  451.0000    75.5319    18.8182    18.1315
  451.5000    75.1872    18.7330    18.0294
  452.0000    78.5689    18.6482    17.9511
  452.5000    81.9191    18.5637    17.8729
  453.0000    83.7800    18.4796    17.7952
  453.5000    82.1139    18.3958    17.7177
  454.0000    80.4502    18.3127    17.6406
  454.5000    82.4646    18.2541    17.6305
  455.0000    86.1212    18.1994    17.6305
  455.5000    89.8713    18.1448    17.6305
  456.0000    88.4485    18.0905    17.6304
  456.5000    86.1116    18.0362    17.6304
  457.0000    85.8354    17.9629    17.6304
  457.5000    87.2126    18.0281    17.6309
  458.0000    88.3190    18.1301    17.6568
  458.5000    85.5922    18.2326    17.7181
  459.0000    82.8449    18.3357    17.7791
  459.5000    80.7050    18.4394    17.8406
  460.0000    79.4585    18.5436    17.9022
  460.5000    80.2724    18.6468    17.9628
  461.0000    81.9261    18.6468    17.9969
  461.5000    83.4531    18.6468    18.0304
  462.0000    86.5646    18.6459    18.0642
  462.5000    87.8068    18.6481    18.0985
  463.0000    84.5200    18.4912    18.1310
  463.5000    81.3441    18.3626    17.9617
  464.0000    78.8318    18.2349    17.7927
  464.5000    79.4492    18.1315    17.6254
  465.0000    81.0058    17.9509    17.4596
  465.5000    82.5515    17.7691    17.2954
  466.0000    85.5579    17.5892    17.1328
  466.5000    88.8581    17.4111    16.9717
  467.0000    89.0247    17.2346    16.8120
  467.5000    85.9053    17.0604    16.6539
  468.0000    82.8017    16.9144    16.4973
  468.5000    79.6604    16.7906    16.3422
