~VERSION INFORMATION
 VERS.                2.0:   CWLS LOG ASCII STANDARD - VERSION 2.0
 WRAP.                 NO:   ONE LINE PER DEPTH STEP
~WELL INFORMATION
#MNEM.UNIT      DATA TYPE    INFORMATION
#----------   ------------   ------------------------------
 STRT.F          142.0000:   START DEPTH
 STOP.F          940.5000:   STOP DEPTH
 STEP.F            0.5000:   STEP LENGTH
 NULL.          -999.2500:   NO VALUE
 COMP. U S NAVY-INTEX OIL:   COMPANY
 WELL.     RESERVE #44S-2:   WELL
 FLD .             TEAPOT:   FIELD
 LOC .       S2 T38N R78W:   LOCATION
 CNTY.            NATRONA:   COUNTY
 STAT.            WYOMING:   STATE
 CTRY. UNITED STATES OF AMERICA:   COUNTRY
 SRVC. Schlumberger Well Surveying Corp:   SERVICE COMPANY
 DATE.        06-AUG-1959:   LOGDATE
 API .       490250644200:   API NUMBER
~CURVE INFORMATION
#MNEM.UNIT       API CODE    CURVE DESCRIPTION
#----------   ------------   ------------------------------
 DEPT.F                  :   
 ASN .OHMM   05 041 16 00:   AMPLIFIER SHORT NORMAL 16"
 CILD.MMHO   05 110 46 00:   CONDUCTIVITY INDUCTION LOG DEEP
 ILD .OHMM   05 110 46 00:   INDUCTION LOG DEEP
 SPR .MV     05 010 01 00:   SPONTANEOUS POTENTIAL FROM RES.
~PARAMETER INFORMATION
#MNEM.UNIT          VALUE    DESCRIPTION
#----------   ------------   ------------------------------
 LMF .                 KB:   LOG MEASURED FROM
 DMF .                 KB:   DRILLING MEASURED FROM
 EDF .F              5146:   DRILLING FLOOR
 EGL .F              5142:   GROUND LEVEL
 DATE.        06-AUG-1959:   RUN DATE
 RUN .                  1:   RUN NUMBER
 DD  .F               948:   DEPTH DRILLER
 DL  .F               946:   DEPTH LOGGER
 BLI .F               940:   BOTTOM LOG INTERVAL
 TLI .F               143:   TOP LOG INTERVAL
 CBD .F                17:   CASING BOTTOM DRILLER
 BS  .IN             6.75:   BIT SIZE
 BSD .F               948:   BIT SIZE AT DEPTH
 DFT .                GEL:   DRILLING FLUID TYPE
 RMS .OHMM             75:   RESISTIVITY MUD SAMPLE
 MST .F                75:   MUD SAMPLE TEMPERATURE
 TCS .HRS               1:   TIME CURCULATED STOPPED
 LUN .               2754:   LOGGING UNIT NUMBER
 LUL .                 NC:   LOGGING UNIT LOCATION
 ENGI.             QUINBY:   RECORDING ENGINEER
 WITN.             MARTIN:   WITNESSED BY
 CLNT.            A2DTECH:   CLIENT CODE
 ORIG.        2" 5" PRINT:   ORIGIN OF DATA
 UWI .       490250644200:   UNIQUE WELL ID
 DICO. A2D Technologies, Inc.:   DIGITIZING COMPANY
~OTHER INFORMATION
~A   DEPT      ASN       CILD        ILD        SPR   
  142.0000  -999.2500  -999.2500  -999.2500  -999.2500
  142.5000     5.6251   179.5358     5.4478   -75.2549
  143.0000     5.6213   176.8293     5.5144   -74.9069
  143.5000     5.8520   176.1548     5.5128   -74.7919
  144.0000     6.0201   176.1632     5.5115   -74.7925
  144.5000     6.1351   176.5430     5.5102   -74.7932
  145.0000     6.1714   177.0814     5.5086   -74.7939
  145.5000     6.2158   178.8991     5.4396   -74.7945
  146.0000     5.5921   180.1267     5.4383   -74.7953
  146.5000     3.8303   182.3167     5.4369   -74.7959
  147.0000     6.1528   183.4208     5.3677   -74.7965
  147.5000     6.1873   184.5249     5.3664   -74.7973
  148.0000     6.1869   185.7200     5.3985   -74.7979
  148.5000     6.1644   186.7330     5.4316   -74.7985
  149.0000     6.0915   187.7692     5.4299   -74.7992
  149.5000     6.0430   187.7772     5.4966   -74.7999
  150.0000     6.0230   188.0090     5.5631   -74.8006
  150.5000     6.0227   188.4685     5.5617   -74.8012
  151.0000     6.0224   187.7964     5.6284   -74.8019
  151.5000     6.0357   187.8032     5.6946   -74.8027
  152.0000     6.0658   187.1321     5.7277   -74.8032
  152.5000     6.1125   186.8552     5.7689   -74.6709
  153.0000     6.1971   186.4659     5.8263   -74.4637
  153.5000     6.2973   186.0317     5.9190   -74.4062
  154.0000     6.3320   184.9412     5.9602   -74.4070
  154.5000     6.3316   183.7720     6.0692   -74.4645
  155.0000     6.3313   182.4208     6.1284   -74.6809
  155.5000     6.3445   180.2330     6.2266   -74.8078
  156.0000     6.4009   177.0056     6.3284   -74.8085
  156.5000     6.5082   174.0249     6.4374   -74.8092
  157.0000     6.6687   170.2309     6.5615   -74.7385
  157.5000     6.9519   165.9389     6.6554   -74.4115
  158.0000     7.4815   162.2353     6.7644   -74.2793
  158.5000     7.4726   157.3560     6.8734   -74.2799
  159.0000     7.2094   152.2037     6.9145   -74.4136
  159.5000     8.0897   144.3372     6.9620   -74.4142
  160.0000     8.3053   140.8597     6.8566   -74.5833
  160.5000     7.8211   140.4140     6.7341   -74.6816
  161.0000     7.2079   143.1362     6.4829   -74.8152
  161.5000     7.0290   148.6629     6.3858   -74.7983
  162.0000     6.8956   162.6967     6.2062   -74.6835
  162.5000     6.8547   168.9490     6.0945   -74.6343
  163.0000     6.8408   169.8824     6.0706   -74.5519
  163.5000     6.8268   170.3191     6.0691   -74.4195
  164.0000     6.7973   169.9185     6.2035   -74.2553
  164.5000     6.6907   168.8281     6.2818   -74.1549
  165.0000     6.6967   167.6251     6.4042   -74.0913
  165.5000     6.8173   165.6629     6.5287   -74.0232
  166.0000     6.9742   163.4751     6.6766   -74.0240
  166.5000     7.1647   161.5375     6.8071   -74.2039
  167.0000     7.3332   158.8960     6.9154   -74.4242
  167.5000     7.5152   154.0841     7.0759   -74.7152
  168.0000     7.6565   147.4842     7.1425   -74.9575
  168.5000     7.8127   141.2691     7.2770   -75.0912
  169.0000     7.9581   135.1005     7.4110   -75.0310
  169.5000     8.1651   133.7489     7.4396   -74.9490
  170.0000     8.2859   133.0769     7.5442   -74.6943
  170.5000     8.3127   133.9208     7.6103   -74.5191
  171.0000     8.2988   136.9593     7.4980   -74.4295
  171.5000     8.1998   141.2427     7.2686   -74.4302
  172.0000     7.9145   145.9095     7.0538   -74.2978
  172.5000     7.5525   150.3054     6.9132   -74.1656
  173.0000     7.4066   154.1596     6.7217   -74.1662
  173.5000     7.2711   155.9525     6.6219   -74.0270
  174.0000     7.0365   158.2446     6.5102   -73.9016
  174.5000     7.0010   159.9819     6.3783   -73.7692
  175.0000     6.9546   160.2934     6.3998   -73.6370
  175.5000     7.2990   158.2656     6.5115   -73.6376
  176.0000     7.4282   155.8280     6.6857   -73.6383
  176.5000     7.4278   152.1470     6.8625   -73.6391
  177.0000     7.4275   150.3891     6.9822   -73.6396
  177.5000     7.4678   148.7885     6.9810   -73.6403
  178.0000     7.6421   148.7970     6.7571   -73.6410
  178.5000     7.7517   152.1290     6.4353   -73.6773
  179.0000     7.3719   156.6154     6.2515   -73.9083
  179.5000     7.0149   163.0713     6.0936   -74.3110
  180.0000     6.7841   165.5656     5.9430   -74.4415
  180.5000     6.6527   167.8351     5.8720   -74.4423
  181.0000     6.6173   170.6471     5.8181   -74.0767
  181.5000     6.5843   172.7240     5.8168   -73.9116
  182.0000     6.5776   174.6434     5.8834   -73.5638
  182.5000     6.6455   174.6493     5.9496   -73.3809
  183.0000     6.7323   174.6561     5.9729   -73.6477
  183.5000     6.7642   174.2217     6.0149   -73.9787
  184.0000     6.7724   171.9536     6.0136   -74.0478
  184.5000     6.7503   172.6408     6.0122   -73.6497
  185.0000     6.6951   174.6833     6.0107   -73.3843
  185.5000     6.5816   176.8054     6.0095   -73.3850
  186.0000     6.3778   178.0916     6.0000   -73.3856
  186.5000     6.2676   177.8597     5.9387   -73.3863
  187.0000     6.2235   177.4253     5.8697   -73.5200
  187.5000     6.2884   177.4321     5.7327   -73.6536
  188.0000     6.4038   176.0806     5.6888   -73.5106
  188.5000     6.4512   175.4103     5.6621   -73.1231
  189.0000     6.4881   175.7104     5.6607   -73.3856
  189.5000     6.5247   176.8484     5.6251   -73.9222
  190.0000     6.5181   179.0498     5.5812   -73.9805
  190.5000     6.4292   181.6357     5.4530   -73.8985
  191.0000     6.2018   186.9823     5.3578   -73.6583
  191.5000     6.0019   191.4344     5.2460   -73.3930
  192.0000     5.8455   195.0046     5.1777   -73.2535
  192.5000     5.7340   200.5780     5.1085   -73.1283
  193.0000     5.6544   205.4027     5.0393   -73.0895
  193.5000     5.6322   208.0566     5.0380   -72.9967
  194.0000     5.6138   209.1493     5.1046   -72.9973
  194.5000     5.6135   209.4267     5.1029   -72.9980
  195.0000     5.6472   207.3989     5.1289   -73.1317
  195.5000     5.6823   205.4367     5.1683   -73.1323
  196.0000     5.7073   203.2941     5.1669   -73.1330
  196.5000     5.7205   201.3113     5.1845   -73.2199
  197.0000     5.7473   200.4344     5.2320   -73.2673
  197.5000     5.7685   199.2877     5.2985   -73.2680
  198.0000     5.7901   198.2534     5.3080   -73.4016
  198.5000     5.8005   197.2641     5.3636   -73.4023
  199.0000     5.8001   196.5937     5.3903   -73.4030
  199.5000     5.7863   196.5995     5.4288   -73.4036
  200.0000     5.7995   196.6063     5.4274   -73.4043
  200.5000     5.8339   196.6131     5.4941   -73.5379
  201.0000     5.8801   195.6245     5.5603   -73.4055
  201.5000     5.9207   193.2337     5.5590   -73.4063
  202.0000     5.9641   191.9276     5.6257   -73.3422
  202.5000     6.0010   189.7398     5.6240   -73.1416
  203.0000     6.0374   187.1461     5.6712   -73.0094
  203.5000     6.0952   185.3643     5.7607   -72.9632
  204.0000     6.1594   181.7288     5.8236   -72.8777
  204.5000     6.2305   177.9005     5.8904   -72.8966
  205.0000     6.3008   176.2104     5.9565   -72.8989
  205.5000     6.3760   174.3217     5.9932   -72.9016
  206.0000     6.5014   171.9230     6.0897   -72.9047
  206.5000     6.6793   169.5487     6.0880   -72.9552
  207.0000     6.6371   167.5654     6.1845   -73.0425
  207.5000     6.5927   167.5735     6.2212   -73.0452
  208.0000     6.5436   168.2627     6.2196   -73.0479
  208.5000     6.4841   170.4491     6.0393   -73.0506
  209.0000     6.4163   174.5497     5.7422   -73.0532
  209.5000     6.2995   181.1896     5.3817   -73.0558
  210.0000     6.1350   190.6110     5.0950   -72.9257
  210.5000     5.7700   205.4851     4.8025   -72.9282
  211.0000     5.0194   217.1934     4.5274   -72.7775
  211.5000     4.8076   230.8428     4.3149   -72.5349
  212.0000     4.7138   247.1946     4.1899   -72.4043
  212.5000     4.5466   258.6271     4.1893   -72.2628
  213.0000     4.3542   264.8665     4.1886   -72.1436
  213.5000     4.3613   266.7907     4.2557   -72.0971
  214.0000     4.7020   265.4454     4.4030   -71.8830
  214.5000     5.0882   262.1006     4.7345   -71.9730
