~VERSION INFORMATION
 VERS.                2.0:   CWLS LOG ASCII STANDARD - VERSION 2.0
 WRAP.                 NO:   ONE LINE PER DEPTH STEP
~WELL INFORMATION
#MNEM.UNIT      DATA TYPE    INFORMATION
#----------   ------------   ------------------------------
 STRT.F           11.0000:   START DEPTH
 STOP.F          807.0000:   STOP DEPTH
 STEP.F            0.5000:   STEP LENGTH
 NULL.          -999.2500:   NO VALUE
 COMP. BROWN JOHN E&C INC:   COMPANY
 WELL. NPR 3 SHX-34 #77-1-34:   WELL
 FLD .             TEAPOT:   FIELD
 LOC .      S34 T39N R79W:   LOCATION
 CNTY.            NATRONA:   COUNTY
 STAT.            WYOMING:   STATE
 CTRY. UNITED STATES OF AMERICA:   COUNTRY
 SRVC.     Atlas Wireline:   SERVICE COMPANY
 DATE.        07-DEC-1991:   LOGDATE
 API .       490252248000:   API NUMBER
~CURVE INFORMATION
#MNEM.UNIT       API CODE    CURVE DESCRIPTION
#----------   ------------   ------------------------------
 DEPT.F                  :   
 CALD.IN     45 280 60 00:   CALIPER FROM DENSITY LOG
 CORR.G/C3   45 356 01 00:   DENSITY CORRECTION
 DEN .G/C3   45 350 01 00:   COMPENSATED BULK DENSTIY
 GRD .GAPI   45 310 01 00:   GAMMA RAY FROM DENSITY LOG
 PORD.DEC    45 890 12 00:   POROSITY DENSITY SANDSTONE
 GRR .GAPI   07 310 01 00:   GAMMA RAY FROM RESISTIVITY
 RILD.OHMM   07 120 46 00:   RESISTIVITY INDUCTION LOG DEEP
 RILM.OHMM   07 120 44 00:   RESITIVITY INDUCTION LOG MEDIUM
~PARAMETER INFORMATION
#MNEM.UNIT          VALUE    DESCRIPTION
#----------   ------------   ------------------------------
 PD  .                 GL:   PERMANENT DATUM
 EPD .F              5098:   ELEVATION PERMANENT DATUM
 LMF .                 KB:   LOG MEASURED FROM
 DAPD.F                10:   FEET ABOVE PERMANENT DATUM
 DMF .                 KB:   DRILLING MEASURED FROM
 EKB .F              5108:   KELLING BUSHING
 EDF .F              5107:   DRILLING FLOOR
 EGL .F              5098:   GROUND LEVEL
 DATE.        07-DEC-1991:   RUN DATE
 RUN .                  1:   RUN NUMBER
 DD  .F               810:   DEPTH DRILLER
 DL  .F               810:   DEPTH LOGGER
 BLI .F               808:   BOTTOM LOG INTERVAL
 CS  .IN            9.625:   CASING SIZE
 CBD .F                85:   CASING BOTTOM DRILLER
 CBL .F                97:   CASING BOTTOM LOGGER
 BS  .IN             8.75:   BIT SIZE
 BSD .F               810:   BIT SIZE AT DEPTH
 DFT .                AIR:   DRILLING FLUID TYPE
 BHT .F                90:   BOTTOM HOLE TEMPERATURE
 MRT .F                90:   MAXIMUM RECORDED TEMPERATURE
 LUN .            HL 6274:   LOGGING UNIT NUMBER
 LUL .             CASPER:   LOGGING UNIT LOCATION
 ENGI.       P. RASMUSSEN:   RECORDING ENGINEER
 WITN.        GARY STRONG:   WITNESSED BY
 CLNT.            A2DTECH:   CLIENT CODE
 ORIG.           5" PRINT:   ORIGIN OF DATA
 UWI .       490252248000:   UNIQUE WELL ID
 DICO. A2D Technologies, Inc.:   DIGITIZING COMPANY
~OTHER INFORMATION
~A   DEPT     CALD       CORR        DEN        GRD       PORD         GRR      RILD       RILM   
# ...
  659.0000     9.0530     0.0049     2.3637   105.5964     0.1726    89.7324    11.8196    11.5677
  659.5000     9.0527     0.0109     2.3487   101.3866     0.1820    67.6692    12.6701    12.2248
  660.0000     9.0375     0.0245     2.3034    93.8735     0.2055    61.6541    13.9477    13.4665
  660.5000     9.0371     0.0199     2.2660    87.8260     0.2296    53.5338    15.0473    15.4628
  661.0000     9.0219     0.0049     2.2168    79.7468     0.2548    50.2256    16.0109    17.7547
  661.5000     9.0216     0.0049     2.1731    78.5400     0.2785    48.7218    16.6870    18.2517
  662.0000     9.0213     0.0081     2.1573    79.7356     0.2958    52.0301    17.3914    17.9996
  662.5000     9.0209     0.0109     2.1851    82.4313     0.2867    56.5414    17.3903    17.5074
  663.0000     9.0207     0.0109     2.2016    86.0293     0.2801    66.4662    17.1507    16.7945
  663.5000     9.0204     0.0109     2.2167    88.7264     0.2551    71.9157    16.6824    16.3353
  664.0000     9.0501     0.0079     2.2512    92.7369     0.2427    72.4812    16.0044    15.8887
  664.5000     9.0497     0.0079     2.2587    97.1718     0.2379    72.4812    15.5672    15.4542
  665.0000     9.0495     0.0049     2.2564    99.2795     0.2373    75.4887    15.2471    15.2409
  665.5000     9.0642     0.0079     2.2481   100.4876     0.2415    76.0902    14.9335    15.0304
  666.0000     9.0635     0.0139     2.2451    99.5923     0.2430    74.2857    14.7278    15.0294
  666.5000     9.0585     0.0124     2.2466    98.0964     0.2408    70.6767    14.5246    14.9249
  667.0000     9.0585     0.0046     2.2489    96.5725     0.2403    71.2782    14.6245    14.9239
  667.5000     9.0585     0.0019     2.2548    94.8056     0.2412    73.9850    14.7249    15.0265
  668.0000     9.0585     0.0139     2.2540    94.5095     0.2421    74.5865    14.7237    15.2345
  668.5000     9.0435     0.0199     2.2532    96.3302     0.2415    73.0827    14.9274    15.3395
  669.0000     9.0285     0.0169     2.2584    98.4274     0.2385    74.2857    14.9262    15.4446
  669.5000     9.0285     0.0094     2.2644    97.2318     0.2355    75.7895    15.1330    15.4434
  670.0000     9.0285     0.0019     2.2629    95.7358     0.2337    76.3910    15.1318    15.3360
  670.5000     9.0285    -0.0026     2.2606    94.2413     0.2355    74.5865    15.1308    15.3350
  671.0000     9.0285    -0.0011     2.2613    94.2469     0.2367    70.6767    15.1295    15.2283
  671.5000     9.0285     0.0004     2.2703    94.5528     0.2355    70.3759    15.1286    15.1221
  672.0000     9.0285     0.0019     2.2756    99.3645     0.2313    70.9774    15.1276    15.0169
  672.5000     9.0285     0.0019     2.2725   103.2740     0.2277    73.0827    14.9191    14.8097
  673.0000     9.0285     0.0034     2.2650   106.2826     0.2299    75.4887    14.7133    14.8088
  673.5000     9.0285     0.0034     2.2589   107.4895     0.2364    80.9023    14.5106    14.6044
  674.0000     9.0285     0.0019     2.2574   107.4964     0.2379    82.1053    14.4098    14.5026
  674.5000     9.0285     0.0019     2.2762   106.6010     0.2354    81.4716    14.3098    14.5017
  675.0000     9.0285     0.0004     2.2889   104.8048     0.2228    80.3008    14.3086    14.5007
  675.5000     9.0285     0.0003     2.2974   100.3073     0.2150    76.6917    14.3077    14.3998
  676.0000     9.0285     0.0003     2.2987    98.5110     0.2135    75.1880    14.3067    14.3987
  676.5000     9.0285     0.0003     2.2904    99.4175     0.2141    76.0902    14.3058    14.3977
  677.0000     9.0285     0.0003     2.2828   100.0251     0.2174    74.5865    14.5038    14.3968
  677.5000     9.0285     0.0032     2.2730    99.7304     0.2243    73.9850    14.5026    14.5963
  678.0000     9.0285     0.0032     2.2699    99.1340     0.2298    74.8872    14.7035    14.7986
  678.5000     9.0285     0.0062     2.2714    98.5403     0.2295    77.2932    14.8042    15.1076
  679.0000     9.0285     0.0062     2.2849    98.5473     0.2252    77.6381    14.9058    15.3169
  679.5000     9.0285     0.0076     2.3030   100.3547     0.2159    80.0000    15.0078    15.4222
  680.0000     9.0285     0.0091     2.3180   102.8026     0.2005    81.8045    15.1110    15.6357
  680.5000     9.0285     0.0136     2.3375   103.9695     0.1861    81.2030    15.1098    15.5269
  681.0000     9.0285     0.0181     2.3653   101.8743     0.1776    74.8073    15.0049    15.2072
  681.5000     9.0285     0.0150     2.3713    99.7778     0.1686    73.3835    14.6961    14.7914
  682.0000     9.0285     0.0090     2.3389    97.3824     0.1734    77.2932    14.1965    14.1749
  682.5000     9.0285     0.0044     2.3223    95.8864     0.1885    79.6992    13.7138    13.7060
  683.0000     9.0285    -0.0001     2.3103    97.3935     0.2047    80.3008    13.3394    13.4238
  683.5000     9.0285    -0.0031     2.3057   100.7038     0.2078    81.5038    13.1487    13.2385
  684.0000     9.0435    -0.0062     2.3057   104.0127     0.2078    85.1128    12.9742    13.0558
  684.5000     9.0435    -0.0032     2.3049   105.5198     0.2090    85.7143    12.7954    13.0548
  685.0000     9.0520    -0.0002     2.2986   105.8258     0.2120    85.7143    12.7946    12.9640
  685.5000     9.0585     0.0058     2.2845   105.8326     0.2162    85.4135    12.7937    12.9631
  686.0000     9.0585     0.0087     2.2815   105.2376     0.2199    84.8120    12.7927    12.9623
  686.5000     9.0585     0.0087     2.2800   103.0929     0.2222    83.9098    12.7918    12.8719
  687.0000     9.0585     0.0087     2.2792    96.8417     0.2237    82.4060    12.7030    12.7824
  687.5000     9.0585     0.0056     2.2807    95.6447     0.2237    82.1053    12.6148    12.6935
  688.0000     9.0585     0.0056     2.2897    96.2523     0.2189    85.1128    12.4284    12.5183
  688.5000     9.0585     0.0041     2.3084   101.0641     0.2129    86.9173    12.1849    12.3454
  689.0000     9.0585     0.0025     2.3227   104.0727     0.2017    87.5188    11.9344    12.0912
  689.5000     9.0585    -0.0005     2.3280   106.4806     0.1933    86.3158    11.7699    11.8421
  690.0000     9.0585    -0.0035     2.3172   108.2894     0.1993    86.6566    11.6024    11.5983
  690.5000     9.0585    -0.0006     2.3053   109.4962     0.2054    89.9248    11.2907    11.2809
  691.0000     9.0585    -0.0006     2.2985   111.0033     0.2096    92.9323    11.1351    11.0486
  691.5000     9.0585     0.0024     2.2947   112.5466     0.2138    93.5338    10.9817    10.8962
  692.0000     9.0585     0.0054     2.2947   113.7185     0.2156    93.2210    10.8304    10.7458
  692.5000     9.0585     0.0084     2.3039   111.9223     0.2140    89.3233    10.6810    10.5975
  693.0000     9.0585     0.0113     2.3255   110.1141     0.2057    80.9023    10.5338    10.3791
  693.5000     9.0585     0.0083     2.3503   109.5311     0.1945    80.0000    10.3887    10.3069
  694.0000     9.0585     0.0022     2.3608   110.7392     0.1776    80.9023    10.3165    10.1647
  694.5000     9.0585    -0.0008     2.3675   112.2463     0.1731    93.5338    10.2352    10.1596
  695.0000     9.0585    -0.0053     2.3713   114.3554     0.1695    93.5338    10.1035    10.0236
  695.5000     9.0585    -0.0099     2.3765   115.5622     0.1659    92.9323    10.0334    10.0230
  696.0000     9.0585    -0.0129     2.3787   114.3665     0.1638    91.1278     9.9637    10.0223
  696.5000     9.0585    -0.0115     2.3794   109.5687     0.1631    85.6662     9.9630    10.0217
  697.0000     9.0585    -0.0085     2.3802   108.3717     0.1631    84.8120     9.8256    10.0208
  697.5000     9.0585    -0.0055     2.3786   109.5799     0.1638    85.1128     9.8250    10.0202
  698.0000     9.0585    -0.0040     2.3756   115.6557     0.1650    85.4135     9.8243    10.0195
  698.5000     9.0435    -0.0025     2.3733   117.7005     0.1656    85.7143     9.8917    10.0884
  699.0000     9.0435    -0.0026     2.3725   117.4058     0.1656    85.7143     9.9596    10.1577
