~VERSION INFORMATION
 VERS.                2.0:   CWLS LOG ASCII STANDARD - VERSION 2.0
 WRAP.                 NO:   ONE LINE PER DEPTH STEP
~WELL INFORMATION
#MNEM.UNIT      DATA TYPE    INFORMATION
#----------   ------------   ------------------------------
 STRT.F            0.0000:   START DEPTH
 STOP.F          539.0000:   STOP DEPTH
 STEP.F            0.5000:   STEP LENGTH
 NULL.          -999.2500:   NO VALUE
 COMP. FENIX & SCISSON INC:   COMPANY
 WELL.     NPR 3 SX #23-3:   WELL
 FLD .             TEAPOT:   FIELD
 LOC .       S3 T38N R78W:   LOCATION
 CNTY.            NATRONA:   COUNTY
 STAT.            WYOMING:   STATE
 CTRY. UNITED STATES OF AMERICA:   COUNTRY
 SRVC.           BIRDWELL:   SERVICE COMPANY
 DATE.        27-JUL-1978:   LOGDATE
 API .       490251067500:   API NUMBER
~CURVE INFORMATION
#MNEM.UNIT       API CODE    CURVE DESCRIPTION
#----------   ------------   ------------------------------
 DEPT.F                  :   
 ILD .OHMM   05 120 40 00:   INDUCTION LOG DEEP
 SPR .MV     05 010 01 00:   SPONTANEOUS POTENTIAL
 SN  .OHMM   05 040 16 00:   SHORT NORMAL 16"
 CALD.IN     45 280 60 00:   CALIPER FROM DENSITY LOG
 CORR.G/C3   45 356 01 00:   DENSITY CORRECTION
 DPHI.DEC    45 890 12 00:   DENSITY POROSITY SANDSTONE
 GRD .GAPI   45 310 01 00:   GAMMA RAY FROM DENSITY LOG
 RHOB.G/C3   45 350 01 00:   BULK DENSITY
~PARAMETER INFORMATION
#MNEM.UNIT          VALUE    DESCRIPTION
#----------   ------------   ------------------------------
 PD  .                 GL:   PERMANENT DATUM
 EPD .F              5787:   ELEVATION PERMANENT DATUM
 LMF .                 KB:   LOG MEASURED FROM
 DAPD.F                 4:   FEET ABOVE PERMANENT DATUM
 DMF .                 KB:   DRILLING MEASURED FROM
 EKB .F              5191:   KELLING BUSHING
 EGL .F              5187:   GROUND LEVEL
 DATE.         7-JUL-1978:   RUN DATE
 RUN .                  1:   RUN NUMBER
 DD  .F               540:   DEPTH DRILLER
 DL  .F               540:   DEPTH LOGGER
 BLI .F               539:   BOTTOM LOG INTERVAL
 CS  .IN            8.625:   CASING SIZE
 CBD .F                40:   CASING BOTTOM DRILLER
 BS  .IN            7.875:   BIT SIZE
 BSD .F               540:   BIT SIZE AT DEPTH
 DFT .                KCL:   DRILLING FLUID TYPE
 DFD .                8.6:   DRILLING FLUID DENSITY
 DFV .                 30:   DRILLING FLUID VISCOSITY
 DFPH.                  9:   DRILLING FLUID PH
 MSS .           FLOWLINE:   MUD SAMPLE SOURCE
 MRT .F                74:   MAXIMUM RECORDED TEMPERATURE
 LUN .               2958:   LOGGING UNIT NUMBER
 LUL .               CASP:   LOGGING UNIT LOCATION
 ENGI.            POINTER:   RECORDING ENGINEER
 WITN.              AMEND:   WITNESSED BY
 CLNT.            A2DTECH:   CLIENT CODE
 ORIG.           5" PRINT:   ORIGIN OF DATA
 UWI .       490251067500:   UNIQUE WELL ID
 DICO. A2D Technologies, Inc.:   DIGITIZING COMPANY
~OTHER INFORMATION
~A    DEPT     ILD        SPR         SN         CALD     CORR       DPHI         GRD      RHOB   
# ...
  121.5000     8.2600   -26.8670     9.0419     7.5096     0.0098     0.1149    79.2849     2.4815
  122.0000     8.1501   -27.5998     8.9484     7.5245     0.0082     0.1161    79.2788     2.4769
  122.5000     8.0416   -28.1837     8.9245     7.5393     0.0096     0.1170    79.2716     2.4717
  123.0000     8.0449   -28.6190     8.8665     7.5541     0.0095     0.1176    78.9627     2.4664
  123.5000     8.0475   -28.1584     8.8088     7.5537     0.0093     0.1183    77.8963     2.4611
  124.0000     8.0501   -28.5935     8.8124     7.5836     0.0152     0.1177    77.2844     2.4603
  124.5000     7.9977   -29.7727     8.8152     7.6136     0.0211     0.1159    77.4303     2.4625
  125.0000     7.9456   -30.3595     8.8181     7.6284     0.0270     0.1141    78.1818     2.4663
  125.5000     7.8404   -29.8904     8.6415     7.6734     0.0313     0.1126    78.0000     2.4700
  126.0000     7.8430   -29.4384     8.5852     7.6878     0.0327     0.1111    76.9566     2.4722
  126.5000     7.8455   -29.1296     8.4140     7.7200     0.0326     0.1105    76.3091     2.4752
  127.0000     7.8487   -29.7163     8.3591     7.7330     0.0354     0.1099    75.5813     2.4751
  127.5000     7.8513   -30.2975     8.1862     7.7477     0.0323     0.1091    74.9694     2.4751
  128.0000     7.8538   -30.4322     8.1385     7.7626     0.0262     0.1100    74.3575     2.5021
  128.5000     7.9105   -30.8673     8.1418     7.7320     0.0201     0.1125    73.7091     2.5080
  129.0000     7.9131   -30.8561     8.1443     7.7317     0.0140     0.1160    73.1323     2.5080
  129.5000     7.9708   -30.8448     8.1471     7.6078     0.0139     0.1184    73.7340     2.4990
  130.0000     8.0283   -30.8333     8.1504     7.4441     0.0123     0.1220    74.7873     2.4720
  130.5000     8.0863   -30.8194     8.2091     7.4287     0.0137     0.1256    74.6300     2.4569
  131.0000     8.0889   -30.5105     8.3823     7.4284     0.0195     0.1274    74.1696     2.4532
  131.5000     8.3168   -30.2016     8.3850     7.4281     0.0209     0.1268    73.1030     2.4532
  132.0000     8.5517   -30.1904     8.6209     7.4429     0.0223     0.1234    73.0959     2.4568
  132.5000     8.6727   -29.7327     8.8640     7.4577     0.0221     0.1209    76.5749     2.4583
  133.0000     8.5566   -30.3138     8.9279     7.4725     0.0190     0.1206    78.9933     2.4598
  133.5000     8.3856   -31.3442     8.9922     7.4722     0.0188     0.1233    80.8056     2.4568
  134.0000     8.2181   -31.4821     8.9337     7.4791     0.0128     0.1332    81.5576     2.4530
  134.5000     8.1080   -31.3214     8.8756     7.4867     0.0127     0.1404    81.5515     2.4477
  135.0000     8.1113   -31.4592     8.9402     7.4864     0.0141     0.1422    81.5443     2.4344
  135.5000     8.1140   -31.7427     8.9431     7.4861     0.0364     0.1389    81.0839     2.4237
  136.0000     8.1166   -31.8831     8.9460     7.5160     0.0303     0.1341    80.3205     2.4311
  136.5000     8.0644   -32.0178     8.9490     7.5459     0.0182     0.1306    78.1935     2.4378
  137.0000     7.9443   -31.8549     8.8907     7.5456     0.0121     0.1282    76.9755     2.4423
  137.5000     7.9045   -31.5460     8.8943     7.5453     0.0075     0.1252    76.6667     2.4468
  138.0000     7.9078   -31.2371     8.8972     7.6054     0.0059     0.1213    77.2669     2.4475
  138.5000     7.9155   -31.8214     8.9001     7.6051     0.0057     0.1174    79.0778     2.4537
  139.0000     8.0782   -32.2688     8.9037     7.6501     0.0056     0.1162    79.8295     2.4594
  139.5000     8.1365   -32.3937     8.9066     7.6986     0.0077     0.1156    78.0055     2.4594
  140.0000     8.1391   -32.3796     8.9095     7.7855     0.0114     0.1151    76.0300     2.4594
  140.5000     8.1418   -32.3684     8.9124     7.9060     0.0217     0.1139    75.4181     2.4646
  141.0000     8.3718   -32.3571     8.9791     7.9963     0.0291     0.1115    75.4121     2.4683
  141.5000     8.3745   -31.7478     9.1668     8.0868     0.0380     0.1090    75.4050     2.4773
  142.0000     8.6104   -31.1412     9.1698     8.1468     0.0409     0.1055    75.7037     2.4862
  142.5000     8.7323   -31.4276     9.2804     8.1465     0.0436     0.1043    75.3934     2.4892
  143.0000     8.8566   -32.0115     9.4307     8.1462     0.0466     0.1037    75.0845     2.4892
  143.5000     9.1060   -31.7024     9.4339     8.1459     0.0509     0.1034    74.4726     2.4899
  144.0000     9.4270   -31.0961     9.6999     8.1154     0.0523     0.1080    74.1636     2.4914
  144.5000     9.7593   -31.9749     9.7030     8.0849     0.0717     0.1104    74.1565     2.4801
  145.0000     9.9655   -32.1153     9.9078     8.0242     0.0970     0.1116    74.1506     2.4741
  145.5000    10.1818   -31.8035     9.9806     7.9483     0.1268     0.1122    73.5388     2.4725
  146.0000    10.4637   -31.0454    10.2607     7.8391     0.1420     0.1116    73.0784     2.4725
  146.5000    10.6848   -30.4389    10.4057     7.7211     0.1535     0.1104    73.6786     2.4740
  147.0000    10.7619   -30.4276    10.5527     7.5849     0.1534     0.1080    74.7515     2.4754
  147.5000    11.0650   -30.4163    10.7018     7.4184     0.1473     0.0996    75.9382     2.4807
  148.0000    11.1450   -30.4051    10.8531     7.2670     0.1232     0.0954    73.2051     2.5039
  148.5000    11.3814   -30.6914    11.0829     7.1459     0.0827     0.0973    73.5023     2.5173
  149.0000    11.3851   -30.3797    11.1628     7.0538     0.0270     0.1018    73.7995     2.5141
  149.5000    11.3888   -29.1779    11.3205     6.9338     0.0046     0.1093    73.7937     2.4865
  150.0000    11.3925   -29.1667    11.4020     6.9335     0.0150     0.1342    73.4848     2.4520
  150.5000    11.3971   -29.7506    11.4067     6.9937     0.0178     0.1369    72.8242     2.4318
  151.0000    11.4008   -29.7365    11.4104     7.0235     0.0192     0.1360    71.9566     2.4280
  151.5000    11.3266   -29.8769    11.4141     7.0535     0.0191     0.1370    71.6477     2.4287
  152.0000    11.0993   -29.8628    11.4178     7.1136     0.0190     0.1414    71.3389     2.4279
  152.5000    11.1030   -29.7024    11.4216     7.1737     0.0189     0.1453    71.0300     2.4225
  153.0000    11.0315   -29.6886    11.4261     7.2338     0.0187     0.1477    71.0242     2.4159
  153.5000    10.8847   -29.6662    11.4298     7.2637     0.0141     0.1406    71.6244     2.4106
  154.0000    10.8129   -29.6535    11.3545     7.3087     0.0125     0.1385    74.4840     2.4165
  154.5000    10.8173   -29.7902    11.3592     7.3538     0.0079     0.1382    75.2361     2.4225
  155.0000    10.5907   -30.2235    11.2082     7.4139     0.0078     0.1382    75.2270     2.4255
  155.5000    10.5312   -30.2078    11.2127     7.4740     0.0109     0.1367    75.3712     2.4255
  156.0000    10.4626   -30.3439    11.1389     7.5342     0.0180     0.1334    73.9192     2.4254
  156.5000    10.2527   -30.1825    10.9917     7.5791     0.0194     0.1292    72.6275     2.4284
  157.0000    10.2569   -30.1478    10.9616     7.5940     0.0193     0.1239    72.7717     2.4404
  157.5000    10.2611   -29.5589    10.9696     7.6541     0.0192     0.1167    72.6129     2.4493
  158.0000    10.4602   -29.5462    10.9759     7.6840     0.0175     0.1136    70.3328     2.4635
  158.5000    10.6036   -29.5336    10.9825     7.7139     0.0113     0.1143    67.9013     2.4852
  159.0000    10.6828   -29.5208    10.9903     7.7740     0.0008     0.1227    66.6818     2.4912
  159.5000    10.8368   -29.2076    10.9967     7.8191    -0.0023     0.1287    66.0667     2.4897
  160.0000    10.8432   -29.1950    11.0031     7.8157    -0.0039     0.1311    66.5139     2.4574
  160.5000    10.8510   -29.3343    11.0097     7.8145     0.0005     0.1311    67.7188     2.4416
  161.0000    10.8573   -29.4673    11.0175     7.8609     0.0063     0.1288    69.0751     2.4401
  161.5000    10.7156   -29.4515    11.0239     7.8874     0.0131     0.1258    71.0375     2.4521
