~VERSION INFORMATION
 VERS.                2.0:   CWLS LOG ASCII STANDARD - VERSION 2.0
 WRAP.                 NO:   ONE LINE PER DEPTH STEP
~WELL INFORMATION
#MNEM.UNIT      DATA TYPE    INFORMATION
#----------   ------------   ------------------------------
 STRT.F            9.5000:   START DEPTH
 STOP.F          640.5000:   STOP DEPTH
 STEP.F            0.5000:   STEP LENGTH
 NULL.          -999.2500:   NO VALUE
 COMP. FENIX & SCISSON INC:   COMPANY
 WELL. 27-32 SX 11 WI #27-32 SX:   WELL
 FLD .            WILDCAT:   FIELD
 LOC .      S11 T38N R78W:   LOCATION
 CNTY.            NATRONA:   COUNTY
 STAT.            WYOMING:   STATE
 CTRY. UNITED STATES OF AMERICA:   COUNTRY
 SRVC.      Dresser Atlas:   SERVICE COMPANY
 DATE.        01-AUG-1980:   LOGDATE
 API .       490251083700:   API NUMBER
~CURVE INFORMATION
#MNEM.UNIT       API CODE    CURVE DESCRIPTION
#----------   ------------   ------------------------------
 DEPT.F                  :   
 SPR .MV     07 010 01 00:   SPONTANEOUS POTENTIAL
 SFL .OHMM   07 220 01 00:   SHALLOW FOCUSED LOG RESISTIVITY
 ILD .OHMM   07 120 46 00:   INDUCTION LOG DEEP
 ILM .OHMM   07 120 44 00:   INDUCTION LOG MEDIUM
 GRD .GAPI   45 310 01 00:   GAMMA RAY FROM DENSITY LOG
 CALD.IN     45 280 60 00:   CALIPER
 RHOB.G/C3   45 350 01 00:   BULK DENSITY
 CORR.G/C3   45 356 01 00:   DENSITY CORRECTION
 DPHI.DEC    45 890 12 00:   DENSITY POROSITY SANDSTONE
 NPHI.DEC    42 890 03 00:   NEUTRON POROSITY SANDSTONE
~PARAMETER INFORMATION
#MNEM.UNIT          VALUE    DESCRIPTION
#----------   ------------   ------------------------------
 PD  .                 GL:   PERMANENT DATUM
 EPD .F              5189:   ELEVATION PERMANENT DATUM
 LMF .                 KB:   LOG MEASURED FROM
 DAPD.F                 5:   FEET ABOVE PERMANENT DATUM
 DMF .                 KB:   DRILLING MEASURED FROM
 EKB .F              5194:   KELLING BUSHING
 EGL .F              5189:   GROUND LEVEL
 DATE.             8-1-80:   RUN DATE
 RUN .                  1:   RUN NUMBER
 DD  .F               625:   DEPTH DRILLER
 DL  .F               634:   DEPTH LOGGER
 BLI .F               632:   BOTTOM LOG INTERVAL
 TLI .F                12:   TOP LOG INTERVAL
 BS  .IN            7.875:   BIT SIZE
 BSD .F               625:   BIT SIZE AT DEPTH
 DFT .           CHEM GEL:   DRILLING FLUID TYPE
 DFD .                9.1:   DRILLING FLUID DENSITY
 DFV .                 44:   DRILLING FLUID VISCOSITY
 DFPH.                9.5:   DRILLING FLUID PH
 DFL .                7.6:   DRILLING FLUID LOSS
 MSS .           FLOWLINE:   MUD SAMPLE SOURCE
 RMS .OHMM            .27:   RESISTIVITY MUD SAMPLE
 MST .F                70:   MUD SAMPLE TEMPERATURE
 RMF .OHMM            .16:   RESISTIVITY MUD FILTRATE SAMPLE
 MFST.F                65:   MUD FILTRATE SAMPLE TEMPERATURE
 MFSS.               MEAS:   MUD FILTRATE SAMPLE SOURCE
 MCSS.               MEAS:   MUD CAKE SAMPLE SOURCE
 RMB .OHMM            .21:   RESISTIVITY MUD AT BHT
 BHT .F                94:   BOTTOM HOLE TEMPERATURE
 TCS .HRS            0040:   TIME CURCULATED STOPPED
 MRT .F                94:   MAXIMUM RECORDED TEMPERATURE
 LUN .               6145:   LOGGING UNIT NUMBER
 LUL .              GLTTE:   LOGGING UNIT LOCATION
 ENGI.              HENRY:   RECORDING ENGINEER
 WITN.              AMEND:   WITNESSED BY
 CLNT.            A2DTECH:   CLIENT CODE
 ORIG.     1", 2.5" PRINT:   ORIGIN OF DATA
 UWI .       490251083700:   UNIQUE WELL ID
 DICO. A2D Technologies, Inc.:   DIGITIZING COMPANY
~OTHER INFORMATION
~A    DEPT     SPR         SFL         ILD        ILM      GRD       CALD       RHOB       CORR       DPHI       NPHI   
# ...
  311.0000   -49.4460    10.9112     8.3841     8.5198    85.4687     8.0123     2.4831     0.0044     0.1200     0.2749
  311.5000   -49.1646    10.9372     8.3662     8.5894    86.3902     8.0134     2.4902     0.0053     0.1144     0.2758
  312.0000   -49.0980    10.9951     8.3472     8.6596    88.5339     8.0146     2.4903     0.0063     0.1128     0.2771
  312.5000   -49.5320    11.0534     8.3284     8.7235    86.7407     8.0157     2.4901     0.0072     0.1125     0.2784
  313.0000   -49.9494    11.1165     8.3095     8.7112    87.1015     8.0168     2.4890     0.0082     0.1136     0.2776
  313.5000   -50.3818    11.0309     8.2907     8.7001    88.1826     8.0180     2.4957     0.0091     0.1142     0.2764
  314.0000   -50.8091    10.9388     8.2720     8.6890    89.3567     8.0191     2.5061     0.0101     0.1045     0.2753
  314.5000   -51.2312    10.8474     8.2533     8.6779    90.4508     8.0202     2.5103     0.0109     0.1023     0.2740
  315.0000   -51.6773    10.7567     8.2269     8.6669    91.5962     8.0214     2.5061     0.0120     0.1038     0.2740
  315.5000   -51.7969    10.6669     8.1985     8.6558    91.3217     8.0225     2.5031     0.0109     0.1053     0.2851
  316.0000   -51.6912    10.5777     8.1702     8.6447    90.4580     8.0236     2.5037     0.0096     0.1068     0.2908
  316.5000   -51.6044    10.5118     8.1420     8.6336    88.7992     8.0248     2.5043     0.0083     0.1050     0.2908
  317.0000   -51.5215    10.5118     8.1139     8.6224    86.8197     8.0259     2.5064     0.0069     0.1067     0.2873
  317.5000   -51.4319    10.6268     8.0859     8.6116    84.8242     8.0270     2.4978     0.0056     0.1114     0.2816
  318.0000   -51.3459    10.7965     8.0580     8.6004    83.9611     8.0282     2.4884     0.0043     0.1160     0.2759
  318.5000   -51.2592    10.9690     8.0302     8.5890    86.0380     8.0293     2.4813     0.0029     0.1200     0.2744
  319.0000   -51.1721    11.1165     8.0025     8.5796    88.1928     8.0304     2.4828     0.0016     0.1176     0.2768
  319.5000   -51.0857    10.9826     7.9748     8.5672    88.4749     8.0316     2.4794     0.0003     0.1203     0.2792
  320.0000   -50.9993    10.8099     7.9473     8.5627    86.8984     8.0327     2.4763    -0.0011     0.1231     0.2817
  320.5000   -50.9129    10.6399     7.9199     8.4914    85.3772     8.0339     2.4729    -0.0024     0.1246     0.2844
  321.0000   -50.8264    10.5012     7.8925     8.4322    84.9361     8.0352     2.4700    -0.0037     0.1254     0.2862
  321.5000   -50.7398    10.4559     7.8653     8.3735    86.1836     8.0361     2.4669    -0.0034     0.1261     0.2890
  322.0000   -50.6527    10.4108     7.8382     8.3151    86.0018     8.0356     2.4677    -0.0026     0.1265     0.2916
  322.5000   -50.5667    10.3658     7.8112     8.2572    86.1880     8.0231     2.4691    -0.0018     0.1251     0.2924
  323.0000   -50.4798    10.3210     7.7843     8.1996    87.5192     8.0111     2.4744    -0.0010     0.1218     0.2896
  323.5000   -50.3913    10.2764     7.7573     8.1425    86.8633     7.9985     2.4795    -0.0002     0.1185     0.2868
  324.0000   -50.3102    10.2323     7.7305     8.0858    86.3745     7.9861     2.4847     0.0006     0.1151     0.2883
  324.5000   -50.2243    10.1882     7.7038     8.0295    86.7864     7.9737     2.4886     0.0014     0.1148     0.2916
  325.0000   -50.4017    10.1442     7.6772     7.9735    87.1320     7.9613     2.4842     0.0022     0.1168     0.2924
  325.5000   -50.6629    10.1271     7.6188     7.9180    87.4589     7.9489     2.4831     0.0030     0.1168     0.2894
  326.0000   -50.9265    10.1271     7.4469     7.8628    87.2568     7.9365     2.4872     0.0037     0.1154     0.2831
  326.5000   -51.1831    10.1271     7.2789     7.8005    86.8656     7.9241     2.4908     0.0045     0.1144     0.2763
  327.0000   -51.4190    10.1271     7.1147     7.6814    86.4774     7.9117     2.4822     0.0053     0.1209     0.2787
  327.5000   -51.5153    10.1271     6.9542     7.5457    86.1411     7.8994     2.4730     0.0061     0.1289     0.2833
  328.0000   -51.6046    10.1279     6.7973     7.4124    85.7382     7.8870     2.4657     0.0069     0.1265     0.2878
  328.5000   -51.6903     9.8478     6.6439     7.2814    85.3237     7.8745     2.4748     0.0077     0.1225     0.2923
  329.0000   -51.7792     9.4742     6.4940     7.1527    83.7967     7.8622     2.4826     0.0085     0.1185     0.2956
  329.5000   -51.8763     9.1150     6.3475     7.0263    82.5298     7.8498     2.4911     0.0093     0.1146     0.3024
  330.0000   -51.9715     8.7695     6.2043     6.9749    80.8348     7.8373     2.4968     0.0101     0.1104     0.3044
  330.5000   -52.0750     8.4370     6.1215     6.9749    81.7441     7.8250     2.4901     0.0109     0.1151     0.3044
  331.0000   -52.2048     8.1169     6.1215     6.9749    84.1880     7.8127     2.4822     0.0115     0.1199     0.3009
  331.5000   -51.9756     7.9459     6.1215     6.9749    85.5270     7.7994     2.4785     0.0146     0.1215     0.2944
  332.0000   -51.2942     8.4104     6.2391     6.8461    85.0655     7.7966     2.4775     0.0201     0.1211     0.2879
  332.5000   -50.6022     8.8725     6.4196     6.9749    85.8212     7.8034     2.4760     0.0252     0.1220     0.2844
  333.0000   -50.1176     9.3993     6.6054     7.0974    88.2636     7.8094     2.4741     0.0303     0.1257     0.2869
  333.5000   -49.9981     9.3208     6.7965     7.2107    90.6466     7.8152     2.4731     0.0355     0.1265     0.2873
  334.0000   -49.8358     9.1742     6.9932     7.3259    90.9501     7.8213     2.4828     0.0407     0.1186     0.2845
  334.5000   -49.6677     9.0300     7.1955     7.4429    88.2307     7.8272     2.4885     0.0459     0.1154     0.2817
  335.0000   -49.5114     8.8880     7.2594     7.5619    85.4806     7.8332     2.4849     0.0509     0.1175     0.2788
  335.5000   -49.4162     8.9046     7.2843     7.6826    84.1092     7.8392     2.4824     0.0559     0.1195     0.2851
  336.0000   -49.5361     8.9319     7.3092     7.8054    83.5485     7.8451     2.4775     0.0562     0.1232     0.2919
  336.5000   -49.6525     8.9594     7.3341     7.9473    85.2463     7.8511     2.4712     0.0563     0.1297     0.3036
  337.0000   -49.7739     8.9869     7.3589     7.9325    88.6081     7.8570     2.4672     0.0559     0.1269     0.3053
  337.5000   -49.8939     9.0145     7.3763     7.9154    87.2527     7.8630     2.4750     0.0596     0.1206     0.3038
  338.0000   -50.0133     9.0422     7.4290     7.8983    85.1167     7.8689     2.4844     0.0674     0.1144     0.2877
  338.5000   -50.1335     9.0700     7.4881     7.8812    83.7385     7.8749     2.4883     0.0750     0.1122     0.2790
  339.0000   -50.2532     9.0978     7.5150     7.8642    84.6752     7.8808     2.4922     0.0825     0.1112     0.2819
  339.5000   -50.3732     9.1258     7.3515     7.8473    86.6032     7.8868     2.4943     0.0882     0.1112     0.2849
  340.0000   -50.4926     9.1538     7.2399     7.8303    88.0800     7.8928     2.4916     0.0879     0.1137     0.2880
  340.5000   -50.6094     9.1819     7.1355     7.8134    86.0481     7.8987     2.4888     0.0878     0.1161     0.2908
  341.0000   -50.7059     9.2101     6.8882     7.7059    84.8344     7.9047     2.4862     0.0874     0.1172     0.2914
  341.5000   -50.8006     9.2257     6.6495     7.3164    84.7229     7.9106     2.4832     0.0871     0.1160     0.2919
  342.0000   -50.8946     8.9964     6.4190     6.9466    88.7672     7.9166     2.4877     0.0868     0.1163     0.2924
  342.5000   -50.9888     8.7850     6.1965     6.5955    88.8356     7.9225     2.4851     0.0865     0.1190     0.2857
  343.0000   -51.0842     8.5786     5.9818     6.2617    88.8537     7.9285     2.4799     0.0862     0.1216     0.2784
  343.5000   -51.1769     8.3847     5.7744     5.9445    87.5726     7.9344     2.4747     0.0860     0.1243     0.2813
  344.0000   -51.2713     8.1888     5.5743     5.6433    86.1122     7.9404     2.4692     0.0856     0.1269     0.2875
