~VERSION INFORMATION
 VERS.                2.0:   CWLS LOG ASCII STANDARD - VERSION 2.0
 WRAP.                 NO:   ONE LINE PER DEPTH STEP
~WELL INFORMATION
#MNEM.UNIT      DATA TYPE    INFORMATION
#----------   ------------   ------------------------------
 STRT.F            0.0000:   START DEPTH
 STOP.F          586.0000:   STOP DEPTH
 STEP.F            0.5000:   STEP LENGTH
 NULL.          -999.2500:   NO VALUE
 COMP. Fluor Daniel (NPOSR) Inc:   COMPANY
 WELL.    NPR 3 #52-6-X-3:   WELL
 FLD .             TEAPOT:   FIELD
 LOC .       S3 T38N R78W:   LOCATION
 CNTY.            NATRONA:   COUNTY
 STAT.            WYOMING:   STATE
 CTRY. UNITED STATES OF AMERICA:   COUNTRY
 SRVC.      Western Atlas:   SERVICE COMPANY
 DATE.        17-APR-1996:   LOGDATE
 API .       490252277700:   API NUMBER
~CURVE INFORMATION
#MNEM.UNIT       API CODE    CURVE DESCRIPTION
#----------   ------------   ------------------------------
 DEPT.F                  :   
 GRR .GAPI   07 310 01 00:   GAMMA RAY FROM RES. LOG.
 RILD.OHMM   07 120 46 00:   INDUCTION LOG DEEP RESISTIVITY
 RILM.OHMM   07 120 44 00:   INDUCTION LOG MEDIUM
~PARAMETER INFORMATION
#MNEM.UNIT          VALUE    DESCRIPTION
#----------   ------------   ------------------------------
 PD  .                 GL:   PERMANENT DATUM
 EPD .F              5070:   ELEVATION PERMANENT DATUM
 LMF .                 KB:   LOG MEASURED FROM
 DAPD.F                10:   FEET ABOVE PERMANENT DATUM
 DMF .                 KB:   DRILLING MEASURED FROM
 EKB .F              5080:   KELLING BUSHING
 EDF .F              5079:   DRILLING FLOOR
 EGL .F              5070:   GROUND LEVEL
 DATE.            4-17-96:   RUN DATE
 RUN .                  1:   RUN NUMBER
 DD  .F               594:   DEPTH DRILLER
 DL  .F               594:   DEPTH LOGGER
 BLI .F               586:   BOTTOM LOG INTERVAL
 CS  .IN            9.625:   CASING SIZE
 CBD .F                58:   CASING BOTTOM DRILLER
 CBL .F                59:   CASING BOTTOM LOGGER
 BS  .IN             8.75:   BIT SIZE
 BSD .F               594:   BIT SIZE AT DEPTH
 DFT .                AIR:   DRILLING FLUID TYPE
 MRT .F                86:   MAXIMUM RECORDED TEMPERATURE
 LUN .            HL-6530:   LOGGING UNIT NUMBER
 LUL .             CASPER:   LOGGING UNIT LOCATION
 ENGI.             RAUTIO:   RECORDING ENGINEER
 WITN.              HARDY:   WITNESSED BY
 CLNT.            A2DTECH:   CLIENT CODE
 ORIG.       2", 5" PRINT:   ORIGIN OF DATA
 UWI .       490252277700:   UNIQUE WELL ID
 DICO. A2D Technologies, Inc.:   DIGITIZING COMPANY
~OTHER INFORMATION
~A    DEPT      GRR      RILD       RILM   
# ...
  273.0000   136.8714     6.7021     6.4573
  273.5000   137.4114     6.2020     5.9934
  274.0000   138.9206     5.7396     5.5594
  274.5000   142.3391     5.3337     5.1580
  275.0000   145.9247     5.0470     4.8198
  275.5000   148.0356     5.0470     4.8198
  276.0000   147.7428     5.0468     4.8754
  276.5000   145.6624     5.0459     5.1957
  277.0000   142.3274     5.1501     5.5370
  277.5000   139.7672     5.3853     5.9008
  278.0000   139.8844     5.8035     6.2885
  278.5000   137.4476     6.2541     6.7017
  279.0000   138.0152     6.7398     7.1420
  279.5000   137.4363     7.2632     7.4995
  280.0000   137.6816     7.6589     7.7809
  280.5000   138.4187     7.7205     7.9229
  281.0000   137.6336     7.7826     8.0048
  281.5000   134.0194     7.8452     8.0283
  282.0000   129.6701     7.9083     8.0524
  282.5000   126.7553     7.9719     8.0766
  283.0000   126.1290     8.0183     8.1009
  283.5000   127.4984     8.0519     8.1253
  284.0000   128.8806     8.0856     8.1472
  284.5000   130.4587     8.1195     8.1252
  285.0000   132.1745     8.1476     8.1047
  285.5000   132.3113     8.0263     8.0842
  286.0000   129.5729     7.9211     8.0638
  286.5000   128.0761     7.8663     8.0434
  287.0000   129.2202     7.8918     8.0230
  287.5000   131.8439     7.8532     7.9994
  288.0000   135.2878     7.9053     8.0198
  288.5000   137.2798     7.9929     8.0454
  289.0000   135.5925     8.0807     8.0729
  289.5000   132.2570     8.1695     8.2936
  290.0000   128.8734     8.2230     8.5363
  290.5000   125.8555     8.0177     8.7706
  291.0000   123.7512     7.8745     7.7023
  291.5000   123.1779     7.4598     6.8153
  292.0000   125.2187     6.5832     6.0285
  292.5000   129.6337     6.0316     5.3338
  293.0000   136.4934     5.9230     5.1860
  293.5000   144.0536     5.8483     5.3369
  294.0000   146.3300     5.8826     5.7985
  294.5000   140.3656     5.9458     6.3003
  295.0000   131.9601     6.0713     6.8441
  295.5000   122.6610     6.3054     7.4350
  296.0000   118.8185     7.0257     8.0768
  296.5000   119.6338     7.8284     8.7740
  297.0000   122.1254     8.7227     9.4057
  297.5000   125.2787     9.5885     9.6171
  298.0000   127.6523     9.9777     9.5724
  298.5000   128.4941     9.8194     9.5277
  299.0000   127.4244     9.7058     9.5267
  299.5000   126.4298     9.6995     9.6192
  300.0000   124.3937    10.2215    10.4350
  300.5000   121.3187    10.8500    11.1396
  301.0000   116.7034    11.5192    11.8961
  301.5000   110.9131    12.3696    13.1138
  302.0000   100.9125    13.2749    14.7785
  302.5000    89.2702    14.5010    16.6544
  303.0000    77.5440    15.7807    17.9833
  303.5000    66.7260    17.1763    19.0121
  304.0000    63.9485    18.5677    19.9081
  304.5000    69.3666    19.3656    19.5471
  305.0000    73.9573    18.8378    18.9771
  305.5000    76.1450    18.2113    18.4238
  306.0000    78.9423    17.4997    17.8866
  306.5000    82.8702    17.3332    17.4997
  307.0000    84.0893    17.3994    17.6681
  307.5000    81.0567    17.7105    17.8250
  308.0000    80.9969    18.5909    19.2374
  308.5000    83.1284    19.5447    20.9895
  309.0000    81.8527    20.0574    22.9012
  309.5000    76.9454    20.6129    23.7154
  310.0000    69.6953    21.1973    23.6238
  310.5000    66.0280    21.8401    23.5487
  311.0000    69.2708    22.5025    23.2825
  311.5000    75.0829    23.0691    23.2825
  312.0000    79.2568    24.0013    25.4319
  312.5000    79.9426    24.9965    27.8429
  313.0000    78.4645    26.0331    30.5038
  313.5000    75.7744    27.1663    32.9331
  314.0000    71.8962    28.7570    34.6634
  314.5000    67.9049    30.4425    36.4495
  315.0000    67.9671    32.2325    38.9969
  315.5000    69.4465    33.9539    38.3384
  316.0000    68.6248    34.3033    37.3517
  316.5000    69.0335    33.1762    35.2765
  317.0000    72.8185    32.2145    33.3546
  317.5000    77.8893    31.0234    31.2570
  318.0000    77.6529    29.7171    29.2840
  318.5000    75.8537    28.0979    27.4360
  319.0000    77.0514    26.4050    25.7047
  319.5000    79.8851    25.5789    24.8433
  320.0000    82.7164    25.0151    24.2566
  320.5000    85.3331    24.4698    23.7358
  321.0000    85.3951    23.9374    23.2793
  321.5000    84.5328    23.2856    22.9810
  322.0000    84.9888    23.4922    22.6467
  322.5000    85.3659    23.7775    22.7640
  323.0000    85.2853    23.9315    22.9627
  323.5000    83.7239    23.0334    23.0691
  324.0000    81.8145    22.4200    22.0614
  324.5000    80.7676    21.8252    21.4004
  325.0000    81.8474    21.2461    20.7593
  325.5000    84.0798    20.6825    20.2043
  326.0000    88.7187    20.2032    19.8849
  326.5000    93.3698    19.9235    19.5447
  327.0000    92.2845    19.6471    19.3656
  327.5000    89.2098    19.3744    19.4907
  328.0000    86.6324    19.0132    19.6228
  328.5000    88.0243    19.1553    19.7558
  329.0000    90.6522    19.3904    19.8897
  329.5000    91.9423    19.5655    20.0245
  330.0000    92.9291    19.7345    20.1602
  330.5000    93.8111    19.9029    20.2969
  331.0000    92.7090    20.0728    20.4344
  331.5000    91.0432    20.2441    20.5729
  332.0000    90.4949    20.4168    20.7123
  332.5000    91.2357    20.5911    20.8527
  333.0000    91.9276    20.7670    20.9940
  333.5000    90.6561    20.9440    21.1363
  334.0000    88.3265    21.0392    21.2796
  334.5000    86.9092    21.0392    21.4240
  335.0000    86.9710    21.0396    21.5695
  335.5000    89.6376    21.1207    21.7146
  336.0000    91.8927    21.2339    21.8277
  336.5000    91.8514    21.0565    21.5035
  337.0000    89.5196    20.7862    21.2425
  337.5000    87.7185    20.5194    20.9841
  338.0000    87.1983    20.2560    20.7291
  338.5000    88.0412    19.9959    20.4771
  339.0000    89.2310    19.7386    20.2283
  339.5000    90.3613    19.4860    19.9814
  340.0000    90.5978    19.3171    19.7269
  340.5000    90.7081    19.1699    19.5849
  341.0000    91.8496    19.0239    19.4385
  341.5000    92.9828    18.8789    19.2924
  342.0000    93.5920    18.7351    19.1880
  342.5000    90.7704    18.6272    19.0164
  343.0000    87.3747    18.5531    18.7890
  343.5000    85.9900    18.4793    18.4926
  344.0000    86.7780    18.4059    18.4941
  344.5000    88.7140    18.3328    18.3851
  345.0000    89.5396    18.2600    18.2974
  345.5000    92.7734    18.1872    18.2102
  346.0000    95.3761    17.9900    18.1567
  346.5000    93.1062    17.9900    18.1914
  347.0000    90.2193    17.9898    18.2172
  347.5000    90.5558    17.9900    18.2429
  348.0000    92.9402    17.9901    18.2686
  348.5000    94.2133    17.9905    18.2945
  349.0000    93.1239    17.9921    18.3244
  349.5000    91.0369    17.8787    18.1697
  350.0000    89.4526    17.7028    17.9852
  350.5000    89.4234    17.5294    17.8026
  351.0000    90.1306    17.3579    17.6218
  351.5000    93.4607    17.1880    17.4428
  352.0000    97.2945    17.0199    17.2657
  352.5000    97.0720    16.8534    17.0903
  353.0000    95.3250    16.6885    16.9168
  353.5000    93.7663    16.5254    16.7450
  354.0000    93.4344    16.3631    16.5588
  354.5000    94.7250    16.1672    16.3907
  355.0000    95.9443    15.8978    16.1582
  355.5000    96.5071    15.6339    15.9290
  356.0000    96.6660    15.3744    15.7031
  356.5000    94.3009    15.1192    15.4803
  357.0000    92.0861    14.8901    15.2607
  357.5000    93.0910    14.6993    15.0443
  358.0000    94.3809    14.5122    14.8309
  358.5000    94.1488    14.4027    14.6607
  359.0000    93.7802    14.3508    14.5724
  359.5000    94.4441    14.2975    14.4846
  360.0000    95.1363    14.2444    14.3973
  360.5000    93.3262    14.1916    14.3105
  361.0000    90.9525    14.0765    14.2888
  361.5000    89.8769    13.8623    14.2924
  362.0000    91.4566    13.6514    14.0109
  362.5000    94.8157    13.4437    13.7469
  363.0000    96.6956    13.2391    13.4892
  363.5000    95.8332    13.0377    13.2364
