~VERSION INFORMATION
 VERS.                2.0:   CWLS LOG ASCII STANDARD - VERSION 2.0
 WRAP.                 NO:   ONE LINE PER DEPTH STEP
~WELL INFORMATION
#MNEM.UNIT      DATA TYPE    INFORMATION
#----------   ------------   ------------------------------
 STRT.F           38.0000:   START DEPTH
 STOP.F          818.0000:   STOP DEPTH
 STEP.F            0.5000:   STEP LENGTH
 NULL.          -999.2500:   NO VALUE
 COMP. FENIX & SCISSON INC:   COMPANY
 WELL. NAVAL PETROLEUM RESERVE 3 SX-1 #32-14:   WELL
 FLD .             TEAPOT:   FIELD
 LOC .      S14 T38N R78W:   LOCATION
 CNTY.            NATRONA:   COUNTY
 STAT.            WYOMING:   STATE
 CTRY. UNITED STATES OF AMERICA:   COUNTRY
 SRVC.            Unknown:   SERVICE COMPANY
 DATE.        03-MAY-1978:   LOGDATE
 API .       490251061900:   API NUMBER
~CURVE INFORMATION
#MNEM.UNIT       API CODE    CURVE DESCRIPTION
#----------   ------------   ------------------------------
 DEPT.F                  :   
 SPR .MV     05 010 01 00:   SPONTANEOUS POTENTIAL FROM RES.
 ILD .OHMM   05 120 46 00:   INDUCTION LOG DEEP
 SN  .OHMM   05 040 16 00:   SHORT NORMAL 16"
 CALD.IN     45 280 60 00:   CALIPER
 GRD .GAPI   45 310 01 00:   GAMMA RAY FROM DENSITY LOG
 RHOB.G/C3   45 350 01 00:   BULK DENSITY
 DPHI.DEC    45 890 12 00:   DENSITY POROSITY SANDSTONE
 CORR.G/C3   45 356 01 00:   DENSITY CORRECTION
~PARAMETER INFORMATION
#MNEM.UNIT          VALUE    DESCRIPTION
#----------   ------------   ------------------------------
 PD  .                 GL:   PERMANENT DATUM
 EPD .F              5209:   ELEVATION PERMANENT DATUM
 LMF .                 KB:   LOG MEASURED FROM
 DAPD.F                 4:   FEET ABOVE PERMANENT DATUM
 DMF .                 KB:   DRILLING MEASURED FROM
 EKB .F              5213:   KELLING BUSHING
 EGL .F              5209:   GROUND LEVEL
 DATE.           5-3-1978:   RUN DATE
 RUN .                  1:   RUN NUMBER
 DD  .F               806:   DEPTH DRILLER
 DL  .F               824:   DEPTH LOGGER
 BLI .F               818:   BOTTOM LOG INTERVAL
 TLI .F                50:   TOP LOG INTERVAL
 CS  .IN            8.625:   CASING SIZE
 CBD .F                40:   CASING BOTTOM DRILLER
 BS  .IN            7.875:   BIT SIZE
 BSD .F               806:   BIT SIZE AT DEPTH
 DFT .                KCL:   DRILLING FLUID TYPE
 DFD .                8.6:   DRILLING FLUID DENSITY
 DFV .                 34:   DRILLING FLUID VISCOSITY
 DFPH.                  9:   DRILLING FLUID PH
 DFL .               16.4:   DRILLING FLUID LOSS
 MSS .           FLOWLINE:   MUD SAMPLE SOURCE
 RMS .OHMM            .75:   RESISTIVITY MUD SAMPLE
 MST .F                52:   MUD SAMPLE TEMPERATURE
 RMF .OHMM            .65:   RESISTIVITY MUD FILTRATE SAMPLE
 MFST.F                60:   MUD FILTRATE SAMPLE TEMPERATURE
 RMC .OHMM            1.2:   RESISTIVITY MUD CAKE
 MCST.F                62:   MUD CAKE SAMPLE TEMPERATURE
 MFSS.               MEAS:   MUD FILTRATE SAMPLE SOURCE
 RMB .OHMM            .54:   RESISTIVITY MUD AT BHT
 BHT .F                72:   BOTTOM HOLE TEMPERATURE
 TCS .HRS               1:   TIME CURCULATED STOPPED
 MRT .F                72:   MAXIMUM RECORDED TEMPERATURE
 LUN .               2958:   LOGGING UNIT NUMBER
 LUL .               CASP:   LOGGING UNIT LOCATION
 ENGI.             MILLER:   RECORDING ENGINEER
 WITN.           MCGINLEY:   WITNESSED BY
 CLNT.            A2DTECH:   CLIENT CODE
 ORIG.           5" PRINT:   ORIGIN OF DATA
 UWI .       490251061900:   UNIQUE WELL ID
 DICO. A2D Technologies, Inc.:   DIGITIZING COMPANY
~OTHER INFORMATION
~A   DEPT      SPR        ILD         SN         CALD      GRD       RHOB       DPHI       CORR   
# ...
  443.0000   -34.0042    10.2239     9.5638     8.0305    81.4408     2.4743     0.1335     0.0334
  443.5000   -33.9636    10.1481     9.5110     8.1321    85.1651     2.4760     0.1323     0.0383
  444.0000   -33.9642    10.0715     9.4594     8.3136    87.0968     2.4799     0.1305     0.0384
  444.5000   -33.9641     9.9955     9.3945     8.3824    87.1127     2.4784     0.1374     0.0412
  445.0000   -33.9641     9.9200     9.2675     8.4461    86.7230     2.4704     0.1378     0.0457
  445.5000   -33.9641     9.8452     9.2683     8.5062    85.4864     2.4676     0.1398     0.0502
  446.0000   -33.9641     9.7855     9.2618     8.5261    84.0353     2.4651     0.1422     0.0504
  446.5000   -33.9641     9.7121     9.2578     8.5348    82.7616     2.4626     0.1443     0.0529
  447.0000   -33.9641     9.6395     9.2537     8.5285    79.9630     2.4601     0.1387     0.0571
  447.5000   -33.9638     9.5672     9.2496     8.4999    76.7937     2.4659     0.1375     0.0605
  448.0000   -33.9637     9.4957     9.2455     8.4717    74.2510     2.4711     0.1367     0.0568
  448.5000   -33.9671     9.4413     9.2414     8.4434    74.8257     2.4708     0.1365     0.0512
  449.0000   -34.1281     9.4534     9.2373     8.4151    75.5654     2.4705     0.1374     0.0405
  449.5000   -34.4982     9.4651     9.2332     8.3955    74.4933     2.4702     0.1383     0.0235
  450.0000   -34.7020     9.4769     9.2291     8.3745    72.7505     2.4679     0.1417     0.0132
  450.5000   -34.4197     9.4886     9.2250     8.3543    72.6122     2.4634     0.1440     0.0128
  451.0000   -34.4696     9.5004     9.2209     8.3341    72.7007     2.4590     0.1455     0.0137
  451.5000   -34.6145     9.5122     9.2168     8.3140    72.5378     2.4550     0.1459     0.0145
  452.0000   -34.7566     9.5239     9.2127     8.2912    71.8289     2.4549     0.1414     0.0153
  452.5000   -34.7620     9.5286     9.2086     8.2636    71.3680     2.4647     0.1376     0.0161
  453.0000   -34.7612     9.5286     9.2045     8.2360    71.3779     2.4711     0.1355     0.0170
  453.5000   -34.7610     9.5287     9.2004     8.2083    71.4780     2.4731     0.1347     0.0178
  454.0000   -34.7622     9.5288     9.1964     8.1821    71.5873     2.4744     0.1296     0.0178
  454.5000   -34.6959     9.5287     9.1923     8.1811    71.7005     2.4774     0.1280     0.0138
  455.0000   -34.6039     9.4859     9.1882     8.1690    71.7227     2.4829     0.1282     0.0098
  455.5000   -34.5113     9.4042     9.1835     8.1083    70.4980     2.4799     0.1384     0.0059
  456.0000   -34.4155     9.3425     9.1144     8.0493    69.5867     2.4636     0.1391     0.0045
  456.5000   -34.1593     9.2713     9.0432     8.0416    70.9592     2.4478     0.1546     0.0069
  457.0000   -33.6445     9.2018     8.9254     8.0417    73.8833     2.4353     0.1582     0.0106
  457.5000   -33.1746     9.1327     8.7809     8.0418    76.7844     2.4341     0.1545     0.0144
  458.0000   -33.1645     9.0640     8.6387     8.0418    79.8436     2.4464     0.1487     0.0181
  458.5000   -33.1661     8.9899     8.4986     8.0438    83.2964     2.4511     0.1451     0.0218
  459.0000   -33.1665     8.7428     8.3629     8.0585    87.3444     2.4589     0.1455     0.0245
  459.5000   -33.2117     8.5026     8.2109     8.0733    89.2426     2.4585     0.1458     0.0236
  460.0000   -33.5290     8.2689     7.9667     8.0880    87.9745     2.4578     0.1462     0.0224
  460.5000   -33.8400     8.0417     7.7298     8.1027    88.3694     2.4571     0.1441     0.0211
  461.0000   -34.5945     7.8478     7.6186     8.1175    89.4744     2.4606     0.1415     0.0199
  461.5000   -35.3741     7.7745     7.5753     8.1322    89.8938     2.4629     0.1444     0.0188
  462.0000   -35.2851     7.7483     7.5308     8.1470    89.9011     2.4572     0.1503     0.0151
  462.5000   -35.1228     7.7223     7.4995     8.1617    89.9086     2.4511     0.1528     0.0107
  463.0000   -34.9614     7.7096     7.5885     8.1761    89.4216     2.4453     0.1513     0.0066
  463.5000   -34.7941     7.8397     7.6581     8.1541    88.7117     2.4472     0.1515     0.0078
  464.0000   -34.8305     7.9037     7.7283     8.0963    88.0301     2.4490     0.1478     0.0113
  464.5000   -34.9263     7.9682     7.7991     8.0363    85.8463     2.4499     0.1435     0.0146
  465.0000   -34.7220     8.0333     7.8706     8.0218    85.5160     2.4657     0.1419     0.0165
  465.5000   -34.3368     8.0989     7.9287     8.0044    86.4433     2.4665     0.1403     0.0165
  466.0000   -33.9491     8.1511     7.9418     7.9494    87.5390     2.4668     0.1373     0.0165
  466.5000   -33.5593     8.1646     7.9550     7.8935    90.9341     2.4670     0.1335     0.0165
  467.0000   -33.3697     8.1782     7.9681     7.8896    93.4259     2.4721     0.1363     0.0165
  467.5000   -33.3658     8.1917     7.9813     7.9913    93.1869     2.4753     0.1339     0.0165
  468.0000   -33.3886     8.2053     7.9946     8.0674    86.9014     2.4723     0.1399     0.0165
  468.5000   -33.5414     8.2189     8.0078     8.0950    79.6086     2.4695     0.1399     0.0165
  469.0000   -33.6929     8.2325     8.0211     8.1754    73.6547     2.4670     0.1387     0.0165
  469.5000   -33.8441     8.2461     8.0343     8.2610    73.1527     2.4676     0.1370     0.0165
  470.0000   -33.9945     8.2598     8.0477     8.1191    73.4788     2.4690     0.1363     0.0164
  470.5000   -34.1370     8.2735     8.0610     7.9271    74.2438     2.4704     0.1363     0.0164
  471.0000   -34.4641     8.2871     8.0733     7.8660    76.1469     2.4719     0.1372     0.0165
  471.5000   -34.8046     8.2991     8.0730     7.8623    78.0285     2.4696     0.1387     0.0214
  472.0000   -35.1422     8.2471     8.0729     7.8624    78.9274     2.4710     0.1336     0.0340
  472.5000   -35.3616     8.1917     8.0729     7.8625    78.9421     2.4829     0.1303     0.0375
  473.0000   -35.3595     8.1349     7.9984     7.8625    78.9585     2.4775     0.1361     0.0362
  473.5000   -35.3589     8.0710     7.8737     7.8625    79.5764     2.4722     0.1408     0.0348
  474.0000   -35.2667     7.9989     7.7809     7.8624    80.2561     2.4668     0.1419     0.0388
  474.5000   -34.8237     8.0114     7.7894     7.8622    79.1757     2.4637     0.1307     0.0452
  475.0000   -34.3949     8.0303     7.7962     7.8667    77.9759     2.4779     0.1285     0.0517
  475.5000   -33.9634     8.0493     7.8030     7.9471    77.7822     2.4902     0.1271     0.0524
  476.0000   -33.7443     8.0725     7.8098     8.0538    76.9207     2.4883     0.1351     0.0524
  476.5000   -33.6669     8.0582     7.8166     8.1609    75.7241     2.4719     0.1415     0.0523
  477.0000   -33.5936     8.0387     7.8235     8.2582    75.7697     2.4669     0.1439     0.0523
  477.5000   -33.5661     8.0193     7.8303     8.2827    77.2649     2.4614     0.1430     0.0523
  478.0000   -33.5656     7.9999     7.8372     8.2826    79.3956     2.4593     0.1403     0.0564
  478.5000   -33.5657     7.9806     7.8441     8.2853    79.1333     2.4669     0.1299     0.0634
  479.0000   -33.5652     7.9613     7.8524     8.2879    78.2524     2.4798     0.1274     0.0662
  479.5000   -33.5626     7.9421     7.7949     8.2905    76.5059     2.4903     0.1263     0.0664
  480.0000   -33.5738     7.9153     7.7121     8.2931    77.7683     2.4937     0.1263     0.0641
  480.5000   -34.1124     7.8412     7.6304     8.2958    79.3313     2.5071     0.1271     0.0595
  481.0000   -34.6967     7.7675     7.5496     8.2984    78.8429     2.5074     0.1279     0.0358
  481.5000   -35.2088     7.6945     7.4696     8.3010    77.9582     2.4861     0.1324     0.0198
  482.0000   -35.4064     7.6224     7.3903     8.3036    78.0031     2.4781     0.1339     0.0183
  482.5000   -35.6102     7.5683     7.3370     8.3063    80.3914     2.4787     0.1339     0.0180
  483.0000   -35.8156     7.5304     7.2976     8.3089    92.6003     2.4777     0.1348     0.0177
