~VERSION INFORMATION
 VERS.                2.0:   CWLS LOG ASCII STANDARD - VERSION 2.0
 WRAP.                 NO:   ONE LINE PER DEPTH STEP
~WELL INFORMATION
#MNEM.UNIT      DATA TYPE    INFORMATION
#----------   ------------   ------------------------------
 STRT.F            0.0000:   START DEPTH
 STOP.F         1340.0000:   STOP DEPTH
 STEP.F            0.5000:   STEP LENGTH
 NULL.          -999.2500:   NO VALUE
 COMP. U S NAVY-INTEX OIL:   COMPANY
 WELL. NAVAL PETROLEUM RESERVE 3 S #81-14:   WELL
 FLD .             TEAPOT:   FIELD
 LOC .      S14 T38N R78W:   LOCATION
 CNTY.            NATRONA:   COUNTY
 STAT.            WYOMING:   STATE
 CTRY. UNITED STATES OF AMERICA:   COUNTRY
 SRVC.       Schlumberger:   SERVICE COMPANY
 DATE.        20-AUG-1966:   LOGDATE
 API .       490250971600:   API NUMBER
~CURVE INFORMATION
#MNEM.UNIT       API CODE    CURVE DESCRIPTION
#----------   ------------   ------------------------------
 DEPT.F                  :   
 SPR .MV     07 010 01 00:   SPONTANEOUS POTENTIAL
 CILD.MMHO   07 110 46 00:   CONDUCTIVITY INDUCTION LOG DEEP
 ILD .OHMM   07 120 46 00:   INDUCTION LOG DEEP
 ASN .OHMM   01 041 16 00:   AMPLIFIED SHORT NORMAL 16"
 CALD.IN     45 280 60 00:   CALIPER
 RHOB.G/C3   45 350 01 00:   BULK DENSITY
 DPHI.DEC    45 890 12 00:   DENSITY POROSITY SANDSTONE
 GRD .GAPI   45 310 01 00:   GAMMA RAY FROM DENSITY LOG
 CORR.G/C3   45 356 01 00:   DENSITY CORRECTION
~PARAMETER INFORMATION
#MNEM.UNIT          VALUE    DESCRIPTION
#----------   ------------   ------------------------------
 PD  .                 GL:   PERMANENT DATUM
 EPD .F              5283:   ELEVATION PERMANENT DATUM
 LMF .                 KB:   LOG MEASURED FROM
 DAPD.F                 5:   FEET ABOVE PERMANENT DATUM
 DMF .                 KB:   DRILLING MEASURED FROM
 EKB .F              5288:   KELLING BUSHING
 EGL .F              5283:   GROUND LEVEL
 DATE.            8-20-66:   RUN DATE
 RUN .                  1:   RUN NUMBER
 DD  .F              1340:   DEPTH DRILLER
 DL  .F              1337:   DEPTH LOGGER
 BLI .F              1336:   BOTTOM LOG INTERVAL
 TLI .F                17:   TOP LOG INTERVAL
 CS  .IN            8.625:   CASING SIZE
 CBD .F                15:   CASING BOTTOM DRILLER
 CBL .F                17:   CASING BOTTOM LOGGER
 BS  .IN            7.875:   BIT SIZE
 BSD .F              1340:   BIT SIZE AT DEPTH
 DFT .           GEL-CHEM:   DRILLING FLUID TYPE
 DFD .                9.8:   DRILLING FLUID DENSITY
 DFV .                 70:   DRILLING FLUID VISCOSITY
 DFL .                  8:   DRILLING FLUID LOSS
 MSS .          FLOW LINE:   MUD SAMPLE SOURCE
 RMS .OHMM           1.26:   RESISTIVITY MUD SAMPLE
 MST .F                71:   MUD SAMPLE TEMPERATURE
 RMF .OHMM            .71:   RESISTIVITY MUD FILTRATE SAMPLE
 MFST.F                71:   MUD FILTRATE SAMPLE TEMPERATURE
 MFSS.                  M:   MUD FILTRATE SAMPLE SOURCE
 RMB .OHMM           1.04:   RESISTIVITY MUD AT BHT
 BHT .F                86:   BOTTOM HOLE TEMPERATURE
 TCS .HRS               2:   TIME CURCULATED STOPPED
 MRT .F                86:   MAXIMUM RECORDED TEMPERATURE
 LUN .               3527:   LOGGING UNIT NUMBER
 LUL .               CSPR:   LOGGING UNIT LOCATION
 ENGI.          TOLLEFSON:   RECORDING ENGINEER
 WITN.                MAY:   WITNESSED BY
 CLNT.            A2DTECH:   CLIENT CODE
 ORIG.        2" 5" PRINT:   ORIGIN OF DATA
 UWI .       490250971600:   UNIQUE WELL ID
 DICO. A2D Technologies, Inc.:   DIGITIZING COMPANY
~OTHER INFORMATION
~A    DEPT     SPR       CILD        ILD        ASN         CALD     RHOB       DPHI          GRD     CORR   
# ...
 1058.5000   -44.2287   191.0621     4.8576     6.7788     7.9105     2.4857     0.0923   104.5914     0.0511
 1059.0000   -44.1185   214.7549     4.3831     6.3541     7.9261     2.4809     0.0998   106.1250     0.0460
 1059.5000   -44.0078   243.8785     3.9086     5.9291     7.9418     2.4885     0.0982   108.0591     0.0554
 1060.0000   -43.8973   291.0720     3.4342     5.5048     7.9581     2.4876     0.1083   106.9346     0.0674
 1060.5000   -43.7864   338.2656     2.9560     5.0804     7.9597     2.4657     0.1266   107.1378     0.0688
 1061.0000   -43.6759   385.5139     2.4731     4.6560     7.9567     2.4261     0.1449   108.0015     0.0549
 1061.5000   -43.5848   432.5934     2.1224     4.2313     7.9537     2.3845     0.1632   107.8539     0.0448
 1062.0000   -43.5870   474.7518     1.9384     3.8066     7.9507     2.3494     0.1855   105.5135     0.0571
 1062.5000   -43.5871   507.9015     1.9439     3.4020     7.9477     2.3290     0.1988   102.1035     0.0685
 1063.0000   -43.5872   520.9255     1.9460     3.1762     7.9451     2.3185     0.2032    98.6352     0.0586
 1063.5000   -43.5872   532.6346     1.9466     3.0549     7.9369     2.3385     0.1944    96.8095     0.0432
 1064.0000   -43.5871   528.4431     1.9897     2.9571     7.9242     2.3874     0.1685    98.6983     0.0509
 1064.5000   -43.5873   507.1377     2.1107     2.8678     7.9261     2.4369     0.1443   102.8255     0.0688
 1065.0000   -43.6032   464.2192     2.2327     2.9341     7.9288     2.4506     0.1245   106.9179     0.0947
 1065.5000   -43.6550   413.0078     2.3910     3.2727     7.9313     2.4370     0.1365   109.7611     0.0924
 1066.0000   -43.7062   361.7997     2.8813     3.7353     7.9337     2.4877     0.0970   110.3729     0.0727
 1066.5000   -43.7575   310.5390     3.3656     4.2235     7.9362     2.5161     0.0910   109.8519     0.0639
 1067.0000   -43.8087   273.4165     3.8510     4.7106     7.9387     2.5038     0.0888   110.8555     0.0803
 1067.5000   -43.8600   244.2740     4.3376     5.1942     7.9412     2.5150     0.0798   112.7323     0.0962
 1068.0000   -43.9112   218.6103     4.8155     5.6081     7.9437     2.5202     0.0821   114.1186     0.0812
 1068.5000   -43.9624   199.6894     4.9797     5.8540     7.9461     2.5076     0.0854   114.2510     0.0662
 1069.0000   -43.9664   195.1098     5.0406     5.9805     7.9486     2.5073     0.0874   115.2363     0.0684
 1069.5000   -43.9233   195.1098     4.9799     5.9678     7.9511     2.5192     0.0783   117.6552     0.0728
 1070.0000   -43.8802   206.1449     4.7201     5.9225     7.9536     2.5319     0.0713   119.8257     0.0708
 1070.5000   -43.8369   218.4123     4.4705     6.0983     7.9561     2.5444     0.0619   121.3992     0.0658
 1071.0000   -43.7938   230.7424     4.2200     6.0386     7.9585     2.5477     0.0774   121.7144     0.0590
 1071.5000   -43.7506   240.4431     3.9711     5.8014     7.9611     2.4714     0.0979   121.9803     0.0619
 1072.0000   -43.7075   248.7944     3.8816     5.4812     7.9591     2.4622     0.1100   119.9594     0.0781
 1072.5000   -43.6643   257.1457     3.7699     5.1686     7.9552     2.4759     0.0990   117.6232     0.0905
 1073.0000   -43.6212   265.4970     3.6368     5.0644     7.9511     2.4870     0.0966   114.2572     0.0800
 1073.5000   -43.5780   267.9641     3.6700     4.9728     7.9471     2.5066     0.0884   111.0811     0.0602
 1074.0000   -43.5349   264.6917     3.7917     5.0628     7.9431     2.5228     0.0809   108.4523     0.0792
 1074.5000   -43.4916   252.3295     3.9110     5.4112     7.9391     2.5261     0.0763   108.3528     0.0888
 1075.0000   -43.4486   239.9641     4.1362     5.5441     7.9351     2.5284     0.0749   110.4702     0.0783
 1075.5000   -43.4049   227.6594     4.4028     5.6682     7.9311     2.5345     0.0691   112.7620     0.0829
 1076.0000   -43.4316   215.8568     4.6638     5.9861     7.9270     2.5460     0.0627   115.0461     0.0910
 1076.5000   -43.5086   205.0247     4.9247     6.3473     7.9230     2.5314     0.0730   116.9828     0.0642
 1077.0000   -43.5865   194.0941     5.1855     6.7097     7.9190     2.5349     0.0717   116.5531     0.0671
 1077.5000   -43.6645   183.1558     5.4464     7.0717     7.9150     2.5518     0.0644   117.0098     0.0802
 1078.0000   -43.7419   173.7019     5.7112     7.4268     7.9110     2.5588     0.0546   120.6903     0.0599
 1078.5000   -43.7968   168.1443     6.0208     7.6807     7.9070     2.5506     0.0622   121.8239     0.0622
 1079.0000   -43.8179   162.6162     6.1020     7.8692     7.9029     2.5675     0.0495   120.1475     0.0713
 1079.5000   -43.8394   157.1856     6.2104     7.9640     7.8989     2.5466     0.0662   115.9261     0.0778
 1080.0000   -43.8608   156.4804     6.3255     8.0525     7.8949     2.5315     0.0745   115.7417     0.0834
 1080.5000   -43.8822   155.7844     6.4022     8.0459     7.8908     2.5271     0.0745   116.9189     0.0749
 1081.0000   -43.9036   155.3555     6.3193     8.0379     7.8870     2.5336     0.0707   114.6441     0.0647
 1081.5000   -43.9251   157.6322     6.2067     7.9912     7.8833     2.5354     0.0703   113.9111     0.0636
 1082.0000   -43.9465   161.4212     6.0951     7.9044     7.9043     2.5128     0.0839   113.1536     0.0682
 1082.5000   -43.9680   165.2241     5.9563     7.7625     7.8809     2.5204     0.0781   112.3782     0.0718
 1083.0000   -43.9876   169.0201     5.7822     7.6233     7.8711     2.5305     0.0731   112.6077     0.0655
 1083.5000   -43.9917   173.1537     5.6087     7.4839     7.8570     2.5252     0.0769   112.9124     0.0478
 1084.0000   -44.0243   179.7918     5.4341     7.3450     7.8431     2.5200     0.0795   114.5802     0.0499
 1084.5000   -44.0572   188.1008     5.2596     7.1896     7.8292     2.5157     0.0783   117.8359     0.0803
 1085.0000   -44.0901   196.4476     4.9991     7.0273     7.8152     2.5105     0.0899   121.0868     0.0765
 1085.5000   -44.1229   205.0681     4.7338     6.8643     7.8013     2.5097     0.1013   123.0602     0.0724
 1086.0000   -44.1561   221.4948     4.4598     6.6744     7.7874     2.5124     0.0896   122.2970     0.0684
 1086.5000   -44.1899   238.5523     4.1823     6.4728     7.7735     2.5151     0.0825   120.7646     0.0653
 1087.0000   -44.1027   256.9860     3.9657     6.1557     7.7596     2.5179     0.0827   118.9476     0.0619
 1087.5000   -43.9950   260.5622     3.9395     5.8289     7.7453     2.5209     0.0787   116.3868     0.0684
 1088.0000   -43.9120   260.9780     3.9409     5.4984     7.7293     2.5133     0.0775   114.8246     0.0831
 1088.5000   -43.8081   256.1251     3.9453     5.4594     7.7046     2.5017     0.0922   114.3409     0.0972
 1089.0000   -43.7030   251.2535     4.0414     5.5551     7.6801     2.5144     0.0852   113.8468     0.1062
 1089.5000   -43.5977   245.1486     4.1335     5.6571     7.6554     2.5385     0.0727   113.2030     0.1044
 1090.0000   -43.4909   230.6498     4.3739     5.8525     7.6308     2.5256     0.0662   113.7970     0.1013
 1090.5000   -43.3955   216.1594     4.7243     6.2276     7.6054     2.5100     0.0910   114.2307     0.1211
 1091.0000   -43.6079   201.6465     5.0803     6.7084     7.6009     2.5106     0.0871   113.5330     0.1460
 1091.5000   -43.8318   187.0993     5.4362     7.0928     7.6178     2.5284     0.0750   116.0914     0.1359
 1092.0000   -43.9827   172.1557     5.7863     7.3849     7.6355     2.5466     0.0629   119.2383     0.1261
 1092.5000   -43.9180   165.4358     6.0564     7.3056     7.6532     2.5647     0.0515   119.9695     0.1188
 1093.0000   -43.8571   162.9060     6.0918     7.2609     7.6558     2.5639     0.0554   120.6209     0.1322
 1093.5000   -43.7925   161.3595     6.1319     7.3495     7.6475     2.5545     0.0587   120.6787     0.1547
 1094.0000   -43.9347   159.8130     6.1707     7.5847     7.6427     2.5453     0.0611   119.3344     0.1689
 1094.5000   -44.1420   158.2664     6.2099     7.7927     7.6845     2.5362     0.0694   117.0079     0.1545
