~VERSION INFORMATION
 VERS.                2.0:   CWLS LOG ASCII STANDARD - VERSION 2.0
 WRAP.                 NO:   ONE LINE PER DEPTH STEP
~WELL INFORMATION
#MNEM.UNIT      DATA TYPE    INFORMATION
#----------   ------------   ------------------------------
 STRT.F           20.0000:   START DEPTH
 STOP.F         1363.5000:   STOP DEPTH
 STEP.F            0.5000:   STEP LENGTH
 NULL.          -999.2500:   NO VALUE
 COMP.   FLUOR DANIEL INC:   COMPANY
 WELL.   NPR 3 "S" #83-14:   WELL
 FLD .             TEAPOT:   FIELD
 LOC .      S14 T38N R78W:   LOCATION
 CNTY.            NATRONA:   COUNTY
 STAT.            WYOMING:   STATE
 CTRY. UNITED STATES OF AMERICA:   COUNTRY
 SRVC. Schlumberger Well Surveying Corp:   SERVICE COMPANY
 DATE.        22-AUG-1966:   LOGDATE
 API .       490250971000:   API NUMBER
~CURVE INFORMATION
#MNEM.UNIT       API CODE    CURVE DESCRIPTION
#----------   ------------   ------------------------------
 DEPT.F                  :   
 SPR .MV     05 010 01 00:   SPONTANEOUS POTENTIAL FROM RES.
 ASN .OHMM   05 041 16 00:   AMPLIFIED SHORT NORMAL 16"
 CILD.MMHO   05 110 00 00:   CONDUCTIVITY INDUCTION LOG
 ILD .OHMM   05 120 46 00:   INDUCTION LOG DEEP
 CALD.IN     45 280 60 00:   CALIPER
 GRD .GAPI   45 310 01 00:   GAMMA RAY FROM DENSITY LOG
 CORR.G/C3   45 356 01 00:   DENSITY CORRECTION
 RHOB.G/C3   45 350 01 00:   BULK DENSITY
 DPOR.DEC    45 890 12 00:   DENSITY POROSITY SANDSTONE
~PARAMETER INFORMATION
#MNEM.UNIT          VALUE    DESCRIPTION
#----------   ------------   ------------------------------
 PD  .                 GL:   PERMANENT DATUM
 EPD .F              5300:   ELEVATION PERMANENT DATUM
 LMF .                 KB:   LOG MEASURED FROM
 DAPD.F                 5:   FEET ABOVE PERMANENT DATUM
 DMF .                 KB:   DRILLING MEASURED FROM
 EKB .F              5305:   KELLING BUSHING
 EGL .F              5300:   GROUND LEVEL
 DATE.          8-22-1966:   RUN DATE
 RUN .                  1:   RUN NUMBER
 DD  .F              1365:   DEPTH DRILLER
 DL  .F              1363:   DEPTH LOGGER
 BLI .F              1362:   BOTTOM LOG INTERVAL
 TLI .F                20:   TOP LOG INTERVAL
 CS  .IN            8.625:   CASING SIZE
 CBD .F                15:   CASING BOTTOM DRILLER
 CBL .F                20:   CASING BOTTOM LOGGER
 BS  .IN            7.875:   BIT SIZE
 BSD .F              1365:   BIT SIZE AT DEPTH
 DFT .           GEL-CHEM:   DRILLING FLUID TYPE
 DFD .                 10:   DRILLING FLUID DENSITY
 DFV .                 55:   DRILLING FLUID VISCOSITY
 DFL .                  8:   DRILLING FLUID LOSS
 MSS .          FLOW LINE:   MUD SAMPLE SOURCE
 RMS .OHMM           1.86:   RESISTIVITY MUD SAMPLE
 MST .F                73:   MUD SAMPLE TEMPERATURE
 RMF .OHMM           1.13:   RESISTIVITY MUD FILTRATE SAMPLE
 MFST.F                70:   MUD FILTRATE SAMPLE TEMPERATURE
 MFSS.                  M:   MUD FILTRATE SAMPLE SOURCE
 RMB .OHMM           1.32:   RESISTIVITY MUD AT BHT
 BHT .F               102:   BOTTOM HOLE TEMPERATURE
 TCS .HRS               1:   TIME CURCULATED STOPPED
 MRT .F               102:   MAXIMUM RECORDED TEMPERATURE
 LUN .               3527:   LOGGING UNIT NUMBER
 LUL .               CSPR:   LOGGING UNIT LOCATION
 ENGI.          TOLLEFSON:   RECORDING ENGINEER
 WITN.         MAY/TUTTLE:   WITNESSED BY
 CLNT.            A2DTECH:   CLIENT CODE
 ORIG.       2", 5" PRINT:   ORIGIN OF DATA
 UWI .       490250971000:   UNIQUE WELL ID
 DICO. A2D Technologies, Inc.:   DIGITIZING COMPANY
~OTHER INFORMATION
~A   DEPT       SPR       ASN         CILD      ILD         CALD       GRD       CORR        RHOB     DPOR   
# ...
   93.0000   -60.8430     3.0487   264.6660     4.3807     8.3389    99.4235     0.0440     2.4113     0.1571
   93.5000   -61.0286     3.4367   264.3799     4.3594     8.3319   102.4896     0.0499     2.3999     0.1579
   94.0000   -61.2185     3.7423   264.0938     4.3707     8.3227   104.0418     0.0570     2.3837     0.1593
   94.5000   -61.0909     4.0779   263.2799     4.4076     8.3138   101.6879     0.0508     2.3685     0.1648
   95.0000   -60.9195     4.4095   259.2741     4.4449     8.3047   100.6249     0.0471     2.3528     0.1767
   95.5000   -60.8679     4.6269   254.5920     4.4822     8.2957   101.9231     0.0417     2.3351     0.1767
   96.0000   -61.0952     4.7817   248.7060     4.5195     8.2868   103.1971     0.0395     2.3389     0.1684
   96.5000   -61.3161     4.9357   242.8199     4.5567     8.2777   101.8323     0.0410     2.3650     0.1599
   97.0000   -61.3231     5.0943   239.2184     4.5939     8.2688    99.0879     0.0465     2.3931     0.1514
   97.5000   -61.1401     5.1719   237.7469     4.6312     8.2597    98.3491     0.0520     2.4215     0.1428
   98.0000   -61.0456     5.2288   236.2754     4.6685     8.2509   102.4658     0.0579     2.4434     0.1312
   98.5000   -61.1962     5.2851   235.9719     4.7057     8.2418   101.8360     0.0586     2.4387     0.1499
   99.0000   -61.3434     5.3417   235.6884     4.7430     8.2386    99.4637     0.0470     2.4332     0.1455
   99.5000   -61.4193     5.3335   235.3429     4.7802     8.2390    98.7916     0.0360     2.4269     0.1387
  100.0000   -61.3308     5.2967   234.9975     4.8175     8.2388   103.0860     0.0274     2.4188     0.1304
  100.5000   -61.2383     5.2600   234.6521     4.8547     8.2389   107.2517     0.0270     2.4209     0.1345
  101.0000   -61.3535     5.2292   234.3067     4.8919     8.2389   108.5182     0.0260     2.4283     0.1404
  101.5000   -61.5267     5.2298   233.9679     4.9297     8.2389   106.1640     0.0324     2.4379     0.1380
  102.0000   -61.6289     5.3034   231.4880     4.9897     8.2389   101.0167     0.0493     2.4464     0.1312
  102.5000   -61.4532     5.4134   227.5802     5.0799     8.2389    95.4434     0.0652     2.4597     0.1240
  103.0000   -61.2568     5.4670   223.0988     5.1698     8.2393    92.0038     0.0665     2.4572     0.1300
  103.5000   -61.0554     5.5184   216.7915     5.2598     8.2402    92.6918     0.0609     2.4469     0.1363
  104.0000   -61.0739     5.5774   210.4841     5.3498     8.2410    97.8670     0.0506     2.4348     0.1424
  104.5000   -61.1391     5.7476   204.1768     5.4398     8.2419   100.3165     0.0537     2.4395     0.1328
  105.0000   -61.2104     5.9238   200.0523     5.5298     8.2428    97.5657     0.0667     2.4598     0.1288
  105.5000   -61.0791     6.0981   197.1073     5.6199     8.2436    95.1373     0.0558     2.4572     0.1400
  106.0000   -60.8842     6.2261   194.1622     5.7100     8.2445    92.3135     0.0470     2.4491     0.1367
  106.5000   -60.6858     6.2118   191.2172     5.7994     8.2453    91.1765     0.0553     2.4437     0.1319
  107.0000   -60.6219     6.1921   188.2722     5.8426     8.2462    93.9284     0.0521     2.4508     0.1271
  107.5000   -60.6205     6.2120   187.9727     5.8248     8.2470    96.1212     0.0347     2.4656     0.1222
  108.0000   -60.6215     6.2304   188.3089     5.8074     8.2479    98.4016     0.0467     2.4806     0.1174
  108.5000   -60.6184     6.2314   188.6450     5.7898     8.2487    97.4494     0.0650     2.4951     0.1126
  109.0000   -60.8589     6.2264   188.9812     5.7723     8.2496    95.7704     0.0853     2.5097     0.1078
  109.5000   -61.2312     6.2504   189.3173     5.7549     8.2504    95.2622     0.0807     2.5238     0.1028
  110.0000   -61.6104     6.2007   189.6535     5.7374     8.2513    98.9490     0.0502     2.5031     0.1262
  110.5000   -61.5088     6.1295   189.8798     5.7199     8.2521   102.0600     0.0154     2.4610     0.1380
  111.0000   -61.3498     6.0686   191.1657     5.7024     8.2530   102.3618     0.0190     2.4244     0.1370
  111.5000   -61.1912     6.0697   192.5303     5.6850     8.2539   101.8500     0.0388     2.4297     0.1360
  112.0000   -61.0295     6.0534   193.8949     5.6675     8.2547   101.9054     0.0455     2.4341     0.1352
  112.5000   -61.0483     6.0131   195.2596     5.6500     8.2556    99.3769     0.0349     2.4404     0.1404
  113.0000   -61.1017     5.9775   196.6242     5.6325     8.2564    95.6552     0.0299     2.4460     0.1372
  113.5000   -61.1543     5.9602   197.9888     5.6150     8.2573    91.9793     0.0428     2.4525     0.1326
  114.0000   -61.2066     5.9429   199.3535     5.5976     8.2582    89.9707     0.0523     2.4650     0.1280
  114.5000   -61.1785     5.9257   200.6958     5.5801     8.2588    90.8720     0.0645     2.4654     0.1235
  115.0000   -61.0265     5.9083   202.9499     5.5626     8.2563    91.3044     0.0536     2.4631     0.1184
  115.5000   -60.8775     5.8910   203.8001     5.5451     8.2532    91.7642     0.0400     2.4567     0.1237
  116.0000   -60.9319     5.8737   203.6955     5.5276     8.2502    90.1536     0.0246     2.4510     0.1297
  116.5000   -61.4588     5.8562   203.5714     5.5102     8.2471    88.3054     0.0191     2.4448     0.1358
  117.0000   -61.7062     5.8502   203.4474     5.4927     8.2440    87.2265     0.0187     2.4393     0.1388
  117.5000   -61.2888     5.8381   203.3233     5.4752     8.2410    87.0431     0.0196     2.4388     0.1344
  118.0000   -60.8828     5.8210   203.1993     5.4577     8.2379    88.8079     0.0301     2.4468     0.1301
  118.5000   -60.4713     5.8037   203.0752     5.4402     8.2348    88.9829     0.0408     2.4551     0.1258
  119.0000   -60.5470     5.7863   202.9511     5.4228     8.2318    88.4481     0.0455     2.4633     0.1215
  119.5000   -60.6970     5.7690   203.3810     5.4053     8.2287    87.7377     0.0400     2.4681     0.1172
  120.0000   -60.8479     5.7517   204.4396     5.3878     8.2257    89.5778     0.0336     2.4719     0.1160
  120.5000   -61.0006     5.7343   205.5080     5.3703     8.2226    95.0810     0.0423     2.4730     0.1349
  121.0000   -61.1413     5.7170   206.5745     5.3529     8.2196    95.4687     0.0485     2.4672     0.1339
  121.5000   -60.8703     5.6997   207.6403     5.3354     8.2165    93.8008     0.0454     2.4594     0.1318
  122.0000   -60.6498     5.6863   208.7060     5.3179     8.2135    91.8327     0.0362     2.4518     0.1296
  122.5000   -60.7567     5.6693   209.7718     5.3004     8.2104    90.7522     0.0273     2.4442     0.1345
  123.0000   -60.8317     5.6528   210.8376     5.2829     8.2073    92.3689     0.0180     2.4365     0.1422
  123.5000   -60.6108     5.6362   211.9238     5.2655     8.2043    95.2890     0.0229     2.4305     0.1407
  124.0000   -60.9872     5.6197   213.3891     5.2480     8.2012    97.4214     0.0348     2.4330     0.1370
  124.5000   -61.1918     5.6031   214.2417     5.2305     8.1987    96.6935     0.0465     2.4370     0.1333
  125.0000   -61.0229     5.5866   215.0631     5.2130     8.1968    95.5200     0.0500     2.4410     0.1300
  125.5000   -60.8484     5.5701   215.8844     5.1955     8.1951    97.2091     0.0370     2.4449     0.1325
  126.0000   -60.6717     5.5530   216.7071     5.1781     8.1934    98.4544     0.0281     2.4490     0.1347
  126.5000   -60.6655     5.5413   217.5298     5.1606     8.1918    95.4998     0.0304     2.4495     0.1369
  127.0000   -60.7517     5.5192   218.3525     5.1431     8.1901    92.0096     0.0360     2.4437     0.1396
  127.5000   -60.8393     5.4972   219.4389     5.1256     8.1884    88.5167     0.0391     2.4388     0.1367
  128.0000   -60.9279     5.4732   220.8667     5.1082     8.1868    87.8457     0.0359     2.4335     0.1308
  128.5000   -61.0108     5.4856   222.1693     5.0907     8.1851    88.1656     0.0262     2.4285     0.1455
  129.0000   -60.7084     5.4753   223.4719     5.0732     8.1834    96.0736     0.0211     2.4238     0.1426
