~VERSION INFORMATION
 VERS.                2.0:   CWLS LOG ASCII STANDARD - VERSION 2.0
 WRAP.                 NO:   ONE LINE PER DEPTH STEP
~WELL INFORMATION
#MNEM.UNIT      DATA TYPE    INFORMATION
#----------   ------------   ------------------------------
 STRT.F            0.0000:   START DEPTH
 STOP.F          752.0000:   STOP DEPTH
 STEP.F            0.1000:   STEP LENGTH
 NULL.          -999.2500:   NO VALUE
 COMP. BROWN JOHN E&C INC:   COMPANY
 WELL. N P R 3 STX-34 #53-1-34:   WELL
 FLD .             TEAPOT:   FIELD
 LOC .      S34 T39N R78W:   LOCATION
 CNTY.            NATRONA:   COUNTY
 STAT.            WYOMING:   STATE
 CTRY. UNITED STATES OF AMERICA:   COUNTRY
 SRVC.     Atlas Wireline:   SERVICE COMPANY
 DATE.        29-OCT-1991:   LOGDATE
 API .       490252248700:   API NUMBER
~CURVE INFORMATION
#MNEM.UNIT       API CODE    CURVE DESCRIPTION
#----------   ------------   ------------------------------
 DEPT.F                  :   
 GRR .GAPI   07 310 01 00:   GAMMA RAY
 RILD.OHMM   07 120 46 00:   INDUCTION LOG DEEP RESISTIVITY
 RILM.OHMM   07 120 44 00:   RESITIVITY LONG MEDIUM
~PARAMETER INFORMATION
#MNEM.UNIT          VALUE    DESCRIPTION
#----------   ------------   ------------------------------
 PD  .                 GL:   PERMANENT DATUM
 EPD .F              5067:   ELEVATION PERMANENT DATUM
 LMF .                 KB:   LOG MEASURED FROM
 DAPD.F                10:   FEET ABOVE PERMANENT DATUM
 DMF .                 KB:   DRILLING MEASURED FROM
 EKB .F              5077:   KELLING BUSHING
 EGL .F              5067:   GROUND LEVEL
 DATE.        29-OCT-1991:   RUN DATE
 RUN .                  1:   RUN NUMBER
 DD  .F               760:   DEPTH DRILLER
 DL  .F               760:   DEPTH LOGGER
 BLI .F               758:   BOTTOM LOG INTERVAL
 TLI .F                 0:   TOP LOG INTERVAL
 CS  .IN            9.625:   CASING SIZE
 CBD .F                52:   CASING BOTTOM DRILLER
 CBL .F                52:   CASING BOTTOM LOGGER
 BS  .IN             8.75:   BIT SIZE
 BSD .F               760:   BIT SIZE AT DEPTH
 DFT .        AIR DRILLED:   DRILLING FLUID TYPE
 MRT .F               154:   MAXIMUM RECORDED TEMPERATURE
 LUN .            HL 6307:   LOGGING UNIT NUMBER
 LUL .             CASPER:   LOGGING UNIT LOCATION
 ENGI.          RASMUSSEN:   RECORDING ENGINEER
 WITN.        GARY STRONG:   WITNESSED BY
 CLNT.            A2DTECH:   CLIENT CODE
 ORIG.           5" PRINT:   ORIGIN OF DATA
 UWI .       490252248700:   UNIQUE WELL ID
 DICO. A2D Technologies, Inc.:   DIGITIZING COMPANY
~OTHER INFORMATION
~A    DEPT      GRR      RILD       RILM   
# ...
  145.6000   126.0829    11.4544    11.3522
  145.7000   127.2363    11.4552    11.3372
  145.8000   127.9887    11.4560    11.3371
  145.9000   128.4905    11.4568    11.3369
  146.0000   128.9925    11.4417    11.3368
  146.1000   129.5478    11.3441    11.3366
  146.2000   129.5467    11.2465    11.2740
  146.3000   129.5455    11.0779    11.1123
  146.4000   129.4217    10.9222    10.9896
  146.5000   129.1689    10.7762    10.8834
  146.6000   128.8957    10.6077    10.7124
  146.7000   128.3303    10.5431    10.6462
  146.8000   127.8870    10.3750    10.4756
  146.9000   127.2127    10.2400    10.3385
  147.0000   126.4569    10.1229    10.1888
  147.1000   125.7011    10.0253    10.0497
  147.2000   124.9622     9.9617     9.9851
  147.3000   124.3895     9.8372     9.8594
  147.4000   123.7361     9.7863     9.7564
  147.5000   123.1468     9.6522     9.6441
  147.6000   122.6425     9.5138     9.5603
  147.7000   122.0739     9.3892     9.4731
  147.8000   121.2914     9.2234     9.3051
  147.9000   119.8437     8.9886     9.0673
  148.0000   118.9874     8.8527     8.8393
  148.1000   118.1428     8.7010     8.6543
  148.2000   117.4987     8.5518     8.4823
  148.3000   117.1766     8.3923     8.3005
  148.4000   117.4560     8.2034     8.1573
  148.5000   118.6261     8.0431     7.9972
  148.6000   119.8863     7.9642     7.8790
  148.7000   121.2351     7.8436     7.9346
  148.8000   122.8159     7.7289     7.8555
  148.9000   124.7699     7.6405     7.7355
  149.0000   126.5414     7.5530     7.5823
  149.1000   129.2089     7.4525     7.4081
  149.2000   130.2407     7.3813     7.2408
  149.3000   132.2747     7.2706     7.1431
  149.4000   134.7888     7.1633     7.0744
  149.5000   137.3563     7.0724     6.9925
  149.6000   140.1322     6.9516     6.9116
  149.7000   144.6328     6.8572     6.8316
  149.8000   146.2552     6.7936     6.7528
  149.9000   148.2673     6.7394     6.7058
  150.0000   149.8739     6.6704     6.6743
  150.1000   150.7788     6.5561     6.6126
  150.2000   151.2859     6.4717     6.5657
  150.3000   151.5339     6.4344     6.5513
  150.4000   151.7846     6.3963     6.4739
  150.5000   151.7468     6.3603     6.4736
  150.6000   151.5885     6.3236     6.4155
  150.7000   151.5885     6.2655     6.3831
  150.8000   151.5885     6.2179     6.3827
  150.9000   151.3491     6.2176     6.3766
  151.0000   151.2859     6.2172     6.3376
  151.1000   151.1502     6.1825     6.3024
  151.2000   150.7315     6.1733     6.2928
  151.3000   150.0435     6.1730     6.2924
  151.4000   149.7731     6.1726     6.2921
  151.5000   148.8493     6.1723     6.2917
  151.6000   147.8463     6.1719     6.2914
  151.7000   146.8434     6.1716     6.2910
  151.8000   145.6142     6.1713     6.2907
  151.9000   143.8827     6.1709     6.2903
  152.0000   142.2088     6.1706     6.3011
  152.1000   140.8737     6.1702     6.3374
  152.2000   138.8573     6.1699     6.3777
  152.3000   136.7197     6.1695     6.3774
  152.4000   135.1157     6.1692     6.4282
  152.5000   134.6445     6.1868     6.4845
  152.6000   134.6445     6.2117     6.5218
  152.7000   134.8585     6.2113     6.5566
  152.8000   135.1092     6.2109     6.5561
  152.9000   135.3599     6.2106     6.5558
  153.0000   135.7277     6.2349     6.5554
  153.1000   136.4866     6.2534     6.5551
  153.2000   137.6702     6.2530     6.5547
  153.3000   139.1090     6.2527     6.5543
  153.4000   140.4030     6.2523     6.5539
  153.5000   141.4060     6.2520     6.5536
  153.6000   142.4089     6.2516     6.5533
  153.7000   143.4191     6.2513     6.5529
  153.8000   144.1657     6.2600     6.5525
  153.9000   144.7209     6.2943     6.5522
  154.0000   145.0772     6.2939     6.5517
  154.1000   145.2345     6.2936     6.5209
  154.2000   145.2345     6.2933     6.5055
  154.3000   145.2345     6.2929     6.4903
  154.4000   145.2345     6.2926     6.4595
  154.5000   145.2345     6.2922     6.4591
  154.6000   145.2345     6.2918     6.4588
  154.7000   145.1496     6.2915     6.4584
  154.8000   144.8988     6.2912     6.4580
  154.9000   144.6293     6.2908     6.4577
  155.0000   144.6293     6.2905     6.4513
  155.1000   144.6293     6.2901     6.4120
  155.2000   144.5011     6.2898     6.3763
  155.3000   144.2503     6.2894     6.3667
  155.4000   143.9996     6.2891     6.3663
  155.5000   143.7216     6.2887     6.3660
  155.6000   143.4982     6.2884     6.3656
  155.7000   143.0758     6.2880     6.3652
  155.8000   142.6941     6.2877     6.3309
  155.9000   142.3754     6.2873     6.3203
  156.0000   141.8739     6.2870     6.3199
  156.1000   141.3011     6.2866     6.3196
  156.2000   140.8710     6.2863     6.3192
  156.3000   140.5327     6.2859     6.3188
  156.4000   140.1707     6.2856     6.3185
  156.5000   139.6692     6.2852     6.3182
  156.6000   139.1754     6.2849     6.3178
  156.7000   138.8805     6.2845     6.3174
  156.8000   138.6739     6.2889     6.3171
  156.9000   138.2685     6.3277     6.3167
  157.0000   137.8699     6.3274     6.3164
  157.1000   137.6191     6.3271     6.3160
  157.2000   137.3676     6.3267     6.3324
  157.3000   136.8678     6.3377     6.3596
  157.4000   136.7625     6.3703     6.3592
  157.5000   136.7625     6.3699     6.3588
  157.6000   136.8569     6.4028     6.3895
  157.7000   137.1076     6.4138     6.4263
  157.8000   137.3676     6.4134     6.4472
  157.9000   137.3676     6.4237     6.4552
  158.0000   137.5573     6.4606     6.4923
  158.1000   137.8080     6.5023     6.5367
  158.2000   138.1446     6.5020     6.5364
  158.3000   138.6120     6.5017     6.5361
  158.4000   138.8805     6.5013     6.5508
  158.5000   139.1135     6.5009     6.5885
  158.6000   139.5453     6.5006     6.6269
  158.7000   140.1760     6.5002     6.6265
  158.8000   140.9283     6.4998     6.6261
  158.9000   141.6549     6.4995     6.6479
  159.0000   142.2088     6.4991     6.6718
  159.1000   142.4333     6.4988     6.6778
  159.2000   142.6840     6.4984     6.7178
  159.3000   142.6931     6.4980     6.7174
  159.4000   142.4424     6.4977     6.7171
  159.5000   142.1745     6.4973     6.7167
  159.6000   141.6036     6.4969     6.7163
  159.7000   141.1716     6.4966     6.7159
  159.8000   140.3417     6.4962     6.7155
  159.9000   139.2263     6.5412     6.7515
  160.0000   138.0938     6.5409     6.7619
  160.1000   137.3416     6.5406     6.7615
  160.2000   136.4599     6.5402     6.7611
  160.3000   135.8372     6.5398     6.7566
  160.4000   135.2408     6.5395     6.7133
  160.5000   134.7393     6.5391     6.7129
  160.6000   134.1338     6.5388     6.6590
  160.7000   133.1308     6.5384     6.6191
  160.8000   132.1278     6.5241     6.6187
  160.9000   131.3240     6.4922     6.6125
  161.0000   130.7191     6.4919     6.5262
  161.1000   130.1223     6.4915     6.5259
  161.2000   129.4572     6.4911     6.5255
  161.3000   129.1982     6.4908     6.5251
  161.4000   128.9557     6.4904     6.5152
  161.5000   128.7050     6.4901     6.4772
  161.6000   128.7318     6.4897     6.4335
  161.7000   128.8956     6.4893     6.4332
  161.8000   128.9307     6.4890     6.4328
  161.9000   129.1982     6.4689     6.4325
  162.0000   129.4322     6.4312     6.4238
  162.1000   129.6829     6.3980     6.3870
  162.2000   130.0639     6.3977     6.3866
  162.3000   130.6438     6.3637     6.3563
  162.4000   131.4758     6.3266     6.3415
  162.5000   133.1316     6.3080     6.3411
  162.6000   134.0336     6.2969     6.3408
  162.7000   134.8629     6.2602     6.3404
  162.8000   135.7370     6.2196     6.3401
  162.9000   136.6699     6.2193     6.3397
  163.0000   137.4403     6.2190     6.3182
  163.1000   138.5779     6.2015     6.2949
  163.2000   139.6631     6.1751     6.2946
  163.3000   140.7515     6.1747     6.2942
  163.4000   141.6411     6.1743     6.2938
  163.5000   142.3318     6.1740     6.3211
  163.6000   142.8429     6.1502     6.3372
  163.7000   143.7216     6.1304     6.3369
