~VERSION INFORMATION
 VERS.                2.0:   CWLS LOG ASCII STANDARD - VERSION 2.0
 WRAP.                 NO:   ONE LINE PER DEPTH STEP
~WELL INFORMATION
#MNEM.UNIT      DATA TYPE    INFORMATION
#----------   ------------   ------------------------------
 STRT.F           14.0000:   START DEPTH
 STOP.F          692.5000:   STOP DEPTH
 STEP.F            0.5000:   STEP LENGTH
 NULL.          -999.2500:   NO VALUE
 COMP. FENIX & SCISSON INC:   COMPANY
 WELL. NPR #3 #27-51 SX 11 WP:   WELL
 FLD .        TEAPOT DOME:   FIELD
 LOC .      S11 T38N R78W:   LOCATION
 CNTY.            NATRONA:   COUNTY
 STAT.            WYOMING:   STATE
 CTRY. UNITED STATES OF AMERICA:   COUNTRY
 SRVC.      Dresser Atlas:   SERVICE COMPANY
 DATE.        16-AUG-1980:   LOGDATE
 API .       490251083900:   API NUMBER
~CURVE INFORMATION
#MNEM.UNIT       API CODE    CURVE DESCRIPTION
#----------   ------------   ------------------------------
 DEPT.F                  :   
 RHOB.G/C3   45 350 01 00:   BULK DENSITY
 CORR.G/C3   45 356 01 00:   DENSITY CORRECTION
 GRD .GAPI   45 310 01 00:   GAMMA RAY FROM DENSITY LOG
 CALD.IN     45 280 60 00:   CALIPER
 NPOR.DEC    42 890 03 00:   NEUTRON POROSITY SANDSTONE
 DPOR.DEC    45 890 12 00:   DENSITY POROSITY SANDSTONE
 SPR .MV     07 010 01 00:   SPONTANEOUS POTENTIAL
 SFL .OHMM   07 220 01 00:   SHALLOW FOCUSED LOG RESISTIVITY
 ILM .OHMM   07 120 44 00:   INDUCTION LOG MEDIUM
 ILD .OHMM   07 120 46 00:   INDUCTION LOG DEEP
~PARAMETER INFORMATION
#MNEM.UNIT          VALUE    DESCRIPTION
#----------   ------------   ------------------------------
 PD  .                 GL:   PERMANENT DATUM
 EPD .F              5194:   ELEVATION PERMANENT DATUM
 LMF .                 KB:   LOG MEASURED FROM
 DAPD.F                 5:   FEET ABOVE PERMANENT DATUM
 DMF .                 KB:   DRILLING MEASURED FROM
 EKB .F              5199:   KELLING BUSHING
 EGL .F              5194:   GROUND LEVEL
 DATE.            8-16-80:   RUN DATE
 RUN .                  1:   RUN NUMBER
 DD  .F               685:   DEPTH DRILLER
 DL  .F               693:   DEPTH LOGGER
 BLI .F               692:   BOTTOM LOG INTERVAL
 TLI .F                25:   TOP LOG INTERVAL
 BS  .IN            7.875:   BIT SIZE
 BSD .F               685:   BIT SIZE AT DEPTH
 DFT .                KCL:   DRILLING FLUID TYPE
 DFD .                9.4:   DRILLING FLUID DENSITY
 DFV .                 45:   DRILLING FLUID VISCOSITY
 DFPH.                 11:   DRILLING FLUID PH
 DFL .                7.2:   DRILLING FLUID LOSS
 MSS .           FLOWLINE:   MUD SAMPLE SOURCE
 RMS .OHMM            .74:   RESISTIVITY MUD SAMPLE
 MST .F                60:   MUD SAMPLE TEMPERATURE
 RMF .OHMM            .44:   RESISTIVITY MUD FILTRATE SAMPLE
 MFST.F                60:   MUD FILTRATE SAMPLE TEMPERATURE
 RMC .OHMM           1.35:   RESISTIVITY MUD CAKE
 MCST.F                60:   MUD CAKE SAMPLE TEMPERATURE
 MFSS.               MEAS:   MUD FILTRATE SAMPLE SOURCE
 MCSS.               MEAS:   MUD CAKE SAMPLE SOURCE
 TCS .HRS               1:   TIME CURCULATED STOPPED
 LUN .               6180:   LOGGING UNIT NUMBER
 LUL .               CODY:   LOGGING UNIT LOCATION
 ENGI.              HOYER:   RECORDING ENGINEER
 WITN.           MCINTYRE:   WITNESSED BY
 CLNT.            A2DTECH:   CLIENT CODE
 ORIG.      2" 2.5" PRINT:   ORIGIN OF DATA
 UWI .       490251083900:   UNIQUE WELL ID
 DICO. A2D Technologies, Inc.:   DIGITIZING COMPANY
~OTHER INFORMATION
~A   DEPT     RHOB       CORR        GRD       CALD       NPOR       DPOR        SPR        SFL         ILM       ILD   
# ...
   47.5000     2.0541     0.0053    98.8724     9.0400     0.3258  -999.2500   -82.7343     5.6842     3.4784     3.6392
   48.0000     2.0527     0.0034    97.7932     9.0389     0.3329  -999.2500   -82.7347     5.6673     3.3944     3.4931
   48.5000     2.0508     0.0017    96.7695     9.0331     0.3455  -999.2500   -82.7355     5.5255     3.3066     3.3678
   49.0000     2.0492    -0.0002    95.7141     9.0243     0.3542  -999.2500   -82.7325     5.3865     3.3066     3.3177
   49.5000     2.0489    -0.0018    95.1450     9.0156     0.3602  -999.2500   -82.5343     5.2527     3.3286     3.3066
   50.0000     2.0513    -0.0038    97.2912     9.0100     0.3661  -999.2500   -82.3299     5.1855     3.3370     3.3066
   50.5000     2.0556    -0.0018    97.8681     9.0102     0.3721  -999.2500   -82.3347     5.2689     3.3370     3.3066
   51.0000     2.0645     0.0011    95.5580     9.1549     0.3742  -999.2500   -82.3400     5.3632     3.3370     3.3066
   51.5000     2.0733     0.0040    96.6543     9.2805     0.3713  -999.2500   -82.0975     5.4312     3.3370     3.3673
   52.0000     2.0689     0.0068    95.6348     9.4346     0.3650  -999.2500   -81.7677     5.1507     3.3876     3.4355
   52.5000     2.0615     0.0097    96.8037     9.2841     0.3572  -999.2500   -81.4360     4.8646     3.4597     3.5050
   53.0000     2.0537     0.0126    99.9337     9.1011     0.3549  -999.2500   -81.1205     4.7288     3.5334     3.5760
   53.5000     2.0535     0.0154    98.4666     8.9271     0.3668  -999.2500   -80.8037     4.9977     3.6087     3.6484
   54.0000     2.0550     0.0183    94.7996     8.9466     0.3701  -999.2500   -80.4873     4.8179     3.6856     3.7222
   54.5000     2.0570     0.0210    92.8315     9.0221     0.3770  -999.2500   -80.0945     4.4769     3.7639     3.7975
   55.0000     2.0543     0.0237    95.7261     9.0203     0.3868  -999.2500   -79.6304     4.6219     3.8647     3.8743
   55.5000     2.0453     0.0197    95.2350     8.9309     0.3817  -999.2500   -79.1496     4.9042     3.7995     3.9531
   56.0000     2.0369     0.0156    93.4741     8.8684     0.3726  -999.2500   -78.4054     5.2816     3.7132     4.0619
   56.5000     2.0277     0.0122    95.3794     8.9829     0.3701  -999.2500   -77.6262     4.8901     3.6917     4.1840
   57.0000     2.0218     0.0203    93.9060     9.1987     0.3730  -999.2500   -76.8541     4.4122     3.8622     4.3155
   57.5000     2.0334     0.0305    91.4642     9.4131     0.3759  -999.2500   -76.3392     4.0468     4.0498     4.4634
   58.0000     2.0503     0.0408    90.4259     9.7808     0.3833  -999.2500   -76.3445     4.2008     4.2464     4.6235
   58.5000     2.0556     0.0508    86.1708    10.2936     0.3947  -999.2500   -76.5139     4.4120     4.4526     4.7894
   59.0000     2.0596     0.0614    87.7333    10.3815     0.4062  -999.2500   -76.7310     4.6340     4.6688     4.9613
   59.5000     2.0900     0.0711    88.7964    10.4713     0.4134  -999.2500   -76.9475     4.8670     4.8955     5.1393
   60.0000     2.1138     0.0793    86.1871    10.8821     0.4060  -999.2500   -77.1669     5.1118     5.1381     5.3237
   60.5000     2.0852     0.0639    83.1964    11.4089     0.3932  -999.2500   -77.5372     5.3689     4.9057     5.4792
   61.0000     2.0539     0.0722    83.0784    11.9527     0.3805  -999.2500   -78.6679     5.4792     4.7305     5.3694
   61.5000     2.0823     0.0802    82.9567    12.3048     0.3685  -999.2500   -79.7912     5.2207     4.7305     4.9822
   62.0000     2.0954     0.0684    82.8616    12.2731     0.3722  -999.2500   -80.9204     4.8099     4.0023     4.3835
   62.5000     2.0677     0.0746    84.7186    11.6727     0.3778  -999.2500   -81.6700     4.3820     3.3817     3.6165
   63.0000     2.0874     0.0682    87.0479    11.1323     0.3837  -999.2500   -82.3397     3.9808     2.8573     3.0085
   63.5000     2.0705     0.0532    90.8093    10.5190     0.3939  -999.2500   -83.0089     3.5993     2.4140     2.5964
   64.0000     2.0047     0.0462    95.5885     9.9782     0.4049  -999.2500   -83.5016     3.1433     2.0399     2.2403
   64.5000     1.8998     0.0211    98.6938    10.2204     0.4160  -999.2500   -83.9605     2.5837     1.7589     1.9550
   65.0000     1.8605     0.0027   101.7610    10.0939     0.4272    -0.0505   -84.1356     2.5103     1.6380     1.7777
   65.5000     1.8471    -0.0023   105.4525     9.6990     0.4231    -0.0358   -84.3161     2.5358     1.5247     1.6165
   66.0000     1.8545    -0.0078   107.3153     9.3546     0.4050    -0.0384   -84.4944     2.5609     1.4192     1.4738
   66.5000     1.8601    -0.0129   108.7803     9.0236     0.3869    -0.0427   -84.8241     2.5805     1.3694     1.3948
   67.0000     1.8645    -0.0197   111.1417     8.9382     0.3688    -0.0407   -85.1775     2.5804     1.4176     1.3948
   67.5000     1.8488    -0.0301   111.4481     8.8776     0.3568    -0.0384   -85.5301     2.5817     1.5283     1.4804
   68.0000     1.8363    -0.0394   107.7147     8.8102     0.3476    -0.0361   -85.7275     2.4183     1.7498     1.6253
   68.5000     1.9260    -0.0382   104.1812     8.7858     0.3377    -0.0447   -85.5804     2.1199     2.1402     1.8664
   69.0000     2.0765    -0.0140   103.9984     9.0282     0.3114    -0.0573   -85.2450     1.9772     2.6176     2.1432
   69.5000     2.3906     0.0064   102.6579     9.2230     0.3015    -0.0107   -84.9125     3.6560     3.2016     2.4611
   70.0000     2.4331     0.0291   101.1119     8.3813     0.3002     0.0542   -84.7285     6.3464     3.8373     3.2078
   70.5000     2.4304     0.0336    99.7794     8.0028     0.2989     0.1191   -84.7267     5.6717     4.5509     4.5509
   71.0000     2.4274     0.0198    97.7573     8.0138     0.2778     0.1443   -84.7572     4.9772     5.2577     5.3786
   71.5000     2.4270     0.0179    97.5970     7.9899     0.2540     0.1497   -85.3443     4.6432     5.9948     6.0876
   72.0000     2.4392     0.0248    99.4188     7.9690     0.2396     0.1426   -85.5277     4.8937     6.7677     6.7443
   72.5000     2.4518     0.0320    98.4432     7.9568     0.2396     0.1320   -85.5190     5.1954     6.9376     7.1118
   73.0000     2.4625     0.0296    98.8518     7.9546     0.2410     0.1281   -85.3120     5.5169     7.1018     7.3508
   73.5000     2.4476     0.0244    97.9468     7.9545     0.2443     0.1328   -85.1445     5.8576     7.2182     7.0332
   74.0000     2.4354     0.0192    96.9572     7.9556     0.2487     0.1416   -85.3992     5.8969     7.2214     6.6906
   74.5000     2.4223     0.0141    96.1054     7.9556     0.2523     0.1502   -85.6562     5.5446     5.8944     6.0410
   75.0000     2.4093     0.0120    99.0697     7.9556     0.2619     0.1544   -85.7286     5.2385     5.2093     5.1706
   75.5000     2.3922     0.0156   100.1243     7.9556     0.2676     0.1666   -85.7010     5.0449     4.6039     4.4256
   76.0000     2.3699     0.0124   100.9146     7.9556     0.2759     0.1788   -85.4431     5.0495     4.0724     3.5649
   76.5000     2.3486     0.0055   104.4983     7.9556     0.2898     0.1965   -85.1823     4.1890     3.7076     3.1293
   77.0000     2.2924    -0.0010   107.9233     7.9556     0.3120     0.2172   -84.9223     3.0082     3.3960     3.2119
   77.5000     2.2688    -0.0077   111.8439     7.9556     0.3171     0.2317   -84.6623     2.3977     3.4739     3.3790
   78.0000     2.2792    -0.0101   112.2687     7.9556     0.3196     0.2308   -84.3923     2.6525     3.8614     3.4619
   78.5000     2.3168    -0.0031   108.9402     7.9556     0.2968     0.2060   -84.4252     3.6383     4.2921     3.6197
   79.0000     2.3542     0.0033   105.9833     7.9556     0.2874     0.1837   -84.6010     5.1065     4.7709     3.9397
   79.5000     2.3881     0.0103   103.7953     7.9556     0.2780     0.1690   -84.7782     6.4448     5.2506     4.4338
   80.0000     2.4015     0.0089   102.0118     7.9557     0.2667     0.1611   -84.9340     5.7453     5.7577     5.4142
   80.5000     2.3937     0.0044   101.8653     7.9554     0.2651     0.1638   -84.8952     5.1775     6.3138     6.3053
