~VERSION INFORMATION
 VERS.                2.0:   CWLS LOG ASCII STANDARD - VERSION 2.0
 WRAP.                 NO:   ONE LINE PER DEPTH STEP
~WELL INFORMATION
#MNEM.UNIT      DATA TYPE    INFORMATION
#----------   ------------   ------------------------------
 STRT.F           32.5000:   START DEPTH
 STOP.F          654.0000:   STOP DEPTH
 STEP.F            0.5000:   STEP LENGTH
 NULL.          -999.2500:   NO VALUE
 COMP. FENIX & SCISSON INC:   COMPANY
 WELL.          NPR #13-2:   WELL
 FLD .             TEAPOT:   FIELD
 LOC .       S2 T38N R78W:   LOCATION
 CNTY.            NATRONA:   COUNTY
 STAT.            WYOMING:   STATE
 CTRY. UNITED STATES OF AMERICA:   COUNTRY
 SRVC.           BIRDWELL:   SERVICE COMPANY
 DATE.        16-JAN-1978:   LOGDATE
 API .       490251055100:   API NUMBER
~CURVE INFORMATION
#MNEM.UNIT       API CODE    CURVE DESCRIPTION
#----------   ------------   ------------------------------
 DEPT.F                  :   
 ILD .OHMM   05 120 46 00:   INDUCTION LOG DEEP
 SN  .OHMM   05 040 16 00:   SHORT NORMAL 16"
 SPR .MV     05 010 01 00:   SPONTANEOUS POTENTIAL FROM RES.
 CALD.IN     45 280 60 00:   CALIPER FROM DENSITY LOG
 CORR.G/C3   45 356 01 00:   DENSITY CORRECTION
 DPHI.DEC    45 890 12 00:   DENSITY POROSITY SANDSTONE
 GRD .GAPI   45 310 01 00:   GAMMA RAY FROM DENSITY LOG
 RHOB.G/C3   45 350 01 00:   BULK DENSITY
~PARAMETER INFORMATION
#MNEM.UNIT          VALUE    DESCRIPTION
#----------   ------------   ------------------------------
 PD  .                 GL:   PERMANENT DATUM
 EPD .F              5091:   ELEVATION PERMANENT DATUM
 LMF .                 KB:   LOG MEASURED FROM
 DAPD.F                 4:   FEET ABOVE PERMANENT DATUM
 DMF .                 KB:   DRILLING MEASURED FROM
 EKB .F              5095:   KELLING BUSHING
 EGL .F              5091:   GROUND LEVEL
 DATE.        16-JAN-1978:   RUN DATE
 RUN .                  1:   RUN NUMBER
 DD  .F               652:   DEPTH DRILLER
 DL  .F               654:   DEPTH LOGGER
 BLI .F               649:   BOTTOM LOG INTERVAL
 TLI .F                30:   TOP LOG INTERVAL
 CS  .IN            8.625:   CASING SIZE
 CBD .F                20:   CASING BOTTOM DRILLER
 CBL .F                34:   CASING BOTTOM LOGGER
 BS  .IN            7.875:   BIT SIZE
 BSD .F               652:   BIT SIZE AT DEPTH
 DFT .                KCL:   DRILLING FLUID TYPE
 DFD .                8.7:   DRILLING FLUID DENSITY
 DFV .                 34:   DRILLING FLUID VISCOSITY
 DFPH.                 10:   DRILLING FLUID PH
 MSS .           FLOWLINE:   MUD SAMPLE SOURCE
 RMS .OHMM            0.3:   RESISTIVITY MUD SAMPLE
 MST .F                62:   MUD SAMPLE TEMPERATURE
 RMF .OHMM           0.26:   RESISTIVITY MUD FILTRATE SAMPLE
 MFST.F                66:   MUD FILTRATE SAMPLE TEMPERATURE
 RMC .OHMM           0.48:   RESISTIVITY MUD CAKE
 MCST.F                66:   MUD CAKE SAMPLE TEMPERATURE
 MFSS.               MEAS:   MUD FILTRATE SAMPLE SOURCE
 MCSS.               MEAS:   MUD CAKE SAMPLE SOURCE
 RMB .OHMM           0.26:   RESISTIVITY MUD AT BHT
 BHT .F                72:   BOTTOM HOLE TEMPERATURE
 TCS .HRS               3:   TIME CURCULATED STOPPED
 MRT .F                72:   MAXIMUM RECORDED TEMPERATURE
 LUN .               3027:   LOGGING UNIT NUMBER
 LUL .                GJT:   LOGGING UNIT LOCATION
 ENGI.           MARTINEZ:   RECORDING ENGINEER
 WITN.         HARRINGTON:   WITNESSED BY
 CLNT.            A2DTECH:   CLIENT CODE
 ORIG.           5" PRINT:   ORIGIN OF DATA
 UWI .       490251055100:   UNIQUE WELL ID
 DICO. A2D Technologies, Inc.:   DIGITIZING COMPANY
~OTHER INFORMATION
~A   DEPT      ILD         SN        SPR       CALD       CORR       DPHI         GRD      RHOB   
# ...
  559.0000    15.7205    15.7778   -31.2721     8.6336     0.0633     0.1046    66.3165     2.4971
  559.5000    15.7216    15.8882   -31.4179     8.6342     0.0573     0.1130    64.9517     2.4827
  560.0000    15.7227    15.8893   -31.7124     8.6361     0.0499     0.1142    64.3461     2.4745
  560.5000    15.8328    15.8904   -31.7051     8.6384     0.0394     0.1130    67.2373     2.4715
  561.0000    15.8339    15.8917   -31.6993     8.6406     0.0395     0.1118    68.6081     2.4722
  561.5000    15.8352    15.6744   -31.6935     8.6428     0.0472     0.1097    68.0032     2.4760
  562.0000    15.6188    15.4603   -31.5375     8.6450     0.0544     0.1076    66.1824     2.4797
  562.5000    15.5119    15.2494   -31.3814     8.6472     0.0574     0.1052    66.7933     2.4835
  563.0000    15.5132    15.2505   -31.6745     8.6494     0.0574     0.1021    69.5563     2.4858
  563.5000    15.5143    15.2515   -31.9690     8.6517     0.0545     0.1026    70.0396     2.4865
  564.0000    15.5153    15.2525   -32.1148     8.6539     0.0530     0.1050    72.2741     2.4865
  564.5000    15.3033    15.2535   -32.2591     8.6561     0.0515     0.1073    73.3409     2.4835
  565.0000    15.0941    15.2546   -32.2518     8.6583     0.0515     0.1085    73.0400     2.4805
  565.5000    14.9911    15.2559   -32.2460     8.6605     0.0515     0.1079    70.7633     2.4820
  566.0000    14.9924    15.1516   -32.3904     8.6628     0.0515     0.1037    70.1576     2.4895
  566.5000    14.9934    15.0483   -32.5450     8.6650     0.0561     0.0968    72.8969     2.4955
  567.0000    14.9944    14.9456   -32.8291     8.6672     0.0606     0.0947    75.3315     2.4992
  567.5000    14.9954    14.8437   -33.1221     8.6694     0.0636     0.0977    76.2463     2.4970
  568.0000    14.9964    14.8450   -33.1163     8.6716     0.0621     0.1007    75.9454     2.4925
  568.5000    14.9974    14.8460   -33.2621     8.6739     0.0576     0.1034    73.8207     2.4887
  569.0000    14.9984    14.8470   -33.4064     8.6605     0.0531     0.1055    71.6718     2.4865
  569.5000    14.9994    14.8480   -33.5507     8.6611     0.0516     0.1064    69.8389     2.4841
  570.0000    15.0007    14.8490   -33.5434     8.6617     0.0486     0.1067    69.7263     2.4850
  570.5000    14.8981    14.7477   -33.5375     8.6472     0.0517     0.1066    72.4656     2.4880
  571.0000    14.8993    14.7490   -33.3802     8.6479     0.0517     0.1048    76.4199     2.4910
  571.5000    14.7976    14.6482   -33.3744     8.6485     0.0547     0.1066    74.4472     2.4925
  572.0000    14.7986    14.6494   -33.5201     8.6491     0.0577     0.1129    67.6106     2.4805
  572.5000    14.7996    14.7520   -33.2126     8.6497     0.0457     0.1168    70.1979     2.4700
  573.0000    14.5974    14.7529   -33.0566     8.6503     0.0427     0.1156    75.9759     2.4767
  573.5000    14.5983    14.7539   -33.2009     8.6509     0.0427     0.1105    76.4341     2.4850
  574.0000    14.5993    14.7549   -33.7957     8.6515     0.0460     0.1072    71.4226     2.4887
  574.5000    14.6005    14.7559   -34.2467     8.6521     0.0518     0.1057    71.4256     2.4895
  575.0000    14.6015    14.6553   -34.5348     8.6527     0.0518     0.1060    71.4286     2.4880
  575.5000    14.4020    14.6565   -34.6791     8.6533     0.0518     0.1090    70.2037     2.4789
  576.0000    14.3034    14.5564   -34.6718     8.6539     0.0488     0.1114    69.9148     2.4730
  576.5000    14.2058    14.4571   -34.6660     8.6545     0.0428     0.1114    70.2225     2.4760
  577.0000    14.0119    14.4583   -34.5100     8.6551     0.0368     0.1095    70.8333     2.4805
  577.5000    13.9163    14.4593   -34.5042     8.6557     0.0369     0.1075    72.3561     2.4827
  578.0000    13.7248    14.3605   -34.7987     8.6563     0.0399     0.1072    73.4229     2.4835
  578.5000    13.5385    14.2628   -34.9474     8.6569     0.0384     0.1075    73.4259     2.4835
  579.0000    13.3537    14.0680   -35.2375     8.6575     0.0369     0.1077    72.9729     2.4827
  579.5000    13.0804    13.9628   -35.3818     8.6581     0.0369     0.1065    72.3680     2.4835
  580.0000    12.8127    13.6866   -35.6748     8.6587     0.0399     0.1029    72.3710     2.4955
  580.5000    12.6376    13.5930   -35.8206     8.6597     0.0460     0.0999    71.7660     2.5038
  581.0000    12.4646    13.5003   -36.1136     8.6610     0.0490     0.0984    71.7690     2.5030
  581.5000    12.2943    13.3159   -36.2594     8.6623     0.0520     0.1005    72.0881     2.4977
  582.0000    12.1264    13.0439   -36.5524     8.6637     0.0475     0.1026    73.6533     2.4924
  582.5000    12.2114    12.8657   -36.5465     8.6650     0.0460     0.1059    75.8821     2.4887
  583.0000    12.1281    12.6026   -36.5405     8.6663     0.0475     0.1102    77.5568     2.4850
  583.5000    11.8801    12.3449   -36.6851     8.6676     0.0461     0.1163    80.7512     2.4805
  584.0000    11.7175    12.0902   -36.6778     8.6690     0.0461     0.1263    81.2101     2.4677
  584.5000    11.3988    11.7426   -36.5218     8.6703     0.0431     0.1365    80.9084     2.4505
  585.0000    10.9363    10.9036   -36.3658     8.6716     0.0401     0.1437    81.2161     2.4354
  585.5000    10.4203    10.1763   -36.0597     8.6729     0.0416     0.1484    82.7388     2.4234
  586.0000     9.9975     9.8314   -36.0539     8.6742     0.0461     0.1502    82.8938     2.4174
  586.5000     9.6584     9.5639   -35.8979     8.6756     0.0491     0.1385    84.1126     2.4197
  587.0000     9.3955     9.4987   -35.7227     8.6769     0.0537     0.1238    96.1216     2.4505
  587.5000     9.5492     9.8334   -35.4343     8.6782     0.0582     0.1118   101.5957     2.4745
  588.0000    10.9409    10.2503   -35.2798     8.6795     0.0522     0.1025   102.0546     2.4874
  588.5000    11.9708    10.9087   -35.5728     8.6809     0.0477     0.0962    92.6760     2.4972
  589.0000    12.7402    11.8625   -35.5670     8.6822     0.0537     0.0914    78.5051     2.5053
  589.5000    13.1893    12.8185   -35.5616     8.6835     0.0612     0.0884    76.3804     2.5098
  590.0000    13.4667    13.5174   -35.5554     8.6848     0.0643     0.0900    77.2953     2.5105
  590.5000    13.5610    13.7064   -35.5495     8.6863     0.0598     0.0905    77.1455     2.5105
  591.0000    13.6560    13.7073   -35.2432     8.6718     0.0583     0.0878    77.9091     2.5120
  591.5000    13.7517    13.7083   -35.2361     8.6725     0.0598     0.0854    78.8240     2.5150
  592.0000    13.7529    13.7092   -35.0802     8.6731     0.0703     0.0830    78.3710     2.5188
  592.5000    13.7538    13.7101   -35.0743     8.6587     0.0699     0.0908    77.1575     2.5195
  593.0000    13.8502    13.8061   -34.7682     8.6593     0.0629     0.0926    78.0730     2.5135
  593.5000    13.9472    13.9991   -34.6122     8.6449     0.0614     0.0881    79.4438     2.5105
  594.0000    14.1424    14.1949   -34.4562     8.6455     0.0674     0.0836    81.5866     2.5151
  594.5000    14.2415    14.3936   -34.3003     8.6461     0.0719     0.0782    81.8815     2.5227
  595.0000    14.4407    14.6961   -34.2943     8.6467     0.0779     0.0728    81.5045     2.5308
  595.5000    14.7444    15.0049   -34.2872     8.6473     0.0824     0.0740    79.3045     2.5360
  596.0000    15.0643    15.3202   -34.2813     8.6479     0.0825     0.0791    77.9389     2.5368
  596.5000    15.4780    15.5344   -34.2755     8.6485     0.0765     0.0843    78.5506     2.5293
  597.0000    15.6946    15.7517   -34.2697     8.6491     0.0720     0.0865    77.2455     2.5165
  597.5000    15.8045    15.7527   -34.2639     8.6497     0.0720     0.0859    76.4970     2.5143
  598.0000    15.9153    15.8630   -34.4084     8.6503     0.0765     0.0835    76.0479     2.5180
  598.5000    15.9163    15.7548   -34.5526     8.6509     0.0798     0.0865    77.4192     2.5188
  599.0000    15.9174    15.7559   -34.5465     8.6515     0.0826     0.0913    80.0716     2.5128
