~VERSION INFORMATION
 VERS.                2.0:   CWLS LOG ASCII STANDARD - VERSION 2.0
 WRAP.                 NO:   ONE LINE PER DEPTH STEP
~WELL INFORMATION
#MNEM.UNIT      DATA TYPE    INFORMATION
#----------   ------------   ------------------------------
 STRT.F           92.0000:   START DEPTH
 STOP.F          810.0000:   STOP DEPTH
 STEP.F            0.5000:   STEP LENGTH
 NULL.          -999.2500:   NO VALUE
 COMP. U S NAVY/INTEX OIL CO:   COMPANY
 WELL. NPR #3 #86 S 34-34:   WELL
 FLD .        EAST TEAPOT:   FIELD
 LOC .      S34 T39N R78W:   LOCATION
 CNTY.            NATRONA:   COUNTY
 STAT.            WYOMING:   STATE
 CTRY. UNITED STATES OF AMERICA:   COUNTRY
 SRVC. Schlumberger Well Surveying Corp:   SERVICE COMPANY
 DATE.        22-JUL-1962:   LOGDATE
 API .       490250652900:   API NUMBER
~CURVE INFORMATION
#MNEM.UNIT       API CODE    CURVE DESCRIPTION
#----------   ------------   ------------------------------
 DEPT.F                  :   
 GR  .GAPI   30 310 01 00:   GAMMA RAY
 SPR .MV     05 010 01 00:   SPONTANEOUS POTENTIAL FROM RES.
 CILD.MMHO   05 110 46 00:   CONDUCTIVITY INDUCTION LOG DEEP
 ASN .OHMM   05 041 16 00:   AMPLIFIED SHORT NORMAL 16"
 ILD .OHMM   05 120 46 00:   INDUCTION LOG DEEP
 CALM.IN     15 280 01 00:   CALIPER FROM MICRO LOG
~PARAMETER INFORMATION
#MNEM.UNIT          VALUE    DESCRIPTION
#----------   ------------   ------------------------------
 PD  .                 GL:   PERMANENT DATUM
 EPD .F              5094:   ELEVATION PERMANENT DATUM
 LMF .                 KB:   LOG MEASURED FROM
 DAPD.F                 5:   FEET ABOVE PERMANENT DATUM
 DMF .                 KB:   DRILLING MEASURED FROM
 EKB .F              5099:   KELLING BUSHING
 EGL .F              5094:   GROUND LEVEL
 DATE.            7-22-62:   RUN DATE
 RUN .                  1:   RUN NUMBER
 DD  .F               810:   DEPTH DRILLER
 DL  .F               811:   DEPTH LOGGER
 BLI .F               810:   BOTTOM LOG INTERVAL
 TLI .F               100:   TOP LOG INTERVAL
 BS  .IN             6.75:   BIT SIZE
 BSD .F               810:   BIT SIZE AT DEPTH
 DFT .                GEL:   DRILLING FLUID TYPE
 DFD .               10.3:   DRILLING FLUID DENSITY
 DFV .                 43:   DRILLING FLUID VISCOSITY
 RMS .OHMM              4:   RESISTIVITY MUD SAMPLE
 MST .F                75:   MUD SAMPLE TEMPERATURE
 RMF .OHMM            2.9:   RESISTIVITY MUD FILTRATE SAMPLE
 MFST.F                75:   MUD FILTRATE SAMPLE TEMPERATURE
 RMC .OHMM            3.8:   RESISTIVITY MUD CAKE
 MCST.F                75:   MUD CAKE SAMPLE TEMPERATURE
 TCS .HRS               1:   TIME CURCULATED STOPPED
 LUN .               2503:   LOGGING UNIT NUMBER
 ENGI.           ELLERMAN:   RECORDING ENGINEER
 WITN.          JORGENSON:   WITNESSED BY
 CLNT.            A2DTECH:   CLIENT CODE
 ORIG.   1", 2", 5" PRINT:   ORIGIN OF DATA
 UWI .       490250652900:   UNIQUE WELL ID
 DICO. A2D Technologies, Inc.:   DIGITIZING COMPANY
~OTHER INFORMATION
~A   DEPT       GR        SPR       CILD        ASN        ILD       CALM   
# ...
  404.0000  -999.2500   -35.2234   102.3508    10.2286     9.5843  -999.2500
  404.5000  -999.2500   -35.4424   101.8969    10.2451     9.5989  -999.2500
  405.0000  -999.2500   -35.0623   101.4430    10.2615     9.6726  -999.2500
  405.5000  -999.2500   -34.6958   100.9892    10.2780     9.7771  -999.2500
  406.0000  -999.2500   -34.3297   100.5353    10.2945     9.8822  -999.2500
  406.5000  -999.2500   -33.9651   100.2077    10.3110     9.9905  -999.2500
  407.0000  -999.2500   -33.6079   100.2077    10.3289     9.9412  -999.2500
  407.5000  -999.2500   -33.2604   100.9102    10.2656     9.8296  -999.2500
  408.0000  -999.2500   -32.9119   102.3070    10.1714     9.7159  -999.2500
  408.5000  -999.2500   -32.5585   103.7038    10.0766     9.6022  -999.2500
  409.0000  -999.2500   -32.6940   105.1006     9.9826     9.4886  -999.2500
  409.5000  -999.2500   -33.2130   106.4973     9.7778     9.3750  -999.2500
  410.0000  -999.2500   -33.5687   107.8941     9.5969     9.2615  -999.2500
  410.5000  -999.2500   -33.0289   109.2909     9.5852     9.1479  -999.2500
  411.0000  -999.2500   -32.5623   110.6877     9.5559     9.0344  -999.2500
  411.5000  -999.2500   -32.3702   112.0845     9.5094     8.9204  -999.2500
  412.0000  -999.2500   -32.1729   113.4813     9.4945     8.8424  -999.2500
  412.5000  -999.2500   -31.9948   115.9138     9.4851     8.7877  -999.2500
  413.0000  -999.2500   -32.0859   118.5462     9.4166     8.6034  -999.2500
  413.5000  -999.2500   -32.1828   120.9761     9.2354     8.4023  -999.2500
  414.0000  -999.2500   -32.2786   124.9014     8.8988     8.2006  -999.2500
  414.5000  -999.2500   -32.3740   128.5462     8.5718     7.9992  -999.2500
  415.0000  -999.2500   -32.4694   132.1911     8.2487     7.7973  -999.2500
  415.5000  -999.2500   -32.5650   135.8359     7.9896     7.5963  -999.2500
  416.0000  -999.2500   -32.6606   139.6489     7.8929     7.4193  -999.2500
  416.5000  -999.2500   -32.7539   139.2283     7.8406     7.4992  -999.2500
  417.0000  -999.2500   -32.7466   136.2292     7.8233     7.6344  -999.2500
  417.5000  -999.2500   -32.5537   133.2534     8.0143     7.7694  -999.2500
  418.0000  -999.2500   -32.4294   130.2836     8.3689     7.9045  -999.2500
  418.5000  -999.2500   -32.6096   127.3137     8.7072     8.0395  -999.2500
  419.0000  -999.2500   -32.7759   124.3438     8.8206     8.1746  -999.2500
  419.5000  -999.2500   -33.2930   121.3739     8.8983     8.3099  -999.2500
  420.0000  -999.2500   -33.8722   118.4040     8.9705     8.4443  -999.2500
  420.5000  -999.2500   -34.0551   116.5763     9.0184     8.4985  -999.2500
  421.0000  -999.2500   -33.9856   116.0498     8.9875     8.5384  -999.2500
  421.5000  -999.2500   -33.6743   116.4356     8.9588     8.5509  -999.2500
  422.0000  -999.2500   -33.3717   117.7461     8.9301     8.4816  -999.2500
  422.5000  -999.2500   -33.4160   119.0675     8.8997     8.4158  -999.2500
  423.0000  -999.2500   -33.7616   120.3814     8.8292     8.3499  -999.2500
  423.5000  -999.2500   -34.1158   121.7004     8.7541     8.2839  -999.2500
  424.0000  -999.2500   -33.9944   122.0145     8.6894     8.2173  -999.2500
  424.5000  -999.2500   -33.5266   123.0530     8.6730     8.1562  -999.2500
  425.0000  -999.2500   -33.0543   122.8051     8.7074     8.2438  -999.2500
  425.5000  -999.2500   -32.5803   121.4788     8.7556     8.3391  -999.2500
  426.0000  -999.2500   -32.1842   120.1617     8.8491     8.4338  -999.2500
  426.5000  -999.2500   -31.8349   118.8448     8.9438     8.5283  -999.2500
  427.0000  -999.2500   -31.5648   117.5950     9.0377     8.6228  -999.2500
  427.5000  -999.2500   -31.6720   116.5421     9.1083     8.7175  -999.2500
  428.0000  -999.2500   -31.7713   115.4891     9.1072     8.8119  -999.2500
  428.5000  -999.2500   -32.0333   114.4361     9.1216     8.8822  -999.2500
  429.0000  -999.2500   -32.3229   114.8449     9.1816     8.8021  -999.2500
  429.5000  -999.2500   -32.8094   115.7437     9.2351     8.7167  -999.2500
  430.0000  -999.2500   -33.3771   116.6426     9.1376     8.6310  -999.2500
  430.5000  -999.2500   -33.9463   117.5415     9.0089     8.5456  -999.2500
  431.0000  -999.2500   -34.5218   118.4403     8.8801     8.4602  -999.2500
  431.5000  -999.2500   -35.0901   119.3392     8.7716     8.3749  -999.2500
  432.0000  -999.2500   -34.7049   120.2394     8.7835     8.2889  -999.2500
  432.5000  -999.2500   -34.3752   121.1426     8.7954     8.2559  -999.2500
  433.0000  -999.2500   -34.0580   122.0145     8.8073     8.2554  -999.2500
  433.5000  -999.2500   -33.8724   121.4756     8.8237     8.2554  -999.2500
  434.0000  -999.2500   -33.9924   120.9491     8.8591     8.2554  -999.2500
  434.5000  -999.2500   -34.1616   120.4226     8.8611     8.2556  -999.2500
  435.0000  -999.2500   -34.3317   119.9377     8.8225     8.2456  -999.2500
  435.5000  -999.2500   -34.5013   120.5057     8.7843     8.2314  -999.2500
  436.0000  -999.2500   -34.6705   121.0322     8.7460     8.2169  -999.2500
  436.5000  -999.2500   -34.8471   121.5587     8.7083     8.2025  -999.2500
  437.0000  -999.2500   -34.6998   122.0852     8.6829     8.1881  -999.2500
  437.5000  -999.2500   -34.3515   122.6116     8.6424     8.1737  -999.2500
  438.0000  -999.2500   -34.0275   123.1381     8.5894     8.1592  -999.2500
  438.5000  -999.2500   -33.8830   123.6646     8.5674     8.1448  -999.2500
  439.0000  -999.2500   -33.7349   124.1191     8.5666     8.1304  -999.2500
  439.5000  -999.2500   -33.6554   124.2653     8.5461     8.1160  -999.2500
  440.0000  -999.2500   -33.6886   124.4116     8.4929     8.1015  -999.2500
  440.5000  -999.2500   -33.7201   124.5578     8.4437     8.0871  -999.2500
  441.0000  -999.2500   -33.7520   124.7040     8.4490     8.0725  -999.2500
  441.5000  -999.2500   -33.7839   124.8503     8.4561     8.0583  -999.2500
  442.0000  -999.2500   -33.8175   124.9965     8.4630     8.0564  -999.2500
  442.5000  -999.2500   -33.8579   125.1298     8.4698     8.0955  -999.2500
  443.0000  -999.2500   -33.4921   126.5055     8.4768     8.1334  -999.2500
  443.5000  -999.2500   -33.0932   127.7691     8.4832     8.1099  -999.2500
  444.0000  -999.2500   -32.7976   129.0326     8.4454     8.0293  -999.2500
  444.5000  -999.2500   -32.6981   130.2962     8.4032     7.9482  -999.2500
  445.0000  -999.2500   -32.5937   131.3010     8.3609     7.8671  -999.2500
  445.5000  -999.2500   -32.5114   130.9249     8.3184     7.7872  -999.2500
  446.0000  -999.2500   -32.4274   130.5489     8.2779     7.7622  -999.2500
  446.5000  -999.2500   -32.3428   130.1728     8.2990     7.8347  -999.2500
  447.0000  -999.2500   -32.2596   129.7984     8.3404     7.9057  -999.2500
  447.5000  -999.2500   -32.2300   129.4177     8.4587     7.9769  -999.2500
  448.0000  -999.2500   -32.4215   128.7383     8.5122     8.0481  -999.2500
  448.5000  -999.2500   -32.6088   127.8678     8.4810     8.1193  -999.2500
  449.0000  -999.2500   -32.7994   127.0021     8.5210     8.1905  -999.2500
  449.5000  -999.2500   -32.5908   126.1363     8.6453     8.2556  -999.2500
  450.0000  -999.2500   -32.3317   125.2705     8.7299     8.2704  -999.2500
  450.5000  -999.2500   -32.0709   124.4047     8.7153     8.2838  -999.2500
  451.0000  -999.2500   -31.8125   123.5389     8.7681     8.2974  -999.2500
  451.5000  -999.2500   -31.7798   122.6731     8.8201     8.3110  -999.2500
  452.0000  -999.2500   -31.7800   121.8073     8.8720     8.3246  -999.2500
  452.5000  -999.2500   -31.7798   120.9416     8.9182     8.3382  -999.2500
  453.0000  -999.2500   -31.7774   120.0736     8.9586     8.3516  -999.2500
  453.5000  -999.2500   -31.7965   119.2035     8.9362     8.3479  -999.2500
  454.0000  -999.2500   -32.2576   119.2987     8.8903     8.3220  -999.2500
  454.5000  -999.2500   -32.7290   120.2077     8.8431     8.2964  -999.2500
  455.0000  -999.2500   -33.0270   121.1166     8.7928     8.2699  -999.2500
  455.5000  -999.2500   -32.9828   122.0145     8.6838     8.2084  -999.2500
