~VERSION INFORMATION
 VERS.                2.0:   CWLS LOG ASCII STANDARD - VERSION 2.0
 WRAP.                 NO:   ONE LINE PER DEPTH STEP
~WELL INFORMATION
#MNEM.UNIT      DATA TYPE    INFORMATION
#----------   ------------   ------------------------------
 STRT.F           18.0000:   START DEPTH
 STOP.F          576.0000:   STOP DEPTH
 STEP.F            0.5000:   STEP LENGTH
 NULL.          -999.2500:   NO VALUE
 COMP. LAWRENCE/ALLISON INC:   COMPANY
 WELL.    41-16 SX #10-10:   WELL
 FLD .             TEAPOT:   FIELD
 LOC .      S10 T38N R78W:   LOCATION
 CNTY.            NATRONA:   COUNTY
 STAT.            WYOMING:   STATE
 CTRY. UNITED STATES OF AMERICA:   COUNTRY
 SRVC.           Gearhart:   SERVICE COMPANY
 DATE.        30-JUL-1987:   LOGDATE
 API .       490251115400:   API NUMBER
~CURVE INFORMATION
#MNEM.UNIT       API CODE    CURVE DESCRIPTION
#----------   ------------   ------------------------------
 DEPT.F                  :   
 GRR .GAPI   07 310 01 00:   GAMMA RAY
 ILD .OHMM   07 120 46 00:   INDUCTION LOG DEEP
 ILM .OHMM   07 120 44 00:   INDUCTION LOG MEDIUM
~PARAMETER INFORMATION
#MNEM.UNIT          VALUE    DESCRIPTION
#----------   ------------   ------------------------------
 PD  .                 GL:   PERMANENT DATUM
 EPD .F              5253:   ELEVATION PERMANENT DATUM
 LMF .                 KB:   LOG MEASURED FROM
 DAPD.F                 8:   FEET ABOVE PERMANENT DATUM
 DMF .                 KB:   DRILLING MEASURED FROM
 EKB .F              5261:   KELLING BUSHING
 EGL .F              5253:   GROUND LEVEL
 DATE.        30-JUL-1987:   RUN DATE
 RUN .                  1:   RUN NUMBER
 DD  .F               570:   DEPTH DRILLER
 DL  .F               584:   DEPTH LOGGER
 BLI .F               576:   BOTTOM LOG INTERVAL
 TLI .F                18:   TOP LOG INTERVAL
 CS  .IN            8.625:   CASING SIZE
 CBD .F                48:   CASING BOTTOM DRILLER
 CBL .F                48:   CASING BOTTOM LOGGER
 BS  .IN            7.875:   BIT SIZE
 BSD .F               570:   BIT SIZE AT DEPTH
 TLAB.HRS            0346:   TIME LOGGER AT BOTTOM
 MRT .F                80:   MAXIMUM RECORDED TEMPERATURE
 LUN .               7597:   LOGGING UNIT NUMBER
 LUL .           GILLETTE:   LOGGING UNIT LOCATION
 ENGI. K. HUCHFELDT, R. WEATHERMON:   RECORDING ENGINEER
 WITN.    MR. GARY STRONG:   WITNESSED BY
 CLNT.            A2DTECH:   CLIENT CODE
 ORIG.         2.5" PRINT:   ORIGIN OF DATA
 UWI .       490251115400:   UNIQUE WELL ID
 DICO. A2D Technologies, Inc.:   DIGITIZING COMPANY
~OTHER INFORMATION
~A   DEPT       GRR       ILD        ILM   
# ...
  473.0000    89.8469    18.1404    16.7803
  473.5000    90.7583    18.1454    16.5494
  474.0000    92.0805    17.9017    16.0982
  474.5000    93.1950    17.6614    15.8767
  475.0000    93.8081    17.4241    15.8756
  475.5000    95.0255    17.1902    15.6500
  476.0000    92.0132    16.9595    15.4276
  476.5000    89.0010    16.5027    15.2292
  477.0000    85.9887    16.2812    15.0196
  477.5000    85.9976    16.0626    15.0186
  478.0000    88.4234    15.8469    15.0175
  478.5000    90.2449    15.6342    15.0165
  479.0000    90.2618    15.4242    15.0155
  479.5000    89.6424    15.4289    15.0144
  480.0000    89.0631    15.4332    15.0134
  480.5000    90.3454    15.4374    14.9370
  481.0000    92.7956    15.2295    14.5231
  481.5000    94.5287    15.2344    14.2049
  482.0000    93.0553    15.2386    14.1131
  482.5000    90.5992    15.0341    13.7220
  483.0000    87.9577    15.0383    13.6265
  483.5000    85.6868    14.9370    13.6255
  484.0000    84.3004    14.8405    13.6244
  484.5000    87.5015    14.6413    13.4369
  485.0000    90.6445    14.6461    13.6226
  485.5000    92.4904    14.6501    13.6216
  486.0000    91.2588    14.6541    13.6207
  486.5000    88.4723    14.6581    13.6198
  487.0000    87.7563    14.6620    13.6189
  487.5000    89.8051    14.6660    13.6179
  488.0000    91.6267    14.6700    13.6170
  488.5000    93.4483    14.6740    13.8052
  489.0000    94.0614    14.6779    13.9959
  489.5000    93.4653    14.6819    14.1892
  490.0000    93.4749    14.6859    14.1882
  490.5000    95.2965    14.6899    14.3842
  491.0000    95.9096    14.6939    14.3832
  491.5000    94.1058    14.6980    14.5820
  492.0000    92.3020    14.7020    14.3812
  492.5000    94.8087    14.5044    14.3474
  493.0000    97.8228    14.5087    14.1824
  493.5000   100.2729    14.4706    14.1814
  494.0000   100.7976    14.3175    14.1286
  494.5000   100.8066    14.1252    13.9278
  495.0000   100.0503    14.1297    13.7928
  495.5000    99.6150    13.9394    13.6030
  496.0000   100.4391    13.9439    13.5276
  496.5000   100.8429    13.9477    13.4149
  497.0000   101.4562    13.9516    13.3282
  497.5000   102.9557    13.7643    13.2294
  498.0000   104.2054    13.7681    13.1318
  498.5000   106.3736    13.7719    12.9452
  499.0000   106.2215    13.7765    12.6905
  499.5000   102.7116    13.7802    12.6897
  500.0000   100.3021    13.7839    13.0437
  500.5000    99.1040    13.5946    13.2303
  501.0000    99.7171    13.5946    13.5946
  501.5000   100.3303    13.5946    13.7833
  502.0000   100.9434    13.5946    13.7833
  502.5000   100.9523    13.5946    13.7550
  503.0000   100.9611    13.5946    13.5611
  503.5000    99.7616    13.5946    13.3699
  504.0000    98.5619    13.5722    13.2248
  504.5000    97.9667    13.4084    13.2248
  505.0000    98.6203    13.4084    13.0437
  505.5000   100.4663    13.4084    12.8651
  506.0000   101.7966    13.4084    12.6889
  506.5000   103.5539    13.2200    12.6889
  507.0000   105.3998    12.5152    12.5152
  507.5000   106.8026    12.3438    12.5152
  508.0000   108.3021    12.1748    12.5152
  508.5000   107.4975    12.0081    12.5152
  509.0000   105.9016    11.8436    12.5152
  509.5000   104.1883    11.8436    12.5152
  510.0000   101.7322    11.8436    12.3438
  510.5000   101.0967    11.8436    12.3438
  511.0000   106.0524    11.6409    12.0081
  511.5000   109.0745    11.3202    11.8436
  512.0000   109.2044    11.1146    11.3637
  512.5000   107.1767    10.7049    11.0546
  513.0000   104.7687    10.3590    10.6067
  513.5000   105.3818     9.9844    10.0376
  514.0000   110.8287     9.5763     9.6309
  514.5000   112.6503     9.1301     9.1141
  515.0000   110.8465     8.6985     8.7448
  515.5000   110.8554     8.1645     7.9402
  516.0000   115.0939     7.6150     7.2097
  516.5000   119.3324     7.0500     6.3683
  517.0000   126.7209     6.8228     5.7777
  517.5000   135.2217     6.7294     5.3935
  518.0000   136.8817     6.8228     5.4906
  518.5000   119.0866     7.1110     6.0739
  519.0000   111.9012     7.6185     6.8910
  519.5000   108.8409     8.0505     7.6919
  520.0000   105.7804     8.5069     8.5788
  520.5000   105.5062     8.9893     9.0471
  521.0000   108.3524     9.4990     9.5333
  521.5000   111.4311     9.9001     9.9400
  522.0000   113.6475    10.3182    10.2221
  522.5000   114.8892    10.6067    10.4615
  523.0000   115.5267    11.2081    10.4615
  523.5000   115.8338    11.3637    10.6067
  524.0000   115.4884    11.6815    10.7540
  524.5000   114.6452    11.8436    11.1268
  525.0000   113.4456    12.1748    11.2859
  525.5000   112.8503    12.5152    11.6922
  526.0000   111.6507    12.5244    11.9357
  526.5000   111.6596    12.8794    12.2745
  527.0000   112.8769    13.0630    12.5152
  527.5000   115.3027    13.2248    12.6889
  528.0000   115.3116    13.4084    13.0437
  528.5000   114.1120    13.6298    13.2248
  529.0000   112.9124    13.8241    13.2248
  529.5000   111.1086    13.9747    13.4084
  530.0000   110.4330    14.0264    13.5946
  530.5000   108.0413    14.2263    13.7833
  531.0000   106.2136    14.4292    13.9747
  531.5000   105.7061    14.5648    13.9747
  532.0000   107.3353    14.7670    13.9747
  532.5000   111.1631    14.7670    13.9747
  533.0000   110.0120    14.7670    13.9747
  533.5000   107.1369    14.7670    13.9747
  534.0000   104.6809    14.7670    13.9747
  534.5000   102.7402    14.7670    13.9747
  535.0000   103.9577    14.7670    13.9747
  535.5000   104.8771    14.7670    13.9747
  536.0000   106.1188    14.5648    13.9747
  536.5000   106.7563    14.3654    13.9747
  537.0000   108.2252    14.1687    13.9747
  537.5000   108.2341    14.1687    13.9747
  538.0000   107.0345    14.1687    13.9747
  538.5000   106.4381    13.9747    13.9747
  539.0000   105.8429    13.9747    13.9747
  539.5000   105.2477    13.9747    13.9747
  540.0000   105.8616    13.9747    13.9747
  540.5000   106.4747    13.9747    13.9747
  541.0000   107.0879    13.9747    13.8866
  541.5000   108.3052    13.9747    13.7833
  542.0000   109.5710    13.7833    13.6852
  542.5000   112.6335    13.4084    13.4922
  543.0000   116.3161    13.0437    13.3019
  543.5000   118.7905    12.6889    13.2248
  544.0000   120.5479    12.5129    13.0437
  544.5000   120.4431    12.3370    12.6889
  545.0000   119.6878    11.9971    12.5152
  545.5000   118.6482    11.8436    12.5152
  546.0000   117.8449    11.8242    12.3438
  546.5000   116.8533    11.5215    12.0081
  547.0000   116.2598    11.3367    11.8436
  547.5000   116.8329    11.2081    11.6815
  548.0000   120.2174    11.0546    11.5215
  548.5000   123.8681    11.0163    11.2081
  549.0000   123.5468    10.9033    11.2081
  549.5000   121.7449    10.9033    11.0546
  550.0000   120.5453    10.7540    10.9033
  550.5000   118.7415    10.7540    10.7540
  551.0000   118.1461    10.6970    10.7451
  551.5000   116.3423    10.6067    10.6067
  552.0000   118.1639    10.6067    10.6067
  552.5000   121.1939    10.6067    10.6067
  553.0000   123.6198    10.6067    10.5806
  553.5000   123.7254    10.5312    10.4615
  554.0000   121.2206    10.4615    10.4271
  554.5000   119.4008    10.2372    10.2801
  555.0000   118.8215    10.0376    10.0376
  555.5000   123.8582    10.0376    10.0376
  556.0000   126.0900     9.9001    10.0376
  556.5000   123.6820     9.9001     9.9001
  557.0000   121.7422     9.7646     9.7646
  557.5000   119.9144     9.4990     9.5715
  558.0000   118.8748     9.4990     9.4365
  558.5000   118.2794     9.1141     9.3035
  559.0000   117.6841     8.8662     9.1723
  559.5000   119.3303     8.5069     8.9893
  560.0000   122.8553     8.1622     8.6250
  560.5000   125.8272     8.0505     8.3904
  561.0000   128.7991     7.9402     7.9402
  561.5000  -999.2500     8.0505     6.9175
  562.0000  -999.2500     8.0505     6.6530
  562.5000  -999.2500     8.3904     7.5142
  563.0000  -999.2500     8.5100     8.1622
  563.5000  -999.2500     8.8728     8.9893
