~VERSION INFORMATION
 VERS.                2.0:   CWLS LOG ASCII STANDARD - VERSION 2.0
 WRAP.                 NO:   ONE LINE PER DEPTH STEP
~WELL INFORMATION
#MNEM.UNIT      DATA TYPE    INFORMATION
#----------   ------------   ------------------------------
 STRT.F           87.0000:   START DEPTH
 STOP.F          987.0000:   STOP DEPTH
 STEP.F            0.5000:   STEP LENGTH
 NULL.          -999.2500:   NO VALUE
 COMP.   FLUOR DANIEL INC:   COMPANY
 WELL. NAVAL PETROLEUM RESERVE 3 SH-2 #53-2:   WELL
 FLD .        TEAPOT DOME:   FIELD
 LOC .       S2 T38N R78W:   LOCATION
 CNTY.            NATRONA:   COUNTY
 STAT.            WYOMING:   STATE
 CTRY. UNITED STATES OF AMERICA:   COUNTRY
 SRVC. Schlumberger Well Surveying Corp:   SERVICE COMPANY
 DATE.        17-JUL-1963:   LOGDATE
 API .       490250645200:   API NUMBER
~CURVE INFORMATION
#MNEM.UNIT       API CODE    CURVE DESCRIPTION
#----------   ------------   ------------------------------
 DEPT.F                  :   
 GR  .GAPI   30 310 01 00:   GAMMA RAY
 SPR .MV     05 010 01 00:   SPONTANEOUS POTENTIAL
 CILD.MMHO   05 110 46 00:   CONDUCTIVITY INDUCTION LOG DEEP
 ILD .OHMM   05 120 46 00:   INDUCTION LOG DEEP
 ASN .OHMM   05 041 16 00:   AMPLIFIED SHORT NORMAL 16"
~PARAMETER INFORMATION
#MNEM.UNIT          VALUE    DESCRIPTION
#----------   ------------   ------------------------------
 PD  .                 GL:   PERMANENT DATUM
 EPD .F              5165:   ELEVATION PERMANENT DATUM
 LMF .                 KB:   LOG MEASURED FROM
 DAPD.F                 5:   FEET ABOVE PERMANENT DATUM
 DMF .                 KB:   DRILLING MEASURED FROM
 EKB .F              5170:   KELLING BUSHING
 EGL .F              5165:   GROUND LEVEL
 DATE.          7-17-1963:   RUN DATE
 RUN .                  1:   RUN NUMBER
 DD  .F               986:   DEPTH DRILLER
 DL  .F               987:   DEPTH LOGGER
 BLI .F               986:   BOTTOM LOG INTERVAL
 TLI .F                30:   TOP LOG INTERVAL
 CS  .IN            8.625:   CASING SIZE
 CBD .F                10:   CASING BOTTOM DRILLER
 BS  .IN            7.875:   BIT SIZE
 BSD .F               986:   BIT SIZE AT DEPTH
 DFT .            GEL-OIL:   DRILLING FLUID TYPE
 DFD .                9.4:   DRILLING FLUID DENSITY
 DFV .                 67:   DRILLING FLUID VISCOSITY
 DFPH.                8.5:   DRILLING FLUID PH
 DFL .                4.6:   DRILLING FLUID LOSS
 MSS .           FLOWLINE:   MUD SAMPLE SOURCE
 RMS .OHMM           3.37:   RESISTIVITY MUD SAMPLE
 MST .F                79:   MUD SAMPLE TEMPERATURE
 RMF .OHMM           1.49:   RESISTIVITY MUD FILTRATE SAMPLE
 MFST.F                83:   MUD FILTRATE SAMPLE TEMPERATURE
 MFSS.           MEASURED:   MUD FILTRATE SAMPLE SOURCE
 BHT .F                80:   BOTTOM HOLE TEMPERATURE
 TCS .HRS            0030:   TIME CURCULATED STOPPED
 MRT .F                80:   MAXIMUM RECORDED TEMPERATURE
 LUN .               4507:   LOGGING UNIT NUMBER
 LUL .              CSPR.:   LOGGING UNIT LOCATION
 ENGI.            WINKLER:   RECORDING ENGINEER
 WITN.          JORGENSON:   WITNESSED BY
 CLNT.            A2DTECH:   CLIENT CODE
 ORIG.      2" & 5" PRINT:   ORIGIN OF DATA
 UWI .       490250645200:   UNIQUE WELL ID
 DICO. A2D Technologies, Inc.:   DIGITIZING COMPANY
~OTHER INFORMATION
~A   DEPT       GR        SPR       CILD          ILD        ASN 
# ...
  575.0000   112.1350   -57.9264   125.1256     8.0501     9.7160
  575.5000   109.5773   -57.8482   121.1055     8.3515     9.8834
  576.0000   108.7926   -57.7692   117.9523     8.6062     9.9062
  576.5000   108.2450   -57.7763   116.4884     8.7895     9.6151
  577.0000   108.6999   -57.8632   118.5837     8.6616     9.2912
  577.5000   111.2425   -57.9510   122.2632     8.4446     9.2475
  578.0000   108.6000   -58.0400   125.9428     8.2265     9.2172
  578.5000   105.7610   -58.1270   129.6223     8.0086     9.1180
  579.0000   112.8718   -58.0111   133.3019     7.7909     8.8928
  579.5000   109.8102   -57.8780   136.9814     7.5730     8.6438
  580.0000   113.3808   -57.7454   140.6610     7.3554     8.3941
  580.5000   115.3602   -57.6132   144.3405     7.1544     8.1512
  581.0000   105.0975   -57.4810   148.0222     7.0148     7.9935
  581.5000    97.2097   -57.3488   151.6928     6.8751     7.7926
  582.0000    96.3828   -57.2166   155.3294     6.7340     7.6834
  582.5000   105.2170   -57.0844   156.2814     6.6849     7.6299
  583.0000   105.7386   -56.9522   154.4427     6.7344     7.6636
  583.5000   101.0714   -56.8200   151.5276     6.8551     7.7404
  584.0000   101.5994   -56.6874   148.6132     6.9748     7.8627
  584.5000   102.8654   -56.5509   145.6974     7.0948     8.0086
  585.0000   107.6867   -56.5750   142.7821     7.2146     8.1446
  585.5000   105.2234   -56.6376   139.8661     7.3345     8.2685
  586.0000   100.0504   -56.7005   136.9531     7.4545     8.3372
  586.5000    98.0272   -56.8065   134.1621     7.5745     8.3779
  587.0000    96.4053   -56.9405   132.2558     7.6887     8.4179
  587.5000   103.2785   -57.0749   130.4249     7.7473     8.4698
  588.0000   108.3432   -57.2094   129.5165     7.8031     8.5268
  588.5000   109.7725   -57.3438   128.7705     7.8590     8.5821
  589.0000   110.0528   -57.4794   128.0246     7.9151     8.7004
  589.5000   111.5968   -57.5283   127.2786     7.9708     8.8101
  590.0000   102.8771   -57.4628   126.5327     8.0378     8.8483
  590.5000   107.4314   -57.2982   126.1307     8.0917     8.8312
  591.0000   111.7253   -57.1349   126.1307     8.0898     8.8142
  591.5000   104.8971   -56.9713   126.9979     8.0502     8.8841
  592.0000   104.9296   -56.8079   128.8628     7.9626     8.9665
  592.5000   101.8661   -56.6443   130.7277     7.8757     8.9096
  593.0000   105.9504   -56.4809   132.5926     7.7885     8.8161
  593.5000   101.0255   -56.3240   134.4575     7.7013     8.6496
  594.0000    99.3399   -56.2196   136.1809     7.6142     8.4919
  594.5000   100.9126   -56.1185   137.3095     7.5270     8.3363
  595.0000    96.7426   -56.0170   138.3597     7.4399     8.2392
  595.5000    88.4645   -55.9285   139.4093     7.3525     8.2455
  596.0000    88.2162   -56.0050   140.4567     7.2650     8.2625
  596.5000    99.0098   -56.0835   141.0769     7.1880     8.2714
  597.0000   103.8826   -56.1247   140.6243     7.2153     8.2710
  597.5000    99.9589   -56.1246   140.1718     7.2436     8.2641
  598.0000    98.7429   -56.1253   139.7192     7.2714     8.2571
  598.5000   102.3573   -56.1239   139.2667     7.2991     8.2523
  599.0000    98.2217   -56.0619   138.8141     7.3268     8.2726
  599.5000    95.9303   -55.7960   138.3616     7.3545     8.2948
  600.0000    93.6021   -55.7235   137.9091     7.3822     8.3578
  600.5000    91.0985   -55.7225   137.4565     7.4099     8.4130
  601.0000    94.4193   -55.7227   137.0040     7.4376     8.4061
  601.5000    97.8168   -55.7232   136.5514     7.4653     8.4002
  602.0000   100.9543   -55.6849   136.0989     7.4930     8.3944
  602.5000   110.6663   -55.6172   135.6463     7.5207     8.4105
  603.0000   114.3121   -55.5492   135.1759     7.5484     8.4441
  603.5000   111.8811   -55.4811   134.4795     7.5759     8.4794
  604.0000   113.4447   -55.4131   133.7545     7.6269     8.5259
  604.5000   113.5047   -55.3451   133.0294     7.6944     8.6022
  605.0000   110.7615   -55.2770   132.3044     7.7622     8.6793
  605.5000   107.4905   -55.2096   131.5793     7.8250     8.7142
  606.0000   113.0873   -55.1367   130.6868     7.8846     8.7965
  606.5000   110.2207   -55.3173   129.5589     7.9444     8.8974
  607.0000   113.3557   -55.5927   127.8593     8.0075     8.9804
  607.5000   109.8189   -55.6864   125.8291     8.0881     8.9971
  608.0000   112.6862   -55.6254   124.2965     8.1674     9.0197
  608.5000   103.7042   -55.5618   123.0276     8.2467     9.1205
  609.0000   106.1685   -55.4977   121.7588     8.3260     9.3085
  609.5000   108.3975   -55.4340   120.4900     8.4059     9.5309
  610.0000   105.5291   -55.3702   119.2211     8.4884     9.6962
  610.5000   101.8668   -55.3063   118.0420     8.5265     9.8192
  611.0000   101.8047   -55.2375   117.7412     8.5631     9.7823
  611.5000   110.7041   -55.1695   117.4209     8.6002     9.7476
  612.0000   107.2717   -55.1014   117.0854     8.6373     9.7122
  612.5000   104.2702   -55.0334   116.5238     8.6745     9.6793
  613.0000    99.1404   -54.9662   115.9267     8.7116     9.6939
  613.5000   107.4542   -54.9189   115.3296     8.7484     9.7542
  614.0000   109.3995   -54.9198   114.1039     8.7835     9.8844
  614.5000   103.7049   -54.9195   112.4121     8.9283    10.0182
  615.0000   101.8402   -54.9201   110.7203     9.0998    10.0864
  615.5000   103.1306   -54.9381   108.7818     9.2718    10.1820
  616.0000    95.5071   -54.9571   106.6817     9.4437    10.2828
  616.5000    97.8353   -54.9760   104.5815     9.6155    10.3800
  617.0000    98.7011   -54.9949   102.4814     9.7872    10.6321
  617.5000    97.5044   -55.0138   100.3812     9.9590    10.9105
  618.0000    96.1353   -55.0326    98.2811    10.1308    11.0669
  618.5000    97.4519   -55.0515    96.5847    10.3026    11.1626
  619.0000    95.6947   -55.0705    94.9533    10.4743    11.2586
  619.5000   101.1277   -55.0896    93.3220    10.6463    11.3645
  620.0000    98.2486   -55.1073    91.6906    10.8195    11.4842
  620.5000   110.2789   -55.0652    90.0592    10.9964    11.6033
  621.0000   113.7455   -54.9001    88.9447    11.0064    11.7331
  621.5000   115.0733   -54.7368    88.9447    11.0057    11.9017
  622.0000    99.0861   -54.5735    90.1347    10.9324    11.9122
  622.5000   106.9102   -54.4111    91.7588    10.7974    11.8555
  623.0000   104.5878   -54.3164    93.3829    10.6621    11.7257
  623.5000   101.6595   -54.3174    95.0070    10.5266    11.4849
  624.0000   105.2244   -54.3172    96.6312    10.3914    11.2447
  624.5000   112.8825   -54.3173    97.5182    10.2552    11.0125
  625.0000   115.4544   -54.3171    98.2000    10.1920    11.0034
  625.5000   113.1082   -54.3169    98.8817    10.1748    11.0052
  626.0000   110.0376   -54.3081    99.5635    10.1584    10.9679
  626.5000   111.3407   -54.6960   100.2453    10.1422    10.9085
  627.0000   108.2592   -54.8437   100.9270    10.1258    10.8491
  627.5000   102.4079   -54.7216   101.6088    10.1088    10.8121
  628.0000   101.8879   -54.5944   102.2906    10.0587    10.8570
  628.5000   100.3460   -54.4663   102.9723     9.9660    10.9005
  629.0000   103.5975   -54.3396   103.6541     9.8739    10.8594
  629.5000   107.7319   -54.2308   104.3359     9.7817    10.8074
  630.0000   101.8092   -54.1267   105.0176     9.6960    10.7551
  630.5000   109.8700   -54.0226   105.6955     9.6426    10.7030
  631.0000   111.2029   -53.9185   105.8549     9.5978    10.6509
  631.5000   110.5261   -53.8144   105.4946     9.6087    10.5987
  632.0000   110.2895   -53.7104   105.1400     9.6187    10.5467
  632.5000   106.3451   -53.6062   104.7856     9.6284    10.5042
  633.0000   114.1256   -53.5015   104.4315     9.6382    10.5266
  633.5000   117.3955   -53.3978   104.0774     9.6480    10.5480
  634.0000   115.4161   -53.3356   103.7233     9.6577    10.5692
  634.5000   121.4536   -53.4854   103.3692     9.6675    10.5898
  635.0000   114.0327   -53.6310   103.0160     9.6772    10.5812
  635.5000   110.4091   -53.7156   103.0136     9.6873    10.5242
