~VERSION INFORMATION
 VERS.                2.0:   CWLS LOG ASCII STANDARD - VERSION 2.0
 WRAP.                 NO:   ONE LINE PER DEPTH STEP
~WELL INFORMATION
#MNEM.UNIT      DATA TYPE    INFORMATION
#----------   ------------   ------------------------------
 STRT.F           42.0000:   START DEPTH
 STOP.F          530.5000:   STOP DEPTH
 STEP.F            0.5000:   STEP LENGTH
 NULL.          -999.2500:   NO VALUE
 COMP. LAWRENCE/ALLISON INC:   COMPANY
 WELL. 65-25-1 SX FI #3-3:   WELL
 FLD .              NPR 3:   FIELD
 LOC .       S3 T38N R78W:   LOCATION
 CNTY.            NATRONA:   COUNTY
 STAT.            WYOMING:   STATE
 CTRY. UNITED STATES OF AMERICA:   COUNTRY
 SRVC.       Schlumberger:   SERVICE COMPANY
 DATE.        08-JUL-1982:   LOGDATE
 API .       490251093000:   API NUMBER
~CURVE INFORMATION
#MNEM.UNIT       API CODE    CURVE DESCRIPTION
#----------   ------------   ------------------------------
 DEPT.F                  :   
 GRD .GAPI   45 310 01 00:   GAMMA RAY FROM DENSITY LOG
 CALD.IN     45 280 60 00:   CALIPER
 RHOB.G/C3   45 350 01 00:   BULK DENSITY
 DPHI.DEC    45 890 12 00:   DENSITY POROSITY SANDSTONE
 CORR.G/C3   45 356 01 00:   DENSITY CORRECTION
~PARAMETER INFORMATION
#MNEM.UNIT          VALUE    DESCRIPTION
#----------   ------------   ------------------------------
 PD  .                 GL:   PERMANENT DATUM
 EPD .F              5162:   ELEVATION PERMANENT DATUM
 LMF .                 KB:   LOG MEASURED FROM
 DAPD.F                 9:   FEET ABOVE PERMANENT DATUM
 DMF .                 KB:   DRILLING MEASURED FROM
 EKB .F              5171:   KELLING BUSHING
 EGL .F              5162:   GROUND LEVEL
 DATE.             7-8-82:   RUN DATE
 RUN .                  1:   RUN NUMBER
 DD  .F               531:   DEPTH DRILLER
 DL  .F               533:   DEPTH LOGGER
 BLI .F               530:   BOTTOM LOG INTERVAL
 TLI .F                52:   TOP LOG INTERVAL
 CS  .IN           13.375:   CASING SIZE
 CBD .F                50:   CASING BOTTOM DRILLER
 CBL .F                52:   CASING BOTTOM LOGGER
 BS  .IN            12.25:   BIT SIZE
 BSD .F               531:   BIT SIZE AT DEPTH
 DFT .                AIR:   DRILLING FLUID TYPE
 TCS .HRS            0500:   TIME CURCULATED STOPPED
 TLAB.HRS            0700:   TIME LOGGER AT BOTTOM
 LUL .               CSPR:   LOGGING UNIT LOCATION
 WITN.             TAYLOR:   WITNESSED BY
 CLNT.            A2DTECH:   CLIENT CODE
 ORIG.           5" PRINT:   ORIGIN OF DATA
 UWI .       490251093000:   UNIQUE WELL ID
 DICO. A2D Technologies, Inc.:   DIGITIZING COMPANY
~OTHER INFORMATION
~A   DEPT       GRD      CALD       RHOB       DPHI       CORR   
# ...
  469.0000    92.1884    12.2308     2.5000     0.1032     0.0195
  469.5000    94.3699    12.2318     2.5123     0.0993     0.0279
  470.0000    93.5552    12.2327     2.5226     0.0953     0.0362
  470.5000    92.3101    12.2337     2.5227     0.0927     0.0446
  471.0000    91.4983    12.2347     2.5201     0.0931     0.0481
  471.5000    91.5070    12.2356     2.5206     0.0936     0.0459
  472.0000    91.1087    12.2366     2.5206     0.0945     0.0436
  472.5000    88.8845    12.2376     2.5178     0.0958     0.0387
  473.0000    86.7968    12.2350     2.5150     0.0963     0.0335
  473.5000    85.9046    12.2318     2.5153     0.0956     0.0284
  474.0000    86.6877    12.2285     2.5174     0.0976     0.0233
  474.5000    89.0495    12.2252     2.5120     0.1011     0.0177
  475.0000    91.5030    12.2219     2.5034     0.1045     0.0122
  475.5000    92.6234    12.2187     2.5002     0.1045     0.0085
  476.0000    91.1677    12.2154     2.5076     0.1012     0.0132
  476.5000    89.8508    12.2121     2.5149     0.0978     0.0202
  477.0000    90.9897    12.2088     2.5175     0.0960     0.0271
  477.5000    92.0929    12.2056     2.5161     0.0942     0.0325
  478.0000    92.7893    12.2023     2.5195     0.0949     0.0306
  478.5000    91.5364    12.1990     2.5190     0.0956     0.0289
  479.0000    90.3138    12.1973     2.5158     0.0963     0.0276
  479.5000    89.0806    12.1959     2.5235     0.0935     0.0344
  480.0000    88.0933    12.1946     2.5422     0.0889     0.0525
  480.5000    90.6278    12.1932     2.5599     0.0821     0.0653
  481.0000    93.1861    12.1918     2.5471     0.0932     0.0581
  481.5000    94.2185    12.1905     2.4986     0.1140     0.0404
  482.0000    91.2205    12.1891     2.4474     0.1297     0.0201
  482.5000    90.0582    12.1877     2.4467     0.1367     0.0053
  483.0000    90.9626    12.1864     2.4759     0.1202     0.0075
  483.5000    91.4672    12.1850     2.4976     0.1036     0.0180
  484.0000    90.6985    12.1836     2.5188     0.0951     0.0277
  484.5000    90.0910    12.1823     2.5299     0.0899     0.0322
  485.0000    90.5331    12.1809     2.5296     0.0890     0.0296
  485.5000    90.8339    12.1796     2.5232     0.0888     0.0229
  486.0000    88.9954    12.1827     2.5171     0.0894     0.0148
  486.5000    87.0589    12.1917     2.5118     0.0899     0.0095
  487.0000    88.0338    12.2006     2.5177     0.0882     0.0168
  487.5000    90.2560    12.2095     2.5400     0.0848     0.0336
  488.0000    92.5800    12.2184     2.5534     0.0834     0.0435
  488.5000    93.8415    12.2273     2.5389     0.0892     0.0268
  489.0000    95.0791    12.2362     2.5238     0.0949     0.0129
  489.5000    96.3060    12.2451     2.5085     0.1007     0.0055
  490.0000    96.6476    12.2541     2.5029     0.1034     0.0062
  490.5000    95.3525    12.2630     2.5011     0.1058     0.0116
  491.0000    94.0836    12.2718     2.4992     0.1042     0.0178
  491.5000    92.8012    12.2727     2.5045     0.1025     0.0239
  492.0000    91.3451    12.2620     2.5118     0.1008     0.0300
  492.5000    89.6305    12.2516     2.5192     0.0995     0.0360
  493.0000    87.8966    12.2407     2.5175     0.1001     0.0382
  493.5000    87.3473    12.2516     2.5103     0.1006     0.0299
  494.0000    88.1483    12.2712     2.5030     0.1056     0.0195
  494.5000    92.3488    12.2913     2.4957     0.1105     0.0061
  495.0000    96.6298    12.3122     2.4895     0.1124     0.0023
  495.5000    96.5414    12.3039     2.4841     0.1149    -0.0001
  496.0000    93.9194    12.2874     2.4773     0.1197    -0.0025
  496.5000    91.1246    12.2707     2.4701     0.1244    -0.0051
  497.0000    90.9172    12.2540     2.4662     0.1259    -0.0032
  497.5000    91.4038    12.2373     2.4691     0.1250    -0.0003
  498.0000    91.9359    12.2206     2.4791     0.1194     0.0118
  498.5000    90.7065    12.2180     2.4893     0.1094     0.0239
  499.0000    88.6130    12.2180     2.4994     0.1038     0.0293
  499.5000    87.0523    12.2181     2.5115     0.0990     0.0348
  500.0000    87.4580    12.2181     2.5202     0.0957     0.0404
  500.5000    89.3600    12.2181     2.5135     0.1032     0.0376
  501.0000    91.2350    12.2181     2.4895     0.1135     0.0341
  501.5000    92.9555    12.2181     2.4591     0.1353     0.0307
  502.0000    96.0724    12.2181     2.3941     0.1666     0.0326
  502.5000    99.1454    12.2181     2.3285     0.2026     0.0394
  503.0000   101.4453    12.2181     2.2580     0.2384     0.0483
  503.5000    97.4801    12.2179     2.2314     0.2666     0.0571
  504.0000    93.5601    12.2259     2.2174     0.2715     0.0630
  504.5000    89.5816    12.2362     2.2742     0.2504     0.0469
  505.0000    88.8534    12.2378     2.3449     0.2183     0.0278
  505.5000    93.4321    12.2378     2.4072     0.1659     0.0087
  506.0000    92.6601    12.2367     2.4541     0.1331     0.0107
  506.5000    90.6176    12.2292     2.4734     0.1215     0.0157
  507.0000    88.5723    12.2216     2.4778     0.1195     0.0116
  507.5000    88.6895    12.2140     2.4768     0.1203     0.0050
  508.0000    91.7758    12.2064     2.4758     0.1207    -0.0017
  508.5000    94.9391    12.1989     2.4824     0.1168     0.0003
  509.0000    95.3133    12.2059     2.4903     0.1123     0.0037
  509.5000    93.5080    12.2141     2.4872     0.1115     0.0053
  510.0000    91.5785    12.2223     2.4752     0.1184    -0.0039
  510.5000    89.6705    12.2305     2.4741     0.1223    -0.0082
  511.0000    89.4359    12.2367     2.4837     0.1173    -0.0035
  511.5000    89.4295    12.2253     2.4932     0.1111     0.0059
  512.0000    88.9246    12.2139     2.5027     0.1047     0.0155
  512.5000    87.4977    12.2025     2.5061     0.1042     0.0155
  513.0000    86.0517    12.1912     2.5002     0.1069     0.0128
  513.5000    86.5128    12.1800     2.4941     0.1096     0.0104
  514.0000    88.6044    12.1803     2.4953     0.1103     0.0092
  514.5000    90.9602    12.1820     2.4982     0.1099     0.0080
  515.0000    93.3292    12.1837     2.4887     0.1126     0.0065
  515.5000    95.7139    12.1854     2.4770     0.1186    -0.0009
  516.0000    97.4632    12.1871     2.4650     0.1242    -0.0088
  516.5000    94.7867    12.1888     2.4604     0.1283    -0.0167
  517.0000    74.0528    12.1905     2.4691     0.1202    -0.0021
  517.5000     0.0000    12.1922     2.4967     0.1074     0.0185
  518.0000  -999.2500    12.1939     2.5214     0.0962     0.0373
  518.5000  -999.2500    12.1956     2.5192     0.0996     0.0357
  519.0000  -999.2500    12.1973     2.5027     0.1053     0.0269
  519.5000  -999.2500    12.1972     2.4948     0.1082     0.0188
  520.0000  -999.2500    12.1930     2.5238     0.0967     0.0233
  520.5000  -999.2500    12.1890     2.5629     0.0855     0.0413
  521.0000  -999.2500    12.1849     2.5807     0.0765     0.0501
  521.5000  -999.2500    12.1808     2.5503     0.0866     0.0432
  522.0000  -999.2500    12.1767     2.5161     0.0974     0.0322
  522.5000  -999.2500    12.1727     2.4964     0.1078     0.0226
  523.0000  -999.2500    12.1686     2.5050     0.1041     0.0250
  523.5000  -999.2500    12.1645     2.5145     0.0991     0.0304
  524.0000  -999.2500    12.1604     2.5140     0.0998     0.0261
  524.5000  -999.2500    12.1564     2.4919     0.1107     0.0158
  525.0000  -999.2500    12.1523     2.4752     0.1189     0.0073
  525.5000  -999.2500    12.1482     2.4683     0.1255     0.0082
  526.0000  -999.2500    12.1441     2.4871     0.1138     0.0135
  526.5000  -999.2500    12.1401     2.5131     0.1001     0.0337
  527.0000  -999.2500    12.1360     2.5395     0.0857     0.0525
  527.5000  -999.2500    12.1319     2.5316     0.0865     0.0574
  528.0000  -999.2500    12.1278     2.5046     0.1101     0.0410
  528.5000  -999.2500    12.1236     2.4738     0.1291     0.0251
  529.0000  -999.2500    12.1204     2.4584     0.1307     0.0174
  529.5000  -999.2500    12.1338     2.4920     0.1158     0.0282
