~VERSION INFORMATION
 VERS.                2.0:   CWLS LOG ASCII STANDARD - VERSION 2.0
 WRAP.                 NO:   ONE LINE PER DEPTH STEP
~WELL INFORMATION
#MNEM.UNIT      DATA TYPE    INFORMATION
#----------   ------------   ------------------------------
 STRT.F           30.0000:   START DEPTH
 STOP.F          715.0000:   STOP DEPTH
 STEP.F            0.5000:   STEP LENGTH
 NULL.          -999.2500:   NO VALUE
 COMP. FENIX & SCISSON INC:   COMPANY
 WELL.   NPR-3 #84SX15-15:   WELL
 FLD .             TEAPOT:   FIELD
 LOC .      S15 T38N R78W:   LOCATION
 CNTY.            NATRONA:   COUNTY
 STAT.            WYOMING:   STATE
 CTRY. UNITED STATES OF AMERICA:   COUNTRY
 SRVC.            Unknown:   SERVICE COMPANY
 DATE.        15-MAY-1978:   LOGDATE
 API .       490251064000:   API NUMBER
~CURVE INFORMATION
#MNEM.UNIT       API CODE    CURVE DESCRIPTION
#----------   ------------   ------------------------------
 DEPT.F                  :   
 SPR .MV     05 010 01 00:   SPONTANEOUS POTENTIAL FROM RES.
 SN  .OHMM   05 040 16 00:   SHORT NORMAL 16"
 ILD .OHMM   05 120 46 00:   INDUCTION LOG DEEP
 CALD.IN     45 280 60 00:   CALIPER FROM DENSITY LOG
 GRD .GAPI   45 310 01 00:   GAMMA RAY FROM DENSITY LOG
 CORR.G/C3   45 356 01 00:   DENSITY CORRECTION
 DPHI.DEC    45 890 12 00:   DENSITY POROSITY SANDSTONE
 DEN .G/C3   45 350 01 00:   COMPENSATED BULK DENSITY
~PARAMETER INFORMATION
#MNEM.UNIT          VALUE    DESCRIPTION
#----------   ------------   ------------------------------
 PD  .                 GL:   PERMANENT DATUM
 EPD .F              5247:   ELEVATION PERMANENT DATUM
 LMF .                 KB:   LOG MEASURED FROM
 DMF .                 KB:   DRILLING MEASURED FROM
 EKB .F              5251:   KELLING BUSHING
 EGL .F              5247:   GROUND LEVEL
 DATE.        15-MAY-1978:   RUN DATE
 RUN .                  1:   RUN NUMBER
 DD  .F               725:   DEPTH DRILLER
 DL  .F               720:   DEPTH LOGGER
 BLI .F               713:   BOTTOM LOG INTERVAL
 TLI .F                40:   TOP LOG INTERVAL
 CS  .IN            8.625:   CASING SIZE
 CBD .F                40:   CASING BOTTOM DRILLER
 CBL .F                40:   CASING BOTTOM LOGGER
 BS  .IN            7.875:   BIT SIZE
 BSD .F               725:   BIT SIZE AT DEPTH
 DFT .                KCL:   DRILLING FLUID TYPE
 DFD .                8.6:   DRILLING FLUID DENSITY
 DFV .                 33:   DRILLING FLUID VISCOSITY
 DFPH.                9.5:   DRILLING FLUID PH
 DFL .                 12:   DRILLING FLUID LOSS
 MSS .           FLOWLINE:   MUD SAMPLE SOURCE
 RMS .OHMM             .2:   RESISTIVITY MUD SAMPLE
 MST .F                80:   MUD SAMPLE TEMPERATURE
 RMF .OHMM            .18:   RESISTIVITY MUD FILTRATE SAMPLE
 MFST.F                83:   MUD FILTRATE SAMPLE TEMPERATURE
 RMC .OHMM            .26:   RESISTIVITY MUD CAKE
 MCST.F                83:   MUD CAKE SAMPLE TEMPERATURE
 MFSS.               MEAS:   MUD FILTRATE SAMPLE SOURCE
 RMB .OHMM             .2:   RESISTIVITY MUD AT BHT
 BHT .F                80:   BOTTOM HOLE TEMPERATURE
 TCS .HRS            0200:   TIME CURCULATED STOPPED
 MRT .F                80:   MAXIMUM RECORDED TEMPERATURE
 LUN .               3006:   LOGGING UNIT NUMBER
 LUL .               CASP:   LOGGING UNIT LOCATION
 ENGI.             MILLER:   RECORDING ENGINEER
 WITN.           MCGINLEY:   WITNESSED BY
 CLNT.            A2DTECH:   CLIENT CODE
 ORIG.           5" PRINT:   ORIGIN OF DATA
 UWI .       490251064000:   UNIQUE WELL ID
 DICO. A2D Technologies, Inc.:   DIGITIZING COMPANY
~OTHER INFORMATION
~A   DEPT      SPR         SN        ILD       CALD         GRD      CORR       DPHI        DEN   
# ...
  313.5000   -42.2926     7.3477     7.2239     7.6422    87.1667     0.0116     0.1103     2.4875
  314.0000   -42.3050     7.2956     7.1242     7.7022    86.5598     0.0175     0.1139     2.4876
  314.5000   -42.3185     7.2941     7.0259     7.7469    83.3927     0.0235     0.1181     2.4852
  315.0000   -42.1651     7.2926     6.9770     7.7462    82.1846     0.0250     0.1179     2.4852
  315.5000   -42.1621     7.2910     6.8807     7.7154    83.5344     0.0294     0.1158     2.4859
  316.0000   -41.7080     7.1894     6.7857     7.6997    81.4215     0.0309     0.1140     2.4889
  316.5000   -40.8027     6.9918     6.6920     7.6840    85.7845     0.0293     0.1175     2.4888
  317.0000   -40.4989     6.7997     6.5090     7.6533    85.7800     0.0248     0.1247     2.4848
  317.5000   -40.4959     6.7983     6.3224     7.6828    86.3780     0.0157     0.1299     2.4733
  318.0000   -40.4929     6.7969     6.2438     7.3855    87.5860     0.0066     0.1306     2.4670
  318.5000   -40.4898     6.8430     6.2941     7.5607    89.3900     0.0021     0.1323     2.4654
  319.0000   -40.4868     6.8412     6.4697     7.6356    90.4468     0.0051     0.1296     2.4654
  319.5000   -40.4838     6.8398     6.6569     7.6803    90.1019     0.0065     0.1248     2.4669
  320.0000   -40.4808     6.8383     6.8828     7.6949    89.5172     0.0125     0.1185     2.4729
  320.5000   -40.4777     6.8847     7.0748     7.6943    88.4585     0.0200     0.1204     2.4796
  321.0000   -40.4747     7.0760     7.3224     7.7390    85.5926     0.0245     0.1213     2.4818
  321.5000   -40.4717     7.3745     7.4747     7.7535    84.6856     0.0365     0.1165     2.4841
  322.0000   -40.4687     7.3218     7.6301     7.7529    86.7885     0.0621     0.1207     2.4938
  322.5000   -40.4656     7.3203     7.6819     7.7523    87.3875     0.0679     0.1240     2.4915
  323.0000   -40.4626     7.3188     7.7847     7.7344    86.6289     0.0540     0.1237     2.4795
  323.5000   -40.4704     7.3173     7.8403     7.6107    85.1184     0.0253     0.1177     2.4824
  324.0000   -40.4799     7.3157     7.8920     7.5541    85.5658     0.0166     0.1153     2.4869
  324.5000   -40.4894     7.3142     7.8371     7.5384    86.9167     0.0167     0.1165     2.4884
  325.0000   -40.4990     7.3127     7.8365     7.5529    89.7737     0.0180     0.1156     2.4884
  325.5000   -40.5085     7.3112     7.8360     7.5674    88.8656     0.0180     0.1108     2.4876
  326.0000   -40.5180     7.3097     7.8354     7.5062    85.0961     0.0180     0.1084     2.4936
  326.5000   -40.5276     7.3081     7.7809     7.2790    83.1338     0.0179     0.1226     2.4965
  327.0000   -40.5371     7.3066     7.7804     7.3842    86.7438     0.0179     0.1190     2.4822
  327.5000   -40.5466     7.2548     7.7798     7.5044    87.4925     0.0163     0.1229     2.4784
  328.0000   -40.5562     7.2533     7.7793     7.5644    87.9397     0.0118     0.1214     2.4784
  328.5000   -40.5657     7.2518     7.7251     7.5485    87.9352     0.0166     0.1094     2.4806
  329.0000   -40.5769     7.2003     7.6185     7.5479    88.0814     0.0237     0.1103     2.4911
  329.5000   -40.4235     7.1988     7.6180     7.5626    88.5417     0.0252     0.1145     2.4933
  330.0000   -40.5716     7.2476     7.6175     7.5618    89.3375     0.0281     0.1178     2.4843
  330.5000   -40.5678     7.2457     7.6698     7.5765    89.8752     0.0263     0.1202     2.4828
  331.0000   -40.5648     7.2442     7.6692     7.6060    85.5022     0.0235     0.1202     2.4842
  331.5000   -40.5624     7.2934     7.6687     7.5600    85.0459     0.0235     0.1190     2.4843
  332.0000   -40.5287     7.3424     7.7214     7.4992    83.9872     0.0370     0.1133     2.4879
  332.5000   -40.4697     7.3915     7.7744     7.6797    84.4356     0.0414     0.1055     2.4951
  333.0000   -40.4106     7.3899     7.7739     7.7246    84.4301     0.0308     0.1254     2.4924
  333.5000   -40.3515     7.3884     7.8817     7.7238    82.6184     0.0233     0.1347     2.4838
  334.0000   -40.2925     7.4385     7.9909     7.7385    81.8609     0.0232     0.1311     2.4735
  334.5000   -40.2334     7.5924     8.1579     7.7377    79.5974     0.0217     0.1290     2.4660
  335.0000   -40.1743     7.6439     8.3281     7.7371    79.4434     0.0216     0.1359     2.4607
  335.5000   -40.1153     7.7591     8.5021     7.7365    79.7402     0.0231     0.1338     2.4577
  336.0000   -40.0562     7.8651     8.6797     7.6906    79.5840     0.0351     0.1242     2.4662
  336.5000   -39.9972     8.0737     8.9225     7.5540    77.3205     0.0471     0.1215     2.4736
  337.0000   -39.9273     8.2510     9.1721     7.4326    79.1233     0.0470     0.1195     2.4766
  337.5000   -39.9242     8.4803     9.2783     7.3716    79.7214     0.0350     0.1171     2.4778
  338.0000   -40.0723     8.6558     9.3809     7.3862    76.0844     0.0093     0.1324     2.4688
  338.5000   -40.0692     8.8869     9.4928     7.4007    76.5496    -0.0057     0.1291     2.4642
  339.0000   -40.0658     8.9467     9.5582     7.3849    77.1476     0.0032     0.1264     2.4657
  339.5000   -40.0791     8.9448     9.6238     7.3692    80.6069     0.0062     0.1276     2.4694
  340.0000   -40.0942     8.9429     9.6897     7.3383    79.6087     0.0047     0.1297     2.4657
  340.5000   -40.1093     8.9410     9.8240     7.3529    76.9323     0.0046     0.1291     2.4641
  341.0000   -40.1244     8.8776    10.1689     7.3523    75.8765     0.0046     0.1240     2.4686
  341.5000   -40.1395     8.8688    10.3815     7.3668    73.8431     0.0090     0.1216     2.4723
  342.0000   -40.1546     8.8064    10.3806     7.3662    71.6987     0.0105     0.1231     2.4663
  342.5000   -40.1697     8.6900    10.3799     7.3656    69.8870     0.0104     0.1283     2.4655
  343.0000   -40.1848     8.6283    10.4513     7.3650    69.2801     0.0104     0.1265     2.4670
  343.5000   -40.2000     8.5671    10.3784     7.3644    69.8781     0.0104     0.1256     2.4662
  344.0000   -40.2151     8.5063    10.3777     7.3478    71.6106     0.0118     0.1302     2.4609
  344.5000   -40.2302     8.4416    10.3055     7.3027    72.7306     0.0118     0.1325     2.4601
  345.0000   -40.2453     8.3244    10.2338     7.2870    71.9720     0.0117     0.1256     2.4661
  345.5000   -40.2604     8.2657    10.1625     7.2713    70.9133     0.0147     0.1241     2.4706
  346.0000   -40.2755     8.1538    10.1618     7.2858    69.5534     0.0162     0.1217     2.4698
  346.5000   -40.2906     8.0960    10.1611     7.2852    69.7007     0.0161     0.1294     2.4690
  347.0000   -40.3057     8.0385     9.9518     7.2846    69.8468     0.0161     0.1323     2.4682
  347.5000   -40.3159     7.9815     9.6130     7.2839    70.4436     0.0145     0.1314     2.4660
  348.0000   -40.3128     8.0352     9.5461     7.2833    72.2464     0.0099     0.1326     2.4637
  348.5000   -40.4602     8.0335     9.5454     6.9957    74.5010     0.0099     0.1329     2.4652
  349.0000   -40.4509     8.0883     9.5447     6.9346    75.7013     0.0159     0.1254     2.4659
  349.5000   -40.4132     8.1420     9.5441     6.9340    76.4499     0.0158     0.1254     2.4689
  350.0000   -40.3754     8.1968     9.5435     6.9002    75.9899     0.0203     0.1241     2.4733
  350.5000   -40.3376     8.1488     9.5422     6.6618    73.2191     0.0323     0.1115     2.4880
  351.0000   -40.2998     8.1007     9.5408     6.2994    72.5241     0.0383     0.1047     2.4996
  351.5000   -40.2621     8.0250     9.4737     6.2542    72.3705     0.0352     0.1038     2.5086
  352.0000   -40.2243     8.0239     9.4072     6.3752    71.7651     0.0321     0.1074     2.5048
  352.5000   -40.1865     8.0228     9.4059     6.6171    70.4066     0.0336     0.1232     2.4852
  353.0000   -40.1488     8.0776     9.3398     7.1006    66.3373     0.0544     0.1351     2.4702
  353.5000   -41.0841     8.1326     9.3385     7.2820    62.1175     0.0876     0.1314     2.4596
