~VERSION INFORMATION
 VERS.                2.0:   CWLS LOG ASCII STANDARD - VERSION 2.0
 WRAP.                 NO:   ONE LINE PER DEPTH STEP
~WELL INFORMATION
#MNEM.UNIT      DATA TYPE    INFORMATION
#----------   ------------   ------------------------------
 STRT.F           28.0000:   START DEPTH
 STOP.F          461.0000:   STOP DEPTH
 STEP.F            0.5000:   STEP LENGTH
 NULL.          -999.2500:   NO VALUE
 COMP. FENIX & SCISSON INC:   COMPANY
 WELL.       NPR-3 #47S-3:   WELL
 FLD .             TEAPOT:   FIELD
 LOC .       S3 T38N R78W:   LOCATION
 CNTY.            NATRONA:   COUNTY
 STAT.            WYOMING:   STATE
 CTRY. UNITED STATES OF AMERICA:   COUNTRY
 SRVC.            Unknown:   SERVICE COMPANY
 DATE.        06-JUL-1978:   LOGDATE
 API .       490251066400:   API NUMBER
~CURVE INFORMATION
#MNEM.UNIT       API CODE    CURVE DESCRIPTION
#----------   ------------   ------------------------------
 DEPT.F                  :   
 SPR .MV     05 010 01 00:   SPONTANEOUS POTENTIAL FROM RES.
 ILD .OHMM   05 120 46 00:   INDUCTION LOG DEEP
 SN  .OHMM   05 040 16 00:   SHORT NORMAL 16"
 GRD .GAPI   45 310 01 00:   GAMMA RAY FROM DENSITY LOG
 CALD.IN     45 280 60 00:   CALIPER FROM DENSITY LOG
 CORR.G/C3   45 356 01 00:   DENSITY CORRECTION
 DEN .G/C3   45 350 01 00:   DENSTIY
 DPHI.DEC    45 890 12 00:   DENSITY POROSITY SANDSTONE
~PARAMETER INFORMATION
#MNEM.UNIT          VALUE    DESCRIPTION
#----------   ------------   ------------------------------
 PD  .                 GL:   PERMANENT DATUM
 EPD .F              5202:   ELEVATION PERMANENT DATUM
 LMF .                 KB:   LOG MEASURED FROM
 DAPD.F                 4:   FEET ABOVE PERMANENT DATUM
 DMF .                 KB:   DRILLING MEASURED FROM
 EKB .F              5206:   KELLING BUSHING
 EGL .F              5202:   GROUND LEVEL
 DATE.        06-JUL-1978:   RUN DATE
 RUN .                  1:   RUN NUMBER
 DD  .F               460:   DEPTH DRILLER
 DL  .F               461:   DEPTH LOGGER
 BLI .F               461:   BOTTOM LOG INTERVAL
 TLI .F                40:   TOP LOG INTERVAL
 CS  .IN            8.625:   CASING SIZE
 CBD .F                40:   CASING BOTTOM DRILLER
 CBL .F                40:   CASING BOTTOM LOGGER
 BS  .IN            7.875:   BIT SIZE
 BSD .F               460:   BIT SIZE AT DEPTH
 DFT .                KCL:   DRILLING FLUID TYPE
 DFD .                8.6:   DRILLING FLUID DENSITY
 DFV .                 33:   DRILLING FLUID VISCOSITY
 DFPH.                9.5:   DRILLING FLUID PH
 MSS .           FLOWLINE:   MUD SAMPLE SOURCE
 TCS .HRS               1:   TIME CURCULATED STOPPED
 LUN .               2858:   LOGGING UNIT NUMBER
 LUL .               CASP:   LOGGING UNIT LOCATION
 ENGI.           REYNOLDS:   RECORDING ENGINEER
 WITN.           MCGENLEY:   WITNESSED BY
 CLNT.            A2DTECH:   CLIENT CODE
 ORIG.           5" PRINT:   ORIGIN OF DATA
 UWI .       490251066400:   UNIQUE WELL ID
 DICO. A2D Technologies, Inc.:   DIGITIZING COMPANY
~OTHER INFORMATION
~A   DEPT      SPR        ILD         SN         GRD      CALD       CORR        DEN       DPHI   
# ...
  352.0000   -15.8413    14.2084    13.7271    89.2049     7.8082     0.0670     2.4492     0.1388
  352.5000   -15.3799    14.2160    13.7345    89.5262     7.8092     0.0672     2.4469     0.1292
  353.0000   -16.6956    14.2236    13.6474    88.9257     7.8103     0.0673     2.4454     0.1446
  353.5000   -17.4207    14.2313    13.5613    87.4063     7.8113     0.0675     2.4431     0.1406
  354.0000   -17.9970    14.3373    13.5687    86.0401     7.8124     0.0676     2.4432     0.1418
  354.5000   -19.1685    14.4440    13.5777    85.8989     7.8134     0.0663     2.4464     0.1390
  355.0000   -19.6007    14.5517    13.5850    85.9112     7.8145     0.0650     2.4488     0.1371
  355.5000   -19.4283    14.7615    13.5923    85.9234     7.8155     0.0651     2.4518     0.1346
  356.0000   -20.3022    14.7712    13.5045    85.7820     7.8166     0.0653     2.4534     0.1333
  356.5000   -22.8130    14.6777    13.4209    85.6439     7.8176     0.0655     2.4558     0.1330
  357.0000   -25.4726    14.5829    13.4281    85.3497     7.8187     0.0641     2.4589     0.1308
  357.5000   -32.5966    14.4906    13.3413    85.0525     7.8200     0.0599     2.4605     0.1289
  358.0000   -33.6193    14.2040    13.2585    84.6081     7.8210     0.0541     2.4613     0.1276
  358.5000   -21.8444    13.9211    13.1748    84.4640     7.8221     0.0468     2.4598     0.1295
  359.0000   -23.1600    13.8328    13.1821    84.7853     7.8231     0.0410     2.4576     0.1338
  359.5000   -26.2661    13.7455    13.2804    85.7162     7.8242     0.0396     2.4530     0.1365
  360.0000   -39.9376    13.6586    13.2891    86.8002     7.8252     0.0383     2.4461     0.1389
  360.5000   -33.5199    13.6662    13.4805    88.3436     7.8263     0.0400     2.4407     0.1411
  361.0000   -21.0010    13.6751    13.4878    89.1214     7.8273     0.0431     2.4384     0.1441
  361.5000   -23.6606    13.6824    13.5882    89.5928     7.8284     0.0417     2.4386     0.1361
  362.0000    -3.5524    13.7843    13.6895    90.3746     7.8294     0.0345     2.4501     0.1428
  362.5000     3.9070    13.9829    13.7914    91.0209     7.8305     0.0361     2.4316     0.1499
  363.0000     3.7772    14.1844    13.8942    91.4905     7.8469     0.0348     2.4208     0.1511
  363.5000     3.2009    14.9955    13.9977    91.7849     7.8482     0.0305     2.4178     0.1588
  364.0000     3.0710    16.4081    14.2975    90.4217     7.8493     0.0292     2.3908     0.1718
  364.5000     2.6176    18.4549    14.7186    89.6681     7.8503     0.0294     2.3622     0.1855
  365.0000     1.6208    19.1117    15.5474    89.0676     7.8514     0.0310     2.3322     0.2021
  365.5000     1.3468    20.2070    16.4364    87.7013     7.8524     0.0371     2.3113     0.2184
  366.0000     0.7705    21.8082    17.1387    85.2632     7.8535     0.0388     2.3020     0.2193
  366.5000     0.3383    24.0273    17.8710    81.2936     7.8545     0.0344     2.3052     0.2202
  367.0000    -0.0845    25.9313    18.3798    77.9365     7.8556     0.0346     2.3092     0.2167
  367.5000    -0.9584    26.3049    18.5167    77.0267     7.8566     0.0363     2.3100     0.2158
  368.0000    -1.5394    26.3190    18.5267    78.7263     7.8577     0.0379     2.3062     0.2235
  368.5000    -1.5158    26.5150    18.6647    79.8103     7.8587     0.0426     2.3023     0.2253
  369.0000    -1.9435    26.5292    18.6747    80.1287     7.8573     0.0412     2.3063     0.2188
  369.5000    -2.2356    26.5436    18.9440    79.8151     7.8455     0.0370     2.3171     0.2132
  370.0000    -3.9186    26.5582    19.3520    79.1935     7.8468     0.0341     2.3203     0.2110
  370.5000    -5.3043    26.7591    19.2296    78.6334     7.8479     0.0343     2.3203     0.2119
  371.0000    -6.3271    26.7735    19.1080    78.6484     7.8333     0.0345     2.3196     0.2112
  371.5000    -6.4617    26.7879    18.9846    78.9668     7.8346     0.0361     2.3181     0.2121
  372.0000    -7.3309    26.8023    18.7376    79.5914     7.8203     0.0393     2.3158     0.2167
  372.5000    -8.5024    26.6291    18.3645    79.9097     7.8214     0.0424     2.3205     0.2141
  373.0000    -8.9299    26.6470    18.1231    79.1560     7.8071     0.0456     2.3221     0.2105
  373.5000    -9.5062    26.2968    18.1329    78.0961     7.8082     0.0487     2.3222     0.2074
  374.0000   -10.2321    26.1303    18.1426    77.7988     7.8092     0.0474     2.3237     0.2107
  374.5000   -11.4029    25.9540    18.2779    78.2733     7.8103     0.0475     2.3238     0.2113
  375.0000   -12.1280    25.6238    18.2880    78.2853     7.7960     0.0462     2.3238     0.2110
  375.5000   -12.4192    25.1169    18.2999    77.8380     7.7973     0.0417     2.3277     0.2097
  376.0000   -14.3988    24.4479    18.3097    77.5436     7.7983     0.0346     2.3479     0.1989
  376.5000   -14.2986    23.9611    18.1914    77.7157     7.8147     0.0333     2.3533     0.1942
  377.0000   -15.4701    23.4808    18.0788    78.5043     7.8158     0.0350     2.3549     0.1914
  377.5000   -15.9023    23.1721    17.9620    78.9586     7.8168     0.0351     2.3565     0.1867
  378.0000   -16.0322    23.0255    17.9741    78.9731     7.8179     0.0353     2.3550     0.1910
  378.5000   -17.1990    23.0410    17.9838    78.9852     7.8189     0.0354     2.3527     0.1928
  379.0000   -17.9241    23.0534    17.9934    79.1504     7.8200     0.0326     2.3512     0.1919
  379.5000   -18.5004    22.9075    18.0031    79.4657     7.8210     0.0298     2.3505     0.1934
  380.0000   -18.9279    22.4544    17.8892    78.2556     7.8221     0.0269     2.3506     0.1943
  380.5000   -19.2066    22.3093    17.7785    77.3488     7.8232     0.0256     2.3537     0.1924
  381.0000   -19.4853    22.1682    17.6636    77.2047     7.8242     0.0273     2.3545     0.1893
  381.5000   -20.2475    21.8797    17.5519    77.3729     7.8255     0.0275     2.3538     0.1929
  382.0000   -21.6796    21.7384    17.3212    78.1506     7.8266     0.0291     2.3554     0.1904
  382.5000   -22.1023    21.6009    17.0959    79.0815     7.8276     0.0293     2.3585     0.1879
  383.0000   -22.8275    21.6154    16.9854    79.8593     7.8287     0.0280     2.3601     0.1867
  383.5000   -22.9621    21.7764    16.8803    79.7147     7.8297     0.0266     2.3609     0.1863
  384.0000   -23.3848    21.7881    16.8893    79.1036     7.8308     0.0253     2.3586     0.1872
  384.5000   -23.9611    21.6502    16.7825    78.5171     7.8318     0.0240     2.3564     0.1887
  385.0000   -24.6862    21.0763    16.6651    78.3760     7.8329     0.0242     2.3533     0.1909
  385.5000   -25.4114    20.6539    16.4594    78.6973     7.8339     0.0243     2.3503     0.1952
  386.0000   -26.4341    20.3824    16.4682    79.9345     7.8350     0.0245     2.3526     0.1902
  386.5000   -27.4568    20.2535    16.4771    81.3248     7.8360     0.0246     2.3542     0.1889
  387.0000   -28.5030    20.1253    16.3706    82.1025     7.8371     0.0248     2.3543     0.1893
  387.5000   -29.7247    20.1388    16.3817    83.0334     7.8384     0.0265     2.3536     0.1907
  388.0000   -31.2643    20.1496    16.2780    82.7362     7.8394     0.0296     2.3528     0.1929
  388.5000   -32.8823    20.0220    16.2868    83.3638     7.8405     0.0313     2.3529     0.1944
  389.0000   -35.0955    20.0331    16.1835    84.6009     7.8415     0.0344     2.3521     0.1959
  389.5000   -36.4159    19.9062    16.1925    83.8473     7.8426     0.0361     2.3514     0.1955
  390.0000   -38.1826    20.0571    16.2013    82.9405     7.8436     0.0377     2.3515     0.1887
  390.5000   -43.3720    20.0679    16.0987    82.9525     7.8447     0.0394     2.3600     0.1834
  391.0000   -45.7340    19.9382    15.9990    82.8114     7.8457     0.0381     2.3693     0.1834
  391.5000   -48.0961    19.9516    15.7887    82.2109     7.8468     0.0367     2.3717     0.1827
  392.0000   -49.2676    19.8227    15.5812    81.4603     7.8479     0.0369     2.3725     0.1818
