~VERSION INFORMATION
 VERS.                2.0:   CWLS LOG ASCII STANDARD - VERSION 2.0
 WRAP.                 NO:   ONE LINE PER DEPTH STEP
~WELL INFORMATION
#MNEM.UNIT      DATA TYPE    INFORMATION
#----------   ------------   ------------------------------
 STRT.F           86.5000:   START DEPTH
 STOP.F         1282.0000:   STOP DEPTH
 STEP.F            0.5000:   STEP LENGTH
 NULL.          -999.2500:   NO VALUE
 COMP.      UNITED STATES:   COMPANY
 WELL.             NPR #3:   WELL
 FLD .        TEAPOT DOME:   FIELD
 LOC .      S14 T38N R78W:   LOCATION
 CNTY.            NATRONA:   COUNTY
 STAT.            WYOMING:   STATE
 CTRY. UNITED STATES OF AMERICA:   COUNTRY
 SRVC.       Schlumberger:   SERVICE COMPANY
 DATE.        06-JUL-1962:   LOGDATE
 API .       490250631800:   API NUMBER
~CURVE INFORMATION
#MNEM.UNIT       API CODE    CURVE DESCRIPTION
#----------   ------------   ------------------------------
 DEPT.F                  :   
 SPR .MV     05 010 01 00:   SPONTANEOUS POTENTIAL FROM RES.
 CILD.MMHO   05 110 00 00:   CONDUCTIVITY INDUCTION LOG
 ASN .OHMM   05 041 16 00:   AMPLIFIED SHORT NORMAL 16"
 ILD .OHMM   05 120 46 00:   INDUCTION LOG DEEP
 GR  .GAPI   30 310 01 00:   GAMMA RAY
~PARAMETER INFORMATION
#MNEM.UNIT          VALUE    DESCRIPTION
#----------   ------------   ------------------------------
 PD  .                 GL:   PERMANENT DATUM
 EPD .F              5288:   ELEVATION PERMANENT DATUM
 LMF .                 KB:   LOG MEASURED FROM
 DAPD.F                 5:   FEET ABOVE PERMANENT DATUM
 DMF .                 KB:   DRILLING MEASURED FROM
 EKB .F              5293:   KELLING BUSHING
 EGL .F              5288:   GROUND LEVEL
 DATE.             7-6-62:   RUN DATE
 RUN .                  1:   RUN NUMBER
 DD  .F              1286:   DEPTH DRILLER
 DL  .F              1283:   DEPTH LOGGER
 BLI .F              1282:   BOTTOM LOG INTERVAL
 TLI .F                87:   TOP LOG INTERVAL
 CBD .F                10:   CASING BOTTOM DRILLER
 BS  .IN             6.75:   BIT SIZE
 BSD .F              1286:   BIT SIZE AT DEPTH
 DFT .            GEL-OIL:   DRILLING FLUID TYPE
 DFD .               10.3:   DRILLING FLUID DENSITY
 DFV .                 53:   DRILLING FLUID VISCOSITY
 DFL .                3.6:   DRILLING FLUID LOSS
 MSS .           FLOWLINE:   MUD SAMPLE SOURCE
 RMS .OHMM           5.66:   RESISTIVITY MUD SAMPLE
 MST .F                78:   MUD SAMPLE TEMPERATURE
 RMF .OHMM           5.59:   RESISTIVITY MUD FILTRATE SAMPLE
 MFST.F                78:   MUD FILTRATE SAMPLE TEMPERATURE
 RMC .OHMM           4.47:   RESISTIVITY MUD CAKE
 MCST.F                78:   MUD CAKE SAMPLE TEMPERATURE
 MFSS.                  M:   MUD FILTRATE SAMPLE SOURCE
 MCSS.                  M:   MUD CAKE SAMPLE SOURCE
 RMB .OHMM           5.08:   RESISTIVITY MUD AT BHT
 BHT .F                88:   BOTTOM HOLE TEMPERATURE
 TCS .HRS               1:   TIME CURCULATED STOPPED
 MRT .F                88:   MAXIMUM RECORDED TEMPERATURE
 LUN .               2503:   LOGGING UNIT NUMBER
 LUL .               CSPR:   LOGGING UNIT LOCATION
 ENGI.             KNOBEL:   RECORDING ENGINEER
 WITN.          JORGENSEN:   WITNESSED BY
 CLNT.            A2DTECH:   CLIENT CODE
 ORIG.       2", 5" PRINT:   ORIGIN OF DATA
 UWI .       490250631800:   UNIQUE WELL ID
 DICO. A2D Technologies, Inc.:   DIGITIZING COMPANY
~OTHER INFORMATION
~A   DEPT      SPR       CILD        ASN        ILD         GR   
# ...
  879.5000   -33.6401   119.6259     8.6308     8.3931  -999.2500
  880.0000   -33.6026   119.6241     8.5652     8.3584  -999.2500
  880.5000   -33.5621   119.6256     8.5382     8.3237  -999.2500
  881.0000   -33.4434   119.6261     8.5340     8.2886  -999.2500
  881.5000   -33.3258   119.6259     8.5108     8.2547  -999.2500
  882.0000   -33.2090   119.6259     8.4876     8.2666  -999.2500
  882.5000   -33.0922   119.6259     8.4771     8.2807  -999.2500
  883.0000   -32.9753   119.6259     8.5079     8.2947  -999.2500
  883.5000   -32.8591   119.6259     8.5456     8.3086  -999.2500
  884.0000   -32.7620   119.6259     8.5689     8.3224  -999.2500
  884.5000   -32.8812   119.6259     8.5029     8.3364  -999.2500
  885.0000   -33.0158   120.0628     8.4380     8.3520  -999.2500
  885.5000   -33.1509   120.5169     8.3731     8.3038  -999.2500
  886.0000   -33.2850   122.3470     8.3263     8.2392  -999.2500
  886.5000   -33.3661   124.6175     8.2847     8.1731  -999.2500
  887.0000   -33.3657   126.8881     8.2401     8.1092  -999.2500
  887.5000   -33.3661   129.1587     8.1887     8.0608  -999.2500
  888.0000   -33.2766   132.2632     8.1043     7.8544  -999.2500
  888.5000   -33.1313   136.9255     7.8832     7.6801  -999.2500
  889.0000   -32.9848   141.5877     7.6617     7.5014  -999.2500
  889.5000   -32.8371   145.6533     7.4401     7.3238  -999.2500
  890.0000   -32.6912   148.0058     7.2181     7.1465  -999.2500
  890.5000   -32.5654   150.5034     7.0567     6.9700  -999.2500
  891.0000   -32.5695   151.6596     6.9436     6.8492  -999.2500
  891.5000   -32.5698   150.5055     6.8800     6.8528  -999.2500
  892.0000   -32.5697   148.3484     6.9034     6.8901  -999.2500
  892.5000   -32.5692   146.1914     7.1128     7.0247  -999.2500
  893.0000   -32.5684   144.0343     7.3239     7.1542  -999.2500
  893.5000   -32.5724   141.8773     7.5338     7.2836  -999.2500
  894.0000   -32.6852   139.7203     7.7166     7.4144  -999.2500
  894.5000   -33.0750   137.5632     7.7102     7.5476  -999.2500
  895.0000   -33.4455   135.4062     7.6584     7.5534  -999.2500
  895.5000   -33.6644   133.2491     7.6709     7.5731  -999.2500
  896.0000   -32.9234   133.5356     7.7615     7.6006  -999.2500
  896.5000   -32.1567   134.7844     7.8143     7.6284  -999.2500
  897.0000   -31.9739   135.6428     7.7220     7.6448  -999.2500
  897.5000   -31.8561   136.0861     7.7494     7.5781  -999.2500
  898.0000   -31.7705   137.5133     7.8756     7.5102  -999.2500
  898.5000   -31.7729   138.9405     7.7576     7.4427  -999.2500
  899.0000   -31.7710   140.3678     7.5824     7.3751  -999.2500
  899.5000   -31.8514   141.6491     7.5153     7.3076  -999.2500
  900.0000   -31.9613   141.6491     7.4610     7.2401  -999.2500
  900.5000   -32.0721   141.6491     7.3538     7.1702  -999.2500
  901.0000   -32.1828   141.6491     7.2578     7.1522  -999.2500
  901.5000   -32.2928   141.6491     7.3129     7.1527  -999.2500
  902.0000   -32.3724   140.7391     7.4256     7.1858  -999.2500
  902.5000   -32.3705   138.9190     7.5379     7.3151  -999.2500
  903.0000   -32.3704   137.0989     7.6346     7.4403  -999.2500
  903.5000   -32.3702   135.2788     7.6936     7.5650  -999.2500
  904.0000   -32.3711   133.4587     7.7530     7.6899  -999.2500
  904.5000   -32.4004   131.6386     7.8148     7.7523  -999.2500
  905.0000   -32.5144   129.6365     7.8402     7.7351  -999.2500
  905.5000   -32.6251   129.9417     7.8649     7.7158  -999.2500
  906.0000   -32.7422   130.5521     7.8768     7.6960  -999.2500
  906.5000   -32.6368   131.1625     7.8341     7.6764  -999.2500
  907.0000   -32.4525   131.7728     7.7861     7.6567  -999.2500
  907.5000   -32.2658   132.3833     7.7379     7.6371  -999.2500
  908.0000   -32.1720   132.9940     7.6893     7.6174  -999.2500
  908.5000   -32.1716   133.6051     7.6389     7.5978  -999.2500
  909.0000   -32.1712   134.2144     7.6368     7.5782  -999.2500
  909.5000   -32.1852   134.6417     7.6729     7.5571  -999.2500
  910.0000   -32.2129   134.6417     7.7136     7.5880  -999.2500
  910.5000   -32.2405   134.6417     7.7552     7.6394  -999.2500
  911.0000   -32.2681   134.6417     7.7480     7.6424  -999.2500
  911.5000   -32.2960   134.6417     7.7112     7.6287  -999.2500
  912.0000   -32.3239   134.8575     7.6754     7.6143  -999.2500
  912.5000   -32.3505   135.2890     7.6386     7.5999  -999.2500
  913.0000   -32.3433   135.7204     7.6375     7.5856  -999.2500
  913.5000   -32.2365   136.1519     7.5989     7.5713  -999.2500
  914.0000   -32.1334   136.5834     7.5453     7.5573  -999.2500
  914.5000   -32.0304   137.0149     7.4973     7.5217  -999.2500
  915.0000   -31.9276   137.4464     7.4964     7.4777  -999.2500
  915.5000   -31.8248   137.8779     7.4768     7.4335  -999.2500
  916.0000   -31.7733   138.3094     7.4570     7.3893  -999.2500
  916.5000   -31.7731   138.7409     7.4572     7.3450  -999.2500
  917.0000   -31.7728   139.1724     7.4356     7.3003  -999.2500
  917.5000   -31.7729   139.6470     7.4046     7.2545  -999.2500
  918.0000   -31.7733   139.6470     7.3984     7.2927  -999.2500
  918.5000   -31.7724   139.6470     7.4329     7.3401  -999.2500
  919.0000   -31.7000   139.9285     7.4577     7.3522  -999.2500
  919.5000   -31.6186   140.8670     7.4384     7.3526  -999.2500
  920.0000   -31.5372   141.8055     7.4125     7.3526  -999.2500
  920.5000   -31.4558   142.7440     7.3863     7.3526  -999.2500
  921.0000   -31.3745   143.6825     7.3600     7.3524  -999.2500
  921.5000   -31.2932   144.6210     7.3366     7.3521  -999.2500
  922.0000   -31.2118   145.6533     7.3125     7.3079  -999.2500
  922.5000   -31.1302   145.6533     7.2650     7.2197  -999.2500
  923.0000   -31.0478   145.6533     7.2172     7.1313  -999.2500
  923.5000   -30.9818   144.5484     7.1691     7.0520  -999.2500
  924.0000   -31.1059   143.3207     7.1395     7.0552  -999.2500
  924.5000   -31.2270   142.0935     7.2333     7.1381  -999.2500
  925.0000   -31.3469   140.8653     7.3233     7.2180  -999.2500
  925.5000   -31.4665   139.6375     7.4123     7.2972  -999.2500
  926.0000   -31.5737   138.4099     7.5012     7.3762  -999.2500
  926.5000   -31.5775   137.1821     7.5918     7.4553  -999.2500
  927.0000   -31.5595   135.9544     7.6668     7.5341  -999.2500
  927.5000   -31.2120   134.7267     7.7287     7.6130  -999.2500
  928.0000   -30.8736   133.4990     7.7628     7.6525  -999.2500
  928.5000   -30.5448   132.6396     7.8151     7.6527  -999.2500
  929.0000   -30.1602   132.6396     7.8143     7.6529  -999.2500
  929.5000   -30.1789   133.4182     7.8006     7.6529  -999.2500
  930.0000   -30.2847   134.5305     7.7975     7.6530  -999.2500
  930.5000   -30.4908   135.6427     7.7967     7.6524  -999.2500
  931.0000   -30.6977   136.6466     7.7373     7.6339  -999.2500
  931.5000   -30.9053   136.6492     7.6705     7.5611  -999.2500
  932.0000   -31.1196   137.4984     7.6037     7.4906  -999.2500
  932.5000   -31.1742   139.1936     7.5352     7.4202  -999.2500
  933.0000   -31.1768   140.8891     7.5006     7.3497  -999.2500
  933.5000   -31.1405   142.5873     7.4767     7.2792  -999.2500
  934.0000   -31.0907   144.2858     7.4531     7.2087  -999.2500
  934.5000   -31.0409   145.9840     7.4360     7.1382  -999.2500
  935.0000   -30.9910   147.6822     7.3892     7.0677  -999.2500
  935.5000   -30.9411   149.3805     7.2948     6.9972  -999.2500
  936.0000   -30.8915   151.0796     7.1997     6.9267  -999.2500
  936.5000   -30.8416   152.7802     7.1009     6.8562  -999.2500
  937.0000   -30.7855   154.4815     7.0526     6.7855  -999.2500
  937.5000   -30.9774   155.6688     6.9760     6.7149  -999.2500
  938.0000   -31.2604   155.6639     6.8994     6.6523  -999.2500
  938.5000   -31.5445   154.7105     6.8935     6.6518  -999.2500
  939.0000   -31.8288   152.8037     6.9799     6.7005  -999.2500
  939.5000   -31.9795   150.8969     7.0987     6.7972  -999.2500
  940.0000   -31.6211   148.9902     7.2177     6.8938  -999.2500
