~VERSION INFORMATION
 VERS.                2.0:   CWLS LOG ASCII STANDARD - VERSION 2.0
 WRAP.                 NO:   ONE LINE PER DEPTH STEP
~WELL INFORMATION
#MNEM.UNIT      DATA TYPE    INFORMATION
#----------   ------------   ------------------------------
 STRT.F           90.0000:   START DEPTH
 STOP.F          799.0000:   STOP DEPTH
 STEP.F            0.5000:   STEP LENGTH
 NULL.          -999.2500:   NO VALUE
 COMP. U S NAVY-INTEX OIL:   COMPANY
 WELL. RES 3 TEAPOT DOM #83S-34:   WELL
 FLD .             TEAPOT:   FIELD
 LOC .      S34 T39N R78W:   LOCATION
 CNTY.            NATRONA:   COUNTY
 STAT.            WYOMING:   STATE
 CTRY. UNITED STATES OF AMERICA:   COUNTRY
 SRVC.       Schlumberger:   SERVICE COMPANY
 DATE.        15-FEB-1961:   LOGDATE
 API .       490250655100:   API NUMBER
~CURVE INFORMATION
#MNEM.UNIT       API CODE    CURVE DESCRIPTION
#----------   ------------   ------------------------------
 DEPT.F                  :   
 ASN .OHMM   05 041 16 00:   AMPLIFIED SHORT NORMAL 16"
 ILD .OHMM   05 120 46 00:   INDUCTION LOG DEEP RESISTIVITY.
 CILD.MMHO   05 110 46 00:   CONDUCTIVITY INDUCTION LOG DEEP
 SPR .MV     05 010 01 00:   SPONTANEOUS POTENTIAL FROM RES.
 GR  .GAPI   30 310 01 00:   GAMMA RAY
~PARAMETER INFORMATION
#MNEM.UNIT          VALUE    DESCRIPTION
#----------   ------------   ------------------------------
 PD  .                 GL:   PERMANENT DATUM
 EPD .F              5090:   ELEVATION PERMANENT DATUM
 LMF .                 KB:   LOG MEASURED FROM
 DAPD.F                 4:   FEET ABOVE PERMANENT DATUM
 DMF .                 KB:   DRILLING MEASURED FROM
 EKB .F              5094:   KELLING BUSHING
 EGL .F              5090:   GROUND LEVEL
 DATE.        15-FEB-1961:   RUN DATE
 RUN .                  1:   RUN NUMBER
 DD  .F               800:   DEPTH DRILLER
 DL  .F               800:   DEPTH LOGGER
 BLI .F               799:   BOTTOM LOG INTERVAL
 TLI .F               100:   TOP LOG INTERVAL
 CBD .F                12:   CASING BOTTOM DRILLER
 BS  .IN            7.875:   BIT SIZE
 BSD .F               800:   BIT SIZE AT DEPTH
 DFT .       OIL EMULSION:   DRILLING FLUID TYPE
 DFD .                9.5:   DRILLING FLUID DENSITY
 DFV .                 50:   DRILLING FLUID VISCOSITY
 RMS .OHMM           1.25:   RESISTIVITY MUD SAMPLE
 MST .F                57:   MUD SAMPLE TEMPERATURE
 RMB .OHMM           0.98:   RESISTIVITY MUD AT BHT
 BHT .F                73:   BOTTOM HOLE TEMPERATURE
 TCS .HRS               1:   TIME CURCULATED STOPPED
 LUN .               2572:   LOGGING UNIT NUMBER
 LUL .                 NC:   LOGGING UNIT LOCATION
 ENGI.            EARNEST:   RECORDING ENGINEER
 WITN.          JORGENSEN:   WITNESSED BY
 CLNT.            A2DTECH:   CLIENT CODE
 ORIG.       2" ,5" PRINT:   ORIGIN OF DATA
 UWI .       490250655100:   UNIQUE WELL ID
 DICO. A2D Technologies, Inc.:   DIGITIZING COMPANY
~OTHER INFORMATION
~A   DEPT        ASN        ILD      CILD       SPR         GR   
# ...
  578.0000     3.8192     2.6316   349.9747   -34.7368  -999.2500
  578.5000     3.6273     2.5564   354.4573   -34.5865  -999.2500
  579.0000     3.5969     2.5564   355.2039   -34.4361  -999.2500
  579.5000     3.6268     2.6316   349.9318   -33.9850  -999.2500
  580.0000     3.8373     2.6316   340.1503   -33.8346  -999.2500
  580.5000     4.1445     2.7820   319.8406   -33.5338  -999.2500
  581.0000     4.5292     3.1579   305.5478   -33.2331  -999.2500
  581.5000     5.0878     3.4586   273.2098   -33.0827  -999.2500
  582.0000     5.7186     3.8346   241.6238   -32.7820  -999.2500
  582.5000     6.4714     4.2231   227.9826   -32.6316  -999.2500
  583.0000     7.0584     4.7368   211.5326   -32.6316  -999.2500
  583.5000     7.4195     5.0376   188.2172   -32.3308  -999.2500
  584.0000     7.5397     5.1128   178.8617   -32.3308  -999.2500
  584.5000     7.5846     5.2632   176.6642   -32.3308  -999.2500
  585.0000     7.5693     5.3383   175.1497   -32.1805  -999.2500
  585.5000     7.5389     5.1880   175.8910   -32.1805  -999.2500
  586.0000     7.5686     5.1128   175.1278   -32.0301  -999.2500
  586.5000     7.6286     5.0376   175.1147   -31.8797  -999.2500
  587.0000     7.7036     5.0351   175.8585   -32.0301  -999.2500
  587.5000     7.7485     4.9624   176.5996   -32.0301  -999.2500
  588.0000     7.7481     4.8872   178.0900   -32.0301  -999.2500
  588.5000     7.6575     4.8872   181.1557   -32.0301  -999.2500
  589.0000     7.4614     4.8872   186.3364   -31.8797  -999.2500
  589.5000     7.0801     4.6529   190.0851   -31.7293  -999.2500
  590.0000     6.5421     4.2105   196.8412   -31.5789  -999.2500
  590.5000     6.2105     3.8346   205.1011   -31.4286  -999.2500
  591.0000     5.8789     3.8346   211.9325   -31.4286  -999.2500
  591.5000     5.6075     3.9098   220.1145   -31.4286  -999.2500
  592.0000     5.5168     3.9098   226.1188   -31.4286  -999.2500
  592.5000     5.5316     4.0602   230.6193   -31.4286  -999.2500
  593.0000     5.6668     4.1353   234.3706   -31.2782  -999.2500
  593.5000     5.8774     4.1353   229.0817   -31.1278  -999.2500
  594.0000     6.1180     4.2105   220.8099   -30.9774  -999.2500
  594.5000     6.3286     4.3609   213.2803   -30.8271  -999.2500
  595.0000     6.5241     4.5113   201.9914   -30.8271  -999.2500
  595.5000     6.7497     4.7368   195.2137   -30.8271  -999.2500
  596.0000     6.9968     5.0376   185.4285   -30.6767  -999.2500
  596.5000     7.3515     5.1880   178.4126   -30.5263  -999.2500
  597.0000     7.8783     5.3383   171.8704   -30.5263  -999.2500
  597.5000     8.3750     5.6391   168.1003   -30.3759  -999.2500
  598.0000     8.5871     5.8647   164.3301   -30.3759  -999.2500
  598.5000     8.7659     6.0150   159.8081   -30.3759  -999.2500
  599.0000     8.9162     6.1654   155.9499   -30.3303  -999.2500
  599.5000     9.0214     6.2406   153.7688   -30.3303  -999.2500
  600.0000     9.0445     6.3910   151.5024   -30.3303    77.5601
  600.5000     8.9521     6.1480   150.7425   -30.3303    73.7952
  601.0000     8.8597     5.9459   152.9846   -30.1802    70.7831
  601.5000     8.7641     5.9489   155.2295   -30.1802    67.0181
  602.0000     8.6437     5.8772   157.4717   -30.0300    69.3570
  602.5000     8.4909     5.7290   159.7166   -30.0300    74.3976
  603.0000     8.2975     5.8830   161.2096   -30.0300    75.6024
  603.5000     8.1017     5.7356   163.4545   -29.8799    72.2892
  604.0000     7.8908     5.0618   165.7243   -29.8799    68.2229
  604.5000     7.6347     4.8391   170.9490   -29.7297    72.8916
  605.0000     7.3334     4.6916   176.2014   -29.7297    74.6988
  605.5000     7.1526     4.6193   181.4538   -29.7297    70.7831
  606.0000     6.8933     4.5471   185.2025   -29.5796    73.0422
  606.5000     6.6556     4.7762   186.6955   -29.5796    76.3554
  607.0000     6.7011     5.0047   187.4366   -29.5796    73.0422
  607.5000     6.8673     5.1580   185.9194   -29.5796    68.8153
  608.0000     7.2145     5.2361   183.6530   -29.5796    76.3554
  608.5000     7.6522     5.3895   180.6347   -29.5796    84.9398
  609.0000     8.0296     5.5434   176.1126   -29.4294    81.4759
  609.5000     8.4271     5.8470   169.0148   -29.4294    77.1084
  610.0000     8.6939     6.1507   160.2990   -29.4294    73.9358
  610.5000     8.8148     6.3791   155.0250   -29.4294    75.5371
  611.0000     8.8905     6.4572   151.2549   -29.4294    79.0663
  611.5000     8.9813     6.3097   148.9885   -29.4294    80.8735
  612.0000     9.1023     6.3886   146.6464   -29.4294    76.5060
  612.5000     9.2383     6.4666   145.9567   -29.5796    78.0120
  613.0000     9.3611     6.5447   145.1941   -29.5796    81.4879
  613.5000     9.4200     6.5476   145.1833   -29.5796    83.7349
  614.0000     9.4504     6.4754   145.9245   -29.5796    75.6024
  614.5000     9.4658     6.4030   146.6656   -29.5796    70.6325
  615.0000     9.4812     6.4060   146.6521   -29.5796    68.9759
  615.5000     9.5116     6.4096   146.6414   -29.5796    68.3605
  616.0000     9.4968     6.4125   146.6306   -29.5796    72.5001
  616.5000     9.4358     6.4154   146.6198   -29.4294    76.2048
  617.0000     9.3617     6.4183   148.1128   -29.4294    71.6867
  617.5000     9.2866     6.3453   148.8539   -29.4294    68.2229
  618.0000     9.2266     6.1233   148.8405   -29.2793    70.6325
  618.5000     9.1665     6.1263   148.8297   -29.2793    68.2219
  619.0000     9.1065     6.1299   148.8190   -29.4294    69.1265
  619.5000     9.0314     6.0576   149.5602   -29.4294    65.3614
  620.0000     8.9693     6.0605   151.8023   -29.4294    62.9518
  620.5000     8.8661     5.9882   157.0547   -29.4294    61.2952
  621.0000     8.7457     5.6152   163.8108   -29.5796    60.1767
  621.5000     8.5349     5.2421   171.3188   -29.5796    62.3937
  622.0000     8.1581     4.7850   178.0750   -29.7297    65.8133
  622.5000     7.7210     4.4216   185.0193   -29.7297    72.8916
  623.0000     7.0727     4.3486   193.0884   -30.0300    71.2349
  623.5000     6.6023     4.5026   195.3333   -30.1802    68.3735
  624.0000     6.5605     4.5807   196.0771   -30.3303    70.0301
  624.5000     6.6664     4.8091   196.0636   -30.3303    72.7410
  625.0000     6.9533     4.9624   194.4862   -30.3303    67.9218
  625.5000     7.5418     4.9654   190.0244   -30.3303    62.8012
  626.0000     7.7533     4.8930   186.2542   -30.3303    65.3614
  626.5000     7.7848     4.7463   184.7397   -30.3303    63.4036
  627.0000     7.7064     4.7492   186.2327   -30.1802    63.2370
  627.5000     7.5430     4.7521   187.7571   -30.1802    60.3916
  628.0000     7.2266     4.7550   189.2187   -30.1802    62.9518
  628.5000     6.9403     4.8331   190.7090   -30.0969    60.5422
  629.0000     6.7596     4.9871   192.2047   -30.0300    64.9096
  629.5000     6.7750     5.0652   192.1912   -30.0300    63.8554
  630.0000     6.8959     5.2184   189.1729   -30.0300    65.8133
  630.5000     7.1723     5.4469   183.8963   -30.1802    59.9398
  631.0000     7.5904     5.6002   177.8705   -30.3303    52.7108
  631.5000     8.1940     5.7535   173.3485   -30.3303    54.6687
  632.0000     8.4205     5.9108   168.0746   -30.3303    52.1084
  632.5000     8.5264     6.1359   162.8006   -30.3303    53.6145
  633.0000     8.5418     6.0636   159.7820   -30.3303    51.5060
  633.5000     8.5270     5.9162   160.5235   -30.3303    56.6265
  634.0000     8.5122     5.8431   162.7657   -30.3303    61.5964
  634.5000     8.4673     5.6212   164.2587   -30.3303    57.9819
  635.0000     8.3620     5.4737   168.0073   -30.3303    53.7651
  635.5000     8.2115     5.1639   172.6706   -30.3237    58.6475
  636.0000     7.9101     4.9532   178.5094   -30.3145    65.0602
  636.5000     7.5032     4.8065   182.2580   -30.3054    63.8554
  637.0000     7.1113     4.7335   183.7537   -30.2962    72.4398
  637.5000     6.9608     4.8875   183.7403   -30.2871    76.8072
  638.0000     7.2176     5.0407   182.9774   -30.2779    73.0422
  638.5000     7.5497     5.2692   180.7085   -30.2687    75.0000
