~VERSION INFORMATION
 VERS.                2.0:   CWLS LOG ASCII STANDARD - VERSION 2.0
 WRAP.                 NO:   ONE LINE PER DEPTH STEP
~WELL INFORMATION
#MNEM.UNIT      DATA TYPE    INFORMATION
#----------   ------------   ------------------------------
 STRT.F           30.0000:   START DEPTH
 STOP.F         2432.5000:   STOP DEPTH
 STEP.F            0.5000:   STEP LENGTH
 NULL.          -999.2500:   NO VALUE
 COMP. FENIX & SCISSON INC:   COMPANY
 WELL.     72 SHX 4 #72-4:   WELL
 FLD .             TEAPOT:   FIELD
 LOC .       S4 T38N R78W:   LOCATION
 CNTY.            NATRONA:   COUNTY
 STAT.            WYOMING:   STATE
 CTRY. UNITED STATES OF AMERICA:   COUNTRY
 SRVC.           BIRDWELL:   SERVICE COMPANY
 DATE.        05-MAR-1979:   LOGDATE
 API .       490251074300:   API NUMBER
~CURVE INFORMATION
#MNEM.UNIT       API CODE    CURVE DESCRIPTION
#----------   ------------   ------------------------------
 DEPT.F                  :   
 SPR .MV     05 010 01 00:   SPONTANEOUS POTENTIAL FROM RES.
 SN  .OHMM   05 040 16 00:   SHORT NORMAL 16"
 ILD .OHMM   05 120 46 00:   INDUCTION LOG DEEP
 CALD.IN     45 280 60 00:   CALIPER
 GRD .GAPI   45 310 01 00:   GAMMA RAY FROM DENSITY LOG
 RHOB.G/C3   45 350 01 00:   BULK DENSITY
 CORR.G/C3   45 356 01 00:   DENSITY CORRECTION
 DPHI.DEC    45 890 12 00:   DENSITY POROSITY SANDSTONE
~PARAMETER INFORMATION
#MNEM.UNIT          VALUE    DESCRIPTION
#----------   ------------   ------------------------------
 PD  .                 GL:   PERMANENT DATUM
 EPD .F              5194:   ELEVATION PERMANENT DATUM
 LMF .                 KB:   LOG MEASURED FROM
 DAPD.F                10:   FEET ABOVE PERMANENT DATUM
 DMF .                 KB:   DRILLING MEASURED FROM
 EKB .F              5204:   KELLING BUSHING
 EGL .F              5194:   GROUND LEVEL
 DATE.             3-5-79:   RUN DATE
 RUN .                  1:   RUN NUMBER
 DD  .F              2560:   DEPTH DRILLER
 DL  .F              2432:   DEPTH LOGGER
 BLI .F              2432:   BOTTOM LOG INTERVAL
 TLI .F               400:   TOP LOG INTERVAL
 CS  .IN            9.625:   CASING SIZE
 CBD .F               685:   CASING BOTTOM DRILLER
 CBL .F               685:   CASING BOTTOM LOGGER
 BS  .IN             8.75:   BIT SIZE
 BSD .F              2560:   BIT SIZE AT DEPTH
 DFT .                AIR:   DRILLING FLUID TYPE
 TCS .HRS               5:   TIME CURCULATED STOPPED
 LUN .               3006:   LOGGING UNIT NUMBER
 LUL .             CASPER:   LOGGING UNIT LOCATION
 ENGI.         B. ROLLINS:   RECORDING ENGINEER
 WITN.           DINSMORE:   WITNESSED BY
 CLNT.            A2DTECH:   CLIENT CODE
 ORIG.           5" PRINT:   ORIGIN OF DATA
 UWI .       490251074300:   UNIQUE WELL ID
 DICO. A2D Technologies, Inc.:   DIGITIZING COMPANY
~OTHER INFORMATION
~A   DEPT      SPR         SN        ILD        CALD       GRD       RHOB         CORR      DPHI  
# ...
 1285.5000  -999.2500  -999.2500  -999.2500     9.4024    75.9497     2.5649     0.0648    -0.0025
 1286.0000  -999.2500  -999.2500  -999.2500     9.4149    77.1738     2.5575     0.0391     0.0148
 1286.5000  -999.2500  -999.2500  -999.2500     9.4273    76.1859     2.5296     0.0127     0.0243
 1287.0000  -999.2500  -999.2500  -999.2500     9.4397    74.6356     2.5024    -0.0074     0.0298
 1287.5000  -999.2500  -999.2500  -999.2500     9.4521    74.0096     2.4978    -0.0081     0.0309
 1288.0000  -999.2500  -999.2500  -999.2500     9.4645    73.7795     2.4945    -0.0027     0.0285
 1288.5000  -999.2500  -999.2500  -999.2500     9.4769    74.1886     2.4941     0.0026     0.0218
 1289.0000  -999.2500  -999.2500  -999.2500     9.4891    75.1741     2.5084     0.0079     0.0152
 1289.5000  -999.2500  -999.2500  -999.2500     9.5003    76.8384     2.5248     0.0132     0.0095
 1290.0000  -999.2500  -999.2500  -999.2500     9.5307    78.4934     2.5325     0.0184     0.0096
 1290.5000  -999.2500  -999.2500  -999.2500     9.5619    80.1451     2.5277     0.0237     0.0113
 1291.0000  -999.2500  -999.2500  -999.2500     9.5929    81.8033     2.5224     0.0290     0.0135
 1291.5000  -999.2500  -999.2500  -999.2500     9.6240    82.8356     2.5195     0.0336     0.0157
 1292.0000  -999.2500  -999.2500  -999.2500     9.6550    83.3669     2.5166     0.0356     0.0179
 1292.5000  -999.2500  -999.2500  -999.2500     9.6793    83.6705     2.5143     0.0347     0.0201
 1293.0000  -999.2500  -999.2500  -999.2500     9.6753    82.5920     2.5136     0.0375     0.0192
 1293.5000  -999.2500  -999.2500  -999.2500     9.6719    80.8035     2.5165     0.0444     0.0138
 1294.0000  -999.2500  -999.2500  -999.2500     9.6685    79.0168     2.5206     0.0503     0.0092
 1294.5000  -999.2500  -999.2500  -999.2500     9.6651    77.2134     2.5248     0.0507     0.0114
 1295.0000  -999.2500  -999.2500  -999.2500     9.6617    76.3112     2.5268     0.0513     0.0126
 1295.5000  -999.2500  -999.2500  -999.2500     9.6584    76.2660     2.5284     0.0517     0.0077
 1296.0000  -999.2500  -999.2500  -999.2500     9.6550    76.1895     2.5302     0.0499     0.0056
 1296.5000  -999.2500  -999.2500  -999.2500     9.6516    75.6911     2.5231     0.0345     0.0191
 1297.0000  -999.2500  -999.2500  -999.2500     9.6482    73.6424     2.5126     0.0150     0.0261
 1297.5000  -999.2500  -999.2500  -999.2500     9.6449    71.8913     2.5046     0.0059     0.0220
 1298.0000  -999.2500  -999.2500  -999.2500     9.6415    72.4021     2.5067     0.0053     0.0167
 1298.5000  -999.2500  -999.2500  -999.2500     9.6381    72.7469     2.5091     0.0048     0.0152
 1299.0000  -999.2500  -999.2500  -999.2500     9.6347    71.5969     2.5077     0.0044     0.0235
 1299.5000  -999.2500  -999.2500  -999.2500     9.6314    70.0354     2.5049     0.0049     0.0285
 1300.0000  -999.2500  -999.2500  -999.2500     9.6280    71.6244     2.5055     0.0091     0.0207
 1300.5000  -999.2500  -999.2500  -999.2500     9.6246    73.2560     2.5096     0.0132     0.0140
 1301.0000  -999.2500  -999.2500  -999.2500     9.6212    73.6844     2.5134     0.0173     0.0164
 1301.5000  -999.2500  -999.2500  -999.2500     9.6179    73.0717     2.5109     0.0171     0.0189
 1302.0000  -999.2500  -999.2500  -999.2500     9.6145    71.6658     2.5067     0.0160     0.0212
 1302.5000  -999.2500  -999.2500  -999.2500     9.6111    70.2880     2.5040     0.0149     0.0223
 1303.0000  -999.2500  -999.2500  -999.2500     9.6077    68.9040     2.5031     0.0137     0.0229
 1303.5000  -999.2500  -999.2500  -999.2500     9.6043    68.4387     2.5021     0.0126     0.0236
 1304.0000  -999.2500  -999.2500  -999.2500     9.6010    68.9627     2.5011     0.0114     0.0251
 1304.5000  -999.2500  -999.2500  -999.2500     9.6027    69.4893     2.5002     0.0103     0.0267
 1305.0000  -999.2500  -999.2500  -999.2500     9.6102    69.9112     2.4992     0.0092     0.0281
 1305.5000  -999.2500  -999.2500  -999.2500     9.6177    69.5687     2.4982     0.0074     0.0297
 1306.0000  -999.2500  -999.2500  -999.2500     9.6252    69.2242     2.4976     0.0068     0.0276
 1306.5000  -999.2500  -999.2500  -999.2500     9.6327    69.0305     2.5041     0.0263     0.0183
 1307.0000  -999.2500  -999.2500  -999.2500     9.6394    71.0647     2.5187     0.0456     0.0090
 1307.5000  -999.2500  -999.2500  -999.2500     9.6345    73.1469     2.5334     0.0543    -0.0003
 1308.0000  -999.2500  -999.2500  -999.2500     9.6292    72.8273     2.5454     0.0635    -0.0096
 1308.5000  -999.2500  -999.2500  -999.2500     9.6240    71.5939     2.5567     0.0720    -0.0184
 1309.0000  -999.2500  -999.2500  -999.2500     9.6188    70.6921     2.5681     0.0680    -0.0184
 1309.5000  -999.2500  -999.2500  -999.2500     9.6135    71.8055     2.5733     0.0495    -0.0047
 1310.0000  -999.2500  -999.2500  -999.2500     9.6083    73.0133     2.5558     0.0319     0.0060
 1310.5000  -999.2500  -999.2500  -999.2500     9.6031    74.1135     2.5320     0.0159     0.0168
 1311.0000  -999.2500  -999.2500  -999.2500     9.6015    73.8494     2.5080     0.0067     0.0276
 1311.5000  -999.2500  -999.2500  -999.2500     9.6125    73.5498     2.4912    -0.0026     0.0382
 1312.0000  -999.2500  -999.2500  -999.2500     9.6231    73.5580     2.4777    -0.0121     0.0434
 1312.5000  -999.2500  -999.2500  -999.2500     9.6338    74.2161     2.4763    -0.0140     0.0418
 1313.0000  -999.2500  -999.2500  -999.2500     9.6444    74.8647     2.4776    -0.0088     0.0393
 1313.5000  -999.2500  -999.2500  -999.2500     9.6550    75.5029     2.4789     0.0038     0.0317
 1314.0000  -999.2500  -999.2500  -999.2500     9.6656    75.8398     2.4892     0.0162     0.0232
 1314.5000  -999.2500  -999.2500  -999.2500     9.6762    75.4429     2.5029     0.0287     0.0148
 1315.0000  -999.2500  -999.2500  -999.2500     9.6868    74.6044     2.5168     0.0412     0.0063
 1315.5000  -999.2500  -999.2500  -999.2500     9.6974    73.6463     2.5307     0.0497    -0.0021
 1316.0000  -999.2500  -999.2500  -999.2500     9.7080    73.0880     2.5450     0.0501    -0.0036
 1316.5000  -999.2500  -999.2500  -999.2500     9.7187    72.7042     2.5434     0.0435     0.0160
 1317.0000  -999.2500  -999.2500  -999.2500     9.7294    72.6917     2.5264     0.0363     0.0193
 1317.5000  -999.2500  -999.2500  -999.2500     9.7390    72.9774     2.5162     0.0315     0.0190
 1318.0000  -999.2500  -999.2500  -999.2500     9.7312    73.9007     2.5152     0.0303     0.0167
 1318.5000  -999.2500  -999.2500  -999.2500     9.7231    74.5221     2.5154     0.0291     0.0081
 1319.0000  -999.2500  -999.2500  -999.2500     9.7150    74.6621     2.5225     0.0270     0.0056
 1319.5000  -999.2500  -999.2500  -999.2500     9.7070    74.9475     2.5296     0.0202     0.0032
 1320.0000  -999.2500  -999.2500  -999.2500     9.6989    76.0007     2.5336     0.0135     0.0052
 1320.5000  -999.2500  -999.2500  -999.2500     9.6909    76.1045     2.5315     0.0088     0.0087
 1321.0000  -999.2500  -999.2500  -999.2500     9.6828    75.1407     2.5274     0.0064     0.0122
 1321.5000  -999.2500  -999.2500  -999.2500     9.6748    75.4847     2.5232     0.0041     0.0157
 1322.0000  -999.2500  -999.2500  -999.2500     9.6667    76.4123     2.5190     0.0066     0.0192
 1322.5000  -999.2500  -999.2500  -999.2500     9.6594    77.3613     2.5180     0.0125     0.0204
 1323.0000  -999.2500  -999.2500  -999.2500     9.6593    78.3219     2.5190     0.0223     0.0144
 1323.5000  -999.2500  -999.2500  -999.2500     9.6593    78.5869     2.5201     0.0321     0.0129
 1324.0000  -999.2500  -999.2500  -999.2500     9.6593    77.7506     2.5205     0.0351     0.0114
 1324.5000  -999.2500  -999.2500  -999.2500     9.6593    76.3874     2.5206     0.0336     0.0107
 1325.0000  -999.2500  -999.2500  -999.2500     9.6593    75.1254     2.5206     0.0320     0.0104
 1325.5000  -999.2500  -999.2500  -999.2500     9.6593    74.5195     2.5170     0.0303     0.0224
