~VERSION INFORMATION
 VERS.                2.0:   CWLS LOG ASCII STANDARD - VERSION 2.0
 WRAP.                 NO:   ONE LINE PER DEPTH STEP
~WELL INFORMATION
#MNEM.UNIT      DATA TYPE    INFORMATION
#----------   ------------   ------------------------------
 STRT.F            8.0000:   START DEPTH
 STOP.F          420.0000:   STOP DEPTH
 STEP.F            0.5000:   STEP LENGTH
 NULL.          -999.2500:   NO VALUE
 COMP.    FENIX & SCISSON:   COMPANY
 WELL.    NPR 3 SX #61-10:   WELL
 FLD .             TEAPOT:   FIELD
 LOC .      S10 T38N R78W:   LOCATION
 CNTY.            NATRONA:   COUNTY
 STAT.            WYOMING:   STATE
 CTRY. UNITED STATES OF AMERICA:   COUNTRY
 SRVC.            Unknown:   SERVICE COMPANY
 DATE.        20-NOV-1978:   LOGDATE
 API .       490251074900:   API NUMBER
~CURVE INFORMATION
#MNEM.UNIT       API CODE    CURVE DESCRIPTION
#----------   ------------   ------------------------------
 DEPT.F                  :   
 ILD .OHMM   01 120 46 00:   LOG INDUCTION
 SN  .OHMM   01 040 00 00:   SHORT NORMAL
 SPR .MV     01 010 01 00:   SPONTANEOUS POTENSIAL
 CALD.IN     45 280 60 00:   CALIPER
 GRD .GAPI   45 310 01 00:   GAMMA RAY FROM DENSITY LOG
 DPHI.DEC    45 890 12 00:   DENSITY POROSITY SANDSTONE
 RHOB.G/C3   45 350 01 00:   BULK DENSITY
 CORR.G/C3   45 356 01 00:   DENSITY CORRECTION
~PARAMETER INFORMATION
#MNEM.UNIT          VALUE    DESCRIPTION
#----------   ------------   ------------------------------
 PD  .                 GL:   PERMANENT DATUM
 EPD .F              5145:   ELEVATION PERMANENT DATUM
 LMF .                 KB:   LOG MEASURED FROM
 DAPD.F                 4:   FEET ABOVE PERMANENT DATUM
 DMF .                 KB:   DRILLING MEASURED FROM
 EKB .F              5149:   KELLING BUSHING
 EGL .F              5145:   GROUND LEVEL
 DATE.        20-NOV-1978:   RUN DATE
 RUN .                  1:   RUN NUMBER
 DD  .F               435:   DEPTH DRILLER
 DL  .F               426:   DEPTH LOGGER
 BLI .F               420:   BOTTOM LOG INTERVAL
 TLI .F                48:   TOP LOG INTERVAL
 CS  .IN            8.625:   CASING SIZE
 CBD .F                40:   CASING BOTTOM DRILLER
 CBL .F                42:   CASING BOTTOM LOGGER
 BS  .IN            7.875:   BIT SIZE
 BSD .F               435:   BIT SIZE AT DEPTH
 DFT .                KCL:   DRILLING FLUID TYPE
 DFD .                8.6:   DRILLING FLUID DENSITY
 DFV .                 38:   DRILLING FLUID VISCOSITY
 DFPH.                9.8:   DRILLING FLUID PH
 DFL .                 10:   DRILLING FLUID LOSS
 MSS .           FLOWLINE:   MUD SAMPLE SOURCE
 RMS .OHMM            .39:   RESISTIVITY MUD SAMPLE
 MST .F                54:   MUD SAMPLE TEMPERATURE
 RMF .OHMM            .26:   RESISTIVITY MUD FILTRATE SAMPLE
 MFST.F                72:   MUD FILTRATE SAMPLE TEMPERATURE
 RMC .OHMM            .34:   RESISTIVITY MUD CAKE
 MCST.F                74:   MUD CAKE SAMPLE TEMPERATURE
 MFSS.           MEASURED:   MUD FILTRATE SAMPLE SOURCE
 RMB .OHMM            .33:   RESISTIVITY MUD AT BHT
 BHT .F                63:   BOTTOM HOLE TEMPERATURE
 TCS .HRS               1:   TIME CURCULATED STOPPED
 MRT .F                63:   MAXIMUM RECORDED TEMPERATURE
 LUN .               2958:   LOGGING UNIT NUMBER
 LUL .               CASP:   LOGGING UNIT LOCATION
 ENGI.             MILLER:   RECORDING ENGINEER
 WITN.              AMEND:   WITNESSED BY
 CLNT.            A2DTECH:   CLIENT CODE
 ORIG.        2" 5" PRINT:   ORIGIN OF DATA
 UWI .       490251074900:   UNIQUE WELL ID
 DICO. A2D Technologies, Inc.:   DIGITIZING COMPANY
~OTHER INFORMATION
~A    DEPT     ILD         SN        SPR       CALD         GRD      DPHI       RHOB       CORR   
# ...
  332.0000    14.5875    16.2913   -17.0659     7.5107    87.4458     0.1551     2.4310     0.0210
  332.5000    14.8051    16.4234   -16.8948     7.5268    87.6055     0.1737     2.4243     0.0211
  333.0000    15.3460    16.6718   -16.7281     7.5280    87.4654     0.2034     2.4101     0.0243
  333.5000    16.1530    16.9239   -16.4119     7.5142    85.6884     0.2228     2.3813     0.0290
  334.0000    17.5380    17.2994   -16.3741     7.5005    78.4055     0.2371     2.3181     0.0321
  334.5000    19.4777    18.0546   -15.7758     7.5020    71.8666     0.2464     2.2827     0.0338
  335.0000    21.7824    19.1058   -15.4598     7.5031    66.3693     0.2409     2.2738     0.0354
  335.5000    24.5291    20.2471   -14.6960     7.5043    66.3781     0.2337     2.2829     0.0341
  336.0000    27.2420    22.1561   -13.4845     7.5055    68.2043     0.2264     2.2927     0.0342
  336.5000    30.4653    23.9387   -12.5715     7.5066    70.1161     0.2276     2.3018     0.0313
  337.0000    33.8348    25.5087   -11.8078     7.5078    70.1267     0.2282     2.3042     0.0285
  337.5000    35.5502    26.8075   -11.3426     7.5090    73.5580     0.2282     2.3035     0.0256
  338.0000    36.8667    27.4021   -11.0266     7.5101    75.7989     0.2288     2.3036     0.0258
  338.5000    37.1385    28.0100   -10.7055     7.5113    77.5933     0.2329     2.3029     0.0244
  339.0000    37.4321    28.4336   -10.0756     7.4976    78.0485     0.2386     2.3022     0.0216
  339.5000    37.4675    28.6642    -9.4772     7.4693    76.7179     0.2416     2.2938     0.0202
  340.0000    37.5029    28.6972    -9.0120     7.4553    71.5183     0.2363     2.2776     0.0309
  340.5000    37.2703    28.7310    -8.8453     7.4567    70.1877     0.2275     2.2830     0.0341
  341.0000    37.3144    28.7715    -8.6786     7.4579    70.4941     0.2151     2.3048     0.0342
  341.5000    37.3497    28.5975    -8.6611     7.4439    72.0149     0.2154     2.3169     0.0329
  342.0000    37.3850    28.6386    -8.6436     7.4302    72.8929     0.2159     2.3223     0.0345
  342.5000    37.4209    28.6715    -8.6261     7.4019    72.9034     0.2213     2.3223     0.0347
  343.0000    37.1970    28.4981    -8.6087     7.3733    72.9121     0.2258     2.3172     0.0333
  343.5000    37.2410    28.3419    -8.5912     7.3298    72.9208     0.2270     2.3067     0.0289
  344.0000    36.7631    28.1705    -8.7230     7.2863    73.0784     0.2194     2.3083     0.0321
  344.5000    36.5351    28.2110    -8.8548     7.2875    73.2359     0.2080     2.3174     0.0353
  345.0000    35.8256    28.2434    -9.1358     7.2887    73.0936     0.1936     2.3300     0.0369
  345.5000    34.8791    28.2767    -9.2676     7.2749    72.9554     0.1701     2.3559     0.0371
  346.0000    34.1937    28.3165    -9.2457     7.2913    71.7740     0.1431     2.3927     0.0373
  346.5000    33.2903    28.3491    -9.3819     7.4115    70.2961     0.1206     2.4371     0.0359
  347.0000    33.7996    28.5791    -9.3600     7.4126    70.3048     0.0898     2.5040     0.0345
  347.5000    35.3214    28.6120    -9.1933     7.4436    70.7599     0.0807     2.5431     0.0332
  348.0000    36.7949    28.6449    -9.3254     7.4745    70.3222     0.0726     2.5605     0.0364
  348.5000    37.6035    28.6778    -9.4617     7.4757    67.2060     0.1122     2.5343     0.0380
  349.0000    36.8646    28.7108    -9.7379     7.4768    66.9149     0.1483     2.4953     0.0442
  349.5000    34.9093    28.5445    -9.8697     7.5226    67.9675     0.1891     2.4384     0.0534
  350.0000    33.9870    28.3808    -9.9971     7.5536    70.9541     0.1963     2.3791     0.0626
  350.5000    33.3191    28.0223    -9.9796     7.5994    75.8750     0.2008     2.3572     0.0673
  351.0000    32.6644    27.6683    -9.8129     7.5832    76.4804     0.2143     2.3442     0.0554
  351.5000    32.0224    27.1380    -9.7954     7.6466    76.4906     0.2131     2.3268     0.0404
  352.0000    31.1571    26.4264    -9.7779     7.9306    76.5007     0.2082     2.3307     0.0360
  352.5000    30.1503    25.9124    -9.7612     7.5448    75.6181     0.2049     2.3360     0.0377
  353.0000    29.5578    25.4084    -9.7433     7.5010    73.3961     0.2046     2.3383     0.0363
  353.5000    28.9701    25.0803    -9.7254     7.4873    73.4063     0.2061     2.3384     0.0350
  354.0000    28.6051    24.5995    -9.7073     7.4888    73.5655     0.2136     2.3348     0.0441
  354.5000    28.4277    24.4570    -9.6896     7.4900    72.7286     0.2156     2.3273     0.0518
  355.0000    28.6593    24.1488    -9.8218     7.4911    69.4215     0.2103     2.3237     0.0564
  355.5000    29.0867    23.9937   -10.2478     7.4774    67.3484     0.2026     2.3327     0.0641
  356.0000    29.3167    23.7064   -10.3840     7.4935    67.6562     0.2001     2.3470     0.0811
  356.5000    29.3063    23.4069   -10.6651     7.4797    72.4282     0.2031     2.3478     0.0979
  357.0000    29.1146    23.0231   -10.6434     7.4792    74.8194     0.1980     2.3480     0.1158
  357.5000    28.9369    23.0484   -10.7796     7.4741    74.5294     0.1781     2.3675     0.1416
  358.0000    28.3645    22.5939   -10.7579     7.4686    74.5421     0.1681     2.3969     0.1447
  358.5000    27.6169    22.1484   -10.7403     7.4400    74.7011     0.1759     2.3984     0.1072
  359.0000    26.8836    21.8579   -10.7224     7.3965    76.8025     0.1783     2.3910     0.0877
  359.5000    26.3518    21.8818   -10.7013     7.4572    79.2336     0.1798     2.3873     0.0803
  360.0000    26.0048    21.9010   -10.6840     7.5476    80.5377     0.1794     2.3844     0.0774
  360.5000    25.8461    21.7688   -10.6666     7.5490    80.8456     0.1806     2.3807     0.0775
  361.0000    25.6884    21.6374   -10.6492     7.5649    81.0045     0.1774     2.3868     0.0746
  361.5000    25.3605    21.3583   -10.6318     7.5687    80.7171     0.1727     2.3914     0.0672
  362.0000    24.5166    20.9418   -10.6144     7.5972    80.4297     0.1820     2.3877     0.0582
  362.5000    23.5239    20.5288   -10.5970     7.5984    80.4398     0.1775     2.3765     0.0537
  363.0000    22.9121    20.1241   -10.5791     7.5996    80.4500     0.1738     2.3882     0.0480
  363.5000    22.6196    19.8644   -10.5579     7.6007    80.7578     0.1750     2.3939     0.0482
  364.0000    22.3263    19.6082   -10.5405     7.6019    81.3632     0.1798     2.3888     0.0453
  364.5000    22.1856    18.9570   -10.8260     7.6180    81.0758     0.1824     2.3813     0.0394
  365.0000    21.9023    18.4466   -10.9578     7.4406    81.0863     0.1845     2.3731     0.0365
  365.5000    21.7643    18.0949   -10.9361     7.4566    82.1404     0.1851     2.3732     0.0382
  366.0000    21.6352    17.9818   -10.7695     7.5619    84.6778     0.1832     2.3748     0.0398
  366.5000    21.2078    17.7498   -10.9013     7.6077    84.3903     0.1823     2.3756     0.0369
  367.0000    20.7883    17.7692   -11.0332     7.5940    84.2542     0.1823     2.3764     0.0370
  367.5000    20.5229    17.6620   -11.0114     7.5803    84.2644     0.1940     2.3727     0.0372
  368.0000    20.2568    17.6775   -11.1477     7.5818    84.4234     0.2011     2.3593     0.0418
  368.5000    19.9901    17.4489   -11.5737     7.6127    85.3264     0.2020     2.3465     0.0526
  369.0000    19.5946    17.2242   -12.0041     7.6139    86.6759     0.1848     2.3452     0.0919
  369.5000    19.3405    17.1203   -12.5880     7.6299    81.0313     0.1629     2.3618     0.1373
  370.0000    18.9617    16.8995   -12.8648     7.5862    79.0873     0.1361     2.4400     0.2008
  370.5000    18.4583    16.7975   -12.8474     7.6025    79.3140     0.1111     2.4791     0.1949
  371.0000    17.9681    16.5844   -12.9793     7.3507    81.0644     0.1471     2.4679     0.1347
  371.5000    17.6052    16.2574   -12.9612     7.5304    81.8186     0.1339     2.4214     0.0699
  372.0000    17.3843    16.0442   -12.7909     7.5911    79.7455     0.1516     2.4087     0.0429
