~VERSION INFORMATION
 VERS.                2.0:   CWLS LOG ASCII STANDARD - VERSION 2.0
 WRAP.                 NO:   ONE LINE PER DEPTH STEP
~WELL INFORMATION
#MNEM.UNIT      DATA TYPE    INFORMATION
#----------   ------------   ------------------------------
 STRT.F           32.0000:   START DEPTH
 STOP.F          662.0000:   STOP DEPTH
 STEP.F            0.5000:   STEP LENGTH
 NULL.          -999.2500:   NO VALUE
 COMP.    FENIX & SCISSON:   COMPANY
 WELL.   NPR 67SX34 #3-34:   WELL
 FLD .             TEAPOT:   FIELD
 LOC .      S34 T39N R78W:   LOCATION
 CNTY.            NATRONA:   COUNTY
 STAT.            WYOMING:   STATE
 CTRY. UNITED STATES OF AMERICA:   COUNTRY
 SRVC.            Unknown:   SERVICE COMPANY
 DATE.        03-SEP-1978:   LOGDATE
 API .       490251070500:   API NUMBER
~CURVE INFORMATION
#MNEM.UNIT       API CODE    CURVE DESCRIPTION
#----------   ------------   ------------------------------
 DEPT.F                  :   
 ILD .OHMM   05 120 46 00:   INDUCTION LOG DEEP
 SN  .OHMM   05 040 00 00:   SHORT NORMAL
 SPR .MV     05 010 01 00:   SPONTANEOUS POTENTIAL FROM RES.
 CALD.IN     45 280 60 00:   CALIPER FROM DENSITY LOG
 DEN .G/C3   45 350 01 00:   COMPENSATED BULK DENSTIY
 DPHI.DEC    45 890 12 00:   DENSITY POROSITY SANDSTONE
 DRHO.G/C3   45 356 01 00:   DENSITY CORRECTION
 GRD .GAPI   45 310 01 00:   GAMMA RAY FROM DENSITY LOG
~PARAMETER INFORMATION
#MNEM.UNIT          VALUE    DESCRIPTION
#----------   ------------   ------------------------------
 PD  .                 GL:   PERMANENT DATUM
 EPD .F              5076:   ELEVATION PERMANENT DATUM
 LMF .                 KB:   LOG MEASURED FROM
 DAPD.F                 4:   FEET ABOVE PERMANENT DATUM
 DMF .                 KB:   DRILLING MEASURED FROM
 EKB .F              5080:   KELLING BUSHING
 EGL .F              5076:   GROUND LEVEL
 DATE.        03-SEP-1978:   RUN DATE
 RUN .                  1:   RUN NUMBER
 DD  .F               660:   DEPTH DRILLER
 DL  .F               662:   DEPTH LOGGER
 BLI .F               662:   BOTTOM LOG INTERVAL
 TLI .F                40:   TOP LOG INTERVAL
 CS  .IN            8.625:   CASING SIZE
 CBD .F                40:   CASING BOTTOM DRILLER
 BS  .IN            7.875:   BIT SIZE
 BSD .F               660:   BIT SIZE AT DEPTH
 DFT .                KCL:   DRILLING FLUID TYPE
 DFD .                9.0:   DRILLING FLUID DENSITY
 DFV .                 34:   DRILLING FLUID VISCOSITY
 MSS .           FLOWLINE:   MUD SAMPLE SOURCE
 RMS .OHMM            1.4:   RESISTIVITY MUD SAMPLE
 MST .F                65:   MUD SAMPLE TEMPERATURE
 RMF .OHMM            3.2:   RESISTIVITY MUD FILTRATE SAMPLE
 MFST.F                77:   MUD FILTRATE SAMPLE TEMPERATURE
 RMC .OHMM            2.1:   RESISTIVITY MUD CAKE
 MCST.F                78:   MUD CAKE SAMPLE TEMPERATURE
 MFSS.               MEAS:   MUD FILTRATE SAMPLE SOURCE
 TCS .HRS               1:   TIME CURCULATED STOPPED
 LUN .               3006:   LOGGING UNIT NUMBER
 LUL .               CASP:   LOGGING UNIT LOCATION
 ENGI.             MILLER:   RECORDING ENGINEER
 WITN.           MCGINLEY:   WITNESSED BY
 CLNT.            A2DTECH:   CLIENT CODE
 ORIG.        2" 5" PRINT:   ORIGIN OF DATA
 UWI .       490251070500:   UNIQUE WELL ID
 DICO. A2D Technologies, Inc.:   DIGITIZING COMPANY
~OTHER INFORMATION
~A   DEPT      ILD         SN        SPR       CALD        DEN       DPHI       DRHO         GRD  
# ...
  153.5000     7.6001     7.6811   -17.4120     7.6321     2.4602     0.1463     0.0300    80.2507
  154.0000     7.6535     7.6811   -17.4066     7.6328     2.4655     0.1409     0.0375    79.7914
  154.5000     7.6012     7.6811   -17.2520     7.6336     2.4685     0.1238     0.0452    81.7526
  155.0000     7.6545     7.7880   -17.2477     7.6345     2.4805     0.1208     0.0556    84.7989
  155.5000     7.6550     7.8964   -17.2435     7.6352     2.4932     0.1193     0.0616    87.7269
  156.0000     7.7622     8.0063   -17.2251     7.6208     2.5038     0.1157     0.0646    89.5211
  156.5000     7.8166     8.1177   -17.0835     7.6217     2.5061     0.1132     0.0631    90.1230
  157.0000     7.8713     8.1740   -16.7785     7.6224     2.5075     0.1199     0.0631    90.2764
  157.5000     7.9814     8.1177   -16.4735     7.6081     2.5053     0.1139     0.0616    89.3895
  158.0000     8.1494     8.1177   -16.4692     7.5940     2.4985     0.1061     0.0721    88.0540
  158.5000     8.2064     8.1740   -16.3135     7.5948     2.5263     0.0991     0.0937    86.2724
  159.0000     8.0942     8.2306   -16.3092     7.5955     2.5353     0.0916     0.1156    84.0427
  159.5000     8.0390     8.3452   -16.4553     7.6262     2.5533     0.0925     0.1321    82.8563
  160.0000     7.9842     8.4030   -16.4511     7.6419     2.5488     0.0922     0.1246    82.5626
  160.5000     7.9848     8.5200   -16.4457     7.6575     2.5428     0.0982     0.1141    83.7621
  161.0000     7.9302     8.5790   -16.4415     7.6135     2.5390     0.1105     0.1036    85.7053
  161.5000     7.9308     8.6984   -16.4376     7.5842     2.5315     0.1210     0.0826    88.6917
  162.0000     7.8767     8.8194   -16.4329     7.5403     2.5188     0.1339     0.0556    88.8465
  162.5000     7.8773     8.8806   -16.4286     7.5112     2.4918     0.1459     0.0283    89.0015
  163.0000     7.8779     8.9422   -16.4233     7.4152     2.4715     0.1585     0.0135    89.1577
  163.5000     7.9330     8.8806   -16.4191     7.2292     2.4474     0.1630     0.0090    89.3110
  164.0000     7.9886     8.8806   -16.4148     7.1553     2.4347     0.1630     0.0090    86.7848
  164.5000     8.1005     8.8806   -16.4105     7.0814     2.4332     0.1591     0.0090    85.7473
  165.0000     8.1573     8.9422   -16.2548     7.0671     2.4362     0.1552     0.0105    86.0512
  165.5000     8.2714     8.9422   -15.9498     7.0680     2.4399     0.1519     0.0105    89.1867
  166.0000     8.3871     8.9422   -15.7952     7.0836     2.4444     0.1531     0.0105    90.5337
  166.5000     8.4460     9.0042   -15.7909     7.0993     2.4474     0.1534     0.0120    90.0924
  167.0000     8.5148     9.0666   -15.7865     7.1299     2.4474     0.1486     0.0120    89.6512
  167.5000     8.6461     9.0666   -15.7813     7.1457     2.4505     0.1377     0.0150    90.1055
  168.0000     8.7448     9.0666   -15.9274     7.1762     2.4625     0.1329     0.0165    91.3036
  168.5000     8.9288     9.1295   -15.9231     7.1919     2.4805     0.1375     0.0105    91.0113
  169.0000     8.9914     9.2565   -16.0693     7.2225     2.4775     0.1431     0.0060    89.9739
  169.5000     9.1172     9.3356   -16.0875     7.2680     2.4692     0.1362     0.0000    88.9365
  170.0000     9.2108     9.3853   -16.2111     7.3433     2.4730     0.1374    -0.0030    87.6602
  170.5000     9.4393     9.4504   -16.3572     7.4187     2.4760     0.1389    -0.0045    87.3530
  171.0000     9.6378     9.5819   -16.3519     7.4797     2.4760     0.1341    -0.0030    86.6333
  171.5000     9.7053     9.5819   -16.4969     7.5419     2.4722     0.1283    -0.0015    85.7464
  172.0000     9.7059     9.5159   -16.5661     7.6151     2.4824     0.1158     0.0045    79.6433
  172.5000     9.7066     9.4504   -16.6398     7.6755     2.4955     0.1239     0.0180    78.7546
  173.0000     9.7073     9.3207   -16.6345     7.7061     2.5023     0.1317     0.0180    81.7443
  173.5000     9.7080     9.3207   -16.6516     7.6767     2.4940     0.1374     0.0118    84.8812
  174.0000     9.6417     9.3207   -16.7763     7.6625     2.4752     0.1377     0.0060    84.1433
  174.5000     9.5759     9.3207   -16.6911     7.6635     2.4767     0.1380     0.0045    83.4054
  175.0000     9.5107     9.3207   -16.6165     7.6343     2.4745     0.1410     0.0045    83.2636
  175.5000     9.4458     9.2565   -16.6120     7.6201     2.4655     0.1446     0.0045    83.8688
  176.0000     9.3813     9.1928   -16.4564     7.6210     2.4594     0.1485     0.0015    85.5154
  176.5000     9.3785     9.0963   -16.1514     7.6067     2.4565     0.1442     0.0000    86.4168
  177.0000     9.3179     9.0666   -15.9967     7.6076     2.4625     0.1424     0.0000    88.0634
  177.5000     9.3186     9.0666   -16.1429     7.6232     2.4662     0.1430     0.0002    91.4984
  178.0000     9.3192     9.0666   -16.2879     7.6239     2.4670     0.1388     0.0015    92.3980
  178.5000     9.2556     9.0666   -16.1332     7.6352     2.4685     0.1376     0.0030    91.2148
  179.0000     9.1924     9.0042   -16.1290     7.6403     2.4707     0.1400     0.0015    88.9866
  179.5000     9.0668     8.9422   -16.1247     7.6560     2.4724     0.1421    -0.0015    86.8579
  180.0000     9.0049     8.9422   -16.1403     7.6716     2.4677     0.1460    -0.0030    85.8714
  180.5000     8.9436     8.8806   -16.2666     7.6725     2.4639     0.1484    -0.0060    85.8805
  181.0000     8.9443     8.8741   -16.4116     7.6732     2.4608     0.1493    -0.0060    86.1858
  181.5000     8.9374     8.8194   -16.5577     7.6740     2.4557     0.1466    -0.0060    87.3853
  182.0000     8.8225     8.8194   -16.5534     7.6598     2.4535     0.1403    -0.0030    90.5222
  182.5000     8.8232     8.8194   -16.5481     7.6605     2.4625     0.1292     0.0015    91.2728
  183.0000     8.8850     8.8194   -16.6953     7.6463     2.4730     0.1328     0.0075    90.0896
  183.5000     8.8244     8.8194   -16.3892     7.6470     2.4835     0.1331     0.0165    89.5007
  184.0000     8.8251     8.7587   -16.3849     7.6328     2.4850     0.1291     0.0255    87.3555
  184.5000     8.8257     8.8194   -16.5310     7.6336     2.4865     0.1264     0.0345    85.7913
  185.0000     8.8262     8.6984   -16.5257     7.6313     2.4887     0.1270     0.0405    85.2024
  185.5000     8.8268     8.5790   -16.5214     7.6201     2.4880     0.1248     0.0420    85.5077
  186.0000     8.7666     8.5200   -16.6676     7.6210     2.4940     0.1171     0.0420    87.8995
  186.5000     8.5873     8.4030   -16.6632     7.6217     2.5000     0.1207     0.0405    91.0364
  187.0000     8.4698     8.3452   -16.6580     7.6373     2.4992     0.1270     0.0405    93.7262
  187.5000     8.2394     8.3452   -16.6537     7.6231     2.4947     0.1279     0.0390    94.3625
  188.0000     8.1268     8.3452   -16.8009     7.6239     2.4895     0.1249     0.0375    92.8465
  188.5000     8.0713     8.3452   -16.7955     7.6248     2.4902     0.1225     0.0375    91.9596
  189.0000     8.0719     8.3452   -16.7902     7.6104     2.4940     0.1221     0.0375    91.9686
  189.5000     8.1285     8.3452   -16.7859     7.6113     2.4963     0.1258     0.0375    92.2739
  190.0000     8.1291     8.3452   -16.7817     7.5969     2.4946     0.1292     0.0360    92.5793
  190.5000     8.1297     8.2877   -16.7774     7.5978     2.4895     0.1327     0.0375    91.3942
  191.0000     8.0740     8.2306   -16.7721     7.5860     2.4865     0.1372     0.0360    90.6545
  191.5000     8.0191     8.1740   -16.7678     7.5246     2.4760     0.1366     0.0345    91.5578
  192.0000     7.9096     8.1177   -16.7635     7.4657     2.4722     0.1375     0.0345    92.0121
  192.5000     7.8555     8.0063   -16.7593     7.4069     2.4745     0.1423     0.0345    92.3174
  193.0000     8.0208     7.9511   -16.7549     7.3330     2.4670     0.1479     0.0345    93.4178
  193.5000     8.0213     7.8420   -16.7497     7.2591     2.4617     0.1509     0.0360    92.7808
