~VERSION INFORMATION
 VERS.                2.0:   CWLS LOG ASCII STANDARD - VERSION 2.0
 WRAP.                 NO:   ONE LINE PER DEPTH STEP
~WELL INFORMATION
#MNEM.UNIT      DATA TYPE    INFORMATION
#----------   ------------   ------------------------------
 STRT.F            3.0000:   START DEPTH
 STOP.F          587.0000:   STOP DEPTH
 STEP.F            0.5000:   STEP LENGTH
 NULL.          -999.2500:   NO VALUE
 COMP.   FLUOR DANIEL INC:   COMPANY
 WELL. NAVAL PETROLEUM RESERVE 3 STX- #1-3:   WELL
 FLD .          N.P.R. #3:   FIELD
 LOC .       S3 T38N R78W:   LOCATION
 CNTY.            NATRONA:   COUNTY
 STAT.            WYOMING:   STATE
 CTRY. UNITED STATES OF AMERICA:   COUNTRY
 SRVC.      Western Atlas:   SERVICE COMPANY
 DATE.        03-FEB-1995:   LOGDATE
 API .       490252269200:   API NUMBER
~CURVE INFORMATION
#MNEM.UNIT       API CODE    CURVE DESCRIPTION
#----------   ------------   ------------------------------
 DEPT.F                  :   
 GRR .GAPI   07 310 01 00:   GAMMA RAY FROM RES. LOG.
 RILD.OHMM   07 120 46 00:   INDUCTION LOG DEEP RESISTIVITY
 RILM.OHMM   07 120 44 00:   INDUCTION LOG MEDIUM RESISTIVITY
~PARAMETER INFORMATION
#MNEM.UNIT          VALUE    DESCRIPTION
#----------   ------------   ------------------------------
 PD  .                 GL:   PERMANENT DATUM
 EPD .F              5226:   ELEVATION PERMANENT DATUM
 LMF .                 KB:   LOG MEASURED FROM
 DAPD.F                10:   FEET ABOVE PERMANENT DATUM
 DMF .                 KB:   DRILLING MEASURED FROM
 EKB .F              5236:   KELLING BUSHING
 EDF .F              5235:   DRILLING FLOOR
 EGL .F              5226:   GROUND LEVEL
 DATE.         3-FEB-1995:   RUN DATE
 RUN .                  1:   RUN NUMBER
 DD  .F               595:   DEPTH DRILLER
 DL  .F               595:   DEPTH LOGGER
 BLI .F               587:   BOTTOM LOG INTERVAL
 CS  .IN            9.625:   CASING SIZE
 CBD .F                55:   CASING BOTTOM DRILLER
 CBL .F                55:   CASING BOTTOM LOGGER
 BS  .IN             8.75:   BIT SIZE
 BSD .F               595:   BIT SIZE AT DEPTH
 DFT .                AIR:   DRILLING FLUID TYPE
 MRT .F                90:   MAXIMUM RECORDED TEMPERATURE
 LUN .             HL6274:   LOGGING UNIT NUMBER
 LUL .             CASPER:   LOGGING UNIT LOCATION
 ENGI.        VERN RAUTIO:   RECORDING ENGINEER
 WITN.        STEVE HARDY:   WITNESSED BY
 CLNT.            A2DTECH:   CLIENT CODE
 ORIG.           5" PRINT:   ORIGIN OF DATA
 UWI .       490252269200:   UNIQUE WELL ID
 DICO. A2D Technologies, Inc.:   DIGITIZING COMPANY
~OTHER INFORMATION
~A    DEPT      GRR      RILD       RILM   
# ...
  367.0000   128.7874     4.8594     5.1190
  367.5000   125.4434     4.8594     5.4279
  368.0000   122.2419     5.1539     5.8294
  368.5000   123.7766     5.6591     6.2606
  369.0000   126.2916     6.0116     6.7237
  369.5000   127.5816     6.3415     6.8417
  370.0000   126.8212     6.6825     6.9377
  370.5000   125.1193     6.9258     7.1628
  371.0000   124.4057     7.1730     7.4474
  371.5000   123.7403     7.4290     7.7433
  372.0000   122.1014     7.4931     8.1356
  372.5000   119.9035     7.5110     8.1110
  373.0000   118.1030     7.5289     8.0513
  373.5000   120.9178     7.5470     7.9921
  374.0000   123.8488     7.5652     7.9142
  374.5000   126.6440     7.5835     7.9340
  375.0000   124.6576     7.6019     7.9739
  375.5000   121.8525     7.6203     8.0139
  376.0000   122.0672     7.6387     8.0542
  376.5000   123.5249     7.6572     8.0946
  377.0000   122.3165     7.6759     8.1356
  377.5000   119.8370     7.6910     8.0833
  378.0000   120.8061     7.6909     7.9512
  378.5000   123.1539     7.6909     7.8213
  379.0000   125.4102     7.6912     7.6891
  379.5000   124.2032     7.6915     7.6908
  380.0000   122.8241     7.6898     7.7828
  380.5000   121.4462     7.8158     7.9436
  381.0000   118.9070     7.9850     8.1078
  381.5000   114.2950     7.9853     8.2175
  382.0000   110.7894     7.6005     8.1482
  382.5000   108.7492     7.0930     7.8271
  383.0000   111.4075     6.6204     6.9264
  383.5000   114.2914     6.1785     6.1069
  384.0000   117.4354     5.7521     5.3827
  384.5000   126.3956     5.7594     5.0888
  385.0000   135.7735     5.7722     5.2969
  385.5000   142.0280     5.7851     5.6201
  386.0000   136.0502     5.7979     6.1617
  386.5000   126.6771     5.9372     6.7555
  387.0000   117.2303     6.4560     7.4065
  387.5000   114.7992     7.0201     8.1202
  388.0000   114.5569     7.6335     8.9028
  388.5000   112.3247     8.3005     9.6422
  389.0000   110.3968     8.7825     9.7245
  389.5000   110.6516     8.8773     9.8123
  390.0000   111.5909     8.9686     9.6401
  390.5000   114.8540     9.0935     9.3297
  391.0000   118.0617     9.3465     9.1894
  391.5000   117.7934     9.8660     9.8640
  392.0000   116.2402    10.4136    10.4984
  392.5000   108.7320    11.2974    11.5745
  393.0000    98.9057    12.5563    12.9269
  393.5000    89.0782    13.9601    14.7128
  394.0000    83.5879    15.5208    17.0318
  394.5000    79.1096    17.2559    19.7162
  395.0000    75.4819    19.1903    22.8238
  395.5000    71.7746    21.2627    26.7408
  396.0000    69.6150    23.4737    27.9133
  396.5000    68.7717    24.4289    28.5535
  397.0000    68.7667    25.0432    27.3592
  397.5000    67.8908    25.0432    26.1095
  398.0000    66.1988    25.0432    25.5169
  398.5000    64.8717    24.8097    25.7383
  399.0000    66.3454    23.9558    25.9421
  399.5000    67.8615    23.1003    26.0018
  400.0000    69.3703    22.2754    24.3995
  400.5000    70.8784    21.4799    23.0315
  401.0000    72.8170    20.7128    21.7409
  401.5000    75.1927    20.0405    20.5227
  402.0000    77.5772    19.5470    19.3728
  402.5000    79.9290    19.0656    18.3826
  403.0000    79.7931    18.7269    18.0413
  403.5000    79.3316    18.9143    18.0413
  404.0000    79.0686    19.1911    18.3715
  404.5000    78.9898    19.4478    18.6809
  405.0000    77.3347    20.4804    19.0847
  405.5000    75.7313    21.7978    21.0311
  406.0000    73.3651    23.1999    23.0097
  406.5000    70.1501    24.6922    24.8097
  407.0000    66.9329    26.2805    25.9996
  407.5000    63.5866    27.3700    26.7408
  408.0000    62.3521    27.8309    26.2669
  408.5000    63.4381    28.2995    25.5744
  409.0000    68.5807    28.5535    24.8097
  409.5000    73.7710    28.2872    25.0675
  410.0000    77.0461    26.9805    25.2790
  410.5000    79.7592    25.8035    24.9903
  411.0000    82.2241    24.6799    24.8097
  411.5000    82.4385    23.4811    24.8097
  412.0000    80.9196    23.6862    25.4787
  412.5000    78.8674    23.9671    26.2745
  413.0000    76.9629    24.2489    27.0973
  413.5000    77.4157    24.3491    27.7905
  414.0000    78.1718    24.1220    28.0234
  414.5000    78.9252    23.6601    26.6682
  415.0000    79.6888    23.1240    24.3545
  415.5000    79.6195    22.6000    22.2414
  416.0000    79.3163    22.0879    20.3783
  416.5000    82.3068    21.5875    20.0624
  417.0000    85.7482    21.0983    19.7621
  417.5000    89.2271    20.6203    19.4662
  418.0000    91.5148    20.1531    19.1748
  418.5000    88.9797    19.6964    18.8878
  419.0000    86.3854    18.9067    18.6051
  419.5000    85.4771    19.0044    18.5557
  420.0000    86.1292    19.2376    18.7959
  420.5000    86.4689    19.4738    19.0340
  421.0000    85.1194    19.7125    19.2751
  421.5000    84.6938    19.9546    19.5193
  422.0000    84.8923    20.1994    19.8135
  422.5000    85.0281    20.4476    19.8029
  423.0000    82.8406    20.6990    19.7772
  423.5000    80.8056    20.9537    19.7515
  424.0000    80.0324    21.1566    19.7259
  424.5000    79.2272    21.0328    19.7002
  425.0000    78.6442    20.9102    19.6746
  425.5000    79.1807    20.7884    19.6493
  426.0000    79.6894    20.6664    19.6024
  426.5000    80.1772    20.5693    19.4687
  427.0000    80.7486    20.5068    19.3359
  427.5000    84.5687    20.3480    19.2041
  428.0000    85.2221    20.1902    19.0731
  428.5000    86.0167    20.0334    18.9430
  429.0000    87.3246    20.0000    18.8139
  429.5000    88.6399    19.8135    18.6857
  430.0000    88.8812    19.4799    18.5551
  430.5000    88.3437    19.2266    18.6080
  431.0000    86.6392    18.9765    18.6753
  431.5000    85.4495    18.7297    18.7303
  432.0000    87.0955    18.4861    18.7178
  432.5000    89.1050    18.2457    18.6450
  433.0000    90.1979    18.0084    18.5557
  433.5000    89.5525    17.7742    18.7790
  434.0000    88.9560    17.5430    19.0739
  434.5000    88.3723    17.3148    19.2643
  435.0000    88.3679    17.0551    19.3729
  435.5000    88.0097    17.0992    19.4457
  436.0000    86.9810    17.1373    19.5065
  436.5000    86.3366    17.1755    19.6783
  437.0000    87.5289    17.2138    19.8516
  437.5000    88.4243    17.2522    20.0000
  438.0000    86.5792    17.2908    19.5924
  438.5000    85.0872    17.3293    19.3497
  439.0000    86.3894    17.3694    19.1099
  439.5000    88.7114    17.3790    18.7236
  440.0000    89.5708    17.2796    18.7361
  440.5000    90.3484    17.1013    18.7271
  441.0000    88.7203    16.9249    18.7312
  441.5000    87.3632    16.7500    18.6382
  442.0000    88.9488    16.5768    17.9659
  442.5000    90.5512    16.4055    17.3179
  443.0000    91.6539    16.2359    16.7331
  443.5000    91.6326    16.0681    16.7419
  444.0000    91.6368    15.9020    16.7400
  444.5000    91.6445    15.7377    16.7371
  445.0000    91.6118    15.5750    16.7362
  445.5000    90.7200    15.3171    16.5613
  446.0000    87.4140    15.1875    16.0173
  446.5000    84.2200    15.0589    15.4913
  447.0000    83.1971    14.9314    15.1858
  447.5000    84.2059    14.8197    15.0093
  448.0000    85.8231    14.6690    14.8349
  448.5000    88.0306    14.4591    14.6625
  449.0000    90.0347    14.2763    14.5438
  449.5000    90.3913    14.3012    14.7037
  450.0000    89.1155    14.3260    14.7293
  450.5000    87.6116    14.3508    14.7548
  451.0000    87.1521    14.3757    14.7804
  451.5000    87.1309    14.4082    14.8189
  452.0000    86.8669    14.2880    14.6997
  452.5000    85.8144    14.1181    14.4641
  453.0000    84.7877    13.9503    14.2324
  453.5000    84.3367    13.7844    14.0043
  454.0000    85.4033    13.6205    13.7799
  454.5000    87.1019    13.4586    13.4935
  455.0000    89.4843    13.2985    13.6205
  455.5000    91.9228    13.1402    13.8041
  456.0000    90.6928    12.9836    13.9901
  456.5000    89.5786    12.8753    14.2738
  457.0000    89.8102    12.8759    14.1724
  457.5000    90.6494    12.8759    13.9718
