~VERSION INFORMATION
 VERS.                2.0:   CWLS LOG ASCII STANDARD - VERSION 2.0
 WRAP.                 NO:   ONE LINE PER DEPTH STEP
~WELL INFORMATION
#MNEM.UNIT      DATA TYPE    INFORMATION
#----------   ------------   ------------------------------
 STRT.F           80.0000:   START DEPTH
 STOP.F          808.0000:   STOP DEPTH
 STEP.F            0.5000:   STEP LENGTH
 NULL.          -999.2500:   NO VALUE
 COMP.           U S NAVY:   COMPANY
 WELL.     NRP #3 #38-S-2:   WELL
 FLD .             TEAPOT:   FIELD
 LOC .       S2 T38N R78W:   LOCATION
 CNTY.            NATRONA:   COUNTY
 STAT.            WYOMING:   STATE
 CTRY. UNITED STATES OF AMERICA:   COUNTRY
 SRVC.       Schlumberger:   SERVICE COMPANY
 DATE.        18-JUN-1962:   LOGDATE
 API .       490250639100:   API NUMBER
~CURVE INFORMATION
#MNEM.UNIT       API CODE    CURVE DESCRIPTION
#----------   ------------   ------------------------------
 DEPT.F                  :   
 GR  .GAPI   30 310 01 00:   GAMMA RAY
 SPR .MV     05 010 01 00:   SPONTANEOUS POTENTIAL FROM RES.
 ASN .OHMM   05 041 16 00:   AMPLIFIED SHORT NORMAL 16"
 ILD .OHMM   05 120 46 00:   INDUCTION LOG DEEP
 CILD.MMHO   05 110 46 00:   CONDUCTIVITY INDUCTION LOG DEEP
 CALM.IN     15 280 01 00:   CALIPER FROM MICRO LOG
~PARAMETER INFORMATION
#MNEM.UNIT          VALUE    DESCRIPTION
#----------   ------------   ------------------------------
 PD  .                 GL:   PERMANENT DATUM
 EPD .F              5146:   ELEVATION PERMANENT DATUM
 LMF .                 KB:   LOG MEASURED FROM
 DAPD.F                 5:   FEET ABOVE PERMANENT DATUM
 DMF .                 KB:   DRILLING MEASURED FROM
 EKB .F              5151:   KELLING BUSHING
 EGL .F              5146:   GROUND LEVEL
 DATE.          6-18-1962:   RUN DATE
 RUN .                  1:   RUN NUMBER
 DD  .F              1000:   DEPTH DRILLER
 DL  .F               808:   DEPTH LOGGER
 BLI .F               807:   BOTTOM LOG INTERVAL
 TLI .F                80:   TOP LOG INTERVAL
 BS  .IN             8.75:   BIT SIZE
 BSD .F              1000:   BIT SIZE AT DEPTH
 DFT .       OIL EMULSION:   DRILLING FLUID TYPE
 DFD .                8.7:   DRILLING FLUID DENSITY
 DFV .                 58:   DRILLING FLUID VISCOSITY
 DFL .                  4:   DRILLING FLUID LOSS
 RMS .OHMM           3.77:   RESISTIVITY MUD SAMPLE
 MST .F                79:   MUD SAMPLE TEMPERATURE
 RMF .OHMM           2.47:   RESISTIVITY MUD FILTRATE SAMPLE
 MFST.F                79:   MUD FILTRATE SAMPLE TEMPERATURE
 RMC .OHMM           3.29:   RESISTIVITY MUD CAKE
 MCST.F                79:   MUD CAKE SAMPLE TEMPERATURE
 TCS .HRS               1:   TIME CURCULATED STOPPED
 LUN .               2503:   LOGGING UNIT NUMBER
 LUL .               CSPR:   LOGGING UNIT LOCATION
 ENGI.             DANNER:   RECORDING ENGINEER
 WITN.          JORGENSEN:   WITNESSED BY
 CLNT.            A2DTECH:   CLIENT CODE
 ORIG.   1", 2", 5" PRINT:   ORIGIN OF DATA
 UWI .       490250639100:   UNIQUE WELL ID
 DICO. A2D Technologies, Inc.:   DIGITIZING COMPANY
~OTHER INFORMATION
~A   DEPT       GR        SPR          ASN        ILD      CILD      CALM   
# ...
  340.0000  -999.2500   -70.9003     9.2343     7.8733   125.2068  -999.2500
  340.5000  -999.2500   -70.9157     9.2433     7.8575   124.7619  -999.2500
  341.0000  -999.2500   -70.9309     9.2391     7.8019   124.3170  -999.2500
  341.5000  -999.2500   -70.9458     9.2346     7.7487   124.7255  -999.2500
  342.0000  -999.2500   -70.9607     9.2296     7.6955   125.2975  -999.2500
  342.5000  -999.2500   -70.9757     9.2133     7.6423   125.8695  -999.2500
  343.0000  -999.2500   -70.9907     9.1650     7.5890   126.4415  -999.2500
  343.5000  -999.2500   -71.0057     9.1184     7.5358   127.0102  -999.2500
  344.0000  -999.2500   -71.0207     9.0719     7.4840   127.5751  -999.2500
  344.5000  -999.2500   -71.0357     9.0254     7.4157   128.1407  -999.2500
  345.0000  -999.2500   -71.0507     8.9782     7.3462   130.1574  -999.2500
  345.5000  -999.2500   -71.0658     8.9188     7.2762   132.5380  -999.2500
  346.0000  -999.2500   -71.0816     8.8182     7.2063   134.9040  -999.2500
  346.5000  -999.2500   -71.0918     8.7198     7.1365   137.2700  -999.2500
  347.0000  -999.2500   -70.9787     8.6215     7.0666   139.6360  -999.2500
  347.5000  -999.2500   -70.8622     8.5232     6.9967   141.5556  -999.2500
  348.0000  -999.2500   -70.7465     8.4248     6.9268   142.3063  -999.2500
  348.5000  -999.2500   -70.6308     8.3261     6.8568   143.0571  -999.2500
  349.0000  -999.2500   -70.5149     8.2479     6.7859   143.8078  -999.2500
  349.5000  -999.2500   -70.3979     8.1768     6.7821   144.2522  -999.2500
  350.0000  -999.2500   -70.2897     8.1385     6.8328   143.8073  -999.2500
  350.5000  -999.2500   -70.3979     8.2185     6.8829   143.3624  -999.2500
  351.0000  -999.2500   -70.5149     8.2955     6.9328   142.9175  -999.2500
  351.5000  -999.2500   -70.6308     8.3723     6.9827   142.4726  -999.2500
  352.0000  -999.2500   -70.7465     8.4491     7.0326   141.0581  -999.2500
  352.5000  -999.2500   -70.8622     8.5260     7.0825   139.2916  -999.2500
  353.0000  -999.2500   -70.9786     8.6045     7.1324   137.5251  -999.2500
  353.5000  -999.2500   -71.0921     8.6414     7.1823   135.7587  -999.2500
  354.0000  -999.2500   -71.0962     8.6659     7.2322   133.9922  -999.2500
  354.5000  -999.2500   -71.0955     8.6981     7.2821   132.2257  -999.2500
  355.0000  -999.2500   -71.0954     8.7638     7.3321   130.4592  -999.2500
  355.5000  -999.2500   -71.0953     8.8295     7.3822   128.6927  -999.2500
  356.0000  -999.2500   -71.0953     8.8952     7.4316   127.1999  -999.2500
  356.5000  -999.2500   -71.0953     8.9610     7.4700   126.8662  -999.2500
  357.0000  -999.2500   -71.0953     9.0270     7.4462   126.5325  -999.2500
  357.5000  -999.2500   -71.0953     9.0920     7.4239   126.3818  -999.2500
  358.0000  -999.2500   -71.0953     9.1355     7.4018   127.0884  -999.2500
  358.5000  -999.2500   -71.0953     9.0534     7.3796   127.7950  -999.2500
  359.0000  -999.2500   -71.0953     8.9732     7.3574   128.5016  -999.2500
  359.5000  -999.2500   -71.0953     8.8902     7.3352   129.2082  -999.2500
  360.0000  -999.2500   -71.0953     8.8555     7.3130   129.9148  -999.2500
  360.5000  -999.2500   -71.0953     8.8387     7.2908   130.6214  -999.2500
  361.0000  -999.2500   -71.0953     8.8260     7.2743   131.3280  -999.2500
  361.5000  -999.2500   -71.0953     8.8322     7.2924   132.0346  -999.2500
  362.0000  -999.2500   -71.0953     8.8385     7.3106   132.2938  -999.2500
  362.5000  -999.2500   -71.0953     8.8446     7.3287   132.2938  -999.2500
  363.0000  -999.2500   -71.0953     8.8507     7.3470   132.2938  -999.2500
  363.5000  -999.2500   -71.0953     8.8569     7.3642   132.0121  -999.2500
  364.0000  -999.2500   -71.0953     8.8623     7.4560   129.5748  -999.2500
  364.5000  -999.2500   -71.0953     8.9057     7.5916   127.1376  -999.2500
  365.0000  -999.2500   -71.0949     8.9888     7.7276   124.7010  -999.2500
  365.5000  -999.2500   -71.0961     9.2070     7.8638   122.2631  -999.2500
  366.0000  -999.2500   -71.1656     9.4275     7.9999   119.8259  -999.2500
  366.5000  -999.2500   -71.2424     9.6475     8.1360   117.3887  -999.2500
  367.0000  -999.2500   -71.3190     9.8674     8.2721   114.9514  -999.2500
  367.5000  -999.2500   -71.3956    10.0703     8.4082   112.5142  -999.2500
  368.0000  -999.2500   -71.4722    10.1289     8.5443   110.0770  -999.2500
  368.5000  -999.2500   -71.5487    10.2253     8.6804   107.6397  -999.2500
  369.0000  -999.2500   -71.6253    10.3533     8.8165   105.2025  -999.2500
  369.5000  -999.2500   -71.7019    10.4820     8.9525   104.1247  -999.2500
  370.0000  -999.2500   -71.7784    10.6112     9.0886   102.8043  -999.2500
  370.5000  -999.2500   -71.8550    10.7401     9.2247   101.5531  -999.2500
  371.0000  -999.2500   -71.9315    10.8682     9.3608   100.3018  -999.2500
  371.5000  -999.2500   -72.0081    10.9992     9.4969    99.0506  -999.2500
  372.0000  -999.2500   -72.0846    11.2409     9.6330    97.7993  -999.2500
  372.5000  -999.2500   -72.1612    11.4818     9.7691    96.5480  -999.2500
  373.0000  -999.2500   -72.2378    11.7221     9.9052    95.2968  -999.2500
  373.5000  -999.2500   -72.3144    11.9631    10.0414    94.0455  -999.2500
  374.0000  -999.2500   -72.3909    12.1933    10.1772    92.7943  -999.2500
  374.5000  -999.2500   -72.4672    12.2005    10.3130    91.5430  -999.2500
  375.0000  -999.2500   -72.5159    12.1992    10.3811    90.2917  -999.2500
  375.5000  -999.2500   -72.5152    12.1987    10.3792    89.0342  -999.2500
  376.0000  -999.2500   -72.5152    12.1985    10.3087    90.2600  -999.2500
  376.5000  -999.2500   -72.5152    12.1615    10.2346    91.4920  -999.2500
  377.0000  -999.2500   -72.5152    12.0855    10.1609    92.7240  -999.2500
  377.5000  -999.2500   -72.5152    12.0096    10.0874    93.9560  -999.2500
  378.0000  -999.2500   -72.5152    11.9334    10.0138    95.1880  -999.2500
  378.5000  -999.2500   -72.5152    11.8572     9.9403    96.4201  -999.2500
  379.0000  -999.2500   -72.5152    11.7811     9.8666    97.1463  -999.2500
  379.5000  -999.2500   -72.5152    11.7050     9.7934    97.2844  -999.2500
  380.0000  -999.2500   -72.5151    11.6289     9.7204    97.4225  -999.2500
  380.5000  -999.2500   -72.5150    11.5527     9.6846    97.5605  -999.2500
  381.0000  -999.2500   -72.5156    11.4758     9.6962    97.6986  -999.2500
  381.5000  -999.2500   -72.5328    11.3986     9.7077    97.8367  -999.2500
  382.0000  -999.2500   -72.5930    11.4104     9.7195    97.9747  -999.2500
  382.5000  -999.2500   -72.6507    11.4276     9.7312    98.1128  -999.2500
  383.0000  -999.2500   -72.7085    11.4445     9.7430    98.2509  -999.2500
  383.5000  -999.2500   -72.7663    11.4612     9.7548    98.3889  -999.2500
  384.0000  -999.2500   -72.8241    11.4784     9.7671    98.5270  -999.2500
  384.5000  -999.2500   -72.8819    11.4945     9.7781    98.6647  -999.2500
  385.0000  -999.2500   -72.9398    11.3992     9.6783    98.8026  -999.2500
  385.5000  -999.2500   -72.9976    11.2913     9.5658    98.9406  -999.2500
  386.0000  -999.2500   -73.0554    11.1835     9.4533    99.0793  -999.2500
  386.5000  -999.2500   -73.1139    11.0760     9.3410   100.4107  -999.2500
  387.0000  -999.2500   -73.1284    10.9690     9.2287   101.8905  -999.2500
  387.5000  -999.2500   -72.9916    10.8598     9.1164   103.3702  -999.2500
  388.0000  -999.2500   -72.8307    10.7635     9.0040   104.8500  -999.2500
  388.5000  -999.2500   -72.6683    10.6557     8.8918   106.3297  -999.2500
  389.0000  -999.2500   -72.5063    10.5559     8.8217   107.8095  -999.2500
  389.5000  -999.2500   -72.3441    10.4563     8.7581   109.2892  -999.2500
  390.0000  -999.2500   -72.1819    10.3561     8.6947   110.7690  -999.2500
  390.5000  -999.2500   -72.0217    10.2571     8.6312   112.2493  -999.2500
  391.0000  -999.2500   -71.9286    10.1904     8.5677   113.7298  -999.2500
  391.5000  -999.2500   -72.0277    10.1237     8.5042   115.2107  -999.2500
