~VERSION INFORMATION
 VERS.                2.0:   CWLS LOG ASCII STANDARD - VERSION 2.0
 WRAP.                 NO:   ONE LINE PER DEPTH STEP
~WELL INFORMATION
#MNEM.UNIT      DATA TYPE    INFORMATION
#----------   ------------   ------------------------------
 STRT.F           16.0000:   START DEPTH
 STOP.F         1334.0000:   STOP DEPTH
 STEP.F            0.5000:   STEP LENGTH
 NULL.          -999.2500:   NO VALUE
 COMP. U S NAVY/INTEX OIL CO:   COMPANY
 WELL.  S-11 NPR 3 #87-11:   WELL
 FLD .             TEAPOT:   FIELD
 LOC .      S11 T38N R78W:   LOCATION
 CNTY.            NATRONA:   COUNTY
 STAT.            WYOMING:   STATE
 CTRY. UNITED STATES OF AMERICA:   COUNTRY
 SRVC.       Schlumberger:   SERVICE COMPANY
 DATE.        17-JUN-1966:   LOGDATE
 API .       490250958900:   API NUMBER
~CURVE INFORMATION
#MNEM.UNIT       API CODE    CURVE DESCRIPTION
#----------   ------------   ------------------------------
 DEPT.F                  :   
 GRD .GAPI   45 310 01 00:   GAMMA RAY FROM DENSITY LOG
 CALD.IN     45 280 60 00:   CALIPER
 RHOB.G/C3   45 350 01 00:   BULK DENSITY
 DPOR.DEC    45 890 12 00:   DENSITY POROSITY SANDSTONE
 DRHO.G/C3   45 356 01 00:   DENSITY CORRECTION
 ASN .OHMM   05 041 16 00:   AMPLIFIED SHORT NORMAL 16"
 ILD .OHMM   05 120 46 00:   INDUCTION LOG DEEP
 CILD.MMHO   05 110 46 00:   CONDUCTIVITY INDUCTION LOG DEEP
 SPR .MV     05 010 01 00:   SPONTANEOUS POTENTIAL FROM RES.
~PARAMETER INFORMATION
#MNEM.UNIT          VALUE    DESCRIPTION
#----------   ------------   ------------------------------
 PD  .                 GL:   PERMANENT DATUM
 EPD .F              5284:   ELEVATION PERMANENT DATUM
 LMF .                 KB:   LOG MEASURED FROM
 DAPD.F                 5:   FEET ABOVE PERMANENT DATUM
 DMF .                 KB:   DRILLING MEASURED FROM
 EKB .F              5289:   KELLING BUSHING
 EGL .F              5284:   GROUND LEVEL
 DATE.          8-17-1966:   RUN DATE
 RUN .                  1:   RUN NUMBER
 DD  .F              1335:   DEPTH DRILLER
 DL  .F              1335:   DEPTH LOGGER
 BLI .F              1334:   BOTTOM LOG INTERVAL
 TLI .F                50:   TOP LOG INTERVAL
 CS  .IN            8.625:   CASING SIZE
 CBD .F                10:   CASING BOTTOM DRILLER
 BS  .IN            7.875:   BIT SIZE
 BSD .F              1335:   BIT SIZE AT DEPTH
 DFT .           GEL-CHEM:   DRILLING FLUID TYPE
 DFD .                9.3:   DRILLING FLUID DENSITY
 DFV .                 50:   DRILLING FLUID VISCOSITY
 MSS .          FLOW LINE:   MUD SAMPLE SOURCE
 RMS .OHMM           1.38:   RESISTIVITY MUD SAMPLE
 MST .F                80:   MUD SAMPLE TEMPERATURE
 RMF .OHMM           1.09:   RESISTIVITY MUD FILTRATE SAMPLE
 MFST.F                77:   MUD FILTRATE SAMPLE TEMPERATURE
 MFSS.                  M:   MUD FILTRATE SAMPLE SOURCE
 RMB .OHMM           1.70:   RESISTIVITY MUD AT BHT
 BHT .F               108:   BOTTOM HOLE TEMPERATURE
 TCS .HRS               1:   TIME CURCULATED STOPPED
 MRT .F               108:   MAXIMUM RECORDED TEMPERATURE
 LUN .               4507:   LOGGING UNIT NUMBER
 LUL .               CSPR:   LOGGING UNIT LOCATION
 ENGI.            MANGOLD:   RECORDING ENGINEER
 WITN.                MAY:   WITNESSED BY
 CLNT.            A2DTECH:   CLIENT CODE
 ORIG.       2", 5" PRINT:   ORIGIN OF DATA
 UWI .       490250958900:   UNIQUE WELL ID
 DICO. A2D Technologies, Inc.:   DIGITIZING COMPANY
~OTHER INFORMATION
~A   DEPT       GRD      CALD       RHOB       DPOR       DRHO        ASN        ILD       CILD        SPR   
# ...
  855.5000   108.4621     8.4641     2.5223     0.0786     0.0332     7.5111     6.6811   156.8165   -39.7833
  856.0000   106.6817     8.4081     2.5167     0.0830     0.0243     7.5587     6.7135   156.2820   -39.6860
  856.5000   107.2822     8.2816     2.5471     0.0623     0.0279     7.5826     6.7459   155.7474   -39.5890
  857.0000   108.5446     8.1583     2.5528     0.0599     0.0454     7.4964     6.7782   155.2129   -39.4918
  857.5000   109.8877     8.1818     2.5547     0.0584     0.0553     7.4102     6.8106   154.6784   -39.3943
  858.0000   107.7938     8.4069     2.5440     0.0646     0.0475     7.4628     6.8430   154.1439   -39.3103
  858.5000   107.2489     8.4853     2.5429     0.0669     0.0400     7.5413     6.8754   153.6094   -39.3635
  859.0000   107.2758     8.4904     2.5631     0.0532     0.0327     7.6159     6.9078   153.0749   -39.4171
  859.5000   106.0151     8.4938     2.5555     0.0566     0.0322     7.6357     6.9402   152.5404   -39.4699
  860.0000   109.7046     8.4972     2.5591     0.0622     0.0466     7.6521     6.9725   152.0058   -39.5227
  860.5000   109.3218     8.5008     2.5506     0.0655     0.0448     7.7260     7.0049   151.4724   -39.5756
  861.0000   106.9809     8.5043     2.5560     0.0584     0.0405     7.8070     7.0373   150.9368   -39.6279
  861.5000   104.0068     8.5079     2.5522     0.0648     0.0364     7.8884     7.0697   150.4469   -39.6820
  862.0000   106.1503     8.5114     2.5531     0.0519     0.0422     7.9696     7.1021   148.7871   -39.5529
  862.5000   109.4910     8.5150     2.5592     0.0596     0.0553     8.0331     7.1345   147.2549   -39.3210
  863.0000   112.8608     8.5188     2.5646     0.0533     0.0428     8.0882     7.1669   145.7228   -39.5268
  863.5000   115.6578     8.5221     2.5622     0.0539     0.0456     8.1437     7.1992   144.1907   -39.7517
  864.0000   115.6378     8.5078     2.5572     0.0574     0.0564     8.2093     7.2316   142.6585   -39.9751
  864.5000   114.0275     8.4068     2.5522     0.0609     0.0514     8.3330     7.2640   141.1264   -40.1976
  865.0000   112.6209     8.3089     2.5473     0.0637     0.0445     8.4590     7.2964   139.5943   -40.4220
  865.5000   117.2763     8.2937     2.5548     0.0579     0.0378     8.5853     7.3288   138.0621   -40.4531
  866.0000   121.4481     8.4292     2.5718     0.0513     0.0378     8.6337     7.3612   136.5300   -40.3655
  866.5000   118.9781     8.5598     2.5637     0.0473     0.0483     8.6791     7.3935   135.5511   -40.2772
  867.0000   116.4723     8.5651     2.5636     0.0532     0.0539     8.7374     7.4259   135.5511   -40.1886
  867.5000   115.6648     8.5637     2.5735     0.0462     0.0521     8.7887     7.4581   135.5511   -40.1002
  868.0000   118.2263     8.5629     2.5665     0.0503     0.0506     8.7440     7.4892   135.5511   -40.0116
  868.5000   118.1386     8.5622     2.5549     0.0572     0.0580     8.6967     7.5879   135.2372   -39.9205
  869.0000   116.0903     8.5615     2.5549     0.0599     0.0404     8.6931     7.7021   133.6227   -39.9008
  869.5000   114.0078     8.5608     2.5714     0.0485     0.0329     8.8210     7.8166   132.0082   -39.8851
  870.0000   113.4614     8.5601     2.5718     0.0546     0.0339     8.9811     7.9310   130.3937   -39.8688
  870.5000   112.9995     8.5595     2.5572     0.0634     0.0343     9.1450     8.0455   128.7792   -39.8524
  871.0000   112.5252     8.5588     2.5471     0.0618     0.0275     9.3089     8.1599   127.1647   -39.8360
  871.5000   112.0561     8.5581     2.5420     0.0661     0.0339     9.4735     8.2726   125.6207   -39.8196
  872.0000   109.6411     8.5574     2.5709     0.0538     0.0402     9.6356     8.3877   122.9045   -39.8032
  872.5000   105.4518     8.5568     2.5621     0.0503     0.0461     9.7977     8.5010   120.3019   -39.7867
  873.0000   104.2410     8.5561     2.5473     0.0620     0.0396     9.9621     8.6144   117.6977   -39.7703
  873.5000   105.0587     8.5554     2.5427     0.0665     0.0324    10.0395     8.7277   115.0993   -39.7539
  874.0000   103.3975     8.5547     2.5483     0.0672     0.0253    10.0787     8.8410   112.6986   -39.7374
  874.5000   102.3276     8.5540     2.5396     0.0709     0.0250    10.1831     8.9543   111.3555   -39.7204
  875.0000   106.2796     8.5534     2.5310     0.0760     0.0242    10.3293     9.0677   110.1043   -39.7043
  875.5000   109.4745     8.5527     2.5220     0.0779     0.0151    10.4778     9.1810   108.8530   -39.7928
  876.0000   110.8932     8.5520     2.5333     0.0626     0.0119    10.6263     9.2944   107.6018   -39.8933
  876.5000   107.8868     8.5513     2.5521     0.0513     0.0301    10.7729     9.4067   107.1025   -39.9944
  877.0000   105.7240     8.5506     2.5598     0.0614     0.0259    10.8832     9.5011   108.1905   -40.0948
  877.5000   105.6547     8.5500     2.5358     0.0716     0.0212    10.9053     9.5488   109.2785   -40.0998
  878.0000   105.7325     8.5493     2.5160     0.0817     0.0167    10.9300     9.5332   110.3666   -40.0993
  878.5000   103.8865     8.5486     2.5038     0.0879     0.0156    10.9557     9.3808   111.4546   -40.0990
  879.0000    99.7234     8.5479     2.5231     0.0764     0.0146    10.9636     9.2308   112.5426   -40.0881
  879.5000   101.1615     8.5472     2.5393     0.0668     0.0226    10.5463     9.0815   113.6307   -40.0244
  880.0000   103.5443     8.5466     2.5556     0.0572     0.0372    10.1588     8.9685   114.7187   -39.9617
  880.5000   105.9678     8.5459     2.5601     0.0589     0.0518    10.0990     8.9226   115.8067   -39.8990
  881.0000   108.2119     8.5452     2.5527     0.0619     0.0639    10.0333     8.8755   116.7168   -39.8364
  881.5000   107.3463     8.5445     2.5454     0.0649     0.0571     9.9666     8.8286   116.8894   -39.7738
  882.0000   108.1787     8.5439     2.5547     0.0584     0.0489     9.8996     8.7817   117.0620   -39.7111
  882.5000   109.2058     8.5432     2.5686     0.0457     0.0542     9.8341     8.7348   117.2345   -39.6485
  883.0000   108.4880     8.5425     2.5767     0.0515     0.0666     9.7835     8.6879   117.4071   -39.5859
  883.5000   107.4075     8.5418     2.5559     0.0613     0.0538     9.8882     8.6410   117.5797   -39.5233
  884.0000   108.1095     8.5411     2.5397     0.0696     0.0408     9.8500     8.5940   118.2274   -39.4606
  884.5000   111.3855     8.5405     2.5465     0.0668     0.0355     9.8090     8.5471   119.4787   -39.3980
  885.0000   114.4033     8.5398     2.5410     0.0702     0.0327     9.7908     8.5002   120.7299   -39.3355
  885.5000   113.4621     8.5391     2.5334     0.0704     0.0300     9.9764     8.4533   121.9807   -39.3348
  886.0000   113.4015     8.5384     2.5449     0.0633     0.0273     9.9754     8.4056   122.8739   -39.4164
  886.5000   114.1295     8.5378     2.5537     0.0562     0.0245     9.9207     8.4033   123.3552   -39.4976
  887.0000   112.0305     8.5371     2.5675     0.0491     0.0314     9.8271     8.4201   123.8393   -39.5789
  887.5000   109.8087     8.5364     2.5834     0.0399     0.0435     9.7416     8.4375   124.3238   -39.6602
  888.0000   107.7561     8.5357     2.5682     0.0453     0.0596     9.6341     8.4548   124.8088   -39.7416
  888.5000   109.4406     8.5350     2.5512     0.0560     0.0508     9.5965     8.4720   125.2920   -39.8235
  889.0000   111.2702     8.5344     2.5534     0.0614     0.0358     9.5668     8.4893   125.1973   -39.8967
  889.5000   111.7224     8.5337     2.5560     0.0550     0.0355     9.6065     8.5065   123.8802   -39.8320
  890.0000   109.7042     8.5330     2.5548     0.0598     0.0426     9.6456     8.5238   122.5596   -39.7636
  890.5000   106.4752     8.5323     2.5521     0.0606     0.0501     9.6850     8.5411   121.2522   -39.6959
  891.0000   103.7660     8.5316     2.5514     0.0610     0.0413     9.6714     8.5587   120.8547   -39.6284
  891.5000   107.3222     8.5310     2.5527     0.0613     0.0285     9.6171     8.5758   121.2469   -39.5608
