~VERSION INFORMATION
 VERS.                2.0:   CWLS LOG ASCII STANDARD - VERSION 2.0
 WRAP.                 NO:   ONE LINE PER DEPTH STEP
~WELL INFORMATION
#MNEM.UNIT      DATA TYPE    INFORMATION
#----------   ------------   ------------------------------
 STRT.F           80.0000:   START DEPTH
 STOP.F          718.0000:   STOP DEPTH
 STEP.F            0.5000:   STEP LENGTH
 NULL.          -999.2500:   NO VALUE
 COMP. U S NAVY-INTEX OIL:   COMPANY
 WELL. RES 3 TEAPOT DOM #11SX-2:   WELL
 FLD .             TEAPOT:   FIELD
 LOC .       S2 T38N R78W:   LOCATION
 CNTY.            NATRONA:   COUNTY
 STAT.            WYOMING:   STATE
 CTRY. UNITED STATES OF AMERICA:   COUNTRY
 SRVC.       Schlumberger:   SERVICE COMPANY
 DATE.        05-AUG-1961:   LOGDATE
 API .       490250647900:   API NUMBER
~CURVE INFORMATION
#MNEM.UNIT       API CODE    CURVE DESCRIPTION
#----------   ------------   ------------------------------
 DEPT.F                  :   
 ILD .OHMM   05 120 46 00:   INDUCTION LOG DEEP
 ASN .OHMM   05 041 16 00:   AMPLIFIED SHORT NORMAL 16"
 SPR .MV     05 010 01 00:   SPONTANEOUS POTENTIAL FROM RES.
 CILD.MMHO   05 110 46 00:   CONDUCTIVITY INDUCTION LOG DEEP
 GR  .GAPI   30 310 01 00:   GAMMA RAY
~PARAMETER INFORMATION
#MNEM.UNIT          VALUE    DESCRIPTION
#----------   ------------   ------------------------------
 LMF .                 KB:   LOG MEASURED FROM
 DMF .                 KB:   DRILLING MEASURED FROM
 EKB .F              5105:   KELLING BUSHING
 EGL .F              5100:   GROUND LEVEL
 DATE.           8-5-1961:   RUN DATE
 RUN .                  1:   RUN NUMBER
 DD  .F               715:   DEPTH DRILLER
 DL  .F               719:   DEPTH LOGGER
 BLI .F               718:   BOTTOM LOG INTERVAL
 TLI .F               120:   TOP LOG INTERVAL
 BS  .IN             6.75:   BIT SIZE
 BSD .F               715:   BIT SIZE AT DEPTH
 DFT .       OIL EMULSION:   DRILLING FLUID TYPE
 DFV .                 40:   DRILLING FLUID VISCOSITY
 RMS .OHMM           1.11:   RESISTIVITY MUD SAMPLE
 MST .F                68:   MUD SAMPLE TEMPERATURE
 TCS .HRS               2:   TIME CURCULATED STOPPED
 LUN .               2544:   LOGGING UNIT NUMBER
 LUL .                 NC:   LOGGING UNIT LOCATION
 ENGI.            EARNEST:   RECORDING ENGINEER
 WITN.          JORGENSEN:   WITNESSED BY
 CLNT.            A2DTECH:   CLIENT CODE
 ORIG.      2" & 5" PRINT:   ORIGIN OF DATA
 UWI .       490250647900:   UNIQUE WELL ID
 DICO. A2D Technologies, Inc.:   DIGITIZING COMPANY
~OTHER INFORMATION
~A   DEPT        ILD        ASN      SPR        CILD        GR   
# ...
  263.0000     9.3926     9.3259   -52.6598   126.5037  -999.2500
  263.5000     9.3951     9.3710   -52.6637   126.5515  -999.2500
  264.0000     9.3935     9.4126   -52.4665   126.2194  -999.2500
  264.5000     9.3934     9.3763   -52.3217   125.8872  -999.2500
  265.0000     9.3603     9.3127   -52.0831   125.9534  -999.2500
  265.5000     9.3039     9.2595   -51.8400   126.3157  -999.2500
  266.0000     9.2472     9.3317   -51.5957   126.6790  -999.2500
  266.5000     9.1902     9.3354   -51.3516   127.0383  -999.2500
  267.0000     9.1332     9.2404   -51.1075   127.3920  -999.2500
  267.5000     9.0751     9.0534   -50.8634   127.7177  -999.2500
  268.0000     9.0181     8.8652   -50.6204   125.0248  -999.2500
  268.5000     8.8965     8.6743   -50.3749   122.5335  -999.2500
  269.0000     8.9961     8.5995   -50.3583   120.0423  -999.2500
  269.5000     9.1616     8.5988   -50.4890   117.7932  -999.2500
  270.0000     9.3282     8.6470   -50.6213   116.6157  -999.2500
  270.5000     9.3932     8.7267   -50.7547   115.5425  -999.2500
  271.0000     9.3925     8.7449   -50.8879   114.4693  -999.2500
  271.5000     9.5064     8.7255   -51.0212   113.3962  -999.2500
  272.0000     9.6258     8.7051   -51.1543   112.3230  -999.2500
  272.5000     9.7462     8.7285   -51.2714   111.2498  -999.2500
  273.0000     9.7911     8.7781   -51.2739   111.3241  -999.2500
  273.5000     9.7677     8.8279   -51.1733   112.1213  -999.2500
  274.0000     9.5357     8.8777   -51.0142   113.3002  -999.2500
  274.5000     9.2815     8.9275   -50.8496   117.2558  -999.2500
  275.0000     9.0276     8.9782   -50.6501   120.9928  -999.2500
  275.5000     8.7735     8.9714   -50.4503   124.7298  -999.2500
  276.0000     8.5200     8.9368   -50.2507   128.4667  -999.2500
  276.5000     8.2997     8.9018   -50.0510   131.5536  -999.2500
  277.0000     8.3384     8.8670   -49.8513   130.3726  -999.2500
  277.5000     8.4002     8.8496   -49.6513   129.1915  -999.2500
  278.0000     8.4616     8.9417   -49.4520   128.0105  -999.2500
  278.5000     8.5230     9.0346   -49.2808   126.8294  -999.2500
  279.0000     8.5843     9.1271   -49.2771   125.6483  -999.2500
  279.5000     8.6457     9.2196   -49.4711   124.4673  -999.2500
  280.0000     8.7070     9.3120   -49.7625   123.2862  -999.2500
  280.5000     8.7683     9.4045   -50.0553   122.1051  -999.2500
  281.0000     8.8296     9.4970   -50.3483   120.9241  -999.2500
  281.5000     8.8910     9.5895   -50.6414   119.7430  -999.2500
  282.0000     8.9522     9.6820   -50.9353   118.5620  -999.2500
  282.5000     9.0135     9.7743   -51.2256   117.3809  -999.2500
  283.0000     9.0767     9.8667   -51.4723   116.1998  -999.2500
  283.5000     9.1217     9.9625   -51.4137   115.8052  -999.2500
  284.0000     9.1620     9.9881   -51.3629   115.8052  -999.2500
  284.5000     9.2017    10.0136   -51.3134   115.8052  -999.2500
  285.0000     9.2415    10.0282   -51.2634   115.8052  -999.2500
  285.5000     9.2815    10.0423   -51.2135   115.8052  -999.2500
  286.0000     9.3221    10.0565   -51.1633   115.8052  -999.2500
  286.5000     9.3610    10.0708   -51.1137   115.8052  -999.2500
  287.0000     9.3513    10.0830   -51.0717   115.8052  -999.2500
  287.5000     9.3768    10.1919   -51.0896   115.5131  -999.2500
  288.0000     9.4910    10.3464   -51.1844   113.9164  -999.2500
  288.5000     9.6088    10.4130   -51.2784   112.3196  -999.2500
  289.0000     9.7263    10.5614   -51.3724   110.7229  -999.2500
  289.5000     9.8436    10.7071   -51.4663   109.1292  -999.2500
  290.0000     9.9608    10.8525   -51.5603   107.4332  -999.2500
  290.5000    10.0779    10.9982   -51.6541   105.3294  -999.2500
  291.0000    10.1953    11.1439   -51.7483   103.2256  -999.2500
  291.5000    10.3331    11.2895   -51.8465   101.1219  -999.2500
  292.0000    10.5486    11.4352   -51.8693    99.0181  -999.2500
  292.5000    10.7647    11.5808   -51.7771    96.9144  -999.2500
  293.0000    10.9809    11.7264   -51.5896    94.8106  -999.2500
  293.5000    11.1974    11.8723   -51.2708    92.7068  -999.2500
  294.0000    11.4116    12.0185   -51.0658    90.6031  -999.2500
  294.5000    11.5760    12.1626   -50.8673    88.9662  -999.2500
  295.0000    11.5223    12.2559   -50.5835    88.9662  -999.2500
  295.5000    11.4740    12.1353   -50.2973    89.1385  -999.2500
  296.0000    11.4264    12.0195   -50.0118    89.8980  -999.2500
  296.5000    11.3785    11.9044   -49.7272    90.6575  -999.2500
  297.0000    11.3307    11.7889   -49.4415    91.4170  -999.2500
  297.5000    11.2828    11.6735   -49.1435    92.1765  -999.2500
  298.0000    11.2350    11.5581   -49.3055    92.9360  -999.2500
  298.5000    11.1871    11.4427   -49.6015    93.6954  -999.2500
  299.0000    11.1394    11.3270   -49.9026    94.4548  -999.2500
  299.5000    11.0913    11.2098   -50.2026    95.2135  -999.2500
  300.0000    11.0437    11.2046   -50.5031    95.9694  -999.2500
  300.5000    11.0006    11.2990   -50.8122    96.7216  -999.2500
  301.0000    10.7857    11.3926   -50.7469    97.9258  -999.2500
  301.5000    10.5259    11.4858   -50.5852    99.9602  -999.2500
  302.0000    10.2641    11.5791   -50.4198   103.9563  -999.2500
  302.5000    10.0023    11.6722   -50.2548   107.9523  -999.2500
  303.0000     9.7401    11.7658   -50.0903   111.9483  -999.2500
  303.5000     9.4821    11.8631   -49.9257   114.9245  -999.2500
  304.0000     9.3449    11.7884   -49.7612   115.3241  -999.2500
  304.5000     9.4238    11.6754   -49.5966   115.7237  -999.2500
  305.0000     9.5441    11.5608   -49.4320   114.2147  -999.2500
  305.5000     9.6590    11.4464   -49.2669   112.2167  -999.2500
  306.0000     9.7746    11.3323   -49.1036   110.2187  -999.2500
  306.5000     9.8903    11.2178   -49.1186   108.2207  -999.2500
  307.0000    10.0060    11.1013   -49.2200   106.2227  -999.2500
  307.5000    10.1217    11.1309   -49.3207   103.8657  -999.2500
  308.0000    10.2372    11.1876   -49.4213   100.7577  -999.2500
  308.5000    10.3535    11.2429   -49.5219    97.6497  -999.2500
  309.0000    10.4736    11.2305   -49.6227    94.5416  -999.2500
  309.5000    10.3666    11.0479   -49.7231    91.4336  -999.2500
  310.0000    10.2253    10.8731   -49.8223    93.4891  -999.2500
  310.5000    10.0819    10.7002   -49.8766    96.4861  -999.2500
  311.0000     9.9389    10.5908   -49.7258    99.4831  -999.2500
  311.5000     9.7962    10.4815   -49.3991   102.4801  -999.2500
  312.0000     9.6535    10.4052   -49.0729   105.4771  -999.2500
  312.5000     9.5108    10.3265   -48.7460   108.4742  -999.2500
  313.0000     9.3681    10.2489   -48.4189   111.4712  -999.2500
  313.5000     9.2254    10.1719   -48.0920   114.4682  -999.2500
  314.0000     9.0827    10.0951   -47.7659   117.4657  -999.2500
  314.5000     8.9399    10.0147   -47.4385   120.4622  -999.2500
  315.0000     8.7970     9.8993   -47.2911   123.4592  -999.2500
  315.5000     8.6523     9.6777   -47.2896   126.7396  -999.2500
  316.0000     8.5063     9.4691   -47.2870   126.7396  -999.2500
  316.5000     8.6295     9.2589   -47.3014   126.7396  -999.2500
  317.0000     8.7762     9.0432   -47.5969   124.9105  -999.2500
  317.5000     8.9222     9.0364   -47.8869   122.9125  -999.2500
  318.0000     9.0668     9.2319   -48.1745   120.9145  -999.2500
  318.5000     9.2103     9.4460   -48.4619   118.9269  -999.2500
  319.0000     9.2163     9.6587   -48.7498   116.8136  -999.2500
  319.5000     9.0383     9.8706   -49.0370   119.7607  -999.2500
  320.0000     8.8613    10.0190   -49.2817   122.8839  -999.2500
  320.5000     8.6822    10.0859   -49.2509   126.0310  -999.2500
  321.0000     8.5042    10.1527   -49.0486   126.8191  -999.2500
  321.5000     8.4997    10.1760   -48.8470   124.8211  -999.2500
  322.0000     8.6026    10.1992   -48.6458   122.8231  -999.2500
  322.5000     8.7115    10.2064   -48.4447   120.8331  -999.2500
  323.0000     8.8199    10.2136   -48.2434   119.6693  -999.2500
  323.5000     8.9281    10.2207   -48.0416   119.4156  -999.2500
