~VERSION INFORMATION
 VERS.                2.0:   CWLS LOG ASCII STANDARD - VERSION 2.0
 WRAP.                 NO:   ONE LINE PER DEPTH STEP
~WELL INFORMATION
#MNEM.UNIT      DATA TYPE    INFORMATION
#----------   ------------   ------------------------------
 STRT.F           46.0000:   START DEPTH
 STOP.F         2100.0000:   STOP DEPTH
 STEP.F            0.5000:   STEP LENGTH
 NULL.          -999.2500:   NO VALUE
 COMP. LAWRENCE/ALLISON INC:   COMPANY
 WELL.    58-21 SX #10-10:   WELL
 FLD .             TEAPOT:   FIELD
 LOC .      S10 T38N R78W:   LOCATION
 CNTY.            NATRONA:   COUNTY
 STAT.            WYOMING:   STATE
 CTRY. UNITED STATES OF AMERICA:   COUNTRY
 SRVC.           Gearhart:   SERVICE COMPANY
 DATE.        06-JUL-1987:   LOGDATE
 API .       490251114400:   API NUMBER
~CURVE INFORMATION
#MNEM.UNIT       API CODE    CURVE DESCRIPTION
#----------   ------------   ------------------------------
 DEPT.F                  :   
 GR  .GAPI   81 310 01 00:   GAMMA RAY
 TGAS.UNITS  91 830 01 00:   TOTAL GAS FROM HOTWIRE
 ROP .MIN/FT 91 810 01 00:   RAT OF DRILLING PENETRATION
~PARAMETER INFORMATION
#MNEM.UNIT          VALUE    DESCRIPTION
#----------   ------------   ------------------------------
 PD  .                 GL:   PERMANENT DATUM
 EPD .F              5219:   ELEVATION PERMANENT DATUM
 LMF .                 KB:   LOG MEASURED FROM
 DAPD.F                 8:   FEET ABOVE PERMANENT DATUM
 DMF .                 KB:   DRILLING MEASURED FROM
 EKB .F              5227:   KELLING BUSHING
 EDF .F              5225:   DRILLING FLOOR
 EGL .F              5219:   GROUND LEVEL
 DATE.             7-6-87:   RUN DATE
 RUN .                  1:   RUN NUMBER
 DD  .F               610:   DEPTH DRILLER
 DL  .F             531.5:   DEPTH LOGGER
 BLI .F               526:   BOTTOM LOG INTERVAL
 TLI .F                50:   TOP LOG INTERVAL
 BS  .IN            7.875:   BIT SIZE
 BSD .F               610:   BIT SIZE AT DEPTH
 DFT .              WATER:   DRILLING FLUID TYPE
 LUN .               6084:   LOGGING UNIT NUMBER
 LUL .           GILLETTE:   LOGGING UNIT LOCATION
 ENGI.                COX:   RECORDING ENGINEER
 WITN.               LOWE:   WITNESSED BY
 CLNT.            A2DTECH:   CLIENT CODE
 ORIG.           5" PRINT:   ORIGIN OF DATA
 UWI .       490251114400:   UNIQUE WELL ID
 DICO. A2D Technologies, Inc.:   DIGITIZING COMPANY
~OTHER INFORMATION
~A   DEPT        GR      TGAS        ROP   
# ...
  956.0000  -999.2500     3.7604     0.3688
  956.5000  -999.2500     3.7604     0.3688
  957.0000  -999.2500     3.7604     0.3688
  957.5000  -999.2500     3.7604     0.3688
  958.0000  -999.2500     3.7604     0.3688
  958.5000  -999.2500     3.7604     0.3688
  959.0000  -999.2500     3.7604     0.3688
  959.5000  -999.2500     3.7604     0.3688
  960.0000  -999.2500     3.7604     0.3688
  960.5000  -999.2500     3.7604     0.3688
  961.0000  -999.2500     3.7604     0.3688
  961.5000  -999.2500     3.7604     0.3688
  962.0000  -999.2500     3.7604     0.3688
  962.5000  -999.2500     3.7604     0.3687
  963.0000  -999.2500     3.7604     0.3688
  963.5000  -999.2500     3.7604     0.3706
  964.0000  -999.2500     3.7604     0.3760
  964.5000  -999.2500     3.7604     0.3805
  965.0000  -999.2500     3.7604     0.3534
  965.5000  -999.2500     3.7604     0.3239
  966.0000  -999.2500     3.7604     0.2948
  966.5000  -999.2500     3.7604     0.2965
  967.0000  -999.2500     3.7604     0.2950
  967.5000  -999.2500     3.7604     0.2935
  968.0000  -999.2500     3.7604     0.2937
  968.5000  -999.2500     3.7604     0.2937
  969.0000  -999.2500     3.7604     0.2937
  969.5000  -999.2500     3.7604     0.2937
  970.0000  -999.2500     3.7604     0.2937
  970.5000  -999.2500     3.7604     0.2937
  971.0000  -999.2500     3.7604     0.2937
  971.5000  -999.2500     3.7604     0.2937
  972.0000  -999.2500     3.7604     0.2937
  972.5000  -999.2500     3.7604     0.2937
  973.0000  -999.2500     3.7604     0.2937
  973.5000  -999.2500     3.7604     0.2937
  974.0000  -999.2500     3.7604     0.2937
  974.5000  -999.2500     3.7604     0.2937
  975.0000  -999.2500     3.7604     0.2937
  975.5000  -999.2500     3.7604     0.2937
  976.0000  -999.2500     3.7604     0.2937
  976.5000  -999.2500     3.7601     0.2937
  977.0000  -999.2500     3.7760     0.2937
  977.5000  -999.2500     3.7953     0.2937
  978.0000  -999.2500     3.8147     0.2937
  978.5000  -999.2500     3.8340     0.2937
  979.0000  -999.2500     3.8533     0.2937
  979.5000  -999.2500     3.8726     0.2937
  980.0000  -999.2500     3.8920     0.2937
  980.5000  -999.2500     3.9113     0.2937
  981.0000  -999.2500     3.9306     0.2937
  981.5000  -999.2500     3.9499     0.2937
  982.0000  -999.2500     3.9693     0.2937
  982.5000  -999.2500     3.9886     0.2937
  983.0000  -999.2500     4.0079     0.2937
  983.5000  -999.2500     4.0272     0.2937
  984.0000  -999.2500     4.0465     0.2937
  984.5000  -999.2500     4.0659     0.2937
  985.0000  -999.2500     4.0852     0.2937
  985.5000  -999.2500     4.1045     0.2937
  986.0000  -999.2500     4.1238     0.2937
  986.5000  -999.2500     4.1432     0.2937
  987.0000  -999.2500     4.1625     0.2937
  987.5000  -999.2500     4.1818     0.2932
  988.0000  -999.2500     4.2011     0.2932
  988.5000  -999.2500     4.2205     0.3358
  989.0000  -999.2500     4.2402     0.4769
  989.5000  -999.2500     4.2617     0.6139
  990.0000  -999.2500     4.1722     0.7502
  990.5000  -999.2500     4.0677     0.7785
  991.0000  -999.2500     3.9625     0.7896
  991.5000  -999.2500     3.8576     0.7998
  992.0000  -999.2500     3.7618     0.7833
  992.5000  -999.2500     3.7599     0.7070
  993.0000  -999.2500     3.7603     0.5742
  993.5000  -999.2500     3.7604     0.4418
  994.0000  -999.2500     3.7606     0.3099
  994.5000  -999.2500     3.7510     0.2937
  995.0000  -999.2500     3.7374     0.2951
  995.5000  -999.2500     3.7237     0.2966
  996.0000  -999.2500     3.7100     0.2978
  996.5000  -999.2500     3.6962     0.2991
  997.0000  -999.2500     3.6825     0.3003
  997.5000  -999.2500     3.6688     0.3016
  998.0000  -999.2500     3.6551     0.3028
  998.5000  -999.2500     3.6413     0.3040
  999.0000  -999.2500     3.6276     0.3053
  999.5000  -999.2500     3.6139     0.3065
 1000.0000  -999.2500     3.6002     0.3078
 1000.5000  -999.2500     3.5864     0.3090
 1001.0000  -999.2500     3.5727     0.3103
 1001.5000  -999.2500     3.5590     0.3115
 1002.0000  -999.2500     3.5453     0.3128
 1002.5000  -999.2500     3.5315     0.3140
 1003.0000  -999.2500     3.5178     0.3152
 1003.5000  -999.2500     3.5041     0.3165
 1004.0000  -999.2500     3.4904     0.3177
 1004.5000  -999.2500     3.4766     0.3190
 1005.0000  -999.2500     3.4629     0.3202
 1005.5000  -999.2500     3.4492     0.3214
 1006.0000  -999.2500     3.4354     0.3227
 1006.5000  -999.2500     3.4217     0.3239
 1007.0000  -999.2500     3.4080     0.3252
 1007.5000  -999.2500     3.3943     0.3264
 1008.0000  -999.2500     3.3805     0.3277
 1008.5000  -999.2500     3.3668     0.3287
 1009.0000  -999.2500     3.3531     0.3295
 1009.5000  -999.2500     3.3394     0.3355
 1010.0000  -999.2500     3.3256     0.4338
 1010.5000  -999.2500     3.3119     0.7325
 1011.0000  -999.2500     3.2982     1.0290
 1011.5000  -999.2500     3.2844     1.3277
 1012.0000  -999.2500     3.2707     1.3714
 1012.5000  -999.2500     3.2587     1.3691
 1013.0000  -999.2500     3.2590     1.3700
 1013.5000  -999.2500     3.2590     1.3451
 1014.0000  -999.2500     3.2590     1.2751
 1014.5000  -999.2500     3.2590     1.0288
 1015.0000  -999.2500     3.2590     0.7817
 1015.5000  -999.2500     3.2590     0.5348
 1016.0000  -999.2500     3.2590     0.4083
 1016.5000  -999.2500     3.2590     0.3939
 1017.0000  -999.2500     3.2582     0.3925
 1017.5000  -999.2500     3.2634     0.3916
 1018.0000  -999.2500     3.2746     0.3907
 1018.5000  -999.2500     3.7935     0.3898
 1019.0000  -999.2500     3.7698     0.3888
 1019.5000  -999.2500     3.7405     0.3879
 1020.0000  -999.2500     3.7080     0.3870
 1020.5000  -999.2500     3.6747     0.3861
 1021.0000  -999.2500     3.6414     0.3852
 1021.5000  -999.2500     3.6082     0.3842
 1022.0000  -999.2500     3.5749     0.3833
 1022.5000  -999.2500     3.5416     0.3824
 1023.0000  -999.2500     3.5083     0.3814
 1023.5000  -999.2500     3.4751     0.3920
 1024.0000  -999.2500     3.4418     0.4115
 1024.5000  -999.2500     3.4085     0.4308
 1025.0000  -999.2500     3.3753     0.4440
 1025.5000  -999.2500     3.3420     0.4439
 1026.0000  -999.2500     3.3087     0.4441
 1026.5000  -999.2500     3.2755     0.4442
 1027.0000  -999.2500     3.2422     0.4443
 1027.5000  -999.2500     3.2089     0.4444
 1028.0000  -999.2500     3.1756     0.4446
 1028.5000  -999.2500     3.1424     0.4447
 1029.0000  -999.2500     3.1091     0.4448
 1029.5000  -999.2500     3.0758     0.4450
 1030.0000  -999.2500     3.0426     0.4451
 1030.5000  -999.2500     3.0093     0.4452
 1031.0000  -999.2500     2.9760     0.4454
 1031.5000  -999.2500     2.9427     0.4455
 1032.0000  -999.2500     2.9095     0.4456
 1032.5000  -999.2500     2.8762     0.4458
 1033.0000  -999.2500     2.8429     0.4459
 1033.5000  -999.2500     2.8105     0.4460
 1034.0000  -999.2500     2.7723     0.4462
 1034.5000  -999.2500     2.7425     0.4463
 1035.0000  -999.2500     2.2206     0.4464
 1035.5000  -999.2500     2.1789     0.4466
 1036.0000  -999.2500     2.1221     0.4467
 1036.5000  -999.2500     2.0553     0.4468
 1037.0000  -999.2500     1.9892     0.4469
 1037.5000  -999.2500     1.9231     0.4471
 1038.0000  -999.2500     1.8570     0.4472
 1038.5000  -999.2500     1.7911     0.4473
 1039.0000  -999.2500     1.7546     0.4475
 1039.5000  -999.2500     1.7550     0.4476
 1040.0000  -999.2500     1.7456     0.4477
 1040.5000  -999.2500     1.7272     0.4479
 1041.0000  -999.2500     2.5486     0.4480
 1041.5000  -999.2500     3.2307     0.4481
 1042.0000  -999.2500     3.9171     0.4483
 1042.5000  -999.2500     4.6135     0.4484
 1043.0000  -999.2500     5.6865     0.4485
 1043.5000  -999.2500     6.7333     0.4487
 1044.0000  -999.2500     7.7866     0.4488
 1044.5000  -999.2500     8.8406     0.4489
 1045.0000  -999.2500     9.8947     0.4490
 1045.5000  -999.2500    10.9512     0.4492
 1046.0000  -999.2500    11.2437     0.4493
 1046.5000  -999.2500    11.7740     0.4494
