~VERSION INFORMATION
 VERS.                2.0:   CWLS LOG ASCII STANDARD - VERSION 2.0
 WRAP.                 NO:   ONE LINE PER DEPTH STEP
~WELL INFORMATION
#MNEM.UNIT      DATA TYPE    INFORMATION
#----------   ------------   ------------------------------
 STRT.F           20.5000:   START DEPTH
 STOP.F          725.0000:   STOP DEPTH
 STEP.F            0.5000:   STEP LENGTH
 NULL.          -999.2500:   NO VALUE
 COMP. FENIX & SCISSON INC:   COMPANY
 WELL.       NPR 3 #67-27:   WELL
 FLD .             TEAPOT:   FIELD
 LOC .      S27 T39N R78W:   LOCATION
 CNTY.            NATRONA:   COUNTY
 STAT.            WYOMING:   STATE
 CTRY. UNITED STATES OF AMERICA:   COUNTRY
 SRVC.           BIRDWELL:   SERVICE COMPANY
 DATE.        15-SEP-1978:   LOGDATE
 API .       490251069400:   API NUMBER
~CURVE INFORMATION
#MNEM.UNIT       API CODE    CURVE DESCRIPTION
#----------   ------------   ------------------------------
 DEPT.F                  :   
 CALD.IN     45 280 60 00:   CALIPER
 GRD .GAPI   45 310 01 00:   GAMMA RAY FROM DENSITY LOG
 RHOB.G/C3   45 350 01 00:   BULK DENSITY
 DPHI.DEC    45 890 12 00:   DENSITY POROSITY SANDSTONE
 CORR.G/C3   45 356 01 00:   DENSITY CORRECTION
 SPR .MV     05 010 01 00:   SPONTANEOUS POTENTIAL FROM RES.
 ILD .OHMM   05 120 46 00:   INDUCTION LOG DEEP
 SN  .OHMM   05 040 16 00:   SHORT NORMAL 16"
~PARAMETER INFORMATION
#MNEM.UNIT          VALUE    DESCRIPTION
#----------   ------------   ------------------------------
 PD  .                 GL:   PERMANENT DATUM
 EPD .F              5027:   ELEVATION PERMANENT DATUM
 LMF .                 KB:   LOG MEASURED FROM
 DAPD.F                 4:   FEET ABOVE PERMANENT DATUM
 DMF .                 KB:   DRILLING MEASURED FROM
 EKB .F              5031:   KELLING BUSHING
 EGL .F              5027:   GROUND LEVEL
 DATE.            9-15-78:   RUN DATE
 RUN .                  1:   RUN NUMBER
 DD  .F               728:   DEPTH DRILLER
 DL  .F               719:   DEPTH LOGGER
 BLI .F               713:   BOTTOM LOG INTERVAL
 TLI .F                30:   TOP LOG INTERVAL
 CS  .IN            8.625:   CASING SIZE
 CBD .F                34:   CASING BOTTOM DRILLER
 CBL .F                34:   CASING BOTTOM LOGGER
 BS  .IN            7.875:   BIT SIZE
 BSD .F               728:   BIT SIZE AT DEPTH
 DFT .            KCL MUD:   DRILLING FLUID TYPE
 DFD .                  9:   DRILLING FLUID DENSITY
 DFV .                 46:   DRILLING FLUID VISCOSITY
 DFPH.                  9:   DRILLING FLUID PH
 DFL .                7.6:   DRILLING FLUID LOSS
 MSS .          FLOW LINE:   MUD SAMPLE SOURCE
 RMS .OHMM            .34:   RESISTIVITY MUD SAMPLE
 MST .F                68:   MUD SAMPLE TEMPERATURE
 RMF .OHMM             .3:   RESISTIVITY MUD FILTRATE SAMPLE
 MFST.F                68:   MUD FILTRATE SAMPLE TEMPERATURE
 RMC .OHMM            .38:   RESISTIVITY MUD CAKE
 MCST.F                70:   MUD CAKE SAMPLE TEMPERATURE
 MFSS.               MEAS:   MUD FILTRATE SAMPLE SOURCE
 MCSS.               MEAS:   MUD CAKE SAMPLE SOURCE
 RMB .OHMM            .32:   RESISTIVITY MUD AT BHT
 BHT .F                72:   BOTTOM HOLE TEMPERATURE
 TCS .HRS               2:   TIME CURCULATED STOPPED
 MRT .F                72:   MAXIMUM RECORDED TEMPERATURE
 LUN .               2958:   LOGGING UNIT NUMBER
 LUL .               CASP:   LOGGING UNIT LOCATION
 ENGI.           REYNOLDS:   RECORDING ENGINEER
 WITN.           DINSMORE:   WITNESSED BY
 CLNT.            A2DTECH:   CLIENT CODE
 ORIG.           5" PRINT:   ORIGIN OF DATA
 UWI .       490251069400:   UNIQUE WELL ID
 DICO. A2D Technologies, Inc.:   DIGITIZING COMPANY
~OTHER INFORMATION
~A   DEPT     CALD        GRD       RHOB       DPHI       CORR        SPR        ILD         SN   
# ...
  668.5000     8.1594    84.1234     2.3681     0.1779     0.3755   -29.2556    15.4344    12.2844
  669.0000     8.2718    84.1581     2.5041     0.1349     0.3095   -29.3036    14.8304    12.3039
  669.5000     8.5031    83.7858     2.5812     0.0620     0.2703   -29.2961    14.2619    12.3235
  670.0000     8.6431    83.3955     2.5827     0.0963     0.2463   -29.8407    13.7046    12.3432
  670.5000     8.7312    82.8819     2.5300     0.1236     0.2295   -30.7652    13.9596    12.3629
  671.0000     8.8193    82.3576     2.4899     0.1470     0.2115   -31.6715    13.5338    12.3829
  671.5000     8.8592    83.0017     2.4479     0.1667     0.1871   -31.8432    13.2084    11.9679
  672.0000     8.8736    83.8389     2.4178     0.1440     0.1655   -31.9885    13.2084    11.7165
  672.5000     8.8840    84.3596     2.4615     0.1262     0.1702   -32.3791    13.2084    11.9345
  673.0000     8.7040    84.4837     2.4807     0.1176     0.2029   -33.7292    13.4102    11.3969
  673.5000     8.3993    84.6095     2.4901     0.1138     0.2234   -33.7028    13.8315    11.5024
  674.0000     8.5282    84.6908     2.5032     0.0891     0.2268   -33.6865    13.7682    10.9842
  674.5000     8.8099    84.6415     2.5209     0.0552     0.1523   -34.2647    13.7046    11.0095
  675.0000     8.5783    84.5951     2.5575     0.0445     0.1008   -34.6523    14.0112    11.0520
  675.5000     8.5257    84.5473     2.5944     0.0721     0.0834   -34.5040    14.2194    11.0860
  676.0000     8.3763    84.5059     2.6037     0.0972     0.0755   -35.1844    13.4861    10.7836
  676.5000     8.5383    84.8788     2.5417     0.1198     0.0754   -35.7113    12.9368    10.7836
  677.0000     8.8732    85.2939     2.4797     0.1221     0.0754   -35.7505    12.8623    10.7836
  677.5000     9.1205    85.7119     2.4746     0.1346     0.0747   -35.7951    12.6576    10.7836
  678.0000     9.1923    85.8970     2.4588     0.1412     0.0725   -35.8377    12.6133    10.7229
  678.5000     9.2562    85.8691     2.4609     0.1322     0.0686   -35.8806    12.5682    10.6243
  679.0000     9.2930    85.8131     2.4764     0.1232     0.0631   -35.9235    12.3588    10.5266
  679.5000     9.3245    85.7552     2.4918     0.1126     0.0578   -35.9665    12.1566    10.4298
  680.0000     9.3116    85.7085     2.5035     0.1100     0.0649   -36.0094    12.1437    10.3931
  680.5000     9.2881    85.9621     2.4889     0.1271     0.0731   -36.0524    12.1307    10.3931
  681.0000     9.2641    86.2345     2.4746     0.1251     0.0746   -36.0953    12.1182    10.3931
  681.5000     9.2337    86.4874     2.4769     0.1223     0.0742   -36.1383    12.1055    10.3931
  682.0000     9.1937    86.3335     2.4824     0.1196     0.0707   -36.1812    12.0928    10.3931
  682.5000     9.1848    86.1672     2.4879     0.1174     0.0672   -36.2239    12.0800    10.3931
  683.0000     9.2643    85.7477     2.4911     0.1151     0.0637   -36.2672    12.0674    10.3931
  683.5000     9.3428    85.1899     2.4943     0.1129     0.0611   -36.3294    12.0551    10.3931
  684.0000     9.3631    84.6257     2.4969     0.1128     0.0600   -36.4723    12.0015    10.3931
  684.5000     9.3535    84.1273     2.4946     0.1181     0.0566   -36.6123    11.8181    10.3931
  685.0000     9.3435    84.5352     2.4909     0.1235     0.0488   -36.7521    11.6376    10.3931
  685.5000     9.3326    84.9678     2.4866     0.1289     0.0406   -36.8919    11.5024    10.3931
  686.0000     9.3644    84.9688     2.4674     0.1344     0.0538   -37.0317    11.4334    10.3931
  686.5000     9.4146    84.7851     2.4473     0.1544     0.0718   -37.1716    11.3969    10.3931
  687.0000     9.4378    84.6033     2.4139     0.1748     0.0787   -37.3113    11.5984    10.3931
  687.5000     9.4493    84.9204     2.3743     0.1953     0.0244   -37.4530    11.7408    10.3932
  688.0000     9.4230    85.7722     2.3695     0.1662     0.0211   -37.4739    11.8843    10.3931
  688.5000     9.3910    86.6195     2.4662     0.1346     0.0389   -37.4366    11.9345    10.3860
  689.0000     9.3265    87.5048     2.4857     0.1181     0.0527   -37.3973    11.9610    10.3556
  689.5000     9.2572    87.4740     2.4946     0.1097     0.0606   -37.3592    12.0193    10.3257
  690.0000     9.1879    87.1684     2.5055     0.1068     0.0685   -37.3273    12.0780    10.2959
  690.5000     9.1186    87.3371     2.5163     0.1010     0.0764   -37.6672    12.1582    10.2663
  691.0000     9.0493    89.0074     2.5272     0.0953     0.0864   -38.4730    12.0918    10.2367
  691.5000     8.9805    90.2632     2.5304     0.0938     0.0981   -39.2742    11.9565    10.2075
  692.0000     8.8481    90.6720     2.5320     0.0950     0.1217   -39.8813    11.8215    10.1818
  692.5000     8.6690    91.0876     2.5347     0.0857     0.1309   -40.2660    11.2217    10.1570
  693.0000     8.4895    91.1641     2.5401     0.0709     0.1038   -40.6426    10.6796    10.1324
  693.5000     8.3119    91.2241     2.5679     0.0509     0.0545   -41.0273    10.2032    10.1096
  694.0000     8.2535    91.2785     2.5900     0.0636     0.0234   -41.3438     9.8612     9.9850
  694.5000     8.2851    91.7070     2.5664     0.0832     0.0160   -41.5075     9.5529     9.8704
  695.0000     8.3289    92.2136     2.5398     0.1016     0.0250   -41.6699     9.2543     9.7580
  695.5000     8.3727    92.6779     2.5152     0.1035     0.0345   -41.8322     9.1314     9.6343
  696.0000     8.4165    92.4079     2.5145     0.1052     0.0346   -41.9947     9.0327     9.5129
  696.5000     8.4735    92.1151     2.5202     0.1009     0.0305   -42.1573     8.9351     9.3925
  697.0000     8.6183    91.9106     2.5257     0.0964     0.0263   -42.3206     8.8618     9.2738
  697.5000     8.5492    92.2491     2.5313     0.0918     0.0220   -42.4832     8.7804     9.1579
  698.0000     8.4851    92.4469     2.5301     0.0904     0.0178   -42.4511     8.7231     9.0508
  698.5000     8.5503    92.1808     2.5171     0.0984     0.0136   -42.3955     8.2016     8.7194
  699.0000     8.8180    91.9310     2.5003     0.1164     0.0108   -42.3390     7.6565     8.4265
  699.5000     9.0770    91.9970     2.4832     0.1345     0.0095   -42.2686     6.9407     8.1435
  700.0000     9.3373    92.1987     2.4655     0.1507     0.0143   -42.1430     6.5000     7.8699
  700.5000     9.5983    92.3989     2.4539     0.1528     0.0196   -42.0218     6.2593     7.6056
  701.0000     9.6570    92.5999     2.4483     0.1485     0.0242   -41.9008     6.3238     7.3605
  701.5000     8.1968    92.6377     2.4465     0.1345     0.0264   -41.7800     6.4178     7.1277
  702.0000     8.1383    92.5125     2.4799     0.1163     0.0354   -41.6566     6.5132     7.0563
  702.5000     8.2656    92.3877     2.5143     0.0987     0.0516   -41.5495     6.6101     7.1801
  703.0000     8.4299    92.2625     2.5223     0.0931     0.0554   -40.7403     6.7084     7.3227
  703.5000     8.6303    92.1375     2.5299     0.0899     0.0555   -39.6777     6.8008     7.4576
  704.0000     8.8296    92.0125     2.5379     0.0866     0.0564   -38.8849     7.4636     7.9553
  704.5000     8.9777    91.8875     2.5459     0.0833     0.0640   -38.8989     8.1398     8.7332
  705.0000     8.9830    91.7624     2.5539     0.0820     0.0689   -38.8997     8.8772     9.6136
  705.5000     8.9173    91.6369     2.5619     0.0789     0.0632   -38.9000     9.3242     9.9394
  706.0000     8.8694    91.5120     2.5686     0.0757     0.0569   -38.9000     9.3671    10.1151
  706.5000     8.8701    91.5538     2.5642     0.0754     0.0490   -38.9002     9.4102    10.2672
  707.0000     8.8642    91.6307     2.5600     0.0772     0.0410   -38.9008     9.4522    10.4216
  707.5000     8.6226    91.6996     2.5558     0.0791     0.0331   -38.8951     9.5638    10.5782
  708.0000     8.3035    91.7003     2.5519     0.0809     0.0251   -38.7896     9.7581    10.7373
  708.5000     8.2295    91.7001     2.5487     0.0828     0.0242   -38.6849     9.9582    10.8987
