~VERSION INFORMATION
 VERS.                2.0:   CWLS LOG ASCII STANDARD - VERSION 2.0
 WRAP.                 NO:   ONE LINE PER DEPTH STEP
~WELL INFORMATION
#MNEM.UNIT      DATA TYPE    INFORMATION
#----------   ------------   ------------------------------
 STRT.F           19.5000:   START DEPTH
 STOP.F          635.0000:   STOP DEPTH
 STEP.F            0.5000:   STEP LENGTH
 NULL.          -999.2500:   NO VALUE
 COMP. FENIX & SCISSON INC:   COMPANY
 WELL. NPR-3 68-S-34 #3-34:   WELL
 FLD .  TEAPOT DOME NPR-3:   FIELD
 LOC .      S34 T39N R78W:   LOCATION
 CNTY.            NATRONA:   COUNTY
 STAT.            WYOMING:   STATE
 CTRY. UNITED STATES OF AMERICA:   COUNTRY
 SRVC.           BIRDWELL:   SERVICE COMPANY
 DATE.        01-AUG-1978:   LOGDATE
 API .       490251070600:   API NUMBER
~CURVE INFORMATION
#MNEM.UNIT       API CODE    CURVE DESCRIPTION
#----------   ------------   ------------------------------
 DEPT.F                  :   
 SPR .MV     05 010 01 00:   SPONTANEOUS POTENTIAL
 SN  .OHMM   05 040 16 00:   SHORT NORMAL 16'
 ILD .OHMM   05 120 46 00:   INDUCTION LOG DEEP RESISTIVITY
 GRD .GAPI   45 310 01 00:   GAMMA RAY FROM DENSITY LOG
 CALD.IN     45 280 60 00:   CALIPER
 RHOB.G/C3   45 350 01 00:   BULK DENSITY
 DPHI.DEC    45 890 12 00:   DENSITY POROSITY SANDSTONE
 CORR.G/C3   45 356 01 00:   DENSITY CORRECTION
~PARAMETER INFORMATION
#MNEM.UNIT          VALUE    DESCRIPTION
#----------   ------------   ------------------------------
 PD  .                 GL:   PERMANENT DATUM
 EPD .F              5100:   ELEVATION PERMANENT DATUM
 LMF .                 KB:   LOG MEASURED FROM
 DAPD.F                 4:   FEET ABOVE PERMANENT DATUM
 DMF .                 KB:   DRILLING MEASURED FROM
 EKB .F              5104:   KELLING BUSHING
 EGL .F              5100:   GROUND LEVEL
 DATE.           9-1-1978:   RUN DATE
 RUN .                  1:   RUN NUMBER
 DD  .F               635:   DEPTH DRILLER
 DL  .F               635:   DEPTH LOGGER
 BLI .F               629:   BOTTOM LOG INTERVAL
 TLI .F                40:   TOP LOG INTERVAL
 CS  .IN            8.625:   CASING SIZE
 CBD .F                40:   CASING BOTTOM DRILLER
 CBL .F                40:   CASING BOTTOM LOGGER
 BS  .IN            7.875:   BIT SIZE
 BSD .F               635:   BIT SIZE AT DEPTH
 DFT .                KCL:   DRILLING FLUID TYPE
 DFD .                8.6:   DRILLING FLUID DENSITY
 DFV .                 32:   DRILLING FLUID VISCOSITY
 DFPH.                  9:   DRILLING FLUID PH
 DFL .                  7:   DRILLING FLUID LOSS
 MSS .          FLOW LINE:   MUD SAMPLE SOURCE
 RMS .OHMM             .4:   RESISTIVITY MUD SAMPLE
 MST .F                76:   MUD SAMPLE TEMPERATURE
 RMF .OHMM             .3:   RESISTIVITY MUD FILTRATE SAMPLE
 MFST.F                80:   MUD FILTRATE SAMPLE TEMPERATURE
 RMC .OHMM             .4:   RESISTIVITY MUD CAKE
 MCST.F                80:   MUD CAKE SAMPLE TEMPERATURE
 MFSS.               MEAS:   MUD FILTRATE SAMPLE SOURCE
 MCSS.               MEAS:   MUD CAKE SAMPLE SOURCE
 RMB .OHMM            .43:   RESISTIVITY MUD AT BHT
 BHT .F                70:   BOTTOM HOLE TEMPERATURE
 TCS .HRS               3:   TIME CURCULATED STOPPED
 MRT .F                70:   MAXIMUM RECORDED TEMPERATURE
 LUN .               2958:   LOGGING UNIT NUMBER
 LUL .               CASP:   LOGGING UNIT LOCATION
 ENGI.            POINTER:   RECORDING ENGINEER
 WITN.           MCGINLEY:   WITNESSED BY
 CLNT.            A2DTECH:   CLIENT CODE
 ORIG.           5" PRINT:   ORIGIN OF DATA
 UWI .       490251070600:   UNIQUE WELL ID
 DICO. A2D Technologies, Inc.:   DIGITIZING COMPANY
~OTHER INFORMATION
~A   DEPT      SPR         SN        ILD         GRD      CALD       RHOB       DPHI       CORR   
# ...
  262.5000   -17.5159     8.2871     8.6250   128.2280     7.3569     2.5073     0.1029     0.0139
  263.0000   -17.4872     8.2935     8.6249   129.4118     7.3608     2.5126     0.1032     0.0062
  263.5000   -17.4782     8.3000     8.6240   131.6409     7.3868     2.5099     0.1050     0.0082
  264.0000   -17.7690     8.3067     8.6625   128.4317     7.3918     2.5063     0.1073     0.0114
  264.5000   -18.0450     8.3113     8.7085   122.0437     7.3939     2.5028     0.1112     0.0145
  265.0000   -17.6161     8.3698     8.7546   120.7169     7.3959     2.4992     0.1128     0.0176
  265.5000   -17.1403     8.4333     8.8105   125.1442     7.3979     2.4973     0.1140     0.0207
  266.0000   -17.0147     8.4973     8.8853   125.9104     7.3999     2.4962     0.1116     0.0237
  266.5000   -17.3634     8.5618     8.9606   124.9185     7.4019     2.4984     0.1095     0.0246
  267.0000   -17.6768     8.6268     9.0367   123.7229     7.4040     2.5018     0.1073     0.0254
  267.5000   -17.6996     8.6922     9.1133   123.8366     7.4060     2.5052     0.1051     0.0223
  268.0000   -17.7292     8.7582     9.1906   126.6701     7.4081     2.5074     0.1038     0.0189
  268.5000   -17.7595     8.8247     9.2686   128.8940     7.4098     2.5082     0.1048     0.0157
  269.0000   -17.7899     8.8662     9.3473   129.2332     7.4059     2.5089     0.1058     0.0155
  269.5000   -17.8203     8.8460     9.4266   129.3047     7.4019     2.5082     0.1068     0.0223
  270.0000   -17.8504     8.8311     9.4554   128.5709     7.3979     2.5060     0.1076     0.0238
  270.5000   -17.9394     8.8164     9.4554   124.8548     7.3940     2.5038     0.1105     0.0242
  271.0000   -18.0740     8.8017     9.4554   120.2650     7.3896     2.5016     0.1145     0.0246
  271.5000   -18.2095     8.7870     9.4554   115.5854     7.3735     2.4938     0.1158     0.0250
  272.0000   -18.3449     8.7724     9.4554   114.1157     7.3570     2.4886     0.1083     0.0253
  272.5000   -18.4553     8.7578     9.3657   119.4038     7.3409     2.5041     0.1030     0.0296
  273.0000   -18.3529     8.7431     9.2551   124.7554     7.3327     2.5158     0.1000     0.0303
  273.5000   -18.2528     8.7286     9.1458   128.2875     7.3416     2.5145     0.1024     0.0286
  274.0000   -18.1533     8.7141     9.1141   125.7379     7.3502     2.5126     0.1068     0.0267
  274.5000   -18.0539     8.7054     9.1141   123.1482     7.3589     2.5098     0.1111     0.0249
  275.0000   -17.9545     8.7421     9.1094   121.4061     7.3679     2.5019     0.1155     0.0234
  275.5000   -17.8551     8.7698     9.0839   123.0770     7.3570     2.4940     0.1199     0.0235
  276.0000   -17.7556     8.7976     9.0588   125.8469     7.3321     2.4861     0.1243     0.0235
  276.5000   -17.6559     8.8255     9.0307   126.3019     7.3071     2.4779     0.1251     0.0237
  277.0000   -17.5555     8.8535     9.1326   124.3919     7.2820     2.4743     0.1195     0.0258
  277.5000   -17.4714     8.9128     9.2465   122.5472     7.2567     2.4894     0.1083     0.0292
  278.0000   -17.5762     8.9979     9.3619   119.4564     7.2314     2.5058     0.0976     0.0398
  278.5000   -17.6403     9.0838     9.4787   120.5441     7.2614     2.5207     0.0976     0.0405
  279.0000   -17.4429     9.2643     9.5929   120.1337     7.2962     2.5190     0.1044     0.0340
  279.5000   -17.2476     9.5004     9.7860   117.0153     7.3308     2.5139     0.1108     0.0274
  280.0000   -17.0684     9.7424     9.9830   113.4004     7.3653     2.5009     0.1172     0.0207
  280.5000   -17.0647     9.9367    10.1839   115.4742     7.4014     2.4881     0.1236     0.0194
  281.0000   -17.0649    10.0384    10.3889   119.1715     7.4094     2.4762     0.1256     0.0197
  281.5000   -17.0685    10.1411    10.5980   122.9714     7.4086     2.4760     0.1191     0.0255
  282.0000   -17.1958    10.2011    10.8032   123.4033     7.4076     2.4829     0.1115     0.0334
  282.5000   -17.3315    10.2514    10.9896   121.0468     7.4068     2.4966     0.1039     0.0458
  283.0000   -17.4661    10.3024    11.1792   120.8433     7.4059     2.5106     0.0992     0.0531
  283.5000   -17.6014    10.3546    11.3721   118.5330     7.4050     2.5164     0.1028     0.0520
  284.0000   -17.6058    10.4941    11.5684   113.5145     7.4041     2.5153     0.1071     0.0424
  284.5000   -17.4986    10.7146    11.7554   112.7293     7.4032     2.5076     0.1097     0.0289
  285.0000   -17.3896    10.9397    11.9285   112.7601     7.4024     2.5002     0.1100     0.0168
  285.5000   -17.2806    11.0547    12.1042   112.9291     7.4015     2.5015     0.1023     0.0149
  286.0000   -17.1718    10.9639    12.2825   113.7158     7.4006     2.5135     0.0960     0.0127
  286.5000   -17.0629    10.8830    12.4634   114.5551     7.3997     2.5199     0.0988     0.0127
  287.0000   -16.9541    10.8023    12.5913   113.1735     7.3988     2.5178     0.1021     0.0153
  287.5000   -16.8453    10.7224    12.6375   111.0890     7.3980     2.5150     0.1056     0.0178
  288.0000   -16.7362    10.6430    12.6837   110.7604     7.3971     2.5080     0.1126     0.0189
  288.5000   -16.6277    10.5581    12.7302   111.4801     7.3962     2.5010     0.1184     0.0171
  289.0000   -16.5183    10.4873    12.7768   111.2397     7.3953     2.4940     0.1181     0.0156
  289.5000   -16.5349    10.4108    12.8061   110.5902     7.3945     2.4867     0.1177     0.0174
  290.0000   -16.6695    10.3350    12.4188   110.4969     7.3936     2.4871     0.1163     0.0192
  290.5000   -16.9825    10.2597    12.1441   110.8100     7.3927     2.4912     0.1153     0.0210
  291.0000   -17.3077    10.1850    11.8982   112.0099     7.3918     2.4912     0.1168     0.0229
  291.5000   -17.6297    10.1108    11.8560   113.7860     7.3910     2.4897     0.1204     0.0202
  292.0000   -17.6551    10.0372    11.8172   116.1705     7.3899     2.4846     0.1264     0.0151
  292.5000   -17.6420     9.9916    11.7785   116.2118     7.3765     2.4752     0.1280     0.0116
  293.0000   -17.6291    10.0056    11.7400   114.7561     7.3616     2.4709     0.1280     0.0123
  293.5000   -17.6168    10.0161    11.7015   113.1132     7.3375     2.4705     0.1280     0.0130
  294.0000   -17.6045    10.0265    11.6633   110.7421     7.2740     2.4701     0.1256     0.0143
  294.5000   -17.5921    10.0368    11.6251   106.3154     7.2117     2.4745     0.1202     0.0180
  295.0000   -17.5798    10.0472    11.5871   107.7047     7.1494     2.4811     0.1167     0.0217
  295.5000   -17.5675    10.0576    11.5491   110.0766     7.0880     2.4878     0.1192     0.0254
  296.0000   -17.5552    10.0681    11.5113   109.5160     7.0647     2.4859     0.1203     0.0259
  296.5000   -17.5429    10.0837    11.4687   108.2553     7.1026     2.4830     0.1192     0.0263
  297.0000   -17.5306    10.0610    11.5423   107.0782     7.1847     2.4827     0.1216     0.0267
  297.5000   -17.5183    10.0156    11.6525   108.6072     7.2716     2.4839     0.1260     0.0272
  298.0000   -17.5060     9.9695    11.7893   108.6808     7.3360     2.4769     0.1304     0.0297
  298.5000   -17.4935     9.9238    11.7534   109.8900     7.3508     2.4669     0.1342     0.0372
  299.0000   -17.4817     9.8782    11.7069   111.4370     7.3665     2.4640     0.1332     0.0469
  299.5000   -17.4670     9.8329    11.5925   112.4164     7.3819     2.4622     0.1324     0.0566
  300.0000   -17.5936     9.6606    11.3976   112.9565     7.3891     2.4605     0.1265     0.0662
  300.5000   -17.7784     9.3598    11.2060   112.9004     7.3873     2.4641     0.1209     0.0759
  301.0000   -17.9659     9.1100    10.9754   112.6324     7.3855     2.4796     0.1154     0.0857
  301.5000   -18.1552     9.0847    10.7351   111.8505     7.3837     2.4968     0.1088     0.0953
  302.0000   -18.4155     9.0592    10.5001   109.4876     7.3819     2.5060     0.1191     0.0930
  302.5000   -18.7844     9.0341    10.3842   107.7520     7.3801     2.4856     0.1236     0.0639
