~VERSION INFORMATION
 VERS.                2.0:   CWLS LOG ASCII STANDARD - VERSION 2.0
 WRAP.                 NO:   ONE LINE PER DEPTH STEP
~WELL INFORMATION
#MNEM.UNIT      DATA TYPE    INFORMATION
#----------   ------------   ------------------------------
 STRT.F            0.0000:   START DEPTH
 STOP.F          555.0000:   STOP DEPTH
 STEP.F            0.5000:   STEP LENGTH
 NULL.          -999.2500:   NO VALUE
 COMP.       F D SERV INC:   COMPANY
 WELL. NAVAL PETROLEUM RESERVE 3 SX-3 #77-3:   WELL
 FLD .        N. P. R NO3:   FIELD
 LOC .       S3 T38N R78W:   LOCATION
 CNTY.            NATRONA:   COUNTY
 STAT.            WYOMING:   STATE
 CTRY. UNITED STATES OF AMERICA:   COUNTRY
 SRVC.     Atlas Wireline:   SERVICE COMPANY
 DATE.        26-OCT-1992:   LOGDATE
 API .       490252255200:   API NUMBER
~CURVE INFORMATION
#MNEM.UNIT       API CODE    CURVE DESCRIPTION
#----------   ------------   ------------------------------
 DEPT.F                  :   
 GRR .GAPI   07 310 01 00:   GAMMA RAY
 RILD.OHMM   07 120 46 00:   INDUCTION LOG DEEP RESISTIVITY
 RILM.OHMM   07 120 44 00:   INDUCTION LOG MEDIUM RESISTIVITY
~PARAMETER INFORMATION
#MNEM.UNIT          VALUE    DESCRIPTION
#----------   ------------   ------------------------------
 PD  .                 GL:   PERMANENT DATUM
 EPD .F              5161:   ELEVATION PERMANENT DATUM
 LMF .                 KB:   LOG MEASURED FROM
 DAPD.F                10:   FEET ABOVE PERMANENT DATUM
 DMF .                 KB:   DRILLING MEASURED FROM
 EKB .F              5171:   KELLING BUSHING
 EDF .F              5170:   DRILLING FLOOR
 EGL .F              5161:   GROUND LEVEL
 DATE.        26-OCT-1992:   RUN DATE
 RUN .                  1:   RUN NUMBER
 DD  .F               562:   DEPTH DRILLER
 DL  .F               563:   DEPTH LOGGER
 BLI .F               555:   BOTTOM LOG INTERVAL
 CS  .IN            8.625:   CASING SIZE
 CBD .F                85:   CASING BOTTOM DRILLER
 CBL .F                56:   CASING BOTTOM LOGGER
 BS  .IN            7.875:   BIT SIZE
 BSD .F               562:   BIT SIZE AT DEPTH
 DFT .           AIR FOAM:   DRILLING FLUID TYPE
 TCS .HRS               1:   TIME CURCULATED STOPPED
 MRT .F                67:   MAXIMUM RECORDED TEMPERATURE
 LUN .            HL-6274:   LOGGING UNIT NUMBER
 LUL .             CASPER:   LOGGING UNIT LOCATION
 ENGI.             RAUTIO:   RECORDING ENGINEER
 WITN.        GARY STRONG:   WITNESSED BY
 CLNT.            A2DTECH:   CLIENT CODE
 ORIG.           5" PRINT:   ORIGIN OF DATA
 UWI .       490252255200:   UNIQUE WELL ID
 DICO. A2D Technologies, Inc.:   DIGITIZING COMPANY
~OTHER INFORMATION
~A    DEPT      GRR      RILD       RILM   
# ...
  273.0000   143.8089     6.8069     6.5667
  273.5000   146.8816     6.3930     6.2549
  274.0000   145.3097     6.0888     5.8754
  274.5000   141.0535     5.7991     5.5189
  275.0000   139.8340     5.5619     5.2937
  275.5000   147.7155     5.3345     5.0777
  276.0000   153.7780     5.2614     5.0084
  276.5000   152.8601     5.4228     5.3503
  277.0000   148.9074     5.5280     5.9241
  277.5000   144.1455     5.6463     6.3535
  278.0000   134.6280     5.9307     6.7196
  278.5000   132.7997     6.5421     7.1068
  279.0000   137.4656     7.0667     7.3607
  279.5000   144.0122     7.5324     7.6235
  280.0000   148.0243     7.7972     7.8409
  280.5000   150.2710     8.0763     8.0084
  281.0000   154.7280     8.1917     8.0662
  281.5000   156.2551     8.1934     8.1812
  282.0000   155.0468     8.1951     8.2405
  282.5000   150.1910     8.1967     8.2422
  283.0000   144.7273     8.2559     8.2439
  283.5000   141.0873     8.2576     8.2456
  284.0000   140.4850     8.3173     8.2473
  284.5000   140.4942     8.3190     8.1912
  285.0000   142.6293     8.3211     8.1933
  285.5000   145.3775     8.3228     8.1949
  286.0000   147.5380     8.2665     8.1966
  286.5000   147.8188     8.2106     8.1987
  287.0000   146.3065     8.2123     8.2004
  287.5000   147.2276     8.1567     8.2020
  288.0000   146.9311     8.1584     8.2037
  288.5000   146.3306     8.1600     8.2054
  289.0000   146.0322     8.1617     8.2071
  289.5000   147.8652     8.1634     7.9811
  290.0000   154.2556     8.1081     7.9844
  290.5000   156.0868     7.8189     7.9877
  291.0000   156.0942     7.5506     7.8796
  291.5000   155.1898     7.0414     7.6651
  292.0000   152.7674     6.5664     6.9536
  292.5000   148.2156     6.2097     6.0916
  293.0000   146.3975     6.0386     5.5572
  293.5000   147.3186     5.9549     5.4513
  294.0000   152.4932     5.9549     5.6474
  294.5000   155.2362     5.9549     5.8500
  295.0000   154.0278     5.8723     6.0598
  295.5000   151.2997     5.7909     6.2336
  296.0000   147.9637     5.7909     6.2799
  296.5000   147.9787     5.7909     6.1948
  297.0000   149.3009     5.7909     5.9013
  297.5000   151.6352     5.8314     5.7007
  298.0000   152.5526     5.8723     5.6235
  298.5000   152.2561     5.9135     5.6742
  299.0000   151.6556     5.9549     6.0771
  299.5000   150.4491     5.9549     6.4283
  300.0000   146.2012     6.0386     6.7056
  300.5000   141.9533     6.4754     6.9949
  301.0000   142.2647     6.8954     7.1971
  301.5000   144.8932     7.2408     7.4023
  302.0000   147.6172     7.4981     7.5615
  302.5000   146.5857     7.6035     7.7242
  303.0000   145.1542     7.6568     7.7268
  303.5000   144.2109     7.3426     7.5691
  304.0000   143.9440     6.8474     7.1406
  304.5000   145.1506     6.3411     6.5416
  305.0000   145.4486     5.9549     6.0178
  305.5000   145.4393     5.4003     5.7728
  306.0000   147.5564     5.2150     5.6157
  306.5000   151.4944     5.3254     5.5397
  307.0000   154.5220     5.4003     5.5030
  307.5000   155.1216     5.4003     5.6218
  308.0000   153.5949     5.5922     5.8235
  308.5000   150.5526     5.9135     6.3346
  309.0000   149.0278     6.3411     6.9389
  309.5000   146.2890     6.7524     7.4590
  310.0000   142.6397     7.3426     7.8741
  310.5000   138.0800     7.9844     7.9875
  311.0000   134.7343     8.2681     8.1593
  311.5000   134.1199     8.3260     8.3349
  312.0000   134.7195     8.3733     8.4549
  312.5000   132.8894     8.4913     8.4932
  313.0000   131.9734     8.6109     8.4961
  313.5000   135.3025     8.7321     8.5585
  314.0000   138.9370     8.8551     8.6238
  314.5000   141.3576     8.9173     8.6931
  315.0000   141.6540     8.9173     8.7492
  315.5000   139.2184     8.9799     8.8134
  316.0000   134.8812     8.9799     8.8164
  316.5000   132.5269     8.9799     8.8195
  317.0000   135.2491     8.9799     8.7604
  317.5000   136.7610     8.9799     8.7641
  318.0000   135.8413     8.9799     8.7671
  318.5000   134.6200     8.9799     8.7701
  319.0000   134.0056     8.9799     8.8963
  319.5000   135.8192     9.1063     9.0376
  320.0000   137.3293     9.2346     9.3488
  320.5000   134.7876     9.3647     9.5498
  321.0000   131.5464     9.2994     9.5531
  321.5000   131.2355     8.9148     9.3584
  322.0000   131.8351     7.7194     8.2566
  322.5000   132.4366     6.6943     6.8412
  323.0000   130.9099     6.2422     5.8697
  323.5000   132.4200     6.1126     5.4001
  324.0000   140.3034     6.0700     5.2532
  324.5000   156.4568     6.2422     5.4906
  325.0000   159.4085     6.2422     6.0304
  325.5000   149.6876     6.2422     7.2494
  326.0000   140.2124     6.4192     7.8852
  326.5000   134.1502     7.0795     8.1111
  327.0000   134.7951     8.4913     9.3943
  327.5000   132.2837     9.9035    10.3618
  328.0000   126.5843    10.7705    10.7334
  328.5000   127.4874    10.7716    10.7370
  329.0000   129.6044    10.6895    10.6660
  329.5000   131.4198    10.6209    10.6697
  330.0000   130.1967    10.7705    10.6734
  330.5000   130.7962    11.0761    10.7526
  331.0000   132.6098    11.7134    11.1375
  331.5000   134.7319    12.3874    11.7213
  332.0000   134.7193    13.2848    12.9953
  332.5000   131.3725    14.3471    14.8426
  333.0000   121.6535    15.2791    15.7001
  333.5000   103.7402    16.5009    16.6070
  334.0000    87.6478    17.4536    17.3229
  334.5000    82.7845    18.5979    18.0697
  335.0000    82.7769    19.3804    18.8487
  335.5000    81.8576    19.6534    19.5245
  336.0000    76.9943    19.9302    19.9443
  336.5000    70.0067    20.0701    20.0909
  337.0000    68.7854    20.2109    20.0979
  337.5000    71.2059    20.2109    20.2470
  338.0000    74.2334    20.2109    20.2539
  338.5000    73.9226    20.2109    20.4027
  339.0000    71.1229    20.2109    20.5525
  339.5000    69.3536    20.2109    20.5595
  340.0000    73.5951    20.3527    20.5665
  340.5000    81.4803    20.7843    20.7176
  341.0000    82.3816    21.0770    21.0055
  341.5000    82.0707    21.8271    21.3220
  342.0000    81.4564    22.6038    21.8138
  342.5000    80.2351    23.4082    22.7176
  343.0000    77.7997    24.4113    23.6969
  343.5000    78.2777    25.6360    24.8915
  344.0000    83.2460    26.7346    26.1464
  344.5000    86.8805    28.2730    27.8505
  345.0000    89.9080    29.9280    29.6656
  345.5000    89.2937    31.6204    31.8203
  346.0000    85.0374    32.7456    33.4244
  346.5000    77.7463    33.6746    34.6229
  347.0000    70.4552    34.3885    35.6153
  347.5000    68.0197    34.8729    35.6302
  348.0000    71.3491    34.8729    34.6613
  348.5000    75.8940    34.3885    33.0202
  349.0000    78.9234    32.7456    31.2382
  349.5000    83.4665    30.7481    29.7592
  350.0000    83.7645    29.0586    28.3492
  350.5000    81.3274    28.0219    27.7581
  351.0000    81.0165    26.9060    27.1794
  351.5000    82.5366    26.1631    26.4277
  352.0000    86.1536    25.9793    26.2404
  352.5000    87.3587    26.1600    26.4205
  353.0000    86.7428    25.7950    26.2323
  353.5000    85.5200    25.4355    26.0463
  354.0000    86.4216    24.9065    25.5033
  354.5000    89.4537    24.3885    24.9716
  355.0000    90.0458    23.8813    24.4510
  355.5000    88.8208    23.0401    23.7747
  356.0000    87.9015    21.9342    22.9565
  356.5000    90.9275    21.2035    22.0122
  357.0000    93.3466    20.4746    21.1068
  357.5000    94.5539    19.6331    20.2363
  358.0000    94.5428    19.7694    19.8019
  358.5000    95.4445    19.7680    19.6756
  359.0000    96.3461    19.6291    19.8113
  359.5000    95.6834    19.6278    19.9473
  360.0000    92.3808    19.6264    20.0842
  360.5000    89.6405    19.9011    20.2221
  361.0000    89.0247    20.0392    20.2186
  361.5000    87.8019    20.0375    20.0753
  362.0000    88.4000    19.7582    19.9330
  362.5000    89.6051    19.6194    19.6541
  363.0000    93.2381    19.8940    19.1105
  363.5000    96.2822    20.1727    18.8431
