~VERSION INFORMATION
 VERS.                2.0:   CWLS LOG ASCII STANDARD - VERSION 2.0
 WRAP.                 NO:   ONE LINE PER DEPTH STEP
~WELL INFORMATION
#MNEM.UNIT      DATA TYPE    INFORMATION
#----------   ------------   ------------------------------
 STRT.F           29.0000:   START DEPTH
 STOP.F          503.0000:   STOP DEPTH
 STEP.F            0.5000:   STEP LENGTH
 NULL.          -999.2500:   NO VALUE
 COMP. FENIX & SCISSON INC:   COMPANY
 WELL.      78 SX 3 #78-3:   WELL
 FLD .             TEAPOT:   FIELD
 LOC .       S3 T38N R78W:   LOCATION
 CNTY.            NATRONA:   COUNTY
 STAT.            WYOMING:   STATE
 CTRY. UNITED STATES OF AMERICA:   COUNTRY
 SRVC.            Unknown:   SERVICE COMPANY
 DATE.        17-OCT-1978:   LOGDATE
 API .       490251072400:   API NUMBER
~CURVE INFORMATION
#MNEM.UNIT       API CODE    CURVE DESCRIPTION
#----------   ------------   ------------------------------
 DEPT.F                  :   
 CALD.IN     45 280 60 00:   CALIPER
 GRD .GAPI   45 310 01 00:   GAMMA RAY FROM DENSITY LOG
 CORR.G/C3   45 356 01 00:   DENSITY CORRECTION
 RHOB.G/C3   45 350 01 00:   BULK DENSITY
 DPHI.DEC    45 890 12 00:   DENSITY POROSITY SANDSTONE
 SPR .MV     05 010 01 00:   SPONTANEOUS POTENTIAL FROM RES.
 IL  .OHMM   05 120 00 00:   INDUCTION LOG
 SN  .OHMM   05 040 16 00:   SHORT NORMAL 16"
~PARAMETER INFORMATION
#MNEM.UNIT          VALUE    DESCRIPTION
#----------   ------------   ------------------------------
 PD  .                 GL:   PERMANENT DATUM
 EPD .F              5154:   ELEVATION PERMANENT DATUM
 LMF .                 KB:   LOG MEASURED FROM
 DAPD.F                 4:   FEET ABOVE PERMANENT DATUM
 DMF .                 KB:   DRILLING MEASURED FROM
 EKB .F              5158:   KELLING BUSHING
 EGL .F              5154:   GROUND LEVEL
 DATE.           10-17-78:   RUN DATE
 RUN .                  1:   RUN NUMBER
 DD  .F               498:   DEPTH DRILLER
 DL  .F               503:   DEPTH LOGGER
 BLI .F               497:   BOTTOM LOG INTERVAL
 TLI .F                46:   TOP LOG INTERVAL
 CS  .IN            8.625:   CASING SIZE
 CBD .F                40:   CASING BOTTOM DRILLER
 BS  .IN            7.875:   BIT SIZE
 BSD .F               498:   BIT SIZE AT DEPTH
 DFT .                KCL:   DRILLING FLUID TYPE
 DFD .                8.7:   DRILLING FLUID DENSITY
 DFV .                 38:   DRILLING FLUID VISCOSITY
 DFPH.                  9:   DRILLING FLUID PH
 DFL .                9.6:   DRILLING FLUID LOSS
 MSS .          FLOW LINE:   MUD SAMPLE SOURCE
 RMS .OHMM             .2:   RESISTIVITY MUD SAMPLE
 MST .F                52:   MUD SAMPLE TEMPERATURE
 RMF .OHMM            .18:   RESISTIVITY MUD FILTRATE SAMPLE
 MFST.F                58:   MUD FILTRATE SAMPLE TEMPERATURE
 RMC .OHMM            .16:   RESISTIVITY MUD CAKE
 MCST.F                64:   MUD CAKE SAMPLE TEMPERATURE
 MFSS.               MEAS:   MUD FILTRATE SAMPLE SOURCE
 MCSS.               MEAS:   MUD CAKE SAMPLE SOURCE
 TCS .HRS               1:   TIME CURCULATED STOPPED
 MRT .F                72:   MAXIMUM RECORDED TEMPERATURE
 LUN .               2958:   LOGGING UNIT NUMBER
 LUL .               CASP:   LOGGING UNIT LOCATION
 ENGI.             MILLER:   RECORDING ENGINEER
 WITN.           DINSMORE:   WITNESSED BY
 CLNT.            A2DTECH:   CLIENT CODE
 ORIG.           5" PRINT:   ORIGIN OF DATA
 UWI .       490251072400:   UNIQUE WELL ID
 DICO. A2D Technologies, Inc.:   DIGITIZING COMPANY
~OTHER INFORMATION
~A   DEPT     CALD         GRD      CORR       RHOB       DPHI        SPR         IL         SN   
# ...
  150.5000     7.9806   123.0219     0.0109     2.4672     0.1184   -34.1846     8.6156     7.6308
  151.0000     7.9779   121.8721     0.0128     2.4742     0.1147   -34.2411     8.6771     7.6254
  151.5000     7.9752   121.9211     0.0145     2.4805     0.1108   -35.7332     8.7396     7.6200
  152.0000     7.9724   123.5242     0.0119     2.4848     0.1123   -36.3856     8.8071     7.6145
  152.5000     7.9697   125.1876     0.0069     2.4824     0.1140   -36.4151     8.7735     7.6090
  153.0000     7.9670   125.5241     0.0024     2.4795     0.1157   -36.4097     8.6721     7.6037
  153.5000     7.9643   126.9031     0.0029     2.4765     0.1173   -36.4087     8.5724     7.5946
  154.0000     7.9616   129.1595     0.0033     2.4736     0.1188   -36.4087     8.4738     7.5466
  154.5000     7.9588   130.5955     0.0037     2.4709     0.1156   -36.4095     8.3763     7.4992
  155.0000     7.9561   126.3452     0.0041     2.4763     0.1123   -36.4124     8.3264     7.4520
  155.5000     7.9534   122.9560     0.0045     2.4843     0.1089   -36.4022     8.3135     7.4052
  156.0000     7.9507   121.4967     0.0049     2.4923     0.1055   -35.6247     8.3007     7.3073
  156.5000     7.9480   120.3471     0.0052     2.4992     0.1020   -35.2361     8.2879     7.1931
  157.0000     7.9453   119.9597     0.0056     2.4939     0.1065   -35.2448     8.2750     7.1556
  157.5000     7.9425   119.4307     0.0060     2.4848     0.1147   -35.2616     8.2624     7.1175
  158.0000     7.9398   118.6737     0.0064     2.4756     0.1199   -35.2797     8.1728     7.0796
  158.5000     7.9371   117.9162     0.0079     2.4682     0.1198   -35.2972     8.0325     7.0419
  159.0000     7.9344   119.4933     0.0098     2.4619     0.1196   -35.3146     7.7933     7.0044
  159.5000     7.9317   122.2285     0.0117     2.4722     0.1227   -35.3321     7.5616     6.9165
  160.0000     7.9289   123.2859     0.0137     2.4655     0.1275   -35.3495     7.3369     6.8179
  160.5000     7.9262   123.6379     0.0142     2.4585     0.1324   -35.3670     7.1188     6.7207
  161.0000     7.9235   124.0173     0.0137     2.4517     0.1335   -35.3846     6.9540     6.6248
  161.5000     7.9208   123.5510     0.0132     2.4474     0.1343   -35.4020     6.8542     6.5302
  162.0000     7.9180   122.1000     0.0127     2.4556     0.1266   -35.4061     6.7558     6.4406
  162.5000     7.9154   120.8031     0.0122     2.4636     0.1187   -35.3296     6.6828     6.4414
  163.0000     7.9105   122.7490     0.0117     2.4717     0.1183   -35.2509     6.6828     6.4414
  163.5000     7.9044   124.8425     0.0112     2.4711     0.1197   -35.4715     6.9718     6.6701
  164.0000     7.8983   126.9462     0.0106     2.4686     0.1211   -35.9153     7.1778     6.8942
  164.5000     7.8922   127.6410     0.0133     2.4662     0.1216   -36.1282     7.3900     7.0620
  165.0000     7.8860   127.0965     0.0178     2.4708     0.1183   -35.3201     7.6084     7.0476
  165.5000     7.8799   124.9747     0.0196     2.4797     0.1151   -33.7213     7.8139     7.0364
  166.0000     7.8738   122.8727     0.0174     2.4886     0.1120   -33.4577     7.7973     7.0252
  166.5000     7.8676   121.3432     0.0153     2.4863     0.1088   -33.5568     7.7787     7.0140
  167.0000     7.8615   123.5093     0.0131     2.4675     0.1264   -33.5856     7.7601     7.0028
  167.5000     7.8553   127.5582     0.0109     2.4564     0.1243   -33.2836     7.7415     6.9916
  168.0000     7.8492   128.4492     0.0088     2.4588     0.1223   -33.0292     7.7230     6.9805
  168.5000     7.8431   124.9300     0.0089     2.4650     0.1203   -33.0348     7.7045     6.9694
  169.0000     7.8369   123.5046     0.0094     2.4678     0.1198   -33.0357     7.6861     6.9583
  169.5000     7.8308   123.9653     0.0099     2.4688     0.1195   -33.0357     7.6678     6.9470
  170.0000     7.8246   124.3874     0.0103     2.4699     0.1192   -33.0357     7.6494     6.9361
  170.5000     7.8186   124.6564     0.0108     2.4710     0.1203   -33.0358     7.6312     6.8580
  171.0000     7.8213   124.4246     0.0113     2.4704     0.1220   -33.0356     7.6129     6.7578
  171.5000     7.8545   123.9388     0.0118     2.4593     0.1236   -33.0358     7.6012     6.6590
  172.0000     7.8866   119.6009     0.0123     2.4629     0.1190   -32.9653     7.3873     6.5617
  172.5000     7.9188   115.3073     0.0128     2.4761     0.1138   -32.8508     7.1147     6.4658
  173.0000     7.9506   115.1791     0.0132     2.4790     0.1132   -33.3864     6.8523     6.3713
  173.5000     7.9549   117.2084     0.0137     2.4697     0.1267   -35.4068     6.6660     6.2782
  174.0000     7.9557   121.1753     0.0142     2.4503     0.1359   -36.9666     6.5325     6.1865
  174.5000     7.9565   125.1470     0.0144     2.4310     0.1450   -37.3662     6.4016     6.0955
  175.0000     7.9574   126.7451     0.0143     2.4220     0.1454   -37.3842     6.3240     6.0701
  175.5000     7.9583   126.9281     0.0142     2.4246     0.1448   -37.3570     6.3240     6.0397
  176.0000     7.9592   125.5843     0.0140     2.4307     0.1357   -37.3313     6.3750     6.1634
  176.5000     7.9601   123.7337     0.0139     2.4513     0.1257   -37.3064     6.4861     6.3202
  177.0000     7.9609   122.4971     0.0138     2.4740     0.1164   -37.2816     6.6964     6.4809
  177.5000     7.9618   124.4169     0.0137     2.4805     0.1137   -37.2575     6.9135     6.6458
  178.0000     7.9627   127.6568     0.0135     2.4798     0.1146   -37.2353     7.1377     6.8148
  178.5000     7.9636   131.0168     0.0134     2.4760     0.1155   -37.2171     7.3693     6.9881
  179.0000     7.9645   131.4093     0.0133     2.4730     0.1164   -36.3547     7.6083     7.1658
  179.5000     7.9654   126.7745     0.0132     2.4730     0.1152   -33.7167     7.7747     7.2396
  180.0000     7.9662   127.6065     0.0130     2.4755     0.1140   -33.1154     7.8470     7.3117
  180.5000     7.9671   128.0686     0.0129     2.4789     0.1132   -32.9107     7.9199     7.3846
  181.0000     7.9680   128.1042     0.0128     2.4823     0.1138   -32.7107     7.9935     7.4581
  181.5000     7.9689   128.0980     0.0127     2.4818     0.1147   -32.6632     8.0679     7.5324
  182.0000     7.9698   128.4890     0.0126     2.4794     0.1155   -32.6985     8.1429     7.6012
  182.5000     7.9707   129.1895     0.0129     2.4770     0.1164   -32.7342     8.2186     7.6232
  183.0000     7.9715   129.8473     0.0143     2.4749     0.1164   -32.7664     8.2950     7.6436
  183.5000     7.9724   128.8382     0.0157     2.4742     0.1142   -32.8130     8.3721     7.6640
  184.0000     7.9733   128.5933     0.0170     2.4774     0.1120   -33.4457     8.4499     7.6845
  184.5000     7.9742   129.9754     0.0184     2.4809     0.1098   -35.2496     8.5284     7.7050
  185.0000     7.9742   131.1422     0.0198     2.4844     0.1077   -34.2034     8.5964     7.7256
  185.5000     7.9740   128.7449     0.0211     2.4879     0.1059   -34.1142     8.6904     7.7463
  186.0000     7.9738   125.3864     0.0225     2.4924     0.1042   -34.2081     8.7861     7.7670
  186.5000     7.9735   125.3043     0.0239     2.4986     0.1024   -34.3098     8.8887     7.7877
  187.0000     7.9733   125.6833     0.0248     2.5049     0.1007   -34.4096     8.8872     7.8134
  187.5000     7.9731   127.4828     0.0256     2.5041     0.1003   -34.5095     8.8877     7.7980
  188.0000     7.9729   129.5833     0.0263     2.5017     0.1007   -34.6108     8.8877     7.7768
  188.5000     7.9726   128.0227     0.0270     2.4993     0.1012   -34.5606     8.8877     7.7557
  189.0000     7.9724   126.3045     0.0277     2.4969     0.1017   -34.4870     8.8877     7.7346
  189.5000     7.9722   124.5798     0.0284     2.4958     0.1022   -34.4130     8.8593     7.7137
  190.0000     7.9720   124.4149     0.0291     2.4954     0.1026   -34.3394     8.6968     7.6929
  190.5000     7.9717   124.5521     0.0299     2.4951     0.1028   -34.2655     8.5374     7.6714
