~VERSION INFORMATION
 VERS.                2.0:   CWLS LOG ASCII STANDARD - VERSION 2.0
 WRAP.                 NO:   ONE LINE PER DEPTH STEP
~WELL INFORMATION
#MNEM.UNIT      DATA TYPE    INFORMATION
#----------   ------------   ------------------------------
 STRT.F            4.0000:   START DEPTH
 STOP.F          614.0000:   STOP DEPTH
 STEP.F            0.1000:   STEP LENGTH
 NULL.          -999.2500:   NO VALUE
 COMP.   FLUOR DANIEL INC:   COMPANY
 WELL.     63-4 X 3 #63-3:   WELL
 FLD .          N.P.R. #3:   FIELD
 LOC .       S3 T38N R78W:   LOCATION
 CNTY.            NATRONA:   COUNTY
 STAT.            WYOMING:   STATE
 CTRY. UNITED STATES OF AMERICA:   COUNTRY
 SRVC.      Western Atlas:   SERVICE COMPANY
 DATE.        01-JUN-1995:   LOGDATE
 API .       490252271300:   API NUMBER
~CURVE INFORMATION
#MNEM.UNIT       API CODE    CURVE DESCRIPTION
#----------   ------------   ------------------------------
 DEPT.F                  :   
 GRR .GAPI   07 310 01 00:   GAMMA RAY
 RILD.OHMM   07 120 46 00:   INDUCTION LOG DEEP RESISTIVITY
 RILM.OHMM   07 120 44 00:   INDUCTION LOG MEDIUM RESISTIVITY
~PARAMETER INFORMATION
#MNEM.UNIT          VALUE    DESCRIPTION
#----------   ------------   ------------------------------
 PD  .                 GL:   PERMANENT DATUM
 EPD .F              5173:   ELEVATION PERMANENT DATUM
 LMF .                 KB:   LOG MEASURED FROM
 DAPD.F                10:   FEET ABOVE PERMANENT DATUM
 DMF .                 KB:   DRILLING MEASURED FROM
 EKB .F              5183:   KELLING BUSHING
 EDF .F              5182:   DRILLING FLOOR
 EGL .F              5173:   GROUND LEVEL
 DATE.        01-JUN-1995:   RUN DATE
 RUN .                  1:   RUN NUMBER
 DD  .F               626:   DEPTH DRILLER
 DL  .F               622:   DEPTH LOGGER
 BLI .F               614:   BOTTOM LOG INTERVAL
 TLI .F                95:   TOP LOG INTERVAL
 CS  .IN            9.625:   CASING SIZE
 CBD .F                95:   CASING BOTTOM DRILLER
 CBL .F                95:   CASING BOTTOM LOGGER
 BS  .IN             8.75:   BIT SIZE
 BSD .F               626:   BIT SIZE AT DEPTH
 DFT .                AIR:   DRILLING FLUID TYPE
 MRT .F               147:   MAXIMUM RECORDED TEMPERATURE
 LUN .            HL 6530:   LOGGING UNIT NUMBER
 LUL .             CASPER:   LOGGING UNIT LOCATION
 ENGI.        VERN RAUTIO:   RECORDING ENGINEER
 WITN.        STEVE HARDY:   WITNESSED BY
 CLNT.            A2DTECH:   CLIENT CODE
 ORIG.           5" PRINT:   ORIGIN OF DATA
 UWI .       490252271300:   UNIQUE WELL ID
 DICO. A2D Technologies, Inc.:   DIGITIZING COMPANY
~OTHER INFORMATION
~A    DEPT       GRR     RILD       RILM   
# ...
  368.0000   119.2640     4.5671     4.4733
  368.1000   119.2646     4.5673     4.4735
  368.2000   119.2652     4.5674     4.4737
  368.3000   119.2658     4.5675     4.4739
  368.4000   119.3387     4.5676     4.4741
  368.5000   119.6289     4.5678     4.4743
  368.6000   120.1726     4.5679     4.4745
  368.7000   120.6678     4.5680     4.4746
  368.8000   121.3924     4.5681     4.4748
  368.9000   122.4971     4.5683     4.4750
  369.0000   123.7949     4.5684     4.4752
  369.1000   125.0142     4.5685     4.4754
  369.2000   126.0523     4.5687     4.4756
  369.3000   127.1149     4.5688     4.4758
  369.4000   127.7190     4.5689     4.4534
  369.5000   128.5641     4.5690     4.4453
  369.6000   129.0956     4.5692     4.4454
  369.7000   129.0389     4.5693     4.4456
  369.8000   128.6504     4.5694     4.4458
  369.9000   128.0719     4.5695     4.4460
  370.0000   126.5158     4.5697     4.4462
  370.1000   123.8016     4.5698     4.4464
  370.2000   122.2815     4.5699     4.4466
  370.3000   120.9911     4.5701     4.4467
  370.4000   119.9540     4.5702     4.4380
  370.5000   119.0980     4.5508     4.4164
  370.6000   118.5798     4.5388     4.4166
  370.7000   118.0675     4.5286     4.4168
  370.8000   117.7726     4.5077     4.3952
  370.9000   117.5499     4.5064     4.3694
  371.0000   117.4721     4.4768     4.3566
  371.1000   117.4727     4.4534     4.3483
  371.2000   117.6663     4.4460     4.3228
  371.3000   118.2400     4.4461     4.2973
  371.4000   119.0190     4.4463     4.2679
  371.5000   119.8885     4.4464     4.2472
  371.6000   121.0351     4.4453     4.2388
  371.7000   122.1458     4.4159     4.2267
  371.8000   123.4737     4.3930     4.2019
  371.9000   124.8259     4.3671     4.1773
  372.0000   125.8039     4.3413     4.1524
  372.1000   126.5647     4.3157     4.1239
  372.2000   127.1325     4.2956     4.1241
  372.3000   127.3683     4.2946     4.1242
  372.4000   127.4353     4.2661     4.1127
  372.5000   127.4359     4.2221     4.0961
  372.6000   127.3279     4.1899     4.0928
  372.7000   127.0690     4.1651     4.0682
  372.8000   126.7860     4.1406     4.0404
  372.9000   126.2317     4.1161     4.0213
  373.0000   125.7496     4.0909     4.0128
  373.1000   125.2313     4.0365     4.0018
  373.2000   124.7131     3.9950     3.9784
  373.3000   124.3095     3.9810     3.9550
  373.4000   124.0506     3.9685     3.9310
  373.5000   123.7919     3.9537     3.9088
  373.6000   123.5210     3.9538     3.9042
  373.7000   123.0268     3.9544     3.8899
  373.8000   122.9189     3.9663     3.8776
  373.9000   122.9195     3.9782     3.8846
  374.0000   122.9201     3.9818     3.9078
  374.1000   122.9207     3.9946     3.9322
  374.2000   122.9213     4.0185     3.9547
  374.3000   122.9219     4.0426     3.9783
  374.4000   122.6209     4.0660     3.9875
  374.5000   122.6214     4.0662     3.9983
  374.6000   122.6220     4.0872     4.0222
  374.7000   122.4960     4.0947     4.0435
  374.8000   122.4060     4.1077     4.0437
  374.9000   122.6238     4.1324     4.0666
  375.0000   122.6244     4.1523     4.0910
  375.1000   122.9268     4.1531     4.1006
  375.2000   123.1445     4.1815     4.1007
  375.3000   123.4045     4.1816     4.1009
  375.4000   123.6645     4.1990     4.1011
  375.5000   123.8341     4.2109     4.1013
  375.6000   123.8347     4.2110     4.1014
  375.7000   123.8353     4.2111     4.1016
  375.8000   123.8360     4.2107     4.0872
  375.9000   123.6133     4.1823     4.0529
  376.0000   123.1735     4.1401     4.0115
  376.1000   122.9327     4.0913     3.9835
  376.2000   122.8368     4.0306     3.9085
  376.3000   122.5236     3.9677     3.8448
  376.4000   122.0053     3.9166     3.7773
  376.5000   121.4269     3.8473     3.7109
  376.6000   120.7396     3.7695     3.6457
  376.7000   120.1491     3.6757     3.5763
  376.8000   119.6308     3.5398     3.4925
  376.9000   119.0100     3.3654     3.4043
  377.0000   118.2323     3.1585     3.2955
  377.1000   117.4728     2.9343     3.1808
  377.2000   116.9062     2.6992     3.0391
  377.3000   116.9068     2.5033     2.8813
  377.4000   116.9074     2.4171     2.7277
  377.5000   116.9080     2.3373     2.5703
  377.6000   117.2343     2.2895     2.4093
  377.7000   118.3447     2.2579     2.3207
  377.8000   120.5173     2.2203     2.2460
  377.9000   123.8486     2.1941     2.1733
  378.0000   125.0558     2.1642     2.1024
  378.1000   126.1545     2.1643     2.0411
  378.2000   127.1929     2.1557     1.9838
  378.3000   128.1165     2.1429     1.9582
  378.4000   128.8953     2.1346     1.9448
  378.5000   129.6440     2.1347     1.9449
  378.6000   130.1877     2.1347     1.9429
  378.7000   130.4356     2.1201     1.9316
  378.8000   130.6957     2.1095     1.9317
  378.9000   130.9557     2.1055     1.9318
  379.0000   131.0950     2.0992     1.9319
  379.1000   131.0956     2.0910     1.9377
  379.2000   131.0962     2.0911     1.9493
  379.3000   131.0968     2.0912     1.9668
  379.4000   131.0975     2.0912     2.0141
  379.5000   130.6758     2.0913     2.0423
  379.6000   129.6510     2.0913     2.0625
  379.7000   128.2277     2.0914     2.1037
  379.8000   126.6717     2.0915     2.1542
  379.9000   125.2001     2.0915     2.2060
  380.0000   124.1629     2.0916     2.2589
  380.1000   122.9570     2.1062     2.3137
  380.2000   122.5232     2.1063     2.3788
  380.3000   121.8300     2.1063     2.4257
  380.4000   120.7868     2.1064     2.4840
  380.5000   119.6712     2.1148     2.5363
  380.6000   118.8452     2.1380     2.5867
  380.7000   117.8141     2.1509     2.6464
  380.8000   116.9280     2.1659     2.6950
  380.9000   116.0357     2.1875     2.7516
  381.0000   114.9985     2.2137     2.8053
  381.1000   113.9613     2.2469     2.8838
  381.2000   112.8276     2.2829     2.9537
  381.3000   111.5854     2.3147     3.0123
  381.4000   110.5485     2.3708     3.0820
  381.5000   109.3907     2.4376     3.1390
  381.6000   107.7863     2.5235     3.2273
  381.7000   106.3449     2.6204     3.2738
  381.8000   105.1932     2.7238     3.3326
  381.9000   104.2587     2.8624     3.3925
  382.0000   103.6621     3.0706     3.4535
  382.1000   103.6446     3.3784     3.5154
  382.2000   103.3617     3.5222     3.5811
  382.3000   103.5976     3.5744     3.6430
  382.4000   104.2437     3.6389     3.6911
  382.5000   104.8717     3.6829     3.7352
  382.6000   105.4997     3.7121     3.7696
  382.7000   106.4775     3.7531     3.7857
  382.8000   108.0348     3.7760     3.7859
  382.9000   109.7008     3.7761     3.7861
  383.0000   111.3906     3.7762     3.7862
  383.1000   112.6100     3.7763     3.7864
  383.2000   113.4914     3.7656     3.7728
  383.3000   114.0410     3.7504     3.7606
  383.4000   114.2287     3.7472     3.7607
  383.5000   114.2293     3.7246     3.7585
  383.6000   114.2299     3.6990     3.7351
  383.7000   113.9831     3.6991     3.7353
  383.8000   113.7243     3.6850     3.7184
  383.9000   113.4655     3.6737     3.7098
  384.0000   113.3273     3.6670     3.7100
  384.1000   113.3279     3.6485     3.7101
  384.2000   113.3285     3.6486     3.7081
  384.3000   113.3291     3.6235     3.6848
  384.4000   113.3298     3.6235     3.6850
  384.5000   113.5415     3.6236     3.6851
  384.6000   113.8015     3.6237     3.6853
  384.7000   114.0616     3.6238     3.6855
  384.8000   114.3216     3.6270     3.6856
  384.9000   114.5816     3.6493     3.6858
  385.0000   114.8416     3.6494     3.6859
  385.1000   115.4456     3.6495     3.6861
  385.2000   115.6633     3.6496     3.7027
  385.3000   115.7484     3.6599     3.7120
  385.4000   115.7490     3.6752     3.7213
  385.5000   115.6591     3.6783     3.7436
  385.6000   115.4004     3.7010     3.7660
  385.7000   115.1355     3.7269     3.7905
  385.8000   114.5449     3.7448     3.7906
  385.9000   113.8758     3.7673     3.8076
  386.0000   113.0980     3.7898     3.8303
  386.1000   112.3203     3.8194     3.8533
