~VERSION INFORMATION
 VERS.                2.0:   CWLS LOG ASCII STANDARD - VERSION 2.0
 WRAP.                 NO:   ONE LINE PER DEPTH STEP
~WELL INFORMATION
#MNEM.UNIT      DATA TYPE    INFORMATION
#----------   ------------   ------------------------------
 STRT.F            0.0000:   START DEPTH
 STOP.F          546.0000:   STOP DEPTH
 STEP.F            0.5000:   STEP LENGTH
 NULL.          -999.2500:   NO VALUE
 COMP. LAWRENCE/ALLISON INC:   COMPANY
 WELL.   NPR 3 #76-21SX10:   WELL
 FLD .             TEAPOT:   FIELD
 LOC .      S10 T38N R78W:   LOCATION
 CNTY.            NATRONA:   COUNTY
 STAT.            WYOMING:   STATE
 CTRY. UNITED STATES OF AMERICA:   COUNTRY
 SRVC.      Dresser Atlas:   SERVICE COMPANY
 DATE.        22-JUL-1984:   LOGDATE
 API .       490251097000:   API NUMBER
~CURVE INFORMATION
#MNEM.UNIT       API CODE    CURVE DESCRIPTION
#----------   ------------   ------------------------------
 DEPT.F                  :   
 CALD.IN     45 280 60 00:   CALIPER FROM DENSITY LOG
 DEN .G/C3   45 350 01 00:   COMPENSATED BULK DENSTIY
 CORR.G/C3   45 356 01 00:   DENSITY CORRECTION
 DPHI.DEC    45 890 12 00:   POROSITY DENSITY SANDSTONE
 CNC .DEC    42 890 03 00:   NEUTRON POROSITY SANDSTONE
 GRR .GAPI   07 310 01 00:   GAMMA RAY
 SPR .MV     07 010 01 00:   SPONTANEOUS POTENTIAL
 RILD.OHMM   07 120 46 00:   INDUCTION LOG DEEP RESISTIVITY
 RILM.OHMM   07 120 44 00:   INDUCTION LOG MEDIUM RESISTIVITY
 RFOC.OHMM   07 220 04 00:   RESISTIVITY FOCUSED LOG
 AC  .US/F   60 520 00 00:   ACCOUSTIC
~PARAMETER INFORMATION
#MNEM.UNIT          VALUE    DESCRIPTION
#----------   ------------   ------------------------------
 PD  .                 GL:   PERMANENT DATUM
 EPD .F              5167:   ELEVATION PERMANENT DATUM
 LMF .                 GL:   LOG MEASURED FROM
 DMF .                 GL:   DRILLING MEASURED FROM
 EGL .F              5167:   GROUND LEVEL
 DATE.        22-JUL-1984:   RUN DATE
 RUN .                  1:   RUN NUMBER
 DD  .F               551:   DEPTH DRILLER
 DL  .F               547:   DEPTH LOGGER
 BLI .F               544:   BOTTOM LOG INTERVAL
 CS  .IN            9.625:   CASING SIZE
 CBD .F                40:   CASING BOTTOM DRILLER
 CBL .F                42:   CASING BOTTOM LOGGER
 BS  .IN            7.875:   BIT SIZE
 BSD .F               551:   BIT SIZE AT DEPTH
 DFT .        KCL POLYMER:   DRILLING FLUID TYPE
 MSS .           FLOWLINE:   MUD SAMPLE SOURCE
 RMS .OHMM           .193:   RESISTIVITY MUD SAMPLE
 MST .F                75:   MUD SAMPLE TEMPERATURE
 RMF .OHMM           .144:   RESISTIVITY MUD FILTRATE SAMPLE
 MFST.F                75:   MUD FILTRATE SAMPLE TEMPERATURE
 RMC .OHMM            .24:   RESISTIVITY MUD CAKE
 MCST.F                74:   MUD CAKE SAMPLE TEMPERATURE
 MFSS.               CALC:   MUD FILTRATE SAMPLE SOURCE
 MCSS.               CALC:   MUD CAKE SAMPLE SOURCE
 TCS .HRS               5:   TIME CURCULATED STOPPED
 MRT .F                90:   MAXIMUM RECORDED TEMPERATURE
 LUN .               6274:   LOGGING UNIT NUMBER
 LUL .               GLTE:   LOGGING UNIT LOCATION
 ENGI.             RAUTIO:   RECORDING ENGINEER
 WITN.              FIVAS:   WITNESSED BY
 CLNT.            A2DTECH:   CLIENT CODE
 ORIG.       2", 5" PRINT:   ORIGIN OF DATA
 UWI .       490251097000:   UNIQUE WELL ID
 DICO. A2D Technologies, Inc.:   DIGITIZING COMPANY
~OTHER INFORMATION
~A    DEPT    CALD        DEN       CORR       DPHI        CNC         GRR       SPR       RILD       RILM       RFOC         AC   
# ...
  213.5000     8.3770     2.4970     0.0530     0.0920     0.2779   137.7110   -43.5020     7.4280     7.2910     8.1760   117.2110
  214.0000     8.3720     2.4930     0.0620     0.0950     0.2798   138.7100   -44.4230     7.1910     6.9880     8.2430   111.0420
  214.5000     8.3670     2.4900     0.0710     0.0960     0.2976   137.7940   -45.6820     6.9640     6.6780     8.2970   108.3080
  215.0000     8.3620     2.4880     0.0700     0.0970     0.3053   137.8940   -46.9440     6.7680     6.2450     7.8810   109.8370
  215.5000     8.3570     2.4760     0.0680     0.1060     0.3102   139.6260   -47.7580     6.6950     6.2790     7.0870   111.4320
  216.0000     8.3520     2.4550     0.0590     0.1200     0.2985   141.3390   -48.2990     6.6230     6.3330     6.4150   113.2840
  216.5000     8.3470     2.4370     0.0500     0.1290     0.2900   142.6640   -48.5280     6.5500     6.4190     6.1880   112.7940
  217.0000     8.3470     2.4360     0.0270     0.1290     0.2844   141.0160   -48.3110     6.3470     6.3220     6.7820   111.6440
  217.5000     8.3480     2.4360     0.0040     0.1300     0.2955   136.5720   -48.0920     6.1160     6.0980     7.4120   110.4940
  218.0000     8.3490     2.4310    -0.0210     0.1330     0.3057   134.0030   -48.0300     5.8860     5.8830     7.6840   110.1000
  218.5000     8.3500     2.4350    -0.0220     0.1310     0.3216   134.6350   -48.0210     5.6550     5.5950     7.9760   111.8880
  219.0000     8.3510     2.4350    -0.0130     0.1290     0.3275   135.7180   -48.3670     5.4430     5.2900     7.6210   113.4150
  219.5000     8.3510     2.4180    -0.0030     0.1430     0.3262   136.8180   -48.8770     5.4720     5.0120     7.0360   115.0750
  220.0000     8.3520     2.3860     0.0090     0.1650     0.3249   137.9470   -48.7860     5.4990     5.1050     5.7710   110.4480
  220.5000     8.3530     2.3650     0.0210     0.1740     0.3220   137.8750   -48.1240     5.5260     5.3350     4.9670   104.5040
  221.0000     8.3540     2.3750     0.0190     0.1540     0.3050   135.3910   -46.3000     5.6610     5.5910     5.5040    99.6520
  221.5000     8.3550     2.4130     0.0170     0.1320     0.2989   129.8830   -44.5120     5.9920     5.8470     6.6140   101.5840
  222.0000     8.3560     2.4540     0.0180     0.1120     0.2936   127.4800   -43.2890     6.2400     6.1030     7.5020   105.0230
  222.5000     8.3560     2.4760     0.0280     0.1030     0.2917   130.0740   -42.5420     6.4880     6.3580     7.9260   107.9100
  223.0000     8.3570     2.4830     0.0370     0.1000     0.2863   132.9800   -42.4200     6.7380     6.6140     7.8440   107.9730
  223.5000     8.3580     2.4870     0.0520     0.0970     0.2773   134.8750   -42.3230     6.9910     6.8700     7.7820   107.6240
  224.0000     8.3590     2.4910     0.0690     0.0940     0.2746   134.6020   -42.4630     7.2430     7.1250     7.7190   107.2410
  224.5000     8.3600     2.4950     0.0720     0.0940     0.2860   133.6470   -42.6450     7.4330     7.2320     7.6400   106.8040
  225.0000     8.3600     2.4950     0.0630     0.0940     0.2924   134.3340   -43.2980     7.3230     7.1850     7.6900   105.8010
  225.5000     8.3610     2.4960     0.0530     0.0920     0.2961   135.3130   -44.0420     7.0430     6.9770     7.7720   104.6540
  226.0000     8.3620     2.4990     0.0450     0.0900     0.2997   136.3630   -44.6320     6.7640     6.5120     7.8530   104.1290
  226.5000     8.3630     2.5010     0.0380     0.0920     0.3096   135.1950   -45.3750     6.1800     6.1220     7.9870   104.8800
  227.0000     8.3640     2.4940     0.0320     0.0980     0.3231   133.1900   -46.0770     5.4430     5.5790     7.8530   106.9140
  227.5000     8.3640     2.4800     0.0260     0.1110     0.3339   132.9300   -47.8280     5.2760     5.4430     7.1660   109.2570
  228.0000     8.3650     2.4540     0.0400     0.1260     0.3289   133.9290   -49.4290     5.1160     5.3940     5.7870   111.0950
  228.5000     8.3660     2.4300     0.0530     0.1350     0.3206   137.4790   -50.0000     4.9670     5.3440     5.0580   110.5320
  229.0000     8.3580     2.4270     0.0420     0.1240     0.3114   136.6320   -49.0990     5.1990     5.3440     5.6490   108.8290
  229.5000     8.3460     2.4520     0.0260     0.1110     0.3034   131.8410   -48.2290     5.4160     5.4390     6.5070   107.1250
  230.0000     8.3340     2.4740     0.0100     0.1030     0.3004   125.4740   -47.3650     5.6340     5.7680     7.3990   106.5100
  230.5000     8.3220     2.4850     0.0140     0.0980     0.2954   122.9000   -46.4980     6.0760     6.0970     7.2300   106.1360
  231.0000     8.3100     2.4900     0.0260     0.0940     0.2963   129.8680   -45.3390     6.5040     6.4260     7.1000   105.5510
  231.5000     8.3120     2.4960     0.0370     0.0900     0.2978   132.3580   -44.0600     6.9750     6.7550     7.4390   104.6790
  232.0000     8.3180     2.5030     0.0490     0.0840     0.2938   131.3050   -42.7790     7.3080     7.0800     7.7630   103.8060
  232.5000     8.3240     2.5150     0.0610     0.0770     0.2783   128.2190   -41.4840     7.5910     7.4010     8.1470   103.0840
  233.0000     8.3300     2.5250     0.0650     0.0750     0.2662   125.7170   -40.6900     7.8740     7.7220     8.2560   102.8660
  233.5000     8.3360     2.5250     0.0590     0.0760     0.2606   125.7390   -39.8800     8.1570     7.9600     8.3740   102.6480
  234.0000     8.3430     2.5240     0.0540     0.0760     0.2633   128.1530   -39.2380     8.3140     8.0530     8.5650   102.4380
  234.5000     8.3440     2.5300     0.0620     0.0700     0.2679   129.3460   -38.7010     8.4330     8.1470     8.6800   102.1150
  235.0000     8.3370     2.5400     0.0720     0.0650     0.2864   128.4450   -38.1940     8.5290     8.1470     8.6210   101.9270
  235.5000     8.3290     2.5410     0.0680     0.0660     0.2947   128.2660   -38.3900     8.5010     8.1470     8.5750   101.8980
  236.0000     8.3270     2.5380     0.0560     0.0680     0.2940   128.4740   -38.7040     8.4780     8.2110     8.5290   101.8690
  236.5000     8.3270     2.5400     0.0430     0.0650     0.2878   127.1210   -39.3820     8.4510     8.2740     8.5760   101.8410
  237.0000     8.3270     2.5430     0.0420     0.0630     0.2834   124.2700   -40.0570     8.5060     8.3500     8.6230   101.6270
  237.5000     8.3270     2.5400     0.0430     0.0670     0.2849   119.8170   -40.7310     8.5720     8.4340     8.6700   101.4240
  238.0000     8.3270     2.5300     0.0480     0.0720     0.2999   120.3000   -41.4060     8.6380     8.5170     8.7400   101.2200
  238.5000     8.3270     2.5230     0.0580     0.0780     0.3040   121.6080   -42.0790     8.6860     8.4170     8.8210   101.0160
  239.0000     8.3270     2.5200     0.0550     0.0790     0.2854   121.5890   -42.7010     8.6860     8.2880     8.9030   100.9130
  239.5000     8.3270     2.5200     0.0510     0.0780     0.2777   121.3360   -42.9400     8.6860     8.2220     8.9290   100.8630
  240.0000     8.3270     2.5220     0.0540     0.0770     0.2702   120.2170   -43.1560     8.6680     8.2220     8.8410   101.1440
  240.5000     8.3270     2.5230     0.0780     0.0770     0.2656   119.6700   -43.3800     8.6050     8.2220     8.7150   101.6730
  241.0000     8.3270     2.5210     0.0750     0.0780     0.2631   121.6400   -43.2790     8.5430     8.2350     8.5290   102.1270
  241.5000     8.3270     2.5160     0.0610     0.0820     0.2633   126.9330   -42.8800     8.4510     8.3460     8.6710   102.4380
  242.0000     8.3270     2.5130     0.0460     0.0830     0.2577   130.4620   -42.2680     8.6140     8.4560     8.9410   102.3040
  242.5000     8.3270     2.5110     0.0380     0.0840     0.2525   128.4190   -41.3090     8.9200     8.5740     9.1370   101.4730
  243.0000     8.3270     2.5110     0.0290     0.0840     0.2560   124.5860   -40.2180     9.2000     8.8830     9.3080   100.3110
  243.5000     8.3270     2.5120     0.0200     0.0840     0.2610   119.6490   -39.1250     9.4150     9.2620     9.4790    98.9650
