~VERSION INFORMATION
 VERS.                2.0:   CWLS LOG ASCII STANDARD - VERSION 2.0
 WRAP.                 NO:   ONE LINE PER DEPTH STEP
~WELL INFORMATION
#MNEM.UNIT      DATA TYPE    INFORMATION
#----------   ------------   ------------------------------
 STRT.F            0.0000:   START DEPTH
 STOP.F         4535.0000:   STOP DEPTH
 STEP.F            0.5000:   STEP LENGTH
 NULL.          -999.2500:   NO VALUE
 COMP.   FLUOR DANIEL INC:   COMPANY
 WELL.     56 X 15 #56-15:   WELL
 FLD .             TEAPOT:   FIELD
 LOC .      S15 T38N R78W:   LOCATION
 CNTY.            NATRONA:   COUNTY
 STAT.            WYOMING:   STATE
 CTRY. UNITED STATES OF AMERICA:   COUNTRY
 SRVC.      Dresser Atlas:   SERVICE COMPANY
 DATE.        03-MAY-1984:   LOGDATE
 API .       490252268500:   API NUMBER
~CURVE INFORMATION
#MNEM.UNIT       API CODE    CURVE DESCRIPTION
#----------   ------------   ------------------------------
 DEPT.F                  :   
 CNC .DEC    42 890 03 00:   NEUTRON POROSITY SANDSTONE
 PORD.DEC    45 890 12 00:   POROSITY DENSITY SANDSTONE
 RHOB.G/C3   45 350 01 00:   BULK DENSITY
 CORR.G/C3   45 356 01 00:   DENSITY CORRECTION
 DT  .US/F   60 520 00 00:   INTERVAL TRANSIT TIME
 RILD.OHMM   07 120 46 00:   INDUCTION LOG DEEP RESISTIVITY
 RILM.OHMM   07 120 44 00:   INDUCTION LOG MEDIUM RESISTIVITY
 CALR.IN     07 280 01 00:   CALIPER FROM RESISTIVITY
 GRR .GAPI   07 310 01 00:   GAMMA RAY FROM RESISTIVITY LOG
 SPR .MV     07 010 01 00:   SPONTANEOUS POTENTIAL
 RFOC.OHMM   07 220 04 00:   RESISTIVITY FOCUSED LOG
~PARAMETER INFORMATION
#MNEM.UNIT          VALUE    DESCRIPTION
#----------   ------------   ------------------------------
 PD  .                 GL:   PERMANENT DATUM
 EPD .F              5326:   ELEVATION PERMANENT DATUM
 LMF .                 KB:   LOG MEASURED FROM
 DAPD.F                12:   FEET ABOVE PERMANENT DATUM
 DMF .                 KB:   DRILLING MEASURED FROM
 EKB .F              5338:   KELLING BUSHING
 EDF .F              5337:   DRILLING FLOOR
 EGL .F              5326:   GROUND LEVEL
 DATE.        03-MAY-1984:   RUN DATE
 RUN .                  1:   RUN NUMBER
 DD  .F              4547:   DEPTH DRILLER
 DL  .F              4539:   DEPTH LOGGER
 BLI .F              4536:   BOTTOM LOG INTERVAL
 TLI .F              1021:   TOP LOG INTERVAL
 CS  .IN            8.625:   CASING SIZE
 CBD .F              1027:   CASING BOTTOM DRILLER
 CBL .F              1021:   CASING BOTTOM LOGGER
 BS  .IN            7.875:   BIT SIZE
 BSD .F              4547:   BIT SIZE AT DEPTH
 DFT .            KCL GEL:   DRILLING FLUID TYPE
 DFD .                9.1:   DRILLING FLUID DENSITY
 DFV .                 44:   DRILLING FLUID VISCOSITY
 DFPH.                  8:   DRILLING FLUID PH
 DFL .               14.5:   DRILLING FLUID LOSS
 MSS .            MUDTANK:   MUD SAMPLE SOURCE
 RMS .OHMM           0.56:   RESISTIVITY MUD SAMPLE
 MST .F                73:   MUD SAMPLE TEMPERATURE
 RMF .OHMM           0.42:   RESISTIVITY MUD FILTRATE SAMPLE
 MFST.F                73:   MUD FILTRATE SAMPLE TEMPERATURE
 RMC .OHMM           0.71:   RESISTIVITY MUD CAKE
 MCST.F                73:   MUD CAKE SAMPLE TEMPERATURE
 MFSS.               MEAS:   MUD FILTRATE SAMPLE SOURCE
 MCSS.               CALC:   MUD CAKE SAMPLE SOURCE
 RMB .OHMM           0.29:   RESISTIVITY MUD AT BHT
 BHT .F               141:   BOTTOM HOLE TEMPERATURE
 TCS .HRS             3.5:   TIME CURCULATED STOPPED
 MRT .F               125:   MAXIMUM RECORDED TEMPERATURE
 LUN .               6302:   LOGGING UNIT NUMBER
 LUL .               CODY:   LOGGING UNIT LOCATION
 ENGI.              GETTY:   RECORDING ENGINEER
 WITN.           JENNINGS:   WITNESSED BY
 CLNT.            A2DTECH:   CLIENT CODE
 ORIG.           5" PRINT:   ORIGIN OF DATA
 UWI .       490252268500:   UNIQUE WELL ID
 DICO. A2D Technologies, Inc.:   DIGITIZING COMPANY
~OTHER INFORMATION
~A    DEPT     CNC       PORD       RHOB       CORR         DT       RILD       RILM       CALR         GRR       SPR       RFOC   
# ...
 4514.0000     0.1696     0.0428     2.5703     0.0737    69.1406     7.9346     7.2503     7.9232  -999.2500   -36.0725     7.4435
 4514.5000     0.1557     0.0467     2.5755     0.0656    68.0884     7.4042     7.5600     7.9236  -999.2500   -36.3651     7.0424
 4515.0000     0.1354     0.0425     2.5830     0.0405    63.9176     7.7741     7.9927     7.9240  -999.2500   -36.6558     6.6167
 4515.5000     0.1256     0.0376     2.5875     0.0163    65.5205     8.2763     8.4501     7.9243  -999.2500   -36.8003     6.2168
 4516.0000     0.1253     0.0394     2.5852     0.0178    68.6600     8.8721     8.9958     7.9247  -999.2500   -36.7912     6.1719
 4516.5000     0.1277     0.0445     2.5754     0.0192  -999.2500     9.2507     9.5936     7.9251  -999.2500   -36.3342     7.6953
 4517.0000     0.1328     0.0617     2.5576     0.0192  -999.2500     9.6454    10.1254     7.9255  -999.2500   -35.5772    11.7850
 4517.5000     0.1443     0.0687     2.5355     0.0266  -999.2500    10.2683    10.5574     7.9259  -999.2500   -34.9685    12.2886
 4518.0000     0.1445     0.0753     2.5197     0.0431  -999.2500    10.9315    11.0078     7.9263  -999.2500   -34.6614     9.9097
 4518.5000     0.1407     0.0861     2.4985     0.0446  -999.2500    11.4863    11.4775     7.9266  -999.2500   -34.5042     8.5658
 4519.0000     0.1413     0.1033     2.4842     0.0340  -999.2500    12.0507    11.8845     7.9270  -999.2500   -34.6487     9.2479
 4519.5000     0.1425     0.1046     2.4782     0.0219  -999.2500    12.3918    12.0525     7.9274  -999.2500   -35.0894    10.7020
 4520.0000     0.1437     0.1070     2.4744     0.0188  -999.2500    12.6545    12.1384     7.9277  -999.2500   -36.4315    11.9620
 4520.5000     0.1447     0.1109     2.4689     0.0398  -999.2500    12.7447    12.3101     7.9281  -999.2500   -38.2233    12.8485
 4521.0000     0.1465     0.1151     2.4548     0.0458  -999.2500    12.7468    12.3983     7.9285  -999.2500   -39.7429    13.2805
 4521.5000     0.1498     0.1232     2.4487     0.0428  -999.2500    12.6608    12.4004     7.9138  -999.2500   -40.7557    11.9685
 4522.0000     0.1523     0.1229     2.4532     0.0382  -999.2500    12.3151    12.3163     7.9293  -999.2500   -41.2000    10.8613
 4522.5000     0.1519     0.1196     2.4645     0.0321  -999.2500    11.8869    11.8167     7.9296  -999.2500   -41.6407    11.2470
 4523.0000     0.1459     0.1084     2.4916     0.0275  -999.2500    11.4161    11.3370     7.9300  -999.2500   -42.3831    11.7276
 4523.5000     0.1417     0.0926     2.5134     0.0229  -999.2500    11.2603    11.0286     7.9304  -999.2500   -43.5752    12.1441
 4524.0000     0.1411     0.0842     2.5096     0.0169  -999.2500    11.4200    10.9543     7.9307  -999.2500   -45.0672    10.8090
 4524.5000     0.1402     0.0896     2.4953     0.0078  -999.2500    12.0735    11.3626     7.9311  -999.2500   -45.9595     8.0640
 4525.0000     0.1399     0.0978     2.4795    -0.0058  -999.2500    12.3294    12.3297     7.9315  -999.2500   -46.5705     7.9537
 4525.5000     0.1386     0.1044     2.4712     0.0001  -999.2500    12.3315    13.4020     7.9319  -999.2500   -47.2925     8.5871
 4526.0000     0.1351     0.1086     2.4742     0.0093  -999.2500    12.1637    15.0816     7.9323  -999.2500   -47.5869    11.6586
 4526.5000     0.1354     0.1071     2.4877     0.0256  -999.2500  -999.2500    16.9717     7.9327  -999.2500   -47.8795    14.9733
 4527.0000     0.1366     0.1007     2.5183     0.0406  -999.2500  -999.2500    18.7055     7.9330  -999.2500   -48.0222    16.9703
 4527.5000     0.1381     0.0793     2.5396     0.0436  -999.2500  -999.2500    20.4738     7.9334  -999.2500   -48.0131    18.1940
 4528.0000     0.1182     0.0543     2.6126     0.0420  -999.2500  -999.2500    21.3473     7.9338  -999.2500   -48.0058    19.2909
 4528.5000    -0.0015     0.0234     2.6089     0.0570  -999.2500  -999.2500    21.0388     7.9341  -999.2500   -47.9985    21.0592
 4529.0000     0.0046     0.0222     2.5930     0.0780  -999.2500  -999.2500    20.2028     7.9345  -999.2500   -48.0146    21.9591
 4529.5000     0.0498     0.0303     2.5689     0.0931  -999.2500  -999.2500    19.6533     7.9349  -999.2500   -48.2839    21.5098
 4530.0000     0.1810     0.0527     2.5448     0.1037  -999.2500  -999.2500    19.3859     7.9202  -999.2500   -48.4265    19.5199
 4530.5000     0.6990     0.0638     2.5425     0.1005  -999.2500  -999.2500    19.3891     7.9206  -999.2500   -48.5692    15.5240
 4531.0000     0.6951     0.0668     2.5493     0.0884  -999.2500  -999.2500    19.2575     7.9059  -999.2500   -48.5601    11.2801
 4531.5000     0.1671     0.0641     2.5673     0.0717  -999.2500  -999.2500    19.3956     7.9063  -999.2500   -48.5529     7.2580
 4532.0000     0.1668     0.0552     2.5937     0.0626  -999.2500  -999.2500    19.5339     7.9067  -999.2500   -48.5456     6.3402
 4532.5000     0.1669     0.0336     2.6049     0.0671  -999.2500  -999.2500    19.5373     7.9070  -999.2500   -48.5383     6.2535
 4533.0000     0.1669     0.0269     2.6034     0.0716  -999.2500  -999.2500    19.5413     7.9225  -999.2500   -48.6810     6.8936
 4533.5000  -999.2500  -999.2500     2.5996     0.0806  -999.2500  -999.2500    19.5446     7.9379  -999.2500   -48.8237     7.3907
 4534.0000  -999.2500  -999.2500     2.5943     0.0929  -999.2500  -999.2500    19.5479     7.9383  -999.2500   -48.8146     7.9236
 4534.5000  -999.2500  -999.2500     2.5898     0.0985  -999.2500  -999.2500    19.5512     7.9386  -999.2500   -48.8073     8.1482
 4535.0000  -999.2500  -999.2500     2.5849     0.0970  -999.2500  -999.2500    19.5542     7.9390  -999.2500   -48.8006     8.2636
