~VERSION INFORMATION
 VERS.                2.0:   CWLS LOG ASCII STANDARD - VERSION 2.0
 WRAP.                 NO:   ONE LINE PER DEPTH STEP
~WELL INFORMATION
#MNEM.UNIT      DATA TYPE    INFORMATION
#----------   ------------   ------------------------------
 STRT.F            0.0000:   START DEPTH
 STOP.F          453.5000:   STOP DEPTH
 STEP.F            0.5000:   STEP LENGTH
 NULL.          -999.2500:   NO VALUE
 COMP. BROWN JOHN E&C INC:   COMPANY
 WELL. NAVAL PETROLEUM RESERVE 3 SX-1 #54-1-10:   WELL
 FLD .             TEAPOT:   FIELD
 LOC .      S10 T38N R78W:   LOCATION
 CNTY.            NATRONA:   COUNTY
 STAT.            WYOMING:   STATE
 CTRY. UNITED STATES OF AMERICA:   COUNTRY
 SRVC.     Atlas Wireline:   SERVICE COMPANY
 DATE.        22-APR-1991:   LOGDATE
 API .       490251133200:   API NUMBER
~CURVE INFORMATION
#MNEM.UNIT       API CODE    CURVE DESCRIPTION
#----------   ------------   ------------------------------
 DEPT.F                  :   
 GRR .GAPI   07 310 01 00:   GAMMA RAY
 RILD.OHMM   07 120 46 00:   INDUCTION LOG DEEP RESISTIVITY
 RILM.OHMM   07 120 44 00:   INDUCTION LOG MEDIUM RESISTIVITY
~PARAMETER INFORMATION
#MNEM.UNIT          VALUE    DESCRIPTION
#----------   ------------   ------------------------------
 PD  .                 GL:   PERMANENT DATUM
 EPD .F              5199:   ELEVATION PERMANENT DATUM
 LMF .                 KB:   LOG MEASURED FROM
 DAPD.F                 5:   FEET ABOVE PERMANENT DATUM
 DMF .                 KB:   DRILLING MEASURED FROM
 EKB .F              5204:   KELLING BUSHING
 EGL .F              5199:   GROUND LEVEL
 DATE.        22-APR-1991:   RUN DATE
 RUN .                  1:   RUN NUMBER
 DD  .F               460:   DEPTH DRILLER
 DL  .F               461:   DEPTH LOGGER
 BLI .F               459:   BOTTOM LOG INTERVAL
 TLI .F                 0:   TOP LOG INTERVAL
 CS  .IN            8.625:   CASING SIZE
 CBD .F                45:   CASING BOTTOM DRILLER
 CBL .F                44:   CASING BOTTOM LOGGER
 BS  .IN            7.875:   BIT SIZE
 BSD .F               460:   BIT SIZE AT DEPTH
 DFT .                AIR:   DRILLING FLUID TYPE
 LUN .           HL- 6307:   LOGGING UNIT NUMBER
 LUL .             CASPER:   LOGGING UNIT LOCATION
 ENGI.          OTTERHOLT:   RECORDING ENGINEER
 WITN.   HERRMANN/ STRONG:   WITNESSED BY
 CLNT.            A2DTECH:   CLIENT CODE
 ORIG.           5" PRINT:   ORIGIN OF DATA
 UWI .       490251133200:   UNIQUE WELL ID
 DICO. A2D Technologies, Inc.:   DIGITIZING COMPANY
~OTHER INFORMATION
~A    DEPT      GRR      RILD       RILM   
# ...
  182.0000   164.6995     4.7094     4.7211
  182.5000   169.2293     4.6107     4.6540
  183.0000   159.5064     4.5456     4.7172
  183.5000   151.6069     4.5767     4.8819
  184.0000   144.6165     4.7477     5.2674
  184.5000   142.1716     5.0743     5.5663
  185.0000   146.0903     5.3998     5.8492
  185.5000   153.3423     5.7064     6.2147
  186.0000   159.3821     6.0724     6.5672
  186.5000   157.5432     6.5524     7.0367
  187.0000   160.2445     6.9727     7.4357
  187.5000   162.6532     7.3686     7.7490
  188.0000   157.7788     7.7870     8.0196
  188.5000   152.6065     7.9483     8.1293
  189.0000   148.3435     7.9456     8.0689
  189.5000   149.5348     7.8818     7.9544
  190.0000   153.7565     7.7758     7.8960
  190.5000   151.0085     7.6659     7.8293
  191.0000   148.8665     7.5576     7.7262
  191.5000   149.8031     7.4508     7.6696
  192.0000   153.0676     7.3455     7.5084
  192.5000   150.6175     7.2417     7.4534
  193.0000   149.6928     7.0900     7.2967
  193.5000   151.7881     6.9414     7.2432
  194.0000   158.4340     6.7489     7.0910
  194.5000   163.2617     6.5617     6.8939
  195.0000   160.2108     6.4197     6.7474
  195.5000   155.6445     6.2023     6.5099
  196.0000   151.6844     5.9471     6.0336
  196.5000   150.7547     5.5078     5.5875
  197.0000   150.8852     5.1009     5.2833
  197.5000   152.0677     4.9940     5.0305
  198.0000   155.3701     4.9578     4.9248
  198.5000   160.1832     4.9910     4.9576
  199.0000   161.6737     5.0588     5.0947
  199.5000   158.0268     5.1995     5.3836
  200.0000   152.8701     5.3814     5.9310
  200.5000   151.9426     5.6875     6.4262
  201.0000   153.7765     6.0954     6.8585
  201.5000   157.3343     6.5325     7.1982
  202.0000   160.3347     7.0009     7.5025
  202.5000   163.3349     7.3482     7.7673
  203.0000   167.2417     7.6593     7.9317
  203.5000   169.9400     7.8735     8.0916
  204.0000   165.6896     7.9269     8.1458
  204.5000   159.3244     7.9805     8.2003
  205.0000   159.9079     7.9787     8.2552
  205.5000   162.3040     8.0327     8.2524
  206.0000   160.1684     8.0870     8.1930
  206.5000   154.1053     8.0853     8.1908
  207.0000   152.5739     8.0180     8.1319
  207.5000   153.7616     7.9150     8.0734
  208.0000   153.7402     7.8042     8.0153
  208.5000   154.6212     7.6949     7.9576
  209.0000   158.2257     7.6933     8.0109
  209.5000   160.9240     7.6918     8.1208
  210.0000   161.2105     7.6902     8.1751
  210.5000   162.3931     7.6886     8.2872
  211.0000   165.6955     7.7410     8.2844
  211.5000   167.1905     7.7390     8.2248
  212.0000   158.1011     7.7374     8.1657
  212.5000   159.5908     7.7358     8.1069
  213.0000   160.7795     7.7343     8.1047
  213.5000   158.3408     7.6791     8.0464
  214.0000   153.1841     7.6776     7.8783
  214.5000   156.8248     7.5701     7.8217
  215.0000   161.1179     7.4572     7.6583
  215.5000   164.7040     7.2577     7.3948
  216.0000   163.3676     7.2060     7.1405
  216.5000   160.9300     7.0560     6.9913
  217.0000   164.5345     6.9090     6.8908
  217.5000   174.1815     6.8123     6.8433
  218.0000   180.2029     6.6705     6.8892
  218.5000   181.0937     6.4864     6.8869
  219.0000   172.3064     6.3073     6.7900
  219.5000   164.1285     6.0486     6.4660
  220.0000   160.7844     5.8410     6.0305
  220.5000   161.9721     5.7592     5.7029
  221.0000   164.0661     5.7580     5.4690
  221.5000   166.7733     5.7568     5.7396
  222.0000   171.3472     5.7958     5.9408
  222.5000   173.0672     5.7946     6.1919
  223.0000   170.3223     5.9192     6.4090
  223.5000   164.8633     6.0873     6.6337
  224.0000   160.3109     6.4266     6.9154
  224.5000   159.3837     6.8398     7.2063
  225.0000   160.5715     7.1791     7.4073
  225.5000   161.7591     7.4312     7.6134
  226.0000   162.9468     7.2765     7.6114
  226.5000   161.7175     6.8341     7.4008
  227.0000   160.1861     6.1996     6.9023
  227.5000   160.4682     5.5080     6.2610
  228.0000   159.5404     5.4309     5.6009
  228.5000   157.4048     5.3178     5.1159
  229.0000   157.4747     5.3167     4.9744
  229.5000   161.3687     5.2423     5.1488
  230.0000   163.3847     5.1331     5.3664
  230.5000   156.7123     5.0612     5.5545
  231.0000   151.5555     5.1329     5.7098
  231.5000   149.4251     5.3983     5.9571
  232.0000   151.5139     5.9559     6.3085
  232.5000   153.0037     6.4039     6.8335
  233.0000   153.8892     6.8156     7.3230
  233.5000   154.7748     7.1537     7.6326
  234.0000   152.0351     7.3537     7.9552
  234.5000   151.1079     7.6120     8.1771
  235.0000   152.2956     7.8794     8.4052
  235.5000   153.7855     8.0441     8.5210
  236.0000   154.0667     8.2118     8.5781
  236.5000   151.2266     8.2097     8.5158
  237.0000   148.4774     8.2080     8.5134
  237.5000   150.0716     8.2635     8.4522
  238.0000   152.1656     8.2618     8.5088
  238.5000   152.4521     8.4341     8.6255
  239.0000   150.9156     8.4911     8.6832
  239.5000   147.2695     8.4894     8.8023
  240.0000   144.2275     8.4875     8.8612
  240.5000   142.6961     8.4854     8.7969
  241.0000   141.7691     8.4837     8.7336
  241.5000   142.6547     8.4820     8.6108
  242.0000   146.8635     8.4802     8.5488
  242.5000   152.5828     8.5971     8.6660
  243.0000   155.2811     8.7155     8.7849
  243.5000   149.6323     8.7749     8.9674
  244.0000   143.4562     8.8959     9.3465
  244.5000   143.7384     8.9560     9.7416
  245.0000   140.0869     8.8918     9.9440
  245.5000   139.7693     8.6463     9.7991
  246.0000   140.9517     8.1773     9.1805
  246.5000   140.0247     7.5218     8.1303
  247.0000   137.5869     6.7762     6.7787
  247.5000   136.6599     6.2721     6.0220
  248.0000   144.7961     6.2317     6.0623
  248.5000   158.0684     6.4060     6.2749
  249.0000   165.2984     6.4043     6.9138
  249.5000   164.0691     6.4476     7.4608
  250.0000   151.9637     6.5626     8.0820
  250.5000   138.8246     7.0047     8.8706
  251.0000   133.3234     7.8259     9.6390
  251.5000   131.3576     8.9276    10.4740
  252.0000   135.1136     9.8367    10.9929
  252.5000   141.2613    10.3240    11.1438
  253.0000   140.7339    10.1788    11.0635
  253.5000   138.6454    10.1760    10.9814
  254.0000   136.0486    10.3149    10.7544
  254.5000   134.9620    10.5300    10.8258
  255.0000   140.0876    10.9744    11.2054
  255.5000   143.7033    11.5181    11.9250
  256.0000   141.8644    12.4293    13.3231
  256.5000   131.8437    13.6950    15.7357
  257.0000   120.0049    14.9851    17.9508
  257.5000   105.7419    17.0058    20.1952
  258.0000    92.6908    19.3646    23.1986
  258.5000    84.6543    21.6350    26.1238
  259.0000    79.3109    23.6732    29.2686
  259.5000    80.5024    25.9033    33.2616
  260.0000    83.8151    27.7590    35.6444
  260.5000    83.7944    28.7322    37.4101
  261.0000    82.8647    29.3295    36.3752
  261.5000    82.5409    29.3180    34.8809
  262.0000    82.8284    28.8821    32.7583
  262.5000    84.9239    28.3033    31.1951
  263.0000    89.7755    27.9053    30.3321
  263.5000    95.2595    27.5129    29.9055
  264.0000    94.5536    27.5055    29.8972
  264.5000    90.2905    27.6916    30.0977
  265.0000    89.9720    28.2655    30.7231
  265.5000    92.3703    29.0536    32.4676
  266.0000    94.4708    29.6710    34.3136
  266.5000    90.8139    30.2717    34.3043
  267.0000    84.7325    30.6889    34.2950
  267.5000    80.1664    31.1077    35.0080
  268.0000    82.2990    30.8841    35.7353
  268.5000    85.0677    30.6620    35.4698
  269.0000    88.2811    30.2308    34.9788
  269.5000    90.9876    30.0135    34.2462
  270.0000    92.1791    29.7977    33.2988
  270.5000    93.0675    29.3547    32.3776
  271.0000    93.6528    28.9636    31.4818
  271.5000    94.5464    28.7553    31.4733
  272.0000    92.0964    28.5505    32.1273
  272.5000    89.9544    28.9421    32.7949
