~VERSION INFORMATION
 VERS.                2.0:   CWLS LOG ASCII STANDARD - VERSION 2.0
 WRAP.                 NO:   ONE LINE PER DEPTH STEP
~WELL INFORMATION
#MNEM.UNIT      DATA TYPE    INFORMATION
#----------   ------------   ------------------------------
 STRT.F            1.0000:   START DEPTH
 STOP.F          508.0000:   STOP DEPTH
 STEP.F            0.1000:   STEP LENGTH
 NULL.          -999.2500:   NO VALUE
 COMP.       F D SERV INC:   COMPANY
 WELL. NAVAL PETROLEUM RESERVE 3 SX-1 #83-4-10:   WELL
 FLD .             TEAPOT:   FIELD
 LOC .      S10 T38N R78W:   LOCATION
 CNTY.            NATRONA:   COUNTY
 STAT.            WYOMING:   STATE
 CTRY. UNITED STATES OF AMERICA:   COUNTRY
 SRVC.     Atlas Wireline:   SERVICE COMPANY
 DATE.        26-JAN-1993:   LOGDATE
 API .       490252258300:   API NUMBER
~CURVE INFORMATION
#MNEM.UNIT       API CODE    CURVE DESCRIPTION
#----------   ------------   ------------------------------
 DEPT.F                  :   
 GRR .GAPI   07 310 01 00:   GAMMA RAY
 RILD.OHMM   07 120 46 00:   INDUCTION LOG DEEP RESISTIVITY
 RILM.OHMM   07 120 44 00:   INDUCTION LOG MEDIUM RESISTIVITY
~PARAMETER INFORMATION
#MNEM.UNIT          VALUE    DESCRIPTION
#----------   ------------   ------------------------------
 PD  .                 GL:   PERMANENT DATUM
 EPD .F              5152:   ELEVATION PERMANENT DATUM
 LMF .                 KB:   LOG MEASURED FROM
 DAPD.F                10:   FEET ABOVE PERMANENT DATUM
 DMF .                 KB:   DRILLING MEASURED FROM
 EKB .F              5162:   KELLING BUSHING
 EDF .F              5161:   DRILLING FLOOR
 EGL .F              5152:   GROUND LEVEL
 DATE.        26-JAN-1993:   RUN DATE
 RUN .                  1:   RUN NUMBER
 DD  .F               515:   DEPTH DRILLER
 DL  .F               516:   DEPTH LOGGER
 BLI .F               508:   BOTTOM LOG INTERVAL
 CS  .IN            8.625:   CASING SIZE
 CBD .F                55:   CASING BOTTOM DRILLER
 CBL .F                55:   CASING BOTTOM LOGGER
 BS  .IN            7.875:   BIT SIZE
 BSD .F               515:   BIT SIZE AT DEPTH
 DFT .                AIR:   DRILLING FLUID TYPE
 MRT .F                63:   MAXIMUM RECORDED TEMPERATURE
 LUN .           HL- 6274:   LOGGING UNIT NUMBER
 LUL .             CASPER:   LOGGING UNIT LOCATION
 ENGI.       P. RASMUSSEN:   RECORDING ENGINEER
 WITN.          G. STRONG:   WITNESSED BY
 CLNT.            A2DTECH:   CLIENT CODE
 ORIG.           5" PRINT:   ORIGIN OF DATA
 UWI .       490252258300:   UNIQUE WELL ID
 DICO. A2D Technologies, Inc.:   DIGITIZING COMPANY
~OTHER INFORMATION
~A    DEPT     GRR       RILD       RILM   
# ...
  456.0000   162.7249     5.4377     5.7805
  456.1000   160.7739     5.4595     5.8609
  456.2000   158.8230     5.4636     5.9175
  456.3000   156.8720     5.4969     6.0350
  456.4000   154.9210     5.4966     6.1445
  456.5000   152.9700     5.5219     6.2301
  456.6000   151.0190     5.5342     6.3422
  456.7000   148.7057     5.5626     6.4565
  456.8000   145.9249     5.6282     6.5918
  456.9000   143.1441     5.6946     6.6912
  457.0000   140.3633     5.7676     6.7843
  457.1000   137.5824     5.8299     6.9080
  457.2000   134.8242     5.9247     7.0594
  457.3000   133.0444     6.0301     7.1865
  457.4000   131.9311     6.1517     7.3145
  457.5000   131.1748     6.3061     7.4140
  457.6000   130.6546     6.4973     7.5296
  457.7000   130.1345     6.8078     7.6978
  457.8000   129.5590     6.9485     7.8321
  457.9000   128.7932     7.1140     7.9439
  458.0000   128.2167     7.2834     8.0976
  458.1000   127.9843     7.4720     8.2896
  458.2000   127.7237     7.6948     8.4549
  458.3000   127.1675     7.9256     8.5453
  458.4000   126.6000     8.1477     8.6856
  458.5000   126.4036     8.2665     8.8119
  458.6000   126.4250     8.4136     8.9173
  458.7000   126.7023     8.5393     9.0374
  458.8000   126.9414     8.6553     9.1907
  458.9000   127.0012     8.8091     9.2496
  459.0000   127.1566     8.9743     9.2494
  459.1000   127.4148     9.0745     9.3335
  459.2000   127.6731     9.1817     9.3779
  459.3000   127.9313     9.2901     9.4021
  459.4000   128.2000     9.3763     9.4580
  459.5000   128.6967     9.4312     9.5079
  459.6000   129.2144     9.4864     9.5076
  459.7000   129.4012     9.5477     9.5614
  459.8000   129.2763     9.5979     9.5731
  459.9000   129.0156     9.6130     9.6088
  460.0000   128.7149     9.6125     9.6391
  460.1000   128.1916     9.6332     9.6389
  460.2000   127.8890     9.6896     9.6467
  460.3000   127.8880     9.7449     9.7053
  460.4000   127.8868     9.7443     9.7050
  460.5000   128.0181     9.7438     9.7522
  460.6000   128.1855     9.7822     9.7719
  460.7000   128.1843     9.8104     9.7717
  460.8000   128.1904     9.8288     9.7714
  460.9000   128.4830     9.8776     9.7810
  461.0000   128.7068     9.8770     9.8392
  461.1000   129.3313     9.8763     9.9068
  461.2000   129.9670     9.8951     9.9066
  461.3000   130.5842     9.9186     9.9468
  461.4000   131.1880     9.9420    10.0060
  461.5000   131.2189     9.9654    10.0439
  461.6000   131.7878     9.9889    10.0555
  461.7000   131.7867    10.0123    10.1153
  461.8000   131.9775    10.0357    10.1831
  461.9000   132.2358    10.0428    10.1828
  462.0000   132.3855    10.0741    10.2260
  462.1000   132.4510    10.1340    10.2868
  462.2000   132.7093    10.1820    10.3240
  462.3000   132.9843    10.1817    10.3237
  462.4000   132.9831    10.1814    10.3315
  462.5000   133.1828    10.2342    10.4671
  462.6000   133.4410    10.2950    10.4668
  462.7000   133.5819    10.3562    10.5129
  462.8000   133.6562    10.4177    10.5755
  462.9000   133.9144    10.4660    10.6119
  463.0000   134.1807    10.4657    10.6116
  463.1000   134.1793    10.4653    10.6113
  463.2000   134.5976    10.5207    10.6110
  463.3000   134.3554    10.5375    10.6107
  463.4000   133.6988    10.5727    10.6593
  463.5000   133.0421    10.6102    10.7227
  463.6000   132.3855    10.6248    10.7578
  463.7000   131.7289    10.6851    10.7575
  463.8000   131.0723    10.7097    10.7651
  463.9000   130.4156    10.7343    10.8317
  464.0000   129.8755    10.7589    10.8936
  464.1000   129.6148    10.7834    10.9064
  464.2000   129.3470    10.8080    10.9061
  464.3000   129.3456    10.8326    10.9058
  464.4000   129.3446    10.8572    10.9259
  464.5000   129.3434    10.8818    10.9908
  464.6000   129.3422    10.9064    11.0569
  464.7000   129.3410    10.9310    11.0566
  464.8000   129.3398    10.9556    11.0563
  464.9000   129.3386    10.9801    11.1000
  465.0000   129.3372    11.0047    11.1661
  465.1000   129.7746    11.0293    11.2096
  465.2000   129.9373    11.0539    11.2093
  465.3000   130.2076    11.0785    11.2090
  465.4000   130.6617    11.1031    11.2086
  465.5000   131.0039    11.1277    11.2083
  465.6000   131.3461    11.1523    11.2546
  465.7000   131.6882    11.1768    11.2856
  465.8000   132.0304    11.2014    11.3103
  465.9000   132.3726    11.2260    11.3634
  466.0000   132.7148    11.2506    11.3631
  466.1000   133.0569    11.2752    11.3627
  466.2000   133.3991    11.2998    11.4226
  466.3000   133.7413    11.3244    11.4905
  466.4000   134.0834    11.3490    11.5203
  466.5000   134.4256    11.3735    11.5200
  466.6000   134.7678    11.3981    11.5360
  466.7000   134.9868    11.4227    11.6046
  466.8000   134.6702    11.4473    11.6796
  466.9000   132.9288    11.4719    11.6793
  467.0000   132.0121    11.4965    11.7315
  467.1000   131.3474    11.5211    11.8013
  467.2000   131.1181    11.5456    11.8412
  467.3000   131.1169    11.5702    11.8597
  467.4000   130.9920    11.5948    11.9303
  467.5000   130.5120    11.6194    12.0054
  467.6000   130.5107    11.6440    12.0050
  467.7000   130.7474    11.6686    12.0607
  467.8000   131.0056    11.6932    12.0878
  467.9000   131.1096    11.7178    12.1205
  468.0000   131.1084    11.7423    12.1711
  468.1000   131.1779    11.7669    12.1708
  468.2000   131.4362    11.7915    12.1704
  468.3000   131.7072    11.8161    12.1700
  468.4000   131.7060    11.8373    12.1698
  468.5000   131.5000    11.8370    12.1694
  468.6000   131.2393    11.9188    12.1691
  468.7000   130.8574    11.9186    12.1688
  468.8000   130.3375    11.9182    12.1684
  468.9000   129.8551    11.9522    12.1681
  469.0000   129.5903    12.0004    12.1677
  469.1000   128.9865    12.0001    12.1674
  469.2000   128.5583    11.9997    12.1671
  469.3000   128.2101    11.9993    12.1667
  469.4000   127.8193    11.9991    12.1664
  469.5000   127.4759    11.9987    12.1661
  469.6000   127.3815    11.9984    12.1657
  469.7000   126.8711    12.0221    12.1654
  469.8000   126.8697    12.0812    12.1651
  469.9000   126.6462    12.0808    12.1647
  470.0000   126.3855    12.1643    12.1644
  470.1000   126.2639    12.1640    12.1640
  470.2000   126.2627    12.1637    12.1637
  470.3000   126.2614    12.1634    12.1634
  470.4000   126.2602    12.1630    12.1630
  470.5000   126.2589    12.1627    12.1627
  470.6000   126.2578    12.1643    12.1624
  470.7000   126.2566    12.2465    12.1620
  470.8000   126.5510    12.2462    12.1617
  470.9000   126.8566    12.2459    12.1614
  471.0000   126.9196    12.2455    12.1610
  471.1000   127.1779    12.2452    12.1607
  471.2000   127.4553    12.2448    12.1603
  471.3000   127.4542    12.2445    12.1600
  471.4000   127.4530    12.2441    12.1597
  471.5000   127.4518    12.2438    12.1593
  471.6000   127.4506    12.2435    12.1590
  471.7000   127.5225    12.2431    12.1587
  471.8000   127.7495    12.2428    12.1583
  471.9000   127.4469    12.2425    12.1580
  472.0000   127.4458    12.2421    12.1576
  472.1000   127.4446    12.2418    12.1573
  472.2000   127.4434    12.2415    12.1570
  472.3000   127.4422    12.2411    12.1566
  472.4000   127.3590    12.2408    12.1563
  472.5000   127.1386    12.2404    12.1560
  472.6000   127.1373    12.2401    12.0717
  472.7000   127.1359    12.2398    12.0714
  472.8000   127.1349    12.2394    12.0711
  472.9000   127.1337    12.2391    12.0707
  473.0000   127.1325    12.2387    12.0465
  473.1000   127.2221    12.2384    11.9868
  473.2000   127.4316    12.2381    11.9864
  473.3000   127.4301    12.2377    11.9861
  473.4000   127.4288    12.2374    11.9858
  473.5000   127.4277    12.2370    11.9854
  473.6000   127.4265    12.2367    11.9851
  473.7000   127.1425    12.2364    11.9848
  473.8000   126.7221    12.2360    11.9844
  473.9000   126.4036    12.2357    11.9841
  474.0000   125.8996    12.2354    11.9837
  474.1000   125.6131    12.2350    11.9835
