~VERSION INFORMATION
 VERS.                2.0:   CWLS LOG ASCII STANDARD - VERSION 2.0
 WRAP.                 NO:   ONE LINE PER DEPTH STEP
~WELL INFORMATION
#MNEM.UNIT      DATA TYPE    INFORMATION
#----------   ------------   ------------------------------
 STRT.F           10.0000:   START DEPTH
 STOP.F          485.0000:   STOP DEPTH
 STEP.F            0.5000:   STEP LENGTH
 NULL.          -999.2500:   NO VALUE
 COMP. FENIX & SCISSON INC:   COMPANY
 WELL.    56 S 3 SX #56-3:   WELL
 FLD .             TEAPOT:   FIELD
 LOC .       S3 T38N R78W:   LOCATION
 CNTY.            NATRONA:   COUNTY
 STAT.            WYOMING:   STATE
 CTRY. UNITED STATES OF AMERICA:   COUNTRY
 SRVC.            Unknown:   SERVICE COMPANY
 DATE.        09-OCT-1978:   LOGDATE
 API .       490251071900:   API NUMBER
~CURVE INFORMATION
#MNEM.UNIT       API CODE    CURVE DESCRIPTION
#----------   ------------   ------------------------------
 DEPT.F                  :   
 SPR .MV     05 010 01 00:   SPONTANEOUS POTENTIAL FROM RES.
 SN  .OHMM   05 040 16 00:   SHORT NORMAL 16"
 ILD .OHMM   05 120 46 00:   INDUCTION LOG DEEP
 CALD.IN     45 280 60 00:   CALIPER
 GRD .GAPI   45 310 01 00:   GAMMA RAY FROM DENSITY LOG
 CORR.G/C3   45 356 01 00:   DENSITY CORRECTION
 RHOB.G/C3   45 350 01 00:   BULK DENSITY
 DPHI.DEC    45 890 12 00:   DENSITY POROSITY SANDSTONE
~PARAMETER INFORMATION
#MNEM.UNIT          VALUE    DESCRIPTION
#----------   ------------   ------------------------------
 PD  .                 GL:   PERMANENT DATUM
 EPD .F              5188:   ELEVATION PERMANENT DATUM
 LMF .                 KB:   LOG MEASURED FROM
 DAPD.F                 4:   FEET ABOVE PERMANENT DATUM
 DMF .                 KB:   DRILLING MEASURED FROM
 EKB .F              5192:   KELLING BUSHING
 EGL .F              5188:   GROUND LEVEL
 DATE.            10-9-78:   RUN DATE
 RUN .                  1:   RUN NUMBER
 DD  .F               485:   DEPTH DRILLER
 DL  .F               485:   DEPTH LOGGER
 BLI .F               479:   BOTTOM LOG INTERVAL
 TLI .F                32:   TOP LOG INTERVAL
 CS  .IN            8.625:   CASING SIZE
 BS  .IN            7.875:   BIT SIZE
 BSD .F               485:   BIT SIZE AT DEPTH
 DFT .                KCL:   DRILLING FLUID TYPE
 DFD .                8.8:   DRILLING FLUID DENSITY
 DFV .                 41:   DRILLING FLUID VISCOSITY
 DFPH.                  9:   DRILLING FLUID PH
 DFL .                7.6:   DRILLING FLUID LOSS
 MSS .          FLOW LINE:   MUD SAMPLE SOURCE
 RMS .OHMM            .18:   RESISTIVITY MUD SAMPLE
 MST .F                60:   MUD SAMPLE TEMPERATURE
 RMF .OHMM            .16:   RESISTIVITY MUD FILTRATE SAMPLE
 MFST.F                70:   MUD FILTRATE SAMPLE TEMPERATURE
 RMC .OHMM            .26:   RESISTIVITY MUD CAKE
 MCST.F                70:   MUD CAKE SAMPLE TEMPERATURE
 MFSS.               MEAS:   MUD FILTRATE SAMPLE SOURCE
 MCSS.               MEAS:   MUD CAKE SAMPLE SOURCE
 TCS .HRS             1.5:   TIME CURCULATED STOPPED
 LUN .               2958:   LOGGING UNIT NUMBER
 LUL .               CASP:   LOGGING UNIT LOCATION
 ENGI.             MILLER:   RECORDING ENGINEER
 WITN.              AMEND:   WITNESSED BY
 CLNT.            A2DTECH:   CLIENT CODE
 ORIG.           5" PRINT:   ORIGIN OF DATA
 UWI .       490251071900:   UNIQUE WELL ID
 DICO. A2D Technologies, Inc.:   DIGITIZING COMPANY
~OTHER INFORMATION
~A   DEPT      SPR         SN        ILD       CALD         GRD      CORR       RHOB       DPHI   
# ...
  212.5000   -31.4481     5.1949     5.6762     8.2383   117.1344     0.0230     2.3790     0.1811
  213.0000   -31.4484     5.1949     5.7349     8.2378   117.4677     0.0256     2.3902     0.1787
  213.5000   -31.4540     5.3129     5.8004     8.2372   116.3654     0.0280     2.4239     0.1737
  214.0000   -31.2476     5.4807     5.8981     8.2367   114.2384     0.0333     2.4580     0.1380
  214.5000   -30.9847     5.6427     6.1001     8.2361   109.9563     0.0395     2.4598     0.1354
  215.0000   -30.8708     5.9189     6.3857     8.2356   109.5297     0.0518     2.4634     0.1326
  215.5000   -30.9014     6.1909     6.6979     8.2351   109.4424     0.0667     2.4664     0.1298
  216.0000   -30.9319     6.4755     7.1653     8.2345   110.9663     0.0812     2.4704     0.1271
  216.5000   -30.9632     6.6992     7.1518     8.2340   114.5983     0.1058     2.4740     0.1244
  217.0000   -30.9947     6.8084     7.1289     8.2334   116.2791     0.1295     2.4773     0.1218
  217.5000   -31.0258     6.9194     7.1061     8.2329   115.4743     0.1540     2.4849     0.1191
  218.0000   -31.0524     7.0323     7.0833     8.2323   114.7872     0.1782     2.5017     0.1086
  218.5000   -31.0516     7.1473     7.0606     8.2318   114.2378     0.2014     2.5180     0.0971
  219.0000   -31.0515     7.2311     7.0380     8.2312   114.2156     0.2269     2.5343     0.0855
  219.5000   -31.0516     7.2108     7.0155     8.2307   114.2127     0.2257     2.5515     0.0739
  220.0000   -31.0516     7.1937     6.9930     8.2302   114.2142     0.2151     2.5669     0.0623
  220.5000   -31.0516     7.1772     6.9706     8.2296   114.2083     0.1504     2.5814     0.0547
  221.0000   -31.0516     7.1607     6.9482     8.2291   114.2067     0.0976     2.5521     0.0739
  221.5000   -31.0516     7.1442     6.9260     8.2285   113.9331     0.0388     2.5246     0.0927
  222.0000   -31.0516     7.1277     6.9038     8.2280   113.5477     0.0192     2.4923     0.1064
  222.5000   -31.0516     7.1113     6.8817     8.2274   116.0814     0.0199     2.4881     0.1107
  223.0000   -31.0516     7.0997     6.8596     8.2269   116.6566     0.0189     2.4855     0.1159
  223.5000   -31.0516     7.0998     6.8370     8.2263   115.5983     0.0178     2.4862     0.1159
  224.0000   -31.0516     7.0998     6.8128     8.2258   116.9259     0.0172     2.4872     0.1148
  224.5000   -31.0519     7.0996     6.7887     8.2253   120.2766     0.0163     2.4881     0.1135
  225.0000   -31.0521     7.0893     6.7646     8.2247   123.6814     0.0155     2.4892     0.1135
  225.5000   -31.1030     7.0639     6.7407     8.2242   124.3410     0.0147     2.4909     0.1135
  226.0000   -31.2071     7.0386     6.7168     8.2236   121.4444     0.0139     2.4942     0.1128
  226.5000   -31.3109     7.0133     6.6929     8.2231   118.9857     0.0130     2.4977     0.1110
  227.0000   -31.4148     6.9882     6.6691     8.2226   117.9089     0.0122     2.4973     0.1092
  227.5000   -31.5194     6.9705     6.6112     8.2220   116.8734     0.0114     2.4967     0.1081
  228.0000   -31.6277     6.8183     6.5202     8.2215   115.9013     0.0105     2.4919     0.1089
  228.5000   -31.5569     6.6818     6.4303     8.2209   114.7636     0.0097     2.4779     0.1126
  229.0000   -31.4441     6.5481     6.3416     8.2204   114.8935     0.0092     2.4656     0.1220
  229.5000   -31.3301     6.4174     6.2541     8.2198   117.4659     0.0116     2.4537     0.1316
  230.0000   -31.2483     6.3382     6.1679     8.2193   119.8163     0.0137     2.4366     0.1429
  230.5000   -31.2501     6.2600     6.0828     8.2188   122.1920     0.0163     2.4418     0.1453
  231.0000   -31.2501     6.1829     5.9989     8.2182   125.3576     0.0153     2.4569     0.1375
  231.5000   -31.2500     6.1068     5.9162     8.2177   124.0298     0.0122     2.4673     0.1302
  232.0000   -31.2500     6.0315     5.8348     8.2171   120.6375     0.0091     2.4676     0.1289
  232.5000   -31.2500     5.9625     5.7544     8.2166   117.3257     0.0090     2.4667     0.1278
  233.0000   -31.2500     5.9217     5.6628     8.2160   115.6744     0.0090     2.4651     0.1274
  233.5000   -31.2500     5.8838     5.5368     8.2155   115.8407     0.0088     2.4553     0.1371
  234.0000   -31.2500     5.8110     5.4134     8.2149   115.6998     0.0090     2.4307     0.1561
  234.5000   -31.2500     5.6095     5.2925     8.2144   116.7671     0.0098     2.3869     0.1751
  235.0000   -31.2500     5.4149     5.1869     8.2139   118.1902     0.0213     2.3697     0.1867
  235.5000   -31.2500     5.2912     5.1458     8.2133   119.5850     0.0280     2.3815     0.1875
  236.0000   -31.2500     5.3069     5.1003     8.2128   119.6191     0.0257     2.4193     0.1677
  236.5000   -31.2500     5.4411     5.2276     8.2122   116.5884     0.0233     2.4613     0.1312
  237.0000   -31.2500     5.6026     5.4524     8.2117   114.0435     0.0207     2.4985     0.1162
  237.5000   -31.2500     5.8338     5.7723     8.2111   111.2890     0.0181     2.4935     0.1072
  238.0000   -31.2500     6.0746     6.1110     8.2106   109.9758     0.0157     2.4890     0.1128
  238.5000   -31.2500     6.3252     6.4696     8.2100   109.6268     0.0131     2.4828     0.1184
  239.0000   -31.2500     6.5363     6.8493     8.2095   109.6095     0.0123     2.4785     0.1231
  239.5000   -31.2500     6.5363     7.0998     8.2090   109.8625     0.0115     2.4798     0.1204
  240.0000   -31.2500     6.5363     6.9538     8.2084   110.2176     0.0109     2.4815     0.1181
  240.5000   -31.2500     6.4775     6.7655     8.2079   109.8302     0.0101     2.4839     0.1159
  241.0000   -31.2500     6.2998     6.5823     8.2073   108.9506     0.0096     2.4787     0.1173
  241.5000   -31.2500     6.1270     6.4040     8.2068   108.2351     0.0093     2.4626     0.1268
  242.0000   -31.2500     5.9589     6.2305     8.2063   106.8677     0.0163     2.4471     0.1404
  242.5000   -31.2500     5.8004     6.0617     8.2057   112.4476     0.0227     2.4315     0.1540
  243.0000   -31.2512     5.7670     5.8975     8.2052   114.8094     0.0351     2.4155     0.1609
  243.5000   -31.2521     5.7301     5.8001     8.2046   115.9955     0.0494     2.4075     0.1660
  244.0000   -31.2352     5.6950     5.8002     8.2041   116.4735     0.0639     2.4259     0.1521
  244.5000   -30.8017     5.6955     5.8007     8.2035   117.2966     0.0663     2.4530     0.1306
  245.0000   -29.5345     5.6930     5.8004     8.2030   116.4157     0.0686     2.4789     0.1229
  245.5000   -29.3299     5.6948     6.0482     8.2024   115.0987     0.0703     2.5036     0.1135
  246.0000   -29.6252     6.1209     6.4132     8.2019   114.6257     0.0723     2.5213     0.1030
  246.5000   -29.4286     6.4689     6.8003     8.2014   114.1312     0.0742     2.5240     0.0944
  247.0000   -29.2938     6.7332     7.2107     8.2008   113.6937     0.0761     2.5214     0.0943
  247.5000   -29.3544     6.9494     7.6413     8.2003   113.2111     0.0782     2.5189     0.0975
  248.0000   -29.4131     7.1473     7.9274     8.1997   112.7426     0.0801     2.5158     0.1007
  248.5000   -29.4660     7.2994     7.9573     8.1992   111.7685     0.0901     2.5134     0.1016
  249.0000   -29.4644     7.2948     7.9878     8.1986   110.5525     0.1042     2.5128     0.0996
  249.5000   -29.4642     7.2811     8.0184     8.1981   110.2405     0.1174     2.5265     0.0959
  250.0000   -29.4643     7.2733     8.0490     8.1976   110.4002     0.1273     2.5387     0.0922
  250.5000   -29.4643     7.2654     8.0798     8.1970   110.5977     0.1161     2.5480     0.0885
  251.0000   -29.4643     7.2575     8.1107     8.1965   110.8836     0.1028     2.5477     0.0841
  251.5000   -29.4643     7.2497     8.1418     8.1959   111.1693     0.0736     2.5464     0.0868
  252.0000   -29.4643     7.2419     8.1729     8.1954   113.2059     0.0459     2.5370     0.0934
  252.5000   -29.4643     7.2340     8.2042     8.1948   115.4924     0.0181     2.5245     0.1000
