~VERSION INFORMATION
 VERS.                2.0:   CWLS LOG ASCII STANDARD - VERSION 2.0
 WRAP.                 NO:   ONE LINE PER DEPTH STEP
~WELL INFORMATION
#MNEM.UNIT      DATA TYPE    INFORMATION
#----------   ------------   ------------------------------
 STRT.F          598.0000:   START DEPTH
 STOP.F         2552.0000:   STOP DEPTH
 STEP.F            0.5000:   STEP LENGTH
 NULL.          -999.2500:   NO VALUE
 COMP. FENIX & SCISSON INC:   COMPANY
 WELL.     15-SHX-2 #15-2:   WELL
 FLD .             TEAPOT:   FIELD
 LOC .       S2 T38N R78W:   LOCATION
 CNTY.            NATRONA:   COUNTY
 STAT.            WYOMING:   STATE
 CTRY. UNITED STATES OF AMERICA:   COUNTRY
 SRVC.              Welex:   SERVICE COMPANY
 DATE.        03-JUN-1979:   LOGDATE
 API .       490251002100:   API NUMBER
~CURVE INFORMATION
#MNEM.UNIT       API CODE    CURVE DESCRIPTION
#----------   ------------   ------------------------------
 DEPT.F                  :   
 CALD.IN     45 280 60 00:   CALIPER
 GRD .GAPI   45 310 01 00:   GAMMA RAY FROM DENSITY LOG
 RHOB.G/C3   45 350 01 00:   BULK DENSITY
 DPHI.DEC    45 890 12 00:   DENSITY POROSITY SANDSTONE
 CORR.G/C3   45 356 01 00:   DENSITY CORRECTION
~PARAMETER INFORMATION
#MNEM.UNIT          VALUE    DESCRIPTION
#----------   ------------   ------------------------------
 PD  .                 GL:   PERMANENT DATUM
 EPD .F              5118:   ELEVATION PERMANENT DATUM
 LMF .                 KB:   LOG MEASURED FROM
 DAPD.F                10:   FEET ABOVE PERMANENT DATUM
 DMF .                 KB:   DRILLING MEASURED FROM
 EKB .F              5128:   KELLING BUSHING
 EGL .F              5118:   GROUND LEVEL
 DATE.             6-3-79:   RUN DATE
 RUN .                  1:   RUN NUMBER
 DD  .F              2569:   DEPTH DRILLER
 DL  .F              2554:   DEPTH LOGGER
 BLI .F              2552:   BOTTOM LOG INTERVAL
 TLI .F               622:   TOP LOG INTERVAL
 CS  .IN            9.625:   CASING SIZE
 CBD .F               622:   CASING BOTTOM DRILLER
 BS  .IN             8.75:   BIT SIZE
 BSD .F              2569:   BIT SIZE AT DEPTH
 DFT .        AIR DRILLED:   DRILLING FLUID TYPE
 TCS .HRS             2.5:   TIME CURCULATED STOPPED
 MRT .F               124:   MAXIMUM RECORDED TEMPERATURE
 ENGI.               REIN:   RECORDING ENGINEER
 WITN.              AMEND:   WITNESSED BY
 CLNT.            A2DTECH:   CLIENT CODE
 ORIG.           5" PRINT:   ORIGIN OF DATA
 UWI .       490251002100:   UNIQUE WELL ID
 DICO. A2D Technologies, Inc.:   DIGITIZING COMPANY
~OTHER INFORMATION
~A   DEPT     CALD         GRD      RHOB       DPHI       CORR   
# ...
 1452.0000     9.0171    91.1177     2.5441     0.0066     0.0334
 1452.5000     9.0237    91.2480     2.5603     0.0000     0.0350
 1453.0000     9.0303    91.7556     2.5665    -0.0067     0.0350
 1453.5000     9.0368    92.4212     2.5731    -0.0134     0.0350
 1454.0000     9.0434    92.2473     2.5798    -0.0201     0.0350
 1454.5000     9.0500    92.6385     2.5780    -0.0143     0.0327
 1455.0000     9.0566    93.2516     2.5596    -0.0030     0.0302
 1455.5000     9.0632    93.8683     2.5406     0.0091     0.0277
 1456.0000     9.0697    94.2629     2.5259     0.0146     0.0251
 1456.5000     9.0763    93.3295     2.5268     0.0171     0.0228
 1457.0000     9.0829    92.3288     2.5303     0.0155     0.0252
 1457.5000     9.0894    91.2908     2.5381     0.0118     0.0276
 1458.0000     9.0958    89.4252     2.5497     0.0063     0.0300
 1458.5000     9.1183    88.6190     2.5612    -0.0008     0.0324
 1459.0000     9.1453    87.4182     2.5721    -0.0080     0.0347
 1459.5000     9.1723    85.4062     2.5688    -0.0117     0.0371
 1460.0000     9.1994    84.5059     2.5583    -0.0105     0.0395
 1460.5000     9.2264    85.6216     2.5479     0.0014     0.0418
 1461.0000     9.2534    86.3892     2.5376     0.0119     0.0442
 1461.5000     9.2805    85.5568     2.5327     0.0115     0.0465
 1462.0000     9.3141    84.7555     2.5200     0.0220     0.0489
 1462.5000     9.3585    84.2217     2.4999     0.0331     0.0469
 1463.0000     9.4028    84.3636     2.4796     0.0441     0.0430
 1463.5000     9.4471    83.4699     2.4768     0.0492     0.0391
 1464.0000     9.4913    82.6789     2.4801     0.0487     0.0400
 1464.5000     9.5356    83.6952     2.4980     0.0399     0.0472
 1465.0000     9.5798    84.7660     2.5168     0.0248     0.0543
 1465.5000     9.6241    85.4429     2.5359     0.0091     0.0614
 1466.0000     9.6684    86.3017     2.5415     0.0085     0.0686
 1466.5000     9.7127    87.4949     2.5390     0.0079     0.0757
 1467.0000     9.7571    88.6898     2.5462     0.0062     0.0826
 1467.5000     9.8017    88.9909     2.5532     0.0006     0.0848
 1468.0000     9.8323    88.0161     2.5549    -0.0033     0.0870
 1468.5000     9.7549    88.2285     2.5555    -0.0002     0.0870
 1469.0000     9.6772    89.0130     2.5412     0.0038     0.0871
 1469.5000     9.6000    89.8269     2.5189     0.0247     0.0884
 1470.0000     9.5230    89.8336     2.3972     0.0581     0.0832
 1470.5000     9.4459    89.4624     2.3997     0.0920     0.0674
 1471.0000     9.3688    89.2364     2.4209     0.0920     0.0518
 1471.5000     9.2917    90.2981     2.4742     0.0509     0.0387
 1472.0000     9.2147    91.3504     2.5278     0.0128     0.0388
 1472.5000     9.1374    92.3944     2.5378     0.0090     0.0390
 1473.0000     9.0837    93.4381     2.5383     0.0107     0.0377
 1473.5000     9.0497    94.0138     2.5413     0.0070     0.0361
 1474.0000     9.0185    94.0915     2.5443     0.0051     0.0345
 1474.5000     9.0239    94.1715     2.5391     0.0087     0.0329
 1475.0000     9.0299    94.2612     2.5330     0.0132     0.0314
 1475.5000     9.0356    93.8493     2.5271     0.0159     0.0350
 1476.0000     9.0413    93.2214     2.5362     0.0118     0.0450
 1476.5000     9.0471    93.3846     2.5479     0.0051     0.0551
 1477.0000     9.0528    93.8154     2.5331     0.0086     0.0563
 1477.5000     9.0569    94.2625     2.5274     0.0123     0.0498
 1478.0000     9.0488    94.5023     2.5514     0.0069     0.0432
 1478.5000     9.0407    93.7337     2.5563    -0.0033     0.0367
 1479.0000     9.0326    92.9850     2.5445     0.0055     0.0302
 1479.5000     9.0246    92.6886     2.5436     0.0013     0.0249
 1480.0000     9.0165    94.3975     2.5637    -0.0056     0.0215
 1480.5000     9.0084    94.2732     2.5678    -0.0110     0.0218
 1481.0000     9.0003    94.6195     2.5639    -0.0110     0.0228
 1481.5000     8.9923    95.4808     2.5572    -0.0072     0.0238
 1482.0000     8.9842    96.3019     2.5504    -0.0027     0.0248
 1482.5000     8.9762    94.9870     2.5444     0.0018     0.0250
 1483.0000     8.9681    93.5227     2.5356     0.0071     0.0250
 1483.5000     8.9596    92.0648     2.5279     0.0127     0.0250
 1484.0000     8.9678    90.6086     2.5295     0.0147     0.0250
 1484.5000     8.9802    89.1521     2.5367     0.0092     0.0244
 1485.0000     8.9928    87.7168     2.5437     0.0047     0.0234
 1485.5000     9.0053    86.9849     2.5517    -0.0003     0.0225
 1486.0000     9.0178    88.4111     2.5640    -0.0071     0.0215
 1486.5000     9.0303    90.1167     2.5760    -0.0138     0.0214
 1487.0000     9.0428    91.8384     2.5835    -0.0189     0.0235
 1487.5000     9.0553    93.5576     2.5765    -0.0189     0.0255
 1488.0000     9.0678    94.8474     2.5701    -0.0115     0.0275
 1488.5000     9.0803    93.1318     2.5638    -0.0088     0.0295
 1489.0000     9.0928    91.3394     2.5587    -0.0068     0.0303
 1489.5000     9.1053    91.7886     2.5518    -0.0027     0.0270
 1490.0000     9.1176    93.5026     2.5434     0.0046     0.0238
 1490.5000     9.1286    94.7255     2.5333     0.0120     0.0206
 1491.0000     9.1394    94.1116     2.5241     0.0167     0.0174
 1491.5000     9.1502    94.9070     2.5240     0.0172     0.0171
 1492.0000     9.1610    94.5729     2.5316     0.0149     0.0190
 1492.5000     9.1718    93.6633     2.5392     0.0103     0.0209
 1493.0000     9.1826    92.7396     2.5469     0.0056     0.0228
 1493.5000     9.1936    91.8154     2.5545     0.0009     0.0246
 1494.0000     9.1968    90.8923     2.5604    -0.0038     0.0265
 1494.5000     9.1883    89.9692     2.5619    -0.0061     0.0284
 1495.0000     9.1796    89.0417     2.5554    -0.0066     0.0290
 1495.5000     9.1711    88.1136     2.5459    -0.0007     0.0289
 1496.0000     9.1625    87.8087     2.5370     0.0059     0.0268
 1496.5000     9.1539    89.1923     2.5429     0.0079     0.0280
 1497.0000     9.1452    90.5324     2.5512    -0.0012     0.0292
 1497.5000     9.1380    91.7621     2.5597    -0.0073     0.0304
 1498.0000     9.1468    91.0069     2.5681    -0.0141     0.0315
 1498.5000     9.1558    90.0018     2.5670    -0.0098     0.0327
 1499.0000     9.1646    89.0091     2.5666    -0.0109     0.0339
 1499.5000     9.1734    88.6265     2.5810    -0.0131     0.0350
 1500.0000     9.1822    90.0601     2.5825    -0.0153     0.0362
 1500.5000     9.1910    91.2750     2.5776    -0.0175     0.0371
 1501.0000     9.1970    91.2945     2.5765    -0.0165     0.0375
 1501.5000     9.1908    91.5577     2.5816    -0.0187     0.0379
 1502.0000     9.1848    92.6601     2.5851    -0.0225     0.0383
 1502.5000     9.1788    92.7795     2.5768    -0.0219     0.0387
 1503.0000     9.1729    92.6193     2.5676    -0.0130     0.0388
 1503.5000     9.1670    92.2846     2.5641    -0.0097     0.0373
 1504.0000     9.1610    91.9526     2.5740    -0.0136     0.0357
 1504.5000     9.1551    91.6205     2.5818    -0.0185     0.0342
 1505.0000     9.1492    91.5853     2.5750    -0.0179     0.0326
 1505.5000     9.1432    91.7808     2.5629    -0.0091     0.0310
 1506.0000     9.1373    92.6389     2.5521    -0.0028     0.0294
 1506.5000     9.1314    92.9709     2.5534     0.0003     0.0321
 1507.0000     9.1254    92.7341     2.5667    -0.0081     0.0364
 1507.5000     9.1195    92.4866     2.5801    -0.0156     0.0407
 1508.0000     9.1137    93.2884     2.5921    -0.0232     0.0451
 1508.5000     9.1081    94.2194     2.5875    -0.0267     0.0500
 1509.0000     9.1024    95.1625     2.5812    -0.0218     0.0510
 1509.5000     9.0967    95.3432     2.5731    -0.0158     0.0465
 1510.0000     9.0910    95.0849     2.5631    -0.0097     0.0415
 1510.5000     9.0853    94.8264     2.5530    -0.0036     0.0365
 1511.0000     9.0796    94.5350     2.5436     0.0025     0.0315
 1511.5000     9.0777    93.5864     2.5447     0.0043     0.0310
 1512.0000     9.0777    92.6421     2.5505     0.0014     0.0329
 1512.5000     9.0777    91.7021     2.5562    -0.0043     0.0350
