~VERSION INFORMATION
 VERS.                2.0:   CWLS LOG ASCII STANDARD - VERSION 2.0
 WRAP.                 NO:   ONE LINE PER DEPTH STEP
~WELL INFORMATION
#MNEM.UNIT      DATA TYPE    INFORMATION
#----------   ------------   ------------------------------
 STRT.F           28.0000:   START DEPTH
 STOP.F          856.0000:   STOP DEPTH
 STEP.F            0.5000:   STEP LENGTH
 NULL.          -999.2500:   NO VALUE
 COMP. FENIX & SCISSON INC:   COMPANY
 WELL. NPR 3  76 SX #76-27:   WELL
 FLD .             TEAPOT:   FIELD
 LOC .      S27 T39N R78W:   LOCATION
 CNTY.            NATRONA:   COUNTY
 STAT.            WYOMING:   STATE
 CTRY. UNITED STATES OF AMERICA:   COUNTRY
 SRVC.            Unknown:   SERVICE COMPANY
 DATE.        06-SEP-1978:   LOGDATE
 API .       490251069600:   API NUMBER
~CURVE INFORMATION
#MNEM.UNIT       API CODE    CURVE DESCRIPTION
#----------   ------------   ------------------------------
 DEPT.F                  :   
 SPR .MV     05 010 01 00:   SPONTANEOUS POTENTIAL FROM RES.
 SN  .OHMM   05 040 16 00:   SHORT NORMAL 16"
 ILD .OHMM   05 120 46 00:   INDUCTION LOG DEEP
 NPHI.DEC    42 890 03 00:   NEUTRON POROSITY SANDSTONE
 GRD .GAPI   45 310 01 00:   GAMMA RAY FROM DENSITY LOG
 CALD.IN     45 280 60 00:   CALIPER
 RHOB.G/C3   45 350 01 00:   BULK DENSITY
 DPHI.DEC    45 890 12 00:   DENSITY POROSITY SANDSTONE
 CORR.G/C3   45 356 01 00:   DENSITY CORRECTION
~PARAMETER INFORMATION
#MNEM.UNIT          VALUE    DESCRIPTION
#----------   ------------   ------------------------------
 PD  .                 GL:   PERMANENT DATUM
 EPD .F              5062:   ELEVATION PERMANENT DATUM
 LMF .                 KB:   LOG MEASURED FROM
 DAPD.F                 4:   FEET ABOVE PERMANENT DATUM
 DMF .                 KB:   DRILLING MEASURED FROM
 EKB .F              5066:   KELLING BUSHING
 EGL .F              5062:   GROUND LEVEL
 DATE.             9-6-78:   RUN DATE
 RUN .                  1:   RUN NUMBER
 DD  .F               865:   DEPTH DRILLER
 DL  .F               857:   DEPTH LOGGER
 BLI .F               851:   BOTTOM LOG INTERVAL
 TLI .F                40:   TOP LOG INTERVAL
 CS  .IN            8.625:   CASING SIZE
 CBD .F                43:   CASING BOTTOM DRILLER
 CBL .F                43:   CASING BOTTOM LOGGER
 BS  .IN            7.875:   BIT SIZE
 BSD .F               865:   BIT SIZE AT DEPTH
 DFT .                KCL:   DRILLING FLUID TYPE
 DFD .                8.4:   DRILLING FLUID DENSITY
 DFV .                 40:   DRILLING FLUID VISCOSITY
 DFPH.                  9:   DRILLING FLUID PH
 DFL .                  6:   DRILLING FLUID LOSS
 MSS .           FLOWLINE:   MUD SAMPLE SOURCE
 RMS .OHMM            .14:   RESISTIVITY MUD SAMPLE
 MST .F                84:   MUD SAMPLE TEMPERATURE
 RMF .OHMM             .1:   RESISTIVITY MUD FILTRATE SAMPLE
 MFST.F                94:   MUD FILTRATE SAMPLE TEMPERATURE
 RMC .OHMM            .18:   RESISTIVITY MUD CAKE
 MCST.F                92:   MUD CAKE SAMPLE TEMPERATURE
 MFSS.               MEAS:   MUD FILTRATE SAMPLE SOURCE
 MCSS.               MEAS:   MUD CAKE SAMPLE SOURCE
 RMB .OHMM           .145:   RESISTIVITY MUD AT BHT
 BHT .F                82:   BOTTOM HOLE TEMPERATURE
 TCS .HRS               3:   TIME CURCULATED STOPPED
 MRT .F                82:   MAXIMUM RECORDED TEMPERATURE
 LUN .               2958:   LOGGING UNIT NUMBER
 LUL .               CASP:   LOGGING UNIT LOCATION
 ENGI.           REYNOLDS:   RECORDING ENGINEER
 WITN.           MCGINLEY:   WITNESSED BY
 CLNT.            A2DTECH:   CLIENT CODE
 ORIG.           5" PRINT:   ORIGIN OF DATA
 UWI .       490251069600:   UNIQUE WELL ID
 DICO. A2D Technologies, Inc.:   DIGITIZING COMPANY
~OTHER INFORMATION
~A   DEPT      SPR         SN        ILD       NPHI         GRD      CALD       RHOB       DPHI       CORR   
# ...
  137.5000   -86.3675     6.5845     5.9312  -999.2500    83.1522     7.3971     2.4331     0.1532     0.0042
  138.0000   -86.3482     6.5966     5.9958  -999.2500    83.3644     7.3225     2.4305     0.1636     0.0055
  138.5000   -86.3289     6.6088     6.0831  -999.2500    81.3677     7.2430     2.4241     0.1627     0.0089
  139.0000   -86.3096     6.6210     6.1709  -999.2500    79.4128     7.1631     2.4174     0.1619     0.0111
  139.5000   -86.2903     6.6333     6.2104  -999.2500    77.4508     7.0803     2.4164     0.1624     0.0110
  140.0000   -86.2710     6.6455     6.2096  -999.2500    75.4742     6.9724     2.4171     0.1690     0.0110
  140.5000   -86.2517     6.6578     6.2096  -999.2500    73.5491     6.8586     2.4176     0.1755     0.0105
  141.0000   -86.2324     6.6701     6.1693  -999.2500    74.9341     6.7440     2.4072     0.1821     0.0089
  141.5000   -86.2131     6.6824     6.1288  -999.2500    76.0068     6.8376     2.3958     0.1887     0.0129
  142.0000   -86.1937     6.6578     6.0961  -999.2500    76.2439     6.9656     2.3845     0.1954     0.0187
  142.5000   -86.1745     6.6272     5.8893  -999.2500    79.8057     7.0932     2.3731     0.1950     0.0372
  143.0000   -86.1552     6.5967     5.6422  -999.2500    82.3287     7.1994     2.3630     0.1736     0.0620
  143.5000   -86.1358     6.5663     5.4097  -999.2500    82.6833     7.1969     2.3669     0.1519     0.0861
  144.0000   -86.1170     6.5361     5.4299  -999.2500    81.9172     7.1974     2.3986     0.1349     0.0828
  144.5000   -86.0975     6.5060     5.4614  -999.2500    77.3708     7.2103     2.4307     0.1411     0.0658
  145.0000   -86.0741     6.4760     5.4616  -999.2500    76.4218     7.2386     2.4608     0.1473     0.0385
  145.5000   -85.8317     6.4462     5.3533  -999.2500    77.1350     7.2727     2.4610     0.1490     0.0190
  146.0000   -85.2918     6.4417     5.3120  -999.2500    78.9175     7.3513     2.4424     0.1452     0.0214
  146.5000   -84.7572     6.4417     5.3525  -999.2500    80.6895     7.4286     2.4348     0.1380     0.0312
  147.0000   -84.6583     6.4928     5.4153  -999.2500    82.3036     7.5062     2.4397     0.1313     0.0371
  147.5000   -84.6300     6.5530     5.4783  -999.2500    80.7446     7.5840     2.4509     0.1330     0.0274
  148.0000   -84.6025     6.6136     5.5115  -999.2500    79.0699     7.6610     2.4621     0.1345     0.0170
  148.5000   -84.5742     6.6749     5.5115  -999.2500    77.3964     7.6916     2.4643     0.1341     0.0201
  149.0000   -84.5458     6.7367     5.5108  -999.2500    75.7550     7.7145     2.4615     0.1274     0.0238
  149.5000   -84.5179     6.7990     5.5094  -999.2500    73.2396     7.7325     2.4637     0.1178     0.0276
  150.0000   -84.4932     6.8620     5.5088  -999.2500    70.4254     7.7380     2.4762     0.1081     0.0306
  150.5000   -84.3504     6.9255     5.8068  -999.2500    67.5745     7.7436     2.4883     0.1014     0.0252
  151.0000   -84.1990     6.9896     6.0444  -999.2500    64.6107     7.7492     2.5003     0.1161     0.0198
  151.5000   -84.0471     7.1507     6.3053  -999.2500    63.9637     7.7548     2.5094     0.1323     0.0146
  152.0000   -83.8957     7.3264     6.7029  -999.2500    66.0416     7.7604     2.5062     0.1447     0.0093
  152.5000   -83.7443     7.5065     7.1256  -999.2500    68.9196     7.7661     2.4826     0.1549     0.0070
  153.0000   -83.5929     7.6141     7.2879  -999.2500    71.8540     7.7717     2.4590     0.1575     0.0080
  153.5000   -83.4415     7.6459     7.3489  -999.2500    72.8026     7.7773     2.4354     0.1600     0.0098
  154.0000   -83.2901     7.6682     7.3858  -999.2500    73.4329     7.7829     2.4236     0.1577     0.0115
  154.5000   -83.1386     7.5801     7.2814  -999.2500    74.0621     7.7885     2.4246     0.1521     0.0130
  155.0000   -82.9872     7.5008     7.2243  -999.2500    75.3603     7.7941     2.4291     0.1506     0.0130
  155.5000   -82.8357     7.4224     7.0282  -999.2500    77.7621     7.7997     2.4336     0.1472     0.0130
  156.0000   -82.6839     7.3448     6.7101  -999.2500    80.1493     7.8053     2.4381     0.1427     0.0130
  156.5000   -82.5319     7.2680     6.3217  -999.2500    81.1524     7.8109     2.4426     0.1384     0.0130
  157.0000   -82.5013     7.1920     6.1107  -999.2500    81.0183     7.8166     2.4471     0.1376     0.0130
  157.5000   -82.4914     7.1168     6.0410  -999.2500    80.6746     7.8222     2.4516     0.1396     0.0130
  158.0000   -82.4818     7.0424     6.0458  -999.2500    80.0367     7.8278     2.4555     0.1436     0.0130
  158.5000   -82.4720     6.9687     6.0511  -999.2500    79.5359     7.8296     2.4524     0.1460     0.0130
  159.0000   -82.4622     6.9318     6.0565  -999.2500    79.4318     7.8297     2.4493     0.1405     0.0130
  159.5000   -82.4523     6.9275     6.0618  -999.2500    79.4708     7.8297     2.4470     0.1408     0.0130
  160.0000   -82.4425     6.9232     6.0672  -999.2500    79.6702     7.8297     2.4502     0.1432     0.0130
  160.5000   -82.4326     6.9189     6.0725  -999.2500    79.8717     7.8297     2.4512     0.1436     0.0130
  161.0000   -82.4228     6.9146     6.0779  -999.2500    79.3351     7.8297     2.4505     0.1428     0.0130
  161.5000   -82.4130     6.9103     6.0833  -999.2500    78.0732     7.8297     2.4498     0.1403     0.0129
  162.0000   -82.4031     6.9060     6.0886  -999.2500    78.1028     7.8298     2.4516     0.1375     0.0130
  162.5000   -82.3933     6.9018     6.0961  -999.2500    78.5778     7.8106     2.4537     0.1348     0.0130
  163.0000   -82.3834     6.8975     6.0915  -999.2500    77.9212     7.7759     2.4557     0.1339     0.0151
  163.5000   -82.3736     6.8932     6.0814  -999.2500    78.6295     7.7410     2.4580     0.1353     0.0148
  164.0000   -82.3637     6.8889     6.0713  -999.2500    81.6036     7.7062     2.4603     0.1382     0.0141
  164.5000   -82.3539     6.8847     6.0612  -999.2500    81.7419     7.6713     2.4602     0.1410     0.0134
  165.0000   -82.3441     6.8804     6.0511  -999.2500    78.1997     7.6365     2.4569     0.1426     0.0127
  165.5000   -82.3343     6.8761     6.0410  -999.2500    76.3037     7.6016     2.4536     0.1436     0.0120
  166.0000   -82.3245     6.8719     6.0309  -999.2500    77.7962     7.5668     2.4504     0.1484     0.0113
  166.5000   -82.3159     6.8676     6.0209  -999.2500    79.6260     7.5325     2.4472     0.1512     0.0110
  167.0000   -82.2420     6.8634     6.0109  -999.2500    78.6231     7.4987     2.4406     0.1488     0.0131
  167.5000   -82.1507     6.8591     6.0009  -999.2500    77.6788     7.4654     2.4348     0.1435     0.0155
  168.0000   -82.0590     6.8548     5.9909  -999.2500    76.8108     7.4321     2.4357     0.1376     0.0184
  168.5000   -81.9674     6.8506     5.9859  -999.2500    77.0106     7.3989     2.4452     0.1366     0.0154
  169.0000   -81.8758     6.8464     6.0021  -999.2500    77.1209     7.3663     2.4546     0.1379     0.0106
  169.5000   -81.7843     6.8421     6.0146  -999.2500    76.7714     7.3296     2.4597     0.1392     0.0058
  170.0000   -81.6928     6.8379     6.0272  -999.2500    76.5494     7.2123     2.4592     0.1472     0.0009
  170.5000   -81.6014     6.8336     6.0398  -999.2500    76.4038     7.0980     2.4563     0.1554     0.0081
  171.0000   -81.4960     6.8294     6.0524  -999.2500    77.5981     6.9959     2.4473     0.1620     0.0186
  171.5000   -81.3157     6.8252     6.0650  -999.2500    77.6775     7.0346     2.4287     0.1588     0.0314
  172.0000   -81.1332     6.8210     6.0777  -999.2500    76.9655     7.1351     2.4183     0.1567     0.0389
  172.5000   -80.9509     6.8167     6.0902  -999.2500    78.2838     7.2393     2.4212     0.1618     0.0388
  173.0000   -80.7686     6.8125     6.0956  -999.2500    79.3322     7.3437     2.4239     0.1643     0.0406
  173.5000   -80.5812     6.8067     6.0817  -999.2500    78.8284     7.4471     2.4184     0.1554     0.0521
