~VERSION INFORMATION
 VERS.                2.0:   CWLS LOG ASCII STANDARD - VERSION 2.0
 WRAP.                 NO:   ONE LINE PER DEPTH STEP
~WELL INFORMATION
#MNEM.UNIT      DATA TYPE    INFORMATION
#----------   ------------   ------------------------------
 STRT.F           12.0000:   START DEPTH
 STOP.F          754.0000:   STOP DEPTH
 STEP.F            0.5000:   STEP LENGTH
 NULL.          -999.2500:   NO VALUE
 COMP. FENIX & SCISSON INC:   COMPANY
 WELL.    62 SX 34 #62-34:   WELL
 FLD .             TEAPOT:   FIELD
 LOC .      S34 T39N R78W:   LOCATION
 CNTY.            NATRONA:   COUNTY
 STAT.            WYOMING:   STATE
 CTRY. UNITED STATES OF AMERICA:   COUNTRY
 SRVC.            Unknown:   SERVICE COMPANY
 DATE.        20-AUG-1978:   LOGDATE
 API .       490251070200:   API NUMBER
~CURVE INFORMATION
#MNEM.UNIT       API CODE    CURVE DESCRIPTION
#----------   ------------   ------------------------------
 DEPT.F                  :   
 SPR .MV     05 010 01 00:   SPONTANEOUS POTENTIAL FROM RES.
 SN  .OHMM   05 040 16 00:   SHORT NORMAL 16"
 ILD .OHMM   05 120 46 00:   INDUCTION LOG DEEP
 GRD .GAPI   45 310 01 00:   GAMMA RAY FROM DENSITY LOG
 CALD.IN     45 280 60 00:   CALIPER
 RHOB.G/C3   45 350 01 00:   BULK DENSITY
 DPHI.DEC    45 890 12 00:   DENSITY POROSITY SANDSTONE
 CORR.G/C3   45 356 01 00:   DENSITY CORRECTION
~PARAMETER INFORMATION
#MNEM.UNIT          VALUE    DESCRIPTION
#----------   ------------   ------------------------------
 PD  .                 GL:   PERMANENT DATUM
 EPD .F              5039:   ELEVATION PERMANENT DATUM
 LMF .                 KB:   LOG MEASURED FROM
 DAPD.F                 4:   FEET ABOVE PERMANENT DATUM
 DMF .                 KB:   DRILLING MEASURED FROM
 EKB .F              5043:   KELLING BUSHING
 EGL .F              5039:   GROUND LEVEL
 DATE.            8-20-78:   RUN DATE
 RUN .                  1:   RUN NUMBER
 DD  .F               750:   DEPTH DRILLER
 DL  .F               755:   DEPTH LOGGER
 BLI .F               749:   BOTTOM LOG INTERVAL
 TLI .F                30:   TOP LOG INTERVAL
 CS  .IN            8.625:   CASING SIZE
 CBD .F                30:   CASING BOTTOM DRILLER
 CBL .F                34:   CASING BOTTOM LOGGER
 BS  .IN            7.875:   BIT SIZE
 BSD .F               750:   BIT SIZE AT DEPTH
 DFT .            KCL MUD:   DRILLING FLUID TYPE
 DFD .                8.6:   DRILLING FLUID DENSITY
 DFV .                 30:   DRILLING FLUID VISCOSITY
 DFPH.                9.5:   DRILLING FLUID PH
 DFL .               10.4:   DRILLING FLUID LOSS
 MSS .          FLOW LINE:   MUD SAMPLE SOURCE
 RMS .OHMM            .28:   RESISTIVITY MUD SAMPLE
 MST .F                76:   MUD SAMPLE TEMPERATURE
 RMF .OHMM            .24:   RESISTIVITY MUD FILTRATE SAMPLE
 MFST.F                80:   MUD FILTRATE SAMPLE TEMPERATURE
 RMC .OHMM            .34:   RESISTIVITY MUD CAKE
 MCST.F                82:   MUD CAKE SAMPLE TEMPERATURE
 MFSS.               MEAS:   MUD FILTRATE SAMPLE SOURCE
 MCSS.               MEAS:   MUD CAKE SAMPLE SOURCE
 BHT .F                72:   BOTTOM HOLE TEMPERATURE
 TCS .HRS               3:   TIME CURCULATED STOPPED
 MRT .F                72:   MAXIMUM RECORDED TEMPERATURE
 LUN .               2958:   LOGGING UNIT NUMBER
 LUL .               CASP:   LOGGING UNIT LOCATION
 ENGI.           REYNOLDS:   RECORDING ENGINEER
 WITN.              AMEND:   WITNESSED BY
 CLNT.            A2DTECH:   CLIENT CODE
 ORIG.           5" PRINT:   ORIGIN OF DATA
 UWI .       490251070200:   UNIQUE WELL ID
 DICO. A2D Technologies, Inc.:   DIGITIZING COMPANY
~OTHER INFORMATION
~A   DEPT      SPR         SN        ILD         GRD      CALD       RHOB       DPHI       CORR   
# ...
  457.5000   -63.6764     4.2219     4.5508   100.9120     9.1056     2.4839     0.1135     0.1023
  458.0000   -63.6736     4.3772     4.7416   103.4689     9.1004     2.4857     0.1165     0.1003
  458.5000   -63.6709     4.5582     4.9404   106.0341     9.0979     2.4835     0.1182     0.0983
  459.0000   -63.6682     4.7466     5.1474   108.5794     9.0917     2.4831     0.1143     0.0927
  459.5000   -63.6655     4.9428     5.3632   110.3175     9.0855     2.4902     0.1095     0.0846
  460.0000   -63.6628     5.1472     5.5880   107.6365     9.0793     2.4896     0.1171     0.0765
  460.5000   -63.6600     5.3600     5.8224   105.0138     9.0730     2.4818     0.1225     0.0709
  461.0000   -63.6573     5.5815     6.0660   102.3651     9.0668     2.4741     0.1252     0.0696
  461.5000   -63.6546     5.8310     6.3932   101.3972     9.0606     2.4736     0.1222     0.0682
  462.0000   -63.6519     5.8274     6.3633   100.7991     9.0544     2.4752     0.1232     0.0644
  462.5000   -63.6492     5.8670     6.3153   100.2101     9.0481     2.4768     0.1260     0.0567
  463.0000   -63.6465     5.8830     6.2663    99.7904     9.0419     2.4676     0.1416     0.0488
  463.5000   -63.6437     5.8450     6.2178   100.0157     9.0357     2.4523     0.1432     0.0471
  464.0000   -63.6410     5.7442     6.1698   101.9670     9.0295     2.4442     0.1380     0.0467
  464.5000   -63.6383     5.6452     6.1030   103.4691     9.0232     2.4508     0.1329     0.0463
  465.0000   -63.6356     5.6180     6.1181   102.7205     9.0170     2.4569     0.1320     0.0459
  465.5000   -63.6329     5.5089     6.1450   102.2023     9.0108     2.4558     0.1453     0.0454
  466.0000   -63.6301     5.3758     6.1592   103.9459     9.0046     2.4413     0.1562     0.0454
  466.5000   -63.6274     5.2465     6.1617   108.1940     8.9984     2.4086     0.1672     0.0457
  467.0000   -63.6247     5.1234     5.7161   109.6354     8.9921     2.3887     0.1759     0.0523
  467.5000   -63.6224     4.9424     5.4121   109.6120     8.9842     2.3930     0.1777     0.0592
  468.0000   -63.6191     4.7726     5.1241   109.5598     8.9815     2.4166     0.1597     0.0553
  468.5000   -63.5834     4.6091     4.8566   109.4976     9.0240     2.4398     0.1399     0.0461
  469.0000   -63.4309     4.3827     4.6054   108.9502    10.3097     2.4628     0.1212     0.0366
  469.5000   -63.2836     4.1579     4.3411   107.7578     9.6102     2.4801     0.1168     0.0317
  470.0000   -63.1365     3.9241     4.3714   106.5780     8.9870     2.4740     0.1176     0.0290
  470.5000   -62.9893     3.9930     4.4161   105.5138     8.9291     2.4683     0.1276     0.0283
  471.0000   -62.8421     4.0932     4.4636   105.0823     8.9192     2.4640     0.1306     0.0302
  471.5000   -62.6946     4.1959     4.5885   105.1757     8.9197     2.4628     0.1279     0.0320
  472.0000   -62.5475     4.4527     4.8045   105.2548     8.9185     2.4736     0.1203     0.0339
  472.5000   -62.4176     4.7852     5.2313   105.3366     8.9173     2.4867     0.1126     0.0358
  473.0000   -62.4107     5.1426     5.7944   105.4182     8.9161     2.5001     0.1056     0.0372
  473.5000   -62.4012     5.5266     6.5692   105.4998     8.9149     2.5037     0.1078     0.0329
  474.0000   -62.3912     5.7501     6.5498   105.5832     8.9137     2.4991     0.1098     0.0285
  474.5000   -62.3813     5.9080     6.5090   105.6720     8.9125     2.4945     0.1118     0.0242
  475.0000   -62.3713     6.0704     6.5203   105.3571     8.9113     2.4899     0.1138     0.0199
  475.5000   -62.3614     6.1080     6.5392   105.0045     8.9101     2.4853     0.1171     0.0156
  476.0000   -62.3514     6.1170     6.5582   104.6476     8.9088     2.4807     0.1211     0.0113
  476.5000   -62.3414     6.1255     6.5690   104.2884     8.9076     2.4762     0.1250     0.0074
  477.0000   -62.3315     6.1341     6.5692   104.4335     8.9064     2.4709     0.1289     0.0080
  477.5000   -62.3215     6.1427     6.5692   104.6377     8.9052     2.4637     0.1332     0.0084
  478.0000   -62.3116     6.1514     6.5692   103.9329     8.9040     2.4602     0.1333     0.0088
  478.5000   -62.3016     6.1591     6.5692   102.8905     8.9028     2.4596     0.1335     0.0093
  479.0000   -62.2917     6.1517     6.5692   102.7914     8.9016     2.4591     0.1336     0.0134
  479.5000   -62.2817     6.1443     6.5692   105.5858     8.9003     2.4605     0.1328     0.0208
  480.0000   -62.2718     6.1370     6.5692   110.3312     8.9008     2.4667     0.1270     0.0282
  480.5000   -62.2618     6.1297     6.5692   112.4346     8.9026     2.4745     0.1210     0.0358
  481.0000   -62.2518     6.1223     6.5692   112.5766     8.9044     2.4786     0.1224     0.0377
  481.5000   -62.2418     6.1150     6.5692   113.2753     8.9063     2.4765     0.1237     0.0382
  482.0000   -62.2318     6.1079     6.5692   117.2842     8.9081     2.4723     0.1252     0.0385
  482.5000   -62.2274     6.1035     6.5692   119.8841     8.9099     2.4704     0.1256     0.0389
  483.0000   -62.2576     6.1285     6.5706   117.3120     8.9118     2.4648     0.1338     0.0393
  483.5000   -62.2876     6.1476     6.5692   114.5994     8.9136     2.4424     0.1424     0.0417
  484.0000   -62.3175     6.1594     6.4544   111.8169     8.9154     2.4540     0.1472     0.0458
  484.5000   -62.3474     6.0821     6.3604   110.7385     8.9172     2.4712     0.1372     0.0417
  485.0000   -62.3772     6.0173     6.2678   113.5629     8.9191     2.4678     0.1268     0.0270
  485.5000   -62.4071     5.8396     6.1765   120.4235     8.9227     2.4646     0.1252     0.0106
  486.0000   -62.4370     5.4811     5.9556   121.4324     8.9401     2.4685     0.1236     0.0079
  486.5000   -62.4668     5.1715     5.7231   118.2196     8.9573     2.4725     0.1256     0.0084
  487.0000   -62.4967     5.1868     5.4996   115.4198     8.9745     2.4660     0.1341     0.0090
  487.5000   -62.5266     5.2109     5.4650   112.5949     8.9917     2.4569     0.1426     0.0096
  488.0000   -62.5564     5.2353     5.4795   112.0623     9.0089     2.4430     0.1511     0.0101
  488.5000   -62.5863     5.2675     5.4965   114.9027     9.0262     2.4289     0.1596     0.0107
  489.0000   -62.6162     5.2569     5.5135   116.9243     9.0437     2.4148     0.1668     0.0112
  489.5000   -62.6460     5.2403     5.5156   118.9851     9.0546     2.4024     0.1681     0.0118
  490.0000   -62.6759     5.2241     5.4650   120.3774     9.0349     2.4135     0.1635     0.0123
  490.5000   -62.7058     5.1348     5.3518   113.7360     9.0196     2.4320     0.1487     0.0129
  491.0000   -62.7356     5.0168     5.2289   113.9564     9.0053     2.4505     0.1339     0.0134
  491.5000   -62.7656     4.9016     5.0772   111.3567     8.9909     2.4690     0.1196     0.0140
  492.0000   -62.7956     4.7891     4.9935   110.2500     8.9766     2.4804     0.1166     0.0145
  492.5000   -62.8225     4.7007     4.9050   109.9833     8.9624     2.4850     0.1136     0.0151
  493.0000   -62.8216     4.6737     4.8479   108.7200     8.9549     2.4884     0.1132     0.0156
  493.5000   -62.7556     4.6309     4.8470   106.9550     8.9405     2.4912     0.1121     0.0162
  494.0000   -62.3316     4.6737     4.9755   105.2555     8.9398     2.4915     0.1112     0.0167
  494.5000   -61.9036     4.8456     5.2062   104.9894     8.9398     2.4922     0.1104     0.0173
  495.0000   -61.7726     5.1954     5.4456   104.8542     8.9399     2.4964     0.1068     0.0175
  495.5000   -61.6848     5.5665     5.6961   102.8064     8.9399     2.5005     0.1068     0.0175
  496.0000   -61.5982     5.6180     5.9580    99.8012     8.9400     2.4957     0.1185     0.0185
  496.5000   -61.5105     5.6180     6.2321   101.3982     8.9390     2.4825     0.1315     0.0200
  497.0000   -61.4287     5.6180     6.4494   102.9737     8.9195     2.4528     0.1436     0.0215
  497.5000   -61.4265     5.6180     6.4494   103.1371     8.9002     2.4218     0.1579     0.0230
