~VERSION INFORMATION
 VERS.                2.0:   CWLS LOG ASCII STANDARD - VERSION 2.0
 WRAP.                 NO:   ONE LINE PER DEPTH STEP
~WELL INFORMATION
#MNEM.UNIT      DATA TYPE    INFORMATION
#----------   ------------   ------------------------------
 STRT.F          442.0000:   START DEPTH
 STOP.F         2636.0000:   STOP DEPTH
 STEP.F            0.5000:   STEP LENGTH
 NULL.          -999.2500:   NO VALUE
 COMP. FENIX & SCISSON INC:   COMPANY
 WELL.     25 SHX 2 #25-2:   WELL
 FLD .             TEAPOT:   FIELD
 LOC .       S2 T38N R78W:   LOCATION
 CNTY.            NATRONA:   COUNTY
 STAT.            WYOMING:   STATE
 CTRY. UNITED STATES OF AMERICA:   COUNTRY
 SRVC.              Welex:   SERVICE COMPANY
 DATE.        07-JUN-1980:   LOGDATE
 API .       490251080200:   API NUMBER
~CURVE INFORMATION
#MNEM.UNIT       API CODE    CURVE DESCRIPTION
#----------   ------------   ------------------------------
 DEPT.F                  :   
 CALD.IN     45 280 60 00:   CALIPER
 GRD .GAPI   45 310 01 00:   GAMMA RAY FROM DENSITY LOG
 DPHI.DEC    45 890 12 00:   DENSITY POROSITY SANDSTONE
 CORR.G/C3   45 356 01 00:   DENSITY CORRECTION
 RHOB.G/C3   45 350 01 00:   BULK DENSITY
~PARAMETER INFORMATION
#MNEM.UNIT          VALUE    DESCRIPTION
#----------   ------------   ------------------------------
 PD  .                 GL:   PERMANENT DATUM
 EPD .F              5120:   ELEVATION PERMANENT DATUM
 LMF .                 KB:   LOG MEASURED FROM
 DAPD.F                10:   FEET ABOVE PERMANENT DATUM
 DMF .                 KB:   DRILLING MEASURED FROM
 EKB .F              5130:   KELLING BUSHING
 EGL .F              5120:   GROUND LEVEL
 DATE.             6-7-80:   RUN DATE
 RUN .                  1:   RUN NUMBER
 DD  .F              2652:   DEPTH DRILLER
 DL  .F              2638:   DEPTH LOGGER
 BLI .F              2636:   BOTTOM LOG INTERVAL
 TLI .F              1224:   TOP LOG INTERVAL
 BS  .IN             6.75:   BIT SIZE
 BSD .F              2652:   BIT SIZE AT DEPTH
 DFT .        AIR DRILLED:   DRILLING FLUID TYPE
 TCS .HRS               2:   TIME CURCULATED STOPPED
 MRT .F               125:   MAXIMUM RECORDED TEMPERATURE
 ENGI.               REIN:   RECORDING ENGINEER
 WITN.           DINSMORE:   WITNESSED BY
 CLNT.            A2DTECH:   CLIENT CODE
 ORIG.           5" PRINT:   ORIGIN OF DATA
 UWI .       490251080200:   UNIQUE WELL ID
 DICO. A2D Technologies, Inc.:   DIGITIZING COMPANY
~OTHER INFORMATION
~A   DEPT     CALD         GRD      DPHI       CORR       RHOB   
# ...
 2455.0000     8.8615    79.5997     0.1521     0.0134     2.3798
 2455.5000     8.8559    79.8980     0.1476     0.0021     2.3769
 2456.0000     8.8504    80.1942     0.1420     0.0125     2.3890
 2456.5000     8.8448    80.4912     0.1365     0.0261     2.4014
 2457.0000     8.8392    80.7875     0.1309     0.0399     2.4136
 2457.5000     8.8336    81.0489     0.1249     0.0537     2.4260
 2458.0000     8.8281    80.8785     0.1186     0.0679     2.4438
 2458.5000     8.8345    80.3521     0.1122     0.0831     2.4638
 2459.0000     8.8418    79.8347     0.1059     0.0990     2.4839
 2459.5000     8.8491    79.3125     0.1004     0.1147     2.5043
 2460.0000     8.8563    79.0804     0.1027     0.1098     2.5032
 2460.5000     8.8637    78.8058     0.1063     0.1061     2.4941
 2461.0000     8.8633    78.3141     0.1098     0.0971     2.4891
 2461.5000     8.8568    77.8479     0.1106     0.0946     2.4872
 2462.0000     8.8503    77.6101     0.1096     0.0969     2.4831
 2462.5000     8.8438    77.3577     0.1152     0.0805     2.4700
 2463.0000     8.8372    77.2568     0.1213     0.0645     2.4562
 2463.5000     8.8307    77.1950     0.1275     0.0483     2.4323
 2464.0000     8.8242    77.1315     0.1299     0.0316     2.4109
 2464.5000     8.8176    77.3274     0.1300     0.0360     2.4149
 2465.0000     8.8111    77.7189     0.1246     0.0459     2.4292
 2465.5000     8.8083    78.2736     0.1176     0.0562     2.4509
 2466.0000     8.8082    78.9528     0.1155     0.0572     2.4572
 2466.5000     8.8084    79.6245     0.1259     0.0370     2.4250
 2467.0000     8.8161    80.0652     0.1347     0.0172     2.4027
 2467.5000     8.8243    80.0582     0.1392     0.0217     2.3881
 2468.0000     8.8324    80.0594     0.1362     0.0311     2.4081
 2468.5000     8.8406    80.0591     0.1367     0.0404     2.3904
 2469.0000     8.8488    80.0592     0.1297     0.0465     2.4168
 2469.5000     8.8570    80.0616     0.1267     0.0441     2.4290
 2470.0000     8.8651    79.9787     0.1327     0.0346     2.4042
 2470.5000     8.8733    79.6938     0.1315     0.0213     2.4180
 2471.0000     8.8814    78.9941     0.1377     0.0119     2.4008
 2471.5000     8.8841    78.4726     0.1403     0.0222     2.3938
 2472.0000     8.8774    77.4220     0.1231     0.0323     2.4286
 2472.5000     8.8709    76.3397     0.1176     0.0423     2.4527
 2473.0000     8.8644    75.2570     0.1179     0.0524     2.4666
 2473.5000     8.8578    74.1608     0.1140     0.0533     2.4694
 2474.0000     8.8513    73.7196     0.1128     0.0483     2.4545
 2474.5000     8.8448    73.4096     0.1144     0.0444     2.4522
 2475.0000     8.8382    73.6736     0.1124     0.0493     2.4622
 2475.5000     8.8317    74.0588     0.1142     0.0544     2.4572
 2476.0000     8.8251    74.4485     0.1144     0.0544     2.4532
 2476.5000     8.8186    74.8324     0.1068     0.0590     2.4752
 2477.0000     8.8121    75.0237     0.0993     0.0759     2.4963
 2477.5000     8.8055    74.3452     0.0944     0.0805     2.4968
 2478.0000     8.7990    73.6865     0.1017     0.0602     2.4804
 2478.5000     8.7925    73.0943     0.1087     0.0463     2.4719
 2479.0000     8.7859    73.0938     0.1027     0.0554     2.4847
 2479.5000     8.7794    73.3435     0.0953     0.0773     2.5069
 2480.0000     8.7729    72.8736     0.0866     0.0889     2.5118
 2480.5000     8.7663    72.3553     0.0923     0.0864     2.4974
 2481.0000     8.7598    71.2604     0.0874     0.0981     2.5230
 2481.5000     8.7533    70.2386     0.0828     0.1009     2.5259
 2482.0000     8.7524    70.4544     0.0812     0.0946     2.5208
 2482.5000     8.7595    70.7553     0.0837     0.0884     2.5158
 2483.0000     8.7665    71.0525     0.0863     0.0822     2.5109
 2483.5000     8.7735    71.3605     0.0868     0.0766     2.5068
 2484.0000     8.7805    70.8115     0.0868     0.0851     2.5178
 2484.5000     8.7875    69.9062     0.0791     0.0860     2.5317
 2485.0000     8.7945    69.0516     0.0819     0.0826     2.5207
 2485.5000     8.8016    69.0404     0.0812     0.0922     2.5186
 2486.0000     8.8080    69.3032     0.0819     0.0905     2.5259
 2486.5000     8.8048    69.5673     0.0928     0.0676     2.5004
 2487.0000     8.8013    69.8242     0.0980     0.0601     2.4837
 2487.5000     8.7979    69.9017     0.1051     0.0542     2.4758
 2488.0000     8.7945    69.3166     0.1091     0.0450     2.4640
 2488.5000     8.7912    68.7530     0.1080     0.0391     2.4599
 2489.0000     8.7878    68.4439     0.1000     0.0569     2.4888
 2489.5000     8.7844    68.4383     0.0950     0.0678     2.5007
 2490.0000     8.7810    68.8848     0.0973     0.0591     2.4845
 2490.5000     8.7776    69.5267     0.0892     0.0780     2.5094
 2491.0000     8.7743    70.0180     0.0939     0.0674     2.5111
 2491.5000     8.7709    70.4669     0.1004     0.0525     2.4829
 2492.0000     8.7679    70.8520     0.0973     0.0591     2.4943
 2492.5000     8.7654    71.6467     0.0944     0.0689     2.5028
 2493.0000     8.7629    72.3749     0.0957     0.0716     2.4878
 2493.5000     8.7604    72.2509     0.1000     0.0747     2.4812
 2494.0000     8.7578    72.0537     0.0917     0.0970     2.5074
 2494.5000     8.7553    71.8470     0.0805     0.1193     2.5256
 2495.0000     8.7528    72.1048     0.0733     0.1333     2.5410
 2495.5000     8.7502    72.5474     0.0725     0.1174     2.5413
 2496.0000     8.7553    73.0227     0.0794     0.0771     2.5253
 2496.5000     8.7635    74.1384     0.0847     0.0625     2.5126
 2497.0000     8.7719    75.1702     0.0901     0.0653     2.5045
 2497.5000     8.7802    76.0081     0.0941     0.0695     2.4987
 2498.0000     8.7886    76.8156     0.0901     0.0793     2.5116
 2498.5000     8.7969    77.6180     0.0833     0.0877     2.5209
 2499.0000     8.8053    77.4804     0.0898     0.0790     2.5091
 2499.5000     8.8137    77.2179     0.0958     0.0703     2.4930
 2500.0000     8.8218    76.3270     0.0969     0.0617     2.4944
 2500.5000     8.8241    74.7602     0.0926     0.0531     2.5010
 2501.0000     8.8109    73.2011     0.0994     0.0446     2.4881
 2501.5000     8.7979    71.5784     0.0951     0.0501     2.5000
 2502.0000     8.7850    71.0598     0.0904     0.0668     2.5122
 2502.5000     8.7720    70.8496     0.0902     0.0662     2.5173
 2503.0000     8.7591    70.9083     0.0844     0.0725     2.5220
 2503.5000     8.7461    71.2267     0.0837     0.0777     2.5236
 2504.0000     8.7327    71.5428     0.0876     0.0730     2.5061
 2504.5000     8.7320    71.8594     0.0937     0.0683     2.5060
 2505.0000     8.7346    72.1724     0.0908     0.0765     2.5137
 2505.5000     8.7374    71.9469     0.0860     0.0873     2.5086
 2506.0000     8.7401    71.6705     0.0812     0.0969     2.5250
 2506.5000     8.7428    72.1525     0.0793     0.0945     2.5293
 2507.0000     8.7455    71.6464     0.0849     0.0844     2.5106
 2507.5000     8.7482    71.0829     0.0921     0.0744     2.5036
 2508.0000     8.7509    70.5100     0.0969     0.0634     2.4897
 2508.5000     8.7536    70.5882     0.1017     0.0528     2.4793
 2509.0000     8.7563    70.8059     0.1020     0.0577     2.4881
 2509.5000     8.7591    71.0286     0.0993     0.0631     2.4958
 2510.0000     8.7618    71.3085     0.1010     0.0650     2.4854
 2510.5000     8.7645    71.8497     0.1036     0.0579     2.4779
 2511.0000     8.7672    72.3884     0.1031     0.0510     2.4773
 2511.5000     8.7699    72.5584     0.1008     0.0445     2.4842
 2512.0000     8.7726    72.5201     0.1015     0.0466     2.4764
 2512.5000     8.7753    72.4787     0.1020     0.0480     2.4841
 2513.0000     8.7780    72.4370     0.0978     0.0553     2.4961
 2513.5000     8.7807    72.3958     0.0938     0.0637     2.5040
 2514.0000     8.7835    72.3545     0.0908     0.0615     2.4964
 2514.5000     8.7862    72.3132     0.0964     0.0578     2.4987
 2515.0000     8.7886    72.2720     0.0964     0.0647     2.5068
 2515.5000     8.7887    72.2330     0.0876     0.0627     2.5144
