~VERSION INFORMATION
 VERS.                2.0:   CWLS LOG ASCII STANDARD - VERSION 2.0
 WRAP.                 NO:   ONE LINE PER DEPTH STEP
~WELL INFORMATION
#MNEM.UNIT      DATA TYPE    INFORMATION
#----------   ------------   ------------------------------
 STRT.F           42.0000:   START DEPTH
 STOP.F         3140.0000:   STOP DEPTH
 STEP.F            0.5000:   STEP LENGTH
 NULL.          -999.2500:   NO VALUE
 COMP. LAWRENCE-ALLISON & AS:   COMPANY
 WELL.     88 X 33 #88-33:   WELL
 FLD .             NPR #3:   FIELD
 LOC .      S33 T39N R78W:   LOCATION
 CNTY.            NATRONA:   COUNTY
 STAT.            WYOMING:   STATE
 CTRY. UNITED STATES OF AMERICA:   COUNTRY
 SRVC.       Schlumberger:   SERVICE COMPANY
 DATE.        13-DEC-1987:   LOGDATE
 API .       490251120300:   API NUMBER
~CURVE INFORMATION
#MNEM.UNIT       API CODE    CURVE DESCRIPTION
#----------   ------------   ------------------------------
 DEPT.F                  :   
 GRR .GAPI   07 310 01 00:   GAMMA RAY FROM RES
 SPR .MV     07 010 01 00:   SPONTANEOUS POTENTIAL
 ILD .OHMM   07 120 46 00:   INDUCTION LOG DEEP RES
 ILM .OHMM   07 120 44 00:   INDUCTION LOG MEDIUM RES
 SFLU.OHMM   07 220 01 00:   SPHERICALLY FOCUSED LOG UNAVERAGED RES
 DPHI.DEC    45 890 12 00:   DENSITY POROSITY SANDSTONE
 NPHI.DEC    42 890 03 00:   NEUTRON POROSITY SANDSTONE
 CALD.IN     45 280 60 00:   CALIPER FROM DENSITY LOG
 DRHO.G/C3   45 356 01 00:   DENSITY CORRECTION
 RHOB.G/C3   45 350 01 00:   BULK DENSITY
~PARAMETER INFORMATION
#MNEM.UNIT          VALUE    DESCRIPTION
#----------   ------------   ------------------------------
 PD  .                 GL:   PERMANENT DATUM
 EPD .F              5746:   ELEVATION PERMANENT DATUM
 LMF .                 KB:   LOG MEASURED FROM
 DAPD.F                11:   FEET ABOVE PERMANENT DATUM
 DMF .                 KB:   DRILLING MEASURED FROM
 EKB .F              5157:   KELLING BUSHING
 EGL .F              5146:   GROUND LEVEL
 DATE.        13-DEC-1987:   RUN DATE
 RUN .                  1:   RUN NUMBER
 DD  .F              3155:   DEPTH DRILLER
 DL  .F              3140:   DEPTH LOGGER
 BLI .F              3132:   BOTTOM LOG INTERVAL
 TLI .F               614:   TOP LOG INTERVAL
 CS  .IN            9.625:   CASING SIZE
 CBD .F               608:   CASING BOTTOM DRILLER
 CBL .F               614:   CASING BOTTOM LOGGER
 BS  .IN            7.875:   BIT SIZE
 BSD .F              3155:   BIT SIZE AT DEPTH
 DFT .       KCL DIS. PAC:   DRILLING FLUID TYPE
 DFD .                  9:   DRILLING FLUID DENSITY
 DFV .                 41:   DRILLING FLUID VISCOSITY
 DFPH.                9.5:   DRILLING FLUID PH
 DFL .                8.4:   DRILLING FLUID LOSS
 MSS .           FLOWLINE:   MUD SAMPLE SOURCE
 RMS .OHMM          0.523:   RESISTIVITY MUD SAMPLE
 MST .F                63:   MUD SAMPLE TEMPERATURE
 RMF .OHMM          0.435:   RESISTIVITY MUD FILTRATE SAMPLE
 MFST.F                63:   MUD FILTRATE SAMPLE TEMPERATURE
 RMC .OHMM          0.489:   RESISTIVITY MUD CAKE
 MCST.F                63:   MUD CAKE SAMPLE TEMPERATURE
 MFSS.              PRESS:   MUD FILTRATE SAMPLE SOURCE
 MCSS.               CALC:   MUD CAKE SAMPLE SOURCE
 RMB .OHMM          0.288:   RESISTIVITY MUD AT BHT
 BHT .F               120:   BOTTOM HOLE TEMPERATURE
 TCS .HRS            0600:   TIME CURCULATED STOPPED
 TLAB.HRS            1430:   TIME LOGGER AT BOTTOM
 MRT .F               120:   MAXIMUM RECORDED TEMPERATURE
 LUN .               8198:   LOGGING UNIT NUMBER
 LUL .             CASPER:   LOGGING UNIT LOCATION
 ENGI.          W. BENSON:   RECORDING ENGINEER
 WITN.        GARY STRONG:   WITNESSED BY
 CLNT.            A2DTECH:   CLIENT CODE
 ORIG.           5" PRINT:   ORIGIN OF DATA
 UWI .       490251120300:   UNIQUE WELL ID
 DICO. A2D Technologies, Inc.:   DIGITIZING COMPANY
~OTHER INFORMATION
~A   DEPT      GRR        SPR        ILD        ILM       SFLU       DPHI       NPHI       CALD       DRHO       RHOB   
# ...
 1449.0000   109.3460   -49.6931     7.0497     7.0979     9.4044     0.0574     0.2949     9.1800    -0.0277     2.5457
 1449.5000   116.5704   -49.8467     7.0980     7.1467     9.0831     0.0601     0.3000     9.1942    -0.0285     2.5397
 1450.0000   118.6002   -49.8586     7.1553     7.1462     8.6521     0.0664     0.3012     9.1935    -0.0344     2.5299
 1450.5000   118.3710   -49.9172     7.1959     7.1963     7.9627     0.0761     0.3054     9.1938    -0.0367     2.5158
 1451.0000   115.4320   -49.9759     6.8552     6.8069     7.8537     0.0749     0.3066     9.1941    -0.0344     2.5189
 1451.5000   113.1707   -50.0346     6.8078     6.8064     7.8543     0.0730     0.2961     9.1944    -0.0300     2.5233
 1452.0000   110.9094   -50.0932     6.9029     6.9009     7.9644     0.0730     0.2814     9.1946    -0.0278     2.5234
 1452.5000   107.0667   -50.1583     6.9992     7.0454     8.1886     0.0751     0.2714     9.1949    -0.0301     2.5144
 1453.0000   103.6759   -50.4610     7.0969     7.1433     8.4192     0.0760     0.2651     9.1952    -0.0307     2.5129
 1453.5000   100.9628   -50.6131     7.1462     7.1924     8.6563     0.0748     0.2657     9.1955    -0.0285     2.5190
 1454.0000   100.5093   -50.4640     7.1959     7.2419     8.9000     0.0679     0.2720     9.1958    -0.0241     2.5287
 1454.5000   106.8317   -50.3150     7.2460     7.2414     9.1507     0.0604     0.2823     9.1962    -0.0204     2.5408
 1455.0000   111.1863   -50.0153     7.2460     7.2409     9.0881     0.0592     0.2940     9.1814    -0.0189     2.5468
 1455.5000   114.9599   -49.8658     7.2964     7.0915     8.9019     0.0610     0.2997     9.1518    -0.0219     2.5401
 1456.0000   115.6359   -49.5661     7.1462     6.9451     8.4813     0.0628     0.2973     9.1221    -0.0248     2.5371
 1456.5000   115.6330   -49.2668     6.9992     6.8966     7.9693     0.0618     0.2961     9.1224    -0.0248     2.5409
 1457.0000   115.8572   -49.2683     6.8552     6.8961     7.8601     0.0615     0.2991     9.1077    -0.0226     2.5409
 1457.5000   114.7249   -49.1188     6.8552     6.9436     7.8608     0.0645     0.3082     9.1080    -0.0233     2.5372
 1458.0000   110.6563   -49.2713     6.9509     7.0400     8.0264     0.0703     0.3031     9.0932    -0.0308     2.5282
 1458.5000   108.6209   -49.7247     7.0479     7.2374     8.3098     0.0727     0.2922     9.0936    -0.0322     2.5207
 1459.0000   109.7482   -49.8768     7.2460     7.2874     8.7231     0.0696     0.2832     9.0939    -0.0293     2.5271
 1459.5000   111.1013   -50.1795     7.2460     7.3886     9.2207     0.0648     0.2775     9.1092    -0.0270     2.5381
 1460.0000   112.2285   -50.3316     7.3471     7.4393     9.4149     0.0609     0.2799     9.1095    -0.0256     2.5433
 1460.5000   112.4522   -50.3331     7.3982     7.4388     9.3505     0.0588     0.2844     9.1098    -0.0241     2.5449
 1461.0000   112.6764   -50.4852     7.4497     7.4900     9.1589     0.0585     0.2868     9.1251    -0.0204     2.5456
 1461.5000   112.2217   -50.3358     7.4497     7.3864     8.9712     0.0579     0.2877     9.1404    -0.0181     2.5472
 1462.0000   109.7805   -50.1867     7.2964     7.3348     8.7874     0.0579     0.2892     9.1706    -0.0181     2.5479
 1462.5000   107.9255   -50.0376     7.1959     7.2837     8.5479     0.0615     0.2929     9.1859    -0.0211     2.5457
 1463.0000   109.8210   -49.8885     7.0969     7.2832     8.4308     0.0681     0.3013     9.1862    -0.0337     2.5278
 1463.5000   112.0322   -49.8901     7.1462     7.1328     8.6683     0.0741     0.3043     9.2015    -0.0419     2.5158
 1464.0000   114.2440   -49.8916     7.0969     7.0341     8.8508     0.0777     0.3019     9.2018    -0.0410     2.5128
 1464.5000   114.7010   -50.0437     6.9992     6.8889     8.4327     0.0774     0.2865     9.2021    -0.0379     2.5159
 1465.0000   116.0467   -50.3464     6.8552     6.7936     7.9788     0.0744     0.2775     9.2024    -0.0322     2.5196
 1465.5000   116.7221   -50.3409     6.8078     6.8880     7.9241     0.0717     0.2787     9.2027    -0.0285     2.5247
 1466.0000   111.4135   -50.1947     6.9029     7.0323     8.1474     0.0678     0.2760     9.1880    -0.0263     2.5295
 1466.5000   103.1633   -50.0487     6.9992     7.0317     8.6720     0.0638     0.2706     9.1883    -0.0293     2.5344
 1467.0000    96.6099   -49.9006     7.0479     7.0312     9.2944     0.0602     0.2616     9.1736    -0.0307     2.5468
 1467.5000    94.3485   -49.4503     7.0479     7.0307     9.3597     0.0551     0.2604     9.1439    -0.0307     2.5543
 1468.0000    97.9607   -49.6024     6.9992     7.0302     9.2956     0.0539     0.2676     9.1292    -0.0315     2.5566
 1468.5000   108.1241   -49.9051     6.9509     7.0297     8.9180     0.0617     0.2815     9.1295    -0.0322     2.5498
 1469.0000   113.0917   -50.2079     6.8552     6.9325     8.4966     0.0692     0.2902     9.1298    -0.0322     2.5266
 1469.5000   113.0894   -50.3600     6.8078     6.8841     8.0392     0.0740     0.2989     9.1301    -0.0307     2.5199
 1470.0000   109.2468   -50.3615     6.7608     6.8837     7.7661     0.0728     0.3001     9.1304    -0.0277     2.5229
 1470.5000   108.3415   -50.3630     6.7141     6.8832     7.7130     0.0710     0.2962     9.1307    -0.0263     2.5260
 1471.0000   110.5977   -50.3645     6.8078     6.8827     7.8756     0.0701     0.2926     9.1310    -0.0278     2.5282
 1471.5000   111.2737   -50.3660     6.8552     6.9302     8.2103     0.0683     0.2932     9.1313    -0.0300     2.5291
 1472.0000   109.2377   -50.2169     6.9509     6.9778     8.6786     0.0665     0.2995     9.1166    -0.0278     2.5321
 1472.5000   105.3950   -50.2185     6.9992     6.9773     8.7394     0.0641     0.3062     9.1169    -0.0233     2.5351
 1473.0000   102.4560   -50.2200     7.0479     7.0255     8.4427     0.0604     0.3016     9.1022    -0.0211     2.5389
 1473.5000   103.1315   -50.3721     7.1462     7.0738     8.2126     0.0565     0.2860     9.1025    -0.0189     2.5441
 1474.0000   105.8400   -50.3736     7.1462     7.1721     8.3509     0.0535     0.2809     9.1028    -0.0159     2.5532
 1474.5000   111.2594   -50.2241     7.0969     7.1715     8.6926     0.0538     0.2854     9.1031    -0.0196     2.5562
 1475.0000   112.1613   -50.2260     7.0479     7.1215     8.6821     0.0568     0.2914     9.1034    -0.0226     2.5525
 1475.5000   113.2880   -50.0766     7.0479     7.0718     8.6138     0.0622     0.3161     9.1037    -0.0256     2.5443
 1476.0000   117.1261   -49.9278     7.0210     6.9195     8.3145     0.0655     0.3176     9.1041    -0.0279     2.5323
 1476.5000   120.2865   -49.7784     6.9509     6.7774     7.9299     0.0664     0.3083     9.1044    -0.0307     2.5338
 1477.0000   121.9565   -49.4787     6.9509     6.6890     7.7683     0.0652     0.3020     9.1047    -0.0330     2.5361
 1477.5000   120.9598   -49.3296     6.9992     6.6886     7.6672     0.0649     0.2938     9.1050    -0.0352     2.5361
 1478.0000   116.4395   -49.3315     6.9992     6.7846     7.7783     0.0661     0.2920     9.1203    -0.0367     2.5332
 1478.5000   109.2083   -49.9354     6.9992     6.8780     8.0549     0.0685     0.2869     9.1206    -0.0367     2.5287
 1479.0000   106.9470   -50.3887     6.9992     6.9727     8.4536     0.0658     0.2812     9.1209    -0.0330     2.5355
 1479.5000   108.7519   -50.5409     7.0479     7.0191     8.6886     0.0595     0.2809     9.1212    -0.0278     2.5516
 1480.0000   112.8159   -50.6930     7.0479     7.0186     8.6881     0.0516     0.2905     9.1215    -0.0270     2.5595
 1480.5000   115.2985   -50.5439     7.1959     6.9697     8.4513     0.0510     0.3053     9.1218    -0.0278     2.5558
 1481.0000   114.8445   -50.5452     7.2547     6.8733     7.9964     0.0546     0.3041     9.1221    -0.0278     2.5446
 1481.5000   111.2277   -50.3962     7.3045     6.8728     7.9942     0.0582     0.2833     9.1224    -0.0278     2.5484
 1482.0000   108.3340   -50.2471     7.3471     6.9201     8.4531     0.0543     0.2689     9.1227    -0.0285     2.5581
