~VERSION INFORMATION
 VERS.                2.0:   CWLS LOG ASCII STANDARD - VERSION 2.0
 WRAP.                 NO:   ONE LINE PER DEPTH STEP
~WELL INFORMATION
#MNEM.UNIT      DATA TYPE    INFORMATION
#----------   ------------   ------------------------------
 STRT.F          371.0000:   START DEPTH
 STOP.F         1998.0000:   STOP DEPTH
 STEP.F            0.5000:   STEP LENGTH
 NULL.          -999.2500:   NO VALUE
 COMP.       ANADARKO PET:   COMPANY
 WELL. StX-21 NPR #3 #17-21:   WELL
 FLD .             TEAPOT:   FIELD
 LOC .      S21 T39N R78W:   LOCATION
 CNTY.            NATRONA:   COUNTY
 STAT.            WYOMING:   STATE
 CTRY. UNITED STATES OF AMERICA:   COUNTRY
 SRVC.            Unknown:   SERVICE COMPANY
 DATE.        11-OCT-1994:   LOGDATE
 API .       490252266400:   API NUMBER
~CURVE INFORMATION
#MNEM.UNIT       API CODE    CURVE DESCRIPTION
#----------   ------------   ------------------------------
 DEPT.F                  :   
 ROP .MIN/FT 91 810 01 00:   RATE OF DRILLING PENETRATION
 TGAS.UNITS  91 830 01 00:   TOTAL GAS FROM HOTWIRE
~PARAMETER INFORMATION
#MNEM.UNIT          VALUE    DESCRIPTION
#----------   ------------   ------------------------------
 DATE.         10-11-1994:   RUN DATE
 RUN .                  1:   RUN NUMBER
 DD  .F              1997:   DEPTH DRILLER
 BLI .F              2000:   BOTTOM LOG INTERVAL
 TLI .F               360:   TOP LOG INTERVAL
 CS  .IN                7:   CASING SIZE
 CBD .F               344:   CASING BOTTOM DRILLER
 ENGI.   C. TOWER R. HUSK:   RECORDING ENGINEER
 CLNT.            A2DTECH:   CLIENT CODE
 ORIG.         2.5" PRINT:   ORIGIN OF DATA
 UWI .       490252266400:   UNIQUE WELL ID
 DICO. A2D Technologies, Inc.:   DIGITIZING COMPANY
~OTHER INFORMATION
~A   DEPT        ROP       TGAS 
# ...
 1464.5000     0.5449    15.3799
 1465.0000     0.5450    15.3781
 1465.5000     0.5451    15.3762
 1466.0000     0.5452    15.3744
 1466.5000     0.5453    15.3725
 1467.0000     0.5454    15.3704
 1467.5000     0.5455    15.3688
 1468.0000     0.5456    15.3669
 1468.5000     0.4170    15.3651
 1469.0000     0.3987    15.3632
 1469.5000     0.3899    15.3612
 1470.0000     0.3805    15.3594
 1470.5000     0.3699    15.3576
 1471.0000     0.3623    15.3558
 1471.5000     0.3624    15.3539
 1472.0000     0.3809    15.3521
 1472.5000     0.3810    15.3502
 1473.0000     0.4178    15.3483
 1473.5000     0.4179    15.3465
 1474.0000     0.4180    15.3446
 1474.5000     0.4365    15.3428
 1475.0000     0.4366    15.3409
 1475.5000     0.4367    15.3389
 1476.0000     0.4368    15.3372
 1476.5000     0.4369    15.3353
 1477.0000     0.4369    15.3335
 1477.5000     0.4554    15.3315
 1478.0000     0.4555    15.3298
 1478.5000     0.4556    15.3279
 1479.0000     0.4557    15.3258
 1479.5000     0.4558    15.3242
 1480.0000     0.4743    15.3220
 1480.5000     0.4744    15.3205
 1481.0000     0.4744    15.3186
 1481.5000     0.4746    15.3167
 1482.0000     0.4746    15.3145
 1482.5000     0.4931    15.3130
 1483.0000     0.4932    15.3112
 1483.5000     0.4933    15.3093
 1484.0000     0.4934    15.3071
 1484.5000     0.4935    15.3053
 1485.0000     0.4936    15.3035
 1485.5000     0.4937    15.3017
 1486.0000     0.4938    15.3000
 1486.5000     0.4938    15.2981
 1487.0000     0.4939    15.2963
 1487.5000     0.4940    15.2944
 1488.0000     0.4941    15.2926
 1488.5000     0.4942    15.2907
 1489.0000     0.4943    15.2888
 1489.5000     0.4944    15.2870
 1490.0000     0.4945    15.2848
 1490.5000     0.4946    15.2830
 1491.0000     0.4947    15.2812
 1491.5000     0.4948    15.2794
 1492.0000     0.4949    15.2777
 1492.5000     0.4950    15.2758
 1493.0000     0.4951    15.2740
 1493.5000     0.4951    15.2721
 1494.0000     0.4952    15.2702
 1494.5000     0.4953    15.2684
 1495.0000     0.4954    15.2665
 1495.5000     0.4955    15.2647
 1496.0000     0.4956    15.2625
 1496.5000     0.4957    15.2607
 1497.0000     0.4958    15.2589
 1497.5000     0.4959    15.2571
 1498.0000     0.4960    15.2554
 1498.5000     0.4605    15.6291
 1499.0000     0.3307    15.7240
 1499.5000     0.3544    15.8189
 1500.0000     0.3676    15.9138
 1500.5000     0.3493    15.9917
 1501.0000     0.3493    16.3636
 1501.5000     0.3493    16.3636
 1502.0000     0.3409    16.3636
 1502.5000     0.3309    16.3636
 1503.0000     0.3309    16.3636
 1503.5000     0.3209    16.3636
 1504.0000     0.3125    16.3636
 1504.5000     0.3125    16.3636
 1505.0000     0.3125    15.9917
 1505.5000     0.3125    15.9917
 1506.0000     0.3125    15.9917
 1506.5000     0.3125    15.9917
 1507.0000     0.3125    15.9917
 1507.5000     0.3125    15.9917
 1508.0000     0.3125    15.9917
 1508.5000     0.3125    15.9917
 1509.0000     0.3125    15.9917
 1509.5000     0.3125    15.9917
 1510.0000     0.3125    15.9917
 1510.5000     0.3125    15.9917
 1511.0000     0.2941    15.9917
 1511.5000     0.2941    15.9917
 1512.0000     0.2941    15.9917
 1512.5000     0.2941    15.9917
 1513.0000     0.2941    15.9917
 1513.5000     0.2941    15.9917
 1514.0000     0.2941    15.9917
 1514.5000     0.2941    15.9917
 1515.0000     0.2941    15.9917
 1515.5000     0.2941    15.6198
 1516.0000     0.2941    15.6198
 1516.5000     0.2941    15.4996
 1517.0000     0.2876    15.2479
 1517.5000     0.2757    15.2479
 1518.0000     0.2757    14.8760
 1518.5000     0.2839    14.8760
 1519.0000     0.2941    14.8760
 1519.5000     0.2941    15.2479
 1520.0000     0.2941    15.2479
 1520.5000     0.2941    15.2479
 1521.0000     0.3125    15.2479
 1521.5000     0.3125    14.8760
 1522.0000     0.3125    14.8760
 1522.5000     0.3125    14.8760
 1523.0000     0.3125    14.8760
 1523.5000     0.3125    15.2479
 1524.0000     0.3125    15.2479
 1524.5000     0.3125    15.2479
 1525.0000     0.3125    15.2479
 1525.5000     0.3125    15.2479
 1526.0000     0.3125    15.2479
 1526.5000     0.3125    15.2479
 1527.0000     0.3125    15.2479
 1527.5000     0.3125    15.2479
 1528.0000     0.3125    15.2479
 1528.5000     0.3125    15.6198
 1529.0000     0.3125    15.6198
 1529.5000     0.3125    15.6198
 1530.0000     0.3125    15.9917
 1530.5000     0.3125    15.9917
 1531.0000     0.3125    15.9917
 1531.5000     0.3125    15.9917
 1532.0000     0.3451    16.0859
 1532.5000     0.4963    16.3636
 1533.0000     0.4779    16.3636
 1533.5000     0.4596    16.3636
 1534.0000     0.4596    16.3636
 1534.5000     0.4412    16.3636
 1535.0000     0.4412    16.3636
 1535.5000     0.4412    16.3636
 1536.0000     0.4412    16.3636
 1536.5000     0.4412    16.3636
 1537.0000     0.4412    16.3636
 1537.5000     0.4412    16.7355
 1538.0000     0.4412    17.1074
 1538.5000     0.4412    17.1074
 1539.0000     0.4412    17.1074
 1539.5000     0.4412    17.1074
 1540.0000     0.4412    17.1074
 1540.5000     0.4412    16.3636
 1541.0000     0.4412    15.9917
 1541.5000     0.4412    15.6198
 1542.0000     0.4412    15.2479
 1542.5000     0.4412    14.8760
 1543.0000     0.4412    14.8760
 1543.5000     0.4412    14.8760
 1544.0000     0.4412    15.6198
 1544.5000     0.4412    15.6198
 1545.0000     0.4412    15.6198
 1545.5000     0.4412    15.6198
 1546.0000     0.4412    15.6198
 1546.5000     0.4412    15.6198
 1547.0000     0.4412    15.6198
 1547.5000     0.4412    15.6198
 1548.0000     0.4412    15.6198
 1548.5000     0.4412    15.6198
 1549.0000     0.4412    15.6198
 1549.5000     0.4412    15.6198
 1550.0000     0.4412    15.6198
 1550.5000     0.4412    15.6198
 1551.0000     0.4412    15.6198
 1551.5000     0.4412    15.6198
 1552.0000     0.4412    15.6198
 1552.5000     0.4412    15.6198
 1553.0000     0.4412    15.6198
 1553.5000     0.4412    15.6198
 1554.0000     0.4412    15.6198
 1554.5000     0.4412    15.6198
 1555.0000     0.4412    15.6198
 1555.5000     0.4412    15.6198
 1556.0000     0.4412    15.6198
 1556.5000     0.4412    15.6198
 1557.0000     0.4412    15.6198
 1557.5000     0.4412    15.6198
 1558.0000     0.4412    15.6198
 1558.5000     0.4412    15.6198
 1559.0000     0.4412    15.6198
 1559.5000     0.4412    15.6198
 1560.0000     0.4412    15.6198
 1560.5000     0.4412    15.6198
 1561.0000     0.4228    15.6198
 1561.5000     0.5515    15.6198
 1562.0000     0.5515    15.6198
 1562.5000     0.5515    15.6198
 1563.0000     0.5515    15.6198
 1563.5000     0.5515    15.6198
 1564.0000     0.5331    15.6198
 1564.5000     0.5331    15.6198
 1565.0000     0.5331    15.6198
 1565.5000     0.5331    15.6198
 1566.0000     0.5331    15.6198
 1566.5000     0.5331    15.6198
 1567.0000     0.5396    15.6198
 1567.5000     0.5331    15.6198
 1568.0000     0.5331    15.6198
 1568.5000     0.5331    15.6198
 1569.0000     0.5418    15.6198
 1569.5000     0.5515    15.6198
 1570.0000     0.5515    15.6198
 1570.5000     0.5515    15.6198
 1571.0000     0.5515    15.6198
 1571.5000     0.5515    15.6198
 1572.0000     0.5515    15.6198
 1572.5000     0.5515    15.6198
 1573.0000     0.5613    15.6198
 1573.5000     0.5699    15.6198
 1574.0000     0.5699    15.6198
 1574.5000     0.5699    15.6198
 1575.0000     0.5699    15.6198
 1575.5000     0.5699    15.6198
 1576.0000     0.5699    15.6198
 1576.5000     0.5699    15.6198
 1577.0000     0.5699    15.6198
 1577.5000     0.5699    15.6198
 1578.0000     0.5699    15.6198
 1578.5000     0.5699    15.6198
 1579.0000     0.5699    15.5926
 1579.5000     0.5699    15.2479
 1580.0000     0.5699    15.2479
 1580.5000     0.5699    14.8760
 1581.0000     0.5699    14.8760
 1581.5000     0.5699    14.8760
 1582.0000     0.5699    14.8760
 1582.5000     0.5699    14.8760
 1583.0000     0.5699    14.8760
 1583.5000     0.5699    15.2479
 1584.0000     0.5699    15.6198
 1584.5000     0.5699    15.6198
 1585.0000     0.5699    15.6198
 1585.5000     0.5515    15.6198
