~VERSION INFORMATION
 VERS.                2.0:   CWLS LOG ASCII STANDARD - VERSION 2.0
 WRAP.                 NO:   ONE LINE PER DEPTH STEP
~WELL INFORMATION
#MNEM.UNIT      DATA TYPE    INFORMATION
#----------   ------------   ------------------------------
 STRT.F            2.0000:   START DEPTH
 STOP.F          592.0000:   STOP DEPTH
 STEP.F            0.1000:   STEP LENGTH
 NULL.          -999.2500:   NO VALUE
 COMP. BROWN JOHN E&C INC:   COMPANY
 WELL. NAVAL PETROLEUM RESERVE 3 SX-3 #73-3:   WELL
 FLD .             TEAPOT:   FIELD
 LOC .       S3 T38N R78W:   LOCATION
 CNTY.            NATRONA:   COUNTY
 STAT.            WYOMING:   STATE
 CTRY. UNITED STATES OF AMERICA:   COUNTRY
 SRVC.     Atlas Wireline:   SERVICE COMPANY
 DATE.        22-APR-1992:   LOGDATE
 API .       490252251000:   API NUMBER
~CURVE INFORMATION
#MNEM.UNIT       API CODE    CURVE DESCRIPTION
#----------   ------------   ------------------------------
 DEPT.F                  :   
 GRR .GAPI   07 310 01 00:   GAMMA RAY
 RILD.OHMM   07 120 46 00:   INDUCTION LOG DEEP RESISTIVITY
 RILM.OHMM   07 120 44 00:   INDUCTION LOG MEDIUM RESISTIVITY
~PARAMETER INFORMATION
#MNEM.UNIT          VALUE    DESCRIPTION
#----------   ------------   ------------------------------
 PD  .                 GL:   PERMANENT DATUM
 EPD .F              5148:   ELEVATION PERMANENT DATUM
 LMF .                 KB:   LOG MEASURED FROM
 DAPD.F                 5:   FEET ABOVE PERMANENT DATUM
 DMF .                 KB:   DRILLING MEASURED FROM
 EKB .F              5153:   KELLING BUSHING
 EDF .F              5152:   DRILLING FLOOR
 EGL .F              5148:   GROUND LEVEL
 DATE.        22-APR-1992:   RUN DATE
 RUN .                  1:   RUN NUMBER
 DD  .F               600:   DEPTH DRILLER
 DL  .F               601:   DEPTH LOGGER
 BLI .F               592:   BOTTOM LOG INTERVAL
 TLI .F                51:   TOP LOG INTERVAL
 CS  .IN            8.625:   CASING SIZE
 CBD .F                48:   CASING BOTTOM DRILLER
 CBL .F                51:   CASING BOTTOM LOGGER
 BS  .IN            7.875:   BIT SIZE
 BSD .F               600:   BIT SIZE AT DEPTH
 DFT .                AIR:   DRILLING FLUID TYPE
 LUN .            HL-5272:   LOGGING UNIT NUMBER
 LUL .             CASPER:   LOGGING UNIT LOCATION
 ENGI.       P. RAGMUSSEN:   RECORDING ENGINEER
 WITN.          G. STRONG:   WITNESSED BY
 CLNT.            A2DTECH:   CLIENT CODE
 ORIG.           5" PRINT:   ORIGIN OF DATA
 UWI .       490252251000:   UNIQUE WELL ID
 DICO. A2D Technologies, Inc.:   DIGITIZING COMPANY
~OTHER INFORMATION
~A    DEPT      GRR      RILD       RILM   
# ...
  347.8000   158.2504     5.6129     5.9640
  347.9000   157.6998     5.5498     5.9646
  348.0000   156.9586     5.4885     5.9651
  348.1000   155.9736     5.4890     5.9657
  348.2000   154.4036     5.4895     5.9662
  348.3000   152.6782     5.5077     5.9736
  348.4000   151.1205     5.5395     6.0091
  348.5000   149.8611     5.5715     6.0097
  348.6000   148.2182     5.6072     6.0103
  348.7000   147.1231     5.6076     6.0109
  348.8000   146.0556     5.6293     6.0115
  348.9000   145.1795     5.6478     6.0120
  349.0000   144.4943     5.6483     6.0127
  349.1000   143.9970     5.6487     5.9851
  349.2000   143.7562     5.6492     5.9721
  349.3000   143.3243     5.6253     5.9727
  349.4000   142.9660     5.6110     5.9685
  349.5000   142.7221     5.6114     5.9324
  349.6000   142.4573     5.6118     5.9023
  349.7000   141.8976     5.6124     5.8696
  349.8000   141.6880     5.5855     5.8370
  349.9000   141.2875     5.5744     5.8045
  350.0000   141.0282     5.5457     5.7723
  350.1000   141.1037     5.4747     5.7184
  350.2000   141.1792     5.4038     5.6645
  350.3000   141.2547     5.3328     5.6106
  350.4000   141.3083     5.2619     5.5567
  350.5000   141.3253     5.1909     5.5028
  350.6000   141.6148     5.1473     5.4473
  350.7000   141.8189     5.1187     5.3866
  350.8000   142.0659     5.0952     5.3567
  350.9000   142.5763     5.0957     5.3040
  351.0000   143.5283     5.0960     5.2606
  351.1000   144.3470     5.0963     5.2402
  351.2000   144.5664     5.1102     5.2406
  351.3000   144.8134     5.1327     5.2410
  351.4000   144.9574     5.1330     5.2413
  351.5000   144.9592     5.1623     5.2417
  351.6000   144.9611     5.1696     5.2420
  351.7000   144.9628     5.1853     5.2424
  351.8000   144.9646     5.2064     5.2428
  351.9000   144.7305     5.2068     5.2696
  352.0000   144.1816     5.2072     5.2802
  352.1000   143.4364     5.2317     5.2805
  352.2000   141.7220     5.2443     5.2865
  352.3000   138.1025     5.2446     5.3182
  352.4000   135.0025     5.2484     5.3473
  352.5000   133.3281     5.2820     5.3779
  352.6000   132.8581     5.3085     5.4087
  352.7000   132.5758     5.3197     5.4396
  352.8000   132.5773     5.3322     5.4707
  352.9000   132.7273     5.3627     5.5021
  353.0000   133.1556     5.3954     5.5581
  353.1000   134.0597     5.4242     5.6042
  353.2000   136.2156     5.4553     5.6463
  353.3000   138.4263     5.4865     5.7106
  353.4000   140.3887     5.5179     5.7860
  353.5000   141.6822     5.5496     5.8418
  353.6000   142.2742     5.5811     5.9085
  353.7000   142.2760     5.6371     5.9632
  353.8000   141.5700     5.6846     5.9973
  353.9000   141.0148     5.7264     6.0349
  354.0000   140.2843     5.7900     6.0973
  354.1000   139.3060     5.8293     6.1435
  354.2000   138.3333     5.8834     6.1787
  354.3000   137.6002     5.9311     6.2212
  354.4000   137.2538     5.9650     6.2945
  354.5000   137.1467     6.0028     6.3294
  354.6000   137.1486     6.0800     6.3656
  354.7000   137.1504     6.1405     6.4020
  354.8000   137.1525     6.2106     6.4291
  354.9000   137.3628     6.2814     6.4316
  355.0000   137.7610     6.3470     6.5051
  355.1000   138.4406     6.3859     6.5499
  355.2000   139.5674     6.4198     6.5874
  355.3000   141.7000     6.4820     6.6374
  355.4000   143.0449     6.5389     6.7096
  355.5000   144.1843     6.5762     6.7535
  355.6000   145.1665     6.6143     6.7866
  355.7000   146.0461     6.6517     6.8016
  355.8000   146.5501     6.6615     6.8021
  355.9000   147.0300     6.6814     6.7967
  356.0000   147.1588     6.7089     6.7558
  356.1000   146.9125     6.7078     6.7215
  356.2000   146.4906     6.6634     6.6842
  356.3000   146.2475     6.6638     6.6638
  356.4000   145.9562     6.6428     6.6562
  356.5000   145.5643     6.6185     6.6185
  356.6000   145.2151     6.6152     6.5825
  356.7000   145.0535     6.5735     6.5460
  356.8000   145.0554     6.5102     6.4910
  356.9000   145.0574     6.4150     6.4285
  357.0000   145.0590     6.3078     6.3914
  357.1000   145.0608     6.2024     6.3064
  357.2000   145.0626     6.0910     6.2497
  357.3000   145.1036     6.0284     6.1801
  357.4000   145.3690     5.9613     6.1112
  357.5000   145.8243     5.8949     6.0396
  357.6000   146.3164     5.8292     5.9254
  357.7000   146.8085     5.7631     5.8681
  357.8000   147.3004     5.7002     5.8028
  357.9000   147.7985     5.6367     5.7381
  358.0000   148.2845     5.5739     5.6689
  358.1000   149.1458     5.5118     5.5675
  358.2000   150.0008     5.4479     5.4812
  358.3000   150.8767     5.3034     5.3897
  358.4000   152.0916     5.2324     5.3132
  358.5000   153.2560     5.1615     5.2606
  358.6000   153.4572     5.1134     5.2311
  358.7000   153.7041     5.0823     5.1734
  358.8000   154.0358     5.0179     5.1376
  358.9000   154.5004     4.9939     5.1090
  359.0000   154.7778     4.9662     5.0807
  359.1000   155.4238     4.9386     5.0524
  359.2000   156.0035     4.9112     5.0193
  359.3000   156.5953     4.8818     5.0196
  359.4000   157.2902     4.8821     5.0199
  359.5000   157.8125     4.8824     5.0105
  359.6000   158.2742     4.8951     4.9858
  359.7000   158.7661     4.9172     4.9862
  359.8000   159.1431     4.9175     4.9865
  359.9000   159.3326     4.9450     4.9868
  360.0000   159.3344     4.9526     4.9988
  360.1000   159.3362     4.9671     5.0224
  360.2000   159.3380     4.9879     5.0227
  360.3000   159.2097     4.9882     5.0231
  360.4000   158.8213     4.9885     5.0234
  360.5000   158.0572     4.9889     5.0238
  360.6000   156.6224     4.9893     5.0309
  360.7000   155.4084     4.9896     5.0596
  360.8000   153.6492     4.9899     5.0599
  360.9000   151.8653     4.9904     5.1045
  361.0000   150.3970     4.9907     5.1471
  361.1000   148.7645     5.0085     5.1766
  361.2000   147.6771     5.0262     5.2081
  361.3000   146.4533     5.0308     5.2777
  361.4000   144.9209     5.0621     5.3028
  361.5000   142.9171     5.0624     5.3512
  361.6000   140.6040     5.0822     5.4123
  361.7000   139.4407     5.1112     5.4739
  361.8000   138.3925     5.1466     5.5431
  361.9000   137.6501     5.2068     5.5997
  362.0000   137.1014     5.2646     5.6849
  362.1000   136.3651     5.3247     5.7963
  362.2000   135.3862     5.3854     5.9158
  362.3000   135.1703     5.4467     5.9863
  362.4000   135.3053     5.5097     6.0516
  362.5000   135.5523     5.6041     6.1459
  362.6000   135.9080     5.7002     6.2339
  362.7000   137.9010     5.8164     6.3140
  362.8000   138.7254     5.9492     6.4213
  362.9000   139.7075     6.0819     6.4947
  363.0000   140.5989     6.2015     6.5689
  363.1000   141.2697     6.2921     6.6646
  363.2000   141.5409     6.3998     6.7666
  363.3000   141.7634     6.4952     6.8437
  363.4000   141.8469     6.5746     6.9341
  363.5000   141.8487     6.6973     6.9676
  363.6000   141.8020     6.7669     7.0317
  363.7000   141.5498     6.8440     7.1119
  363.8000   141.5516     6.9220     7.1873
  363.9000   141.3748     7.0009     7.2323
  364.0000   141.1316     7.0833     7.2699
  364.1000   140.8884     7.1225     7.3115
  364.2000   140.6450     7.1930     7.3533
  364.3000   140.4019     7.2750     7.3954
  364.4000   140.1586     7.3470     7.4391
  364.5000   139.9153     7.3891     7.4396
  364.6000   139.7507     7.4314     7.4710
  364.7000   139.7312     7.4739     7.5138
  364.8000   139.4520     7.5167     7.5568
  364.9000   139.4536     7.5461     7.5987
  365.0000   139.4554     7.5465     7.5554
  365.1000   139.5510     7.5472     7.5471
  365.2000   139.7978     7.5476     7.5476
  365.3000   140.0661     7.5481     7.5344
  365.4000   140.2916     7.5487     7.4963
  365.5000   140.5385     7.5492     7.4969
  365.6000   140.7854     7.5498     7.4973
  365.7000   140.9810     7.5502     7.4979
  365.8000   140.9828     7.5508     7.4984
  365.9000   141.2236     7.5513     7.4989
