~VERSION INFORMATION
 VERS.                2.0:   CWLS LOG ASCII STANDARD - VERSION 2.0
 WRAP.                 NO:   ONE LINE PER DEPTH STEP
~WELL INFORMATION
#MNEM.UNIT      DATA TYPE    INFORMATION
#----------   ------------   ------------------------------
 STRT.F           28.0000:   START DEPTH
 STOP.F          856.0000:   STOP DEPTH
 STEP.F            0.5000:   STEP LENGTH
 NULL.          -999.2500:   NO VALUE
 COMP. FENIX & SCISSON INC:   COMPANY
 WELL. NPR 3  76 SX #76-27:   WELL
 FLD .             TEAPOT:   FIELD
 LOC .      S27 T39N R78W:   LOCATION
 CNTY.            NATRONA:   COUNTY
 STAT.            WYOMING:   STATE
 CTRY. UNITED STATES OF AMERICA:   COUNTRY
 SRVC.            Unknown:   SERVICE COMPANY
 DATE.        06-SEP-1978:   LOGDATE
 API .       490251069600:   API NUMBER
~CURVE INFORMATION
#MNEM.UNIT       API CODE    CURVE DESCRIPTION
#----------   ------------   ------------------------------
 DEPT.F                  :   
 SPR .MV     05 010 01 00:   SPONTANEOUS POTENTIAL FROM RES.
 SN  .OHMM   05 040 16 00:   SHORT NORMAL 16"
 ILD .OHMM   05 120 46 00:   INDUCTION LOG DEEP
 NPHI.DEC    42 890 03 00:   NEUTRON POROSITY SANDSTONE
 GRD .GAPI   45 310 01 00:   GAMMA RAY FROM DENSITY LOG
 CALD.IN     45 280 60 00:   CALIPER
 RHOB.G/C3   45 350 01 00:   BULK DENSITY
 DPHI.DEC    45 890 12 00:   DENSITY POROSITY SANDSTONE
 CORR.G/C3   45 356 01 00:   DENSITY CORRECTION
~PARAMETER INFORMATION
#MNEM.UNIT          VALUE    DESCRIPTION
#----------   ------------   ------------------------------
 PD  .                 GL:   PERMANENT DATUM
 EPD .F              5062:   ELEVATION PERMANENT DATUM
 LMF .                 KB:   LOG MEASURED FROM
 DAPD.F                 4:   FEET ABOVE PERMANENT DATUM
 DMF .                 KB:   DRILLING MEASURED FROM
 EKB .F              5066:   KELLING BUSHING
 EGL .F              5062:   GROUND LEVEL
 DATE.             9-6-78:   RUN DATE
 RUN .                  1:   RUN NUMBER
 DD  .F               865:   DEPTH DRILLER
 DL  .F               857:   DEPTH LOGGER
 BLI .F               851:   BOTTOM LOG INTERVAL
 TLI .F                40:   TOP LOG INTERVAL
 CS  .IN            8.625:   CASING SIZE
 CBD .F                43:   CASING BOTTOM DRILLER
 CBL .F                43:   CASING BOTTOM LOGGER
 BS  .IN            7.875:   BIT SIZE
 BSD .F               865:   BIT SIZE AT DEPTH
 DFT .                KCL:   DRILLING FLUID TYPE
 DFD .                8.4:   DRILLING FLUID DENSITY
 DFV .                 40:   DRILLING FLUID VISCOSITY
 DFPH.                  9:   DRILLING FLUID PH
 DFL .                  6:   DRILLING FLUID LOSS
 MSS .           FLOWLINE:   MUD SAMPLE SOURCE
 RMS .OHMM            .14:   RESISTIVITY MUD SAMPLE
 MST .F                84:   MUD SAMPLE TEMPERATURE
 RMF .OHMM             .1:   RESISTIVITY MUD FILTRATE SAMPLE
 MFST.F                94:   MUD FILTRATE SAMPLE TEMPERATURE
 RMC .OHMM            .18:   RESISTIVITY MUD CAKE
 MCST.F                92:   MUD CAKE SAMPLE TEMPERATURE
 MFSS.               MEAS:   MUD FILTRATE SAMPLE SOURCE
 MCSS.               MEAS:   MUD CAKE SAMPLE SOURCE
 RMB .OHMM           .145:   RESISTIVITY MUD AT BHT
 BHT .F                82:   BOTTOM HOLE TEMPERATURE
 TCS .HRS               3:   TIME CURCULATED STOPPED
 MRT .F                82:   MAXIMUM RECORDED TEMPERATURE
 LUN .               2958:   LOGGING UNIT NUMBER
 LUL .               CASP:   LOGGING UNIT LOCATION
 ENGI.           REYNOLDS:   RECORDING ENGINEER
 WITN.           MCGINLEY:   WITNESSED BY
 CLNT.            A2DTECH:   CLIENT CODE
 ORIG.           5" PRINT:   ORIGIN OF DATA
 UWI .       490251069600:   UNIQUE WELL ID
 DICO. A2D Technologies, Inc.:   DIGITIZING COMPANY
~OTHER INFORMATION
~A   DEPT      SPR         SN        ILD       NPHI         GRD      CALD       RHOB       DPHI       CORR   
   28.0000  -999.2500  -999.2500  -999.2500  -999.2500    57.0220  -999.2500  -999.2500  -999.2500  -999.2500
   28.5000  -999.2500  -999.2500  -999.2500  -999.2500    57.0220  -999.2500  -999.2500  -999.2500  -999.2500
   29.0000  -999.2500  -999.2500  -999.2500  -999.2500    57.9220  -999.2500  -999.2500  -999.2500  -999.2500
   29.5000  -999.2500  -999.2500  -999.2500  -999.2500    59.2281  -999.2500  -999.2500  -999.2500  -999.2500
   30.0000  -999.2500  -999.2500  -999.2500  -999.2500    57.2201  -999.2500  -999.2500  -999.2500  -999.2500
   30.5000  -999.2500  -999.2500  -999.2500  -999.2500    54.0169  -999.2500  -999.2500  -999.2500  -999.2500
   31.0000  -999.2500  -999.2500  -999.2500  -999.2500    50.7763  -999.2500  -999.2500  -999.2500  -999.2500
   31.5000  -999.2500  -999.2500  -999.2500  -999.2500    50.4496  -999.2500  -999.2500  -999.2500  -999.2500
   32.0000  -999.2500  -999.2500  -999.2500  -999.2500    51.2540  -999.2500  -999.2500  -999.2500  -999.2500
   32.5000  -999.2500  -999.2500  -999.2500  -999.2500    53.5561  -999.2500  -999.2500  -999.2500  -999.2500
   33.0000  -999.2500  -999.2500  -999.2500  -999.2500    55.9969  -999.2500  -999.2500  -999.2500  -999.2500
   33.5000  -999.2500  -999.2500  -999.2500  -999.2500    57.0272  -999.2500  -999.2500  -999.2500  -999.2500
   34.0000  -999.2500  -999.2500  -999.2500  -999.2500    57.3738  -999.2500  -999.2500  -999.2500  -999.2500
   34.5000  -999.2500  -999.2500  -999.2500  -999.2500    55.8271  -999.2500  -999.2500  -999.2500  -999.2500
   35.0000  -999.2500  -999.2500  -999.2500  -999.2500    53.4023  -999.2500  -999.2500  -999.2500  -999.2500
   35.5000  -999.2500  -999.2500  -999.2500  -999.2500    50.9014  -999.2500  -999.2500  -999.2500  -999.2500
   36.0000  -999.2500  -999.2500  -999.2500  -999.2500    48.3717  -999.2500  -999.2500  -999.2500  -999.2500
   36.5000  -999.2500  -999.2500  -999.2500  -999.2500    48.0484  -999.2500  -999.2500  -999.2500  -999.2500
   37.0000  -999.2500  -999.2500  -999.2500  -999.2500    47.9692  -999.2500  -999.2500  -999.2500  -999.2500
   37.5000  -999.2500  -999.2500  -999.2500  -999.2500    47.5675  -999.2500  -999.2500  -999.2500  -999.2500
   38.0000  -999.2500  -999.2500  -999.2500  -999.2500    46.3812  -999.2500  -999.2500  -999.2500  -999.2500
   38.5000  -999.2500  -999.2500  -999.2500  -999.2500    47.6082  -999.2500  -999.2500  -999.2500  -999.2500
   39.0000  -999.2500  -999.2500  -999.2500  -999.2500    49.6278  -999.2500  -999.2500  -999.2500  -999.2500
   39.5000  -999.2500  -999.2500  -999.2500  -999.2500    51.5238  -999.2500  -999.2500  -999.2500  -999.2500
   40.0000  -999.2500  -999.2500  -999.2500  -999.2500    52.5553  -999.2500  -999.2500  -999.2500  -999.2500
   40.5000  -999.2500  -999.2500  -999.2500  -999.2500    52.5995  -999.2500  -999.2500  -999.2500  -999.2500
   41.0000  -999.2500  -999.2500  -999.2500  -999.2500    52.4594  -999.2500  -999.2500  -999.2500  -999.2500
   41.5000  -999.2500  -999.2500  -999.2500  -999.2500    52.9793  -999.2500  -999.2500  -999.2500  -999.2500
   42.0000  -999.2500  -999.2500  -999.2500  -999.2500    58.8956  -999.2500  -999.2500  -999.2500  -999.2500
   42.5000  -999.2500  -999.2500  -999.2500  -999.2500    65.4959  -999.2500  -999.2500  -999.2500  -999.2500
   43.0000  -999.2500  -999.2500  -999.2500  -999.2500    70.2767     8.4135     2.4457     0.1703     0.0369
   43.5000  -999.2500  -999.2500  -999.2500  -999.2500    72.4394     9.1191     2.4393     0.1703     0.0369
   44.0000   -59.5850  -999.2500  -999.2500  -999.2500    73.8010     9.4516     2.4039     0.1654     0.0229
   44.5000   -61.9626  -999.2500  -999.2500  -999.2500    75.1144     8.7007     2.4039     0.1601     0.0210
   45.0000   -64.5900  -999.2500  -999.2500  -999.2500    76.4327     7.7885     2.4042     0.1628     0.0169
   45.5000   -66.6907  -999.2500  -999.2500  -999.2500    77.7564     7.3533     2.4160     0.1643     0.0170
   46.0000   -69.3195  -999.2500  -999.2500  -999.2500    79.1141     7.3203     2.4144     0.1586     0.0186
   46.5000   -71.9470  -999.2500  -999.2500  -999.2500    79.2520     7.3724     2.4172     0.1489     0.0222
   47.0000   -74.5762     0.1955     0.1919  -999.2500    78.1979     7.4219     2.4240     0.1412     0.0258
   47.5000   -77.2060     0.6538     0.3234  -999.2500    75.3222     7.4709     2.4355     0.1358     0.0294
   48.0000   -79.7407     2.1205     0.9275  -999.2500    74.0241     7.5199     2.4488     0.1304     0.0296
   48.5000   -81.2124     3.4660     2.2745  -999.2500    75.7573     7.5690     2.4653     0.1315     0.0220
   49.0000   -82.6281     4.7414     4.1629  -999.2500    77.3120     7.6184     2.4868     0.1346     0.0145
   49.5000   -84.0666     5.6135     5.3446  -999.2500    76.4383     7.6689     2.4981     0.1373     0.0088
   50.0000   -84.8700     5.8012     4.3141  -999.2500    76.8933     7.6712     2.4770     0.1359     0.0089
   50.5000   -85.4642     6.0068     4.0521  -999.2500    77.6161     7.6689     2.4596     0.1321     0.0090
   51.0000   -85.8539     6.1655     3.9613  -999.2500    76.7553     7.6668     2.4617     0.1327     0.0097
   51.5000   -86.2465     6.2062     4.0624  -999.2500    74.7443     7.6647     2.4654     0.1404     0.0120
   52.0000   -86.3415     6.2474     4.1479  -999.2500    74.7413     7.6627     2.4593     0.1414     0.0144
   52.5000   -86.4202     6.2886     4.1467  -999.2500    75.8936     7.6607     2.4522     0.1325     0.0169
   53.0000   -86.5007     6.3302     4.1473  -999.2500    75.8342     7.6586     2.4448     0.1321     0.0146
   53.5000   -86.5817     6.3721     4.2257  -999.2500    74.7897     7.6566     2.4570     0.1321     0.0141
   54.0000   -86.6627     6.4141     4.3110  -999.2500    73.7346     7.6546     2.4747     0.1331     0.0133
   54.5000   -86.7437     6.4565     4.3981  -999.2500    72.8172     7.6524     2.4739     0.1380     0.0126
   55.0000   -86.8246     6.5010     4.4869  -999.2500    72.8714     7.6522     2.4654     0.1432     0.0120
   55.5000   -86.9050     6.6152     4.5775  -999.2500    75.5697     7.6794     2.4567     0.1449     0.0112
   56.0000   -86.9861     6.7362     4.6726  -999.2500    79.0239     7.7085     2.4480     0.1473     0.0095
   56.5000   -87.1118     6.8594     4.6726  -999.2500    78.6572     7.7377     2.4439     0.1497     0.0089
   57.0000   -87.4936     6.9849     4.6726  -999.2500    78.3566     7.7666     2.4400     0.1521     0.0068
   57.5000   -87.8761     7.1127     4.6726  -999.2500    77.7579     7.7880     2.4361     0.1550     0.0045
   58.0000   -88.2581     7.1922     4.6722  -999.2500    76.5999     7.7710     2.4327     0.1584     0.0035
   58.5000   -88.6414     7.1696     4.6736  -999.2500    77.2797     7.7547     2.4329     0.1617     0.0050
   59.0000   -89.0206     7.1511     4.4721  -999.2500    78.7335     7.7385     2.4250     0.1592     0.0065
   59.5000   -89.1541     7.1326     4.3337  -999.2500    78.5677     7.7223     2.4149     0.1524     0.0079
   60.0000   -89.2766     7.1144     4.1998  -999.2500    78.2225     7.7061     2.4135     0.1455     0.0094
   60.5000   -89.4002     7.0962     4.0701  -999.2500    79.3819     7.6899     2.4266     0.1420     0.0109
   61.0000   -89.5243     7.0780     3.9967  -999.2500    80.5849     7.6736     2.4396     0.1424     0.0124
   61.5000   -89.6481     7.0599     4.0505  -999.2500    80.2941     7.6579     2.4465     0.1412     0.0130
   62.0000   -89.7731     7.0418     4.1032  -999.2500    80.1964     7.6108     2.4489     0.1399     0.0137
   62.5000   -89.8214     7.0238     4.1563  -999.2500    81.0681     7.5484     2.4510     0.1388     0.0145
   63.0000   -89.8222     7.0058     4.2241  -999.2500    79.4574     7.4853     2.4531     0.1387     0.0163
   63.5000   -89.8222     6.9879     4.3390  -999.2500    77.8215     7.4222     2.4553     0.1385     0.0205
   64.0000   -89.8221     6.9700     4.5090  -999.2500    77.4519     7.3595     2.4545     0.1386     0.0251
