~VERSION INFORMATION
 VERS.                2.0:   CWLS LOG ASCII STANDARD - VERSION 2.0
 WRAP.                 NO:   ONE LINE PER DEPTH STEP
~WELL INFORMATION
#MNEM.UNIT      DATA TYPE    INFORMATION
#----------   ------------   ------------------------------
 STRT.F            0.0000:   START DEPTH
 STOP.F          550.0000:   STOP DEPTH
 STEP.F            0.1000:   STEP LENGTH
 NULL.          -999.2500:   NO VALUE
 COMP.       F D SERV INC:   COMPANY
 WELL. NAVAL PETROLEUM RESERVE 3 SX-3 #77-4-3:   WELL
 FLD .          N.P.R. #3:   FIELD
 LOC .       S3 T38N R78W:   LOCATION
 CNTY.            NATRONA:   COUNTY
 STAT.            WYOMING:   STATE
 CTRY. UNITED STATES OF AMERICA:   COUNTRY
 SRVC.      Western Atlas:   SERVICE COMPANY
 DATE.        28-OCT-1992:   LOGDATE
 API .       490252255100:   API NUMBER
~CURVE INFORMATION
#MNEM.UNIT       API CODE    CURVE DESCRIPTION
#----------   ------------   ------------------------------
 DEPT.F                  :   
 GRR .GAPI   07 310 01 00:   GAMMA RAY FROM RESISTIVITY
 RILD.OHMM   07 120 46 00:   DEEP INDUCTION RESISTIVITY
 RILM.OHMM   07 120 44 00:   INDUCTION LOG MEDIUM RESISTIVITY
~PARAMETER INFORMATION
#MNEM.UNIT          VALUE    DESCRIPTION
#----------   ------------   ------------------------------
 PD  .                 GL:   PERMANENT DATUM
 EPD .F              5160:   ELEVATION PERMANENT DATUM
 LMF .                 KB:   LOG MEASURED FROM
 DAPD.F                10:   FEET ABOVE PERMANENT DATUM
 DMF .                 KB:   DRILLING MEASURED FROM
 EKB .F              5170:   KELLING BUSHING
 EDF .F              5169:   DRILLING FLOOR
 EGL .F              5160:   GROUND LEVEL
 DATE.        28-OCT-1992:   RUN DATE
 RUN .                  1:   RUN NUMBER
 DD  .F               555:   DEPTH DRILLER
 DL  .F               558:   DEPTH LOGGER
 BLI .F               550:   BOTTOM LOG INTERVAL
 CS  .IN            8.625:   CASING SIZE
 CBD .F                54:   CASING BOTTOM DRILLER
 CBL .F                54:   CASING BOTTOM LOGGER
 BS  .IN            7.875:   BIT SIZE
 BSD .F               555:   BIT SIZE AT DEPTH
 DFT .           AIR FOAM:   DRILLING FLUID TYPE
 TCS .HRS               1:   TIME CURCULATED STOPPED
 MRT .F                65:   MAXIMUM RECORDED TEMPERATURE
 LUN .            HL-6274:   LOGGING UNIT NUMBER
 LUL .             CASPER:   LOGGING UNIT LOCATION
 ENGI.             RAUTIO:   RECORDING ENGINEER
 WITN.     BRUCE ANDERSON:   WITNESSED BY
 CLNT.            A2DTECH:   CLIENT CODE
 ORIG.           5" PRINT:   ORIGIN OF DATA
 UWI .       490252255100:   UNIQUE WELL ID
 DICO. A2D Technologies, Inc.:   DIGITIZING COMPANY
~OTHER INFORMATION
~A    DEPT      GRR      RILD       RILM   
# ...
   54.6000   119.2447  1987.6091  1962.1328
   54.7000   121.8798  1987.6091  1959.4117
   54.8000   124.1176  1987.6091  1956.6907
   54.9000   125.9583  1987.6091  1554.2063
   55.0000   127.3112  1045.0133   612.1654
   55.1000   127.5851   335.2852   133.3288
   55.2000   127.8155   133.6917    37.7715
   55.3000   127.8906    10.5307    19.5525
   55.4000   127.8924     7.1149     5.2081
   55.5000   127.8207     5.9043     4.0129
   55.6000   127.5938     4.5797     3.8708
   55.7000   127.5960     3.6066     3.7030
   55.8000   127.5976     2.8306     3.5400
   55.9000   127.4308     2.2692     3.6399
   56.0000   127.4159     2.1187     3.7454
   56.1000   127.6030     2.0923     3.8632
   56.2000   127.6181     2.1258     4.1265
   56.3000   127.9090     2.2082     4.5919
   56.4000   128.1225     2.3198     4.9783
   56.5000   128.2145     2.4566     5.1820
   56.6000   128.3247     2.6294     5.4456
   56.7000   128.6334     2.8054     5.9390
   56.8000   129.1311     2.9994     6.4617
   56.9000   129.4305     3.2873     6.7655
   57.0000   129.8389     3.6060     7.0991
   57.1000   130.1897     3.9062     7.2971
   57.2000   130.3420     4.1643     7.5433
   57.3000   130.3438     4.5401     7.7353
   57.4000   130.3457     5.1223     7.8851
   57.5000   130.3474     5.7051     8.0977
   57.6000   130.3492     6.3092     8.5657
   57.7000   130.2079     7.2985     9.3790
   57.8000   129.9593     9.2090    10.1319
   57.9000   129.6711    10.4820    11.2664
   58.0000   129.1481    11.0508    12.8548
   58.1000   128.6733    12.3212    14.4819
   58.2000   128.5474    13.7490    16.4775
   58.3000   128.5492    14.6509    16.7289
   58.4000   128.5511    14.6526    16.3827
   58.5000   128.5841    14.4036    15.5749
   58.6000   128.8569    13.6581    14.6546
   58.7000   129.3182    12.3783    13.9000
   58.8000   130.1768    11.1424    12.8226
   58.9000   130.9275    10.5148    12.4593
   59.0000   131.4300    10.2063    12.1652
   59.1000   131.8870     9.7632    11.8995
   59.2000   131.8890     9.3243    11.5883
   59.3000   132.1120     8.9322    11.3883
   59.4000   132.1946     8.6640    11.0654
   59.5000   132.0786     8.5583    10.7513
   59.6000   131.8300     8.4031    10.4457
   59.7000   131.5815     8.3134    10.1703
   59.8000   131.2957     8.2536     9.9574
   59.9000   130.8715     8.1822     9.8391
   60.0000   130.5337     8.1040     9.8388
   60.1000   130.1758     8.0581     9.8385
   60.2000   129.7345     8.0085     9.8696
   60.3000   129.4918     7.9674     9.9661
   60.4000   129.4940     7.9223    10.1475
   60.5000   129.4955     7.8551    10.4008
   60.6000   129.6499     7.7656    10.6261
   60.7000   129.9021     7.6772    10.8285
   60.8000   130.2526     7.5795    11.0501
   60.9000   131.0133     7.5036    11.3276
   61.0000   131.7583     7.4471    11.6378
   61.1000   132.3152     7.4251    11.7874
   61.2000   132.9619     7.4259    11.7269
   61.3000   133.8073     7.4292    11.6137
   61.4000   134.7291     7.4796    11.4803
   61.5000   135.2539     7.5173    11.3655
   61.6000   135.2556     7.6187    11.2924
   61.7000   135.2574     7.8134    11.0696
   61.8000   135.2592     8.1008    10.9083
   61.9000   135.0931     8.4347    10.6430
   62.0000   134.6264     8.8468    10.1671
   62.1000   134.3778     9.0618     9.5924
   62.2000   134.1293     9.2949     9.4284
   62.3000   133.5227     9.5132     9.2998
   62.4000   132.8371     9.7364     9.2132
   62.5000   132.2130     9.9646     9.1708
   62.6000   131.6008    10.0816     9.1496
   62.7000   131.0461    10.1532     9.1066
   62.8000   130.8254    10.2132     9.1064
   62.9000   130.5768    10.2964     9.1061
   63.0000   130.3283    10.3957     9.1059
   63.1000   130.1468    10.3969     9.0761
   63.2000   130.1639    10.4566     9.0236
   63.3000   130.4528    10.4258     8.9792
   63.4000   130.6683    10.3668     8.9790
   63.5000   130.9204    10.3293     8.9787
   63.6000   131.2830    10.3129     8.9785
   63.7000   131.8441    10.1887     9.0056
   63.8000   132.6107    10.0796     9.0407
   63.9000   134.0891     9.9650     9.0404
   64.0000   134.9124     9.7626     9.0402
   64.1000   135.6082     9.5203     8.9930
   64.2000   136.0089     9.3513     8.9770
   64.3000   136.2610     9.1201     8.9767
   64.4000   136.5148     8.9781     8.9620
   64.5000   136.5166     8.8250     8.9139
   64.6000   136.5184     8.7243     8.9137
   64.7000   136.2298     8.6750     8.9135
   64.8000   135.8244     8.6303     8.9132
   64.9000   135.4924     8.6918     8.9130
   65.0000   134.7131     8.6927     8.9252
   65.1000   134.4745     8.7279     8.9747
   65.2000   133.8490     8.7554     8.9744
   65.3000   133.3732     8.7564     8.9742
   65.4000   133.0397     8.7574     8.9740
   65.5000   132.5408     8.7585     8.9950
   65.6000   132.0050     8.8028     9.0362
   65.7000   131.7748     8.8215     9.0359
   65.8000   131.7063     8.8225     9.0357
   65.9000   131.8365     8.8357     9.0354
   66.0000   132.0886     8.8862     9.0352
   66.1000   132.3408     8.8873     9.0349
   66.2000   132.6201     8.8882     9.0346
   66.3000   132.8451     8.8892     9.0344
   66.4000   132.9257     8.9115     9.0341
   66.5000   133.0473     8.9533     9.0339
   66.6000   133.2995     8.9543     9.0336
   66.7000   133.5517     8.9553     9.0334
   66.8000   133.8395     8.9977     9.0397
   66.9000   134.0560     9.0199     9.0960
   67.0000   134.3082     9.0209     9.0957
   67.1000   134.5603     9.0219     9.0955
   67.2000   134.8125     9.0230     9.0952
   67.3000   135.0647     9.0239     9.0950
   67.4000   135.3610     9.0249     9.0947
   67.5000   135.3625     9.0260     9.0944
   67.6000   135.5190     9.0270     9.0942
   67.7000   135.7712     9.0280     9.0940
   67.8000   136.0234     9.0290     9.0937
   67.9000   136.2761     9.0300     9.0935
   68.0000   136.5277     9.0310     9.0932
   68.1000   136.7799     9.0320     9.0929
   68.2000   137.0320     9.0330     9.0927
   68.3000   137.3786     9.0340     9.0924
   68.4000   137.8385     9.0351     9.0700
   68.5000   138.0998     8.9883     9.0289
   68.6000   138.3428     8.9743     9.0286
   68.7000   138.7845     8.9753     9.0283
   68.8000   139.0115     8.9763     8.9865
   68.9000   139.0993     8.9773     8.9652
   69.0000   139.3172     8.9784     8.9451
   69.1000   139.3192     8.9793     8.9025
   69.2000   139.0880     8.9450     8.9023
   69.3000   139.0206     8.9189     8.9020
   69.4000   138.8931     8.9199     8.9018
   69.5000   138.7220     8.9176     8.9015
   69.6000   138.6981     8.8601     8.9013
   69.7000   138.4238     8.8172     8.8939
   69.8000   138.6498     8.8004     8.8390
   69.9000   138.9019     8.7787     8.8388
   70.0000   139.2749     8.7413     8.8018
   70.1000   139.7775     8.7422     8.7770
   70.2000   140.2626     8.6827     8.7457
   70.3000   140.5495     8.6835     8.6501
   70.4000   140.9829     8.6533     8.5948
   70.5000   141.1571     8.6044     8.5505
   70.6000   141.0465     8.5557     8.5011
   70.7000   140.8586     8.5074     8.4520
   70.8000   140.8516     8.4497     8.4032
   70.9000   140.5604     8.4115     8.3547
   71.0000   140.3545     8.3640     8.2994
   71.1000   140.1059     8.3167     8.2585
   71.2000   139.8574     8.2611     8.2108
   71.3000   139.6089     8.1648     8.1634
   71.4000   139.3603     8.1198     8.1162
   71.5000   139.1118     8.0739     8.0704
   71.6000   138.8633     8.0283     8.0701
   71.7000   138.7619     7.9664     7.9945
   71.8000   138.7637     7.8827     7.9303
   71.9000   138.7656     7.8358     7.9027
   72.0000   138.7674     7.7939     7.8937
   72.1000   138.7692     7.7498     7.8475
   72.2000   138.7710     7.7060     7.8028
   72.3000   138.9116     7.6625     7.7578
   72.4000   139.0767     7.6192     7.7130
   72.5000   139.0786     7.5727     7.6684
   72.6000   139.0805     7.4935     7.6174
   72.7000   139.0822     7.4388     7.5252
