~VERSION INFORMATION
 VERS.                2.0:   CWLS LOG ASCII STANDARD - VERSION 2.0
 WRAP.                 NO:   ONE LINE PER DEPTH STEP
~WELL INFORMATION
#MNEM.UNIT      DATA TYPE    INFORMATION
#----------   ------------   ------------------------------
 STRT.F            0.0000:   START DEPTH
 STOP.F          497.0000:   STOP DEPTH
 STEP.F            0.1000:   STEP LENGTH
 NULL.          -999.2500:   NO VALUE
 COMP.       F D SERV INC:   COMPANY
 WELL. NAVAL PETROLEUM RESERVE 3 SX-1 #81-1-10:   WELL
 FLD .             NPR #3:   FIELD
 LOC .      S10 T38N R78W:   LOCATION
 CNTY.            NATRONA:   COUNTY
 STAT.            WYOMING:   STATE
 CTRY. UNITED STATES OF AMERICA:   COUNTRY
 SRVC.     Atlas Wireline:   SERVICE COMPANY
 DATE.        14-DEC-1997:   LOGDATE
 API .       490252257400:   API NUMBER
~CURVE INFORMATION
#MNEM.UNIT       API CODE    CURVE DESCRIPTION
#----------   ------------   ------------------------------
 DEPT.F                  :   
 GRR .GAPI   07 310 01 00:   GAMMA RAY
 RILD.OHMM   07 120 46 00:   INDUCTION LOG DEEP RESISTIVITY
 RILM.OHMM   07 120 44 00:   INDUCTION LOG MEDIUM RESISTIVITY
~PARAMETER INFORMATION
#MNEM.UNIT          VALUE    DESCRIPTION
#----------   ------------   ------------------------------
 PD  .                 GL:   PERMANENT DATUM
 EPD .F              5132:   ELEVATION PERMANENT DATUM
 LMF .                 KB:   LOG MEASURED FROM
 DAPD.F                10:   FEET ABOVE PERMANENT DATUM
 DMF .                 KB:   DRILLING MEASURED FROM
 EKB .F              5142:   KELLING BUSHING
 EDF .F              5141:   DRILLING FLOOR
 EGL .F              5132:   GROUND LEVEL
 DATE.        14-DEC-1992:   RUN DATE
 RUN .                  1:   RUN NUMBER
 DD  .F               513:   DEPTH DRILLER
 DL  .F               505:   DEPTH LOGGER
 BLI .F               497:   BOTTOM LOG INTERVAL
 CS  .IN            8.625:   CASING SIZE
 CBD .F                53:   CASING BOTTOM DRILLER
 CBL .F                54:   CASING BOTTOM LOGGER
 BS  .IN            7.875:   BIT SIZE
 BSD .F               513:   BIT SIZE AT DEPTH
 DFT .           AIR FOAM:   DRILLING FLUID TYPE
 BHT .F                68:   BOTTOM HOLE TEMPERATURE
 MRT .F                68:   MAXIMUM RECORDED TEMPERATURE
 LUN .           HL- 6274:   LOGGING UNIT NUMBER
 LUL .             CASPER:   LOGGING UNIT LOCATION
 ENGI.             RAUTIO:   RECORDING ENGINEER
 WITN.          G. STRONG:   WITNESSED BY
 CLNT.            A2DTECH:   CLIENT CODE
 ORIG.           5" PRINT:   ORIGIN OF DATA
 UWI .       490252257400:   UNIQUE WELL ID
 DICO. A2D Technologies, Inc.:   DIGITIZING COMPANY
~OTHER INFORMATION
~A    DEPT      GRR      RILD       RILM   
# ...
  163.8000   101.5388     9.3135     9.1746
  163.9000   101.2854     9.3547     9.0584
  164.0000   101.0964     9.3478     9.0101
  164.1000   101.0967     9.3142     8.9961
  164.2000   101.0970     9.3031     8.9963
  164.3000   101.0973     9.2502     8.9966
  164.4000   100.9225     9.2505     8.9968
  164.5000   100.9242     9.2044     8.9971
  164.6000   101.1781     9.1869     8.9974
  164.7000   101.4321     9.1872     8.9976
  164.8000   101.7012     9.1874     8.9641
  164.9000   101.9398     9.1877     8.9118
  165.0000   102.3845     9.1880     8.8598
  165.1000   102.8921     9.1882     8.8129
  165.2000   103.4952     9.1885     8.8131
  165.3000   104.1603     9.1887     8.8134
  165.4000   104.4151     9.1890     8.8136
  165.5000   105.3178     9.1892     8.7856
  165.6000   105.9373     9.1895     8.7530
  165.7000   106.5396     9.1898     8.7533
  165.8000   107.2697     9.1900     8.7535
  165.9000   108.2207     9.1903     8.7538
  166.0000   108.9659     9.1905     8.7540
  166.1000   109.5365     9.1908     8.7543
  166.2000   109.9810     9.1910     8.7545
  166.3000   110.1395     9.1913     8.7547
  166.4000   110.1398     9.1279     8.7550
  166.5000   110.1401     9.1281     8.7553
  166.6000   110.1404     9.1284     8.7555
  166.7000   110.1407     9.1286     8.7557
  166.8000   110.1410     9.1289     8.7560
  166.9000   110.1413     9.1349     8.7562
  167.0000   109.9990     9.1931     8.7565
  167.1000   109.7457     9.1933     8.7567
  167.2000   109.4449     9.1936     8.7570
  167.3000   108.9377     9.1938     8.7572
  167.4000   108.3356     9.1941     8.7574
  167.5000   107.9242     9.1943     8.7577
  167.6000   107.7337     9.1946     8.7719
  167.7000   107.6234     9.1949     8.8192
  167.8000   107.3701     9.1951     8.8195
  167.9000   107.1168     9.1954     8.8197
  168.0000   106.8314     9.1956     8.8200
  168.1000   106.6102     9.1959     8.8485
  168.2000   106.5307     9.1882     8.8820
  168.3000   106.5310     9.1327     8.8822
  168.4000   106.5313     9.1329     8.8825
  168.5000   106.5005     9.0908     8.8828
  168.6000   106.2307     9.0702     8.8830
  168.7000   105.7567     9.0473     8.8832
  168.8000   105.4393     9.0078     8.8835
  168.9000   105.1860     9.0081     8.8837
  169.0000   104.7440     9.0084     8.8840
  169.1000   104.0770     9.0086     8.8842
  169.2000   103.8229     9.0088     8.8845
  169.3000   103.2208     8.9804     8.8847
  169.4000   103.0159     8.9469     8.8850
  169.5000   102.7626     8.9472     8.8852
  169.6000   102.7293     8.9474     8.8855
  169.7000   102.9832     8.9477     8.8857
  169.8000   103.2668     8.9044     8.8860
  169.9000   104.1262     8.8862     8.8862
  170.0000   105.0100     8.8374     8.8536
  170.1000   106.1981     8.7489     8.8251
  170.2000   107.3408     8.6977     8.8254
  170.3000   108.2775     8.6435     8.8213
  170.4000   109.0386     8.5489     8.7648
  170.5000   109.8509     8.4866     8.7650
  170.6000   110.5608     8.4658     8.7652
  170.7000   110.9441     8.4461     8.7655
  170.8000   111.1980     8.4076     8.7474
  170.9000   111.3581     8.4079     8.6963
  171.0000   111.3584     8.4081     8.6452
  171.1000   111.3587     8.3655     8.5856
  171.2000   111.3591     8.3503     8.5450
  171.3000   111.1547     8.3506     8.5265
  171.4000   111.0584     8.3508     8.5045
  171.5000   111.0587     8.3510     8.4418
  171.6000   111.0590     8.3513     8.3472
  171.7000   111.0308     8.3515     8.2937
  171.8000   110.4573     8.3517     8.2501
  171.9000   110.2372     8.3519     8.1334
  172.0000   109.8112     8.3522     8.0669
  172.1000   109.1792     8.3524     8.0504
  172.2000   108.4187     8.3526     8.0114
  172.3000   107.6283     8.3529     8.0117
  172.4000   106.5434     8.3531     7.9564
  172.5000   105.8358     8.3177     7.9190
  172.6000   105.2637     8.2957     7.8727
  172.7000   104.7567     8.2779     7.8472
  172.8000   104.3430     8.2294     7.8474
  172.9000   104.1352     8.1812     7.8440
  173.0000   104.1355     8.1254     7.7935
  173.1000   104.1359     8.0461     7.7937
  173.2000   104.1361     7.9827     7.7939
  173.3000   104.1364     7.9360     7.7941
  173.4000   104.1367     7.8757     7.7944
  173.5000   104.1371     7.7945     7.7946
  173.6000   104.1510     7.7948     7.7948
  173.7000   104.4389     7.7950     7.7411
  173.8000   104.4392     7.7952     7.7047
  173.9000   104.7836     7.7954     7.6597
  174.0000   105.1667     7.7957     7.6348
  174.1000   105.3437     7.7853     7.6350
  174.2000   105.3440     7.7421     7.6317
  174.3000   105.3443     7.7423     7.5825
  174.4000   105.3446     7.7425     7.5827
  174.5000   105.1571     7.7427     7.5829
  174.6000   104.9038     7.7429     7.5595
  174.7000   104.6505     7.7278     7.5308
  174.8000   104.3972     7.6897     7.5310
  174.9000   104.1413     7.6900     7.5313
  175.0000   103.5392     7.6902     7.5315
  175.1000   103.1326     7.6541     7.5317
  175.2000   102.7815     7.6373     7.5319
  175.3000   102.4200     7.6375     7.5516
  175.4000   101.9130     7.6377     7.5848
  175.5000   101.4061     7.6380     7.5850
  175.6000   100.8302     7.6382     7.5853
  175.7000   100.6114     7.6384     7.5855
  175.8000   100.3580     7.6386     7.5857
  175.9000   100.3525     7.6388     7.5859
  176.0000   100.6064     7.6561     7.5861
  176.1000   100.9178     7.6925     7.5863
  176.2000   101.7356     7.6937     7.5865
  176.3000   102.2053     7.7466     7.5868
  176.4000   102.7128     7.7468     7.5869
  176.5000   103.3599     7.7470     7.6149
  176.6000   104.0291     7.7473     7.6403
  176.7000   104.4478     7.7616     7.6405
  176.8000   104.1373     7.8017     7.6407
  176.9000   104.8985     7.8020     7.6410
  177.0000   105.6597     7.8022     7.6411
  177.1000   106.5576     7.8024     7.6414
  177.2000   106.9739     7.8300     7.6416
  177.3000   107.3210     7.8572     7.6573
  177.4000   107.5749     7.8575     7.6953
  177.5000   107.7635     7.8604     7.6955
  177.6000   107.7639     7.9127     7.6957
  177.7000   107.7642     7.9129     7.6959
  177.8000   107.7645     7.9131     7.6962
  177.9000   107.7648     7.9134     7.6964
  178.0000   107.7651     7.9136     7.6966
  178.1000   107.6844     7.9138     7.6936
  178.2000   107.4644     7.9140     7.6437
  178.3000   107.4648     7.9143     7.6439
  178.4000   107.4651     7.8768     7.6441
  178.5000   107.2736     7.8599     7.6443
  178.6000   107.1645     7.8601     7.6445
  178.7000   107.1648     7.8603     7.6448
  178.8000   107.2140     7.8605     7.6450
  178.9000   107.4666     7.8608     7.6452
  179.0000   107.4669     7.8610     7.6454
  179.1000   107.6746     7.8956     7.6456
  179.2000   107.7687     7.9162     7.6458
  179.3000   107.8812     7.9164     7.6573
  179.4000   108.1998     7.9167     7.6996
  179.5000   108.6903     7.9182     7.6998
  179.6000   108.9747     7.9724     7.7403
  179.7000   109.4212     7.9726     7.7539
  179.8000   109.9287     7.9728     7.7780
  179.9000   110.5641     7.9730     7.8085
  180.0000   111.1646     7.9881     7.8087
  180.1000   111.4840     8.0291     7.8089
  180.2000   112.2898     8.0293     7.8541
  180.3000   112.5288     8.0295     7.8638
  180.4000   112.7827     8.0297     7.8640
  180.5000   113.1802     8.0300     7.8642
  180.6000   113.4958     8.0302     7.8645
  180.7000   113.4961     8.0420     7.8677
  180.8000   113.4948     8.0866     7.9198
  180.9000   112.8943     8.0869     7.9200
  181.0000   112.6878     8.1296     7.9530
  181.1000   112.5937     8.1437     8.0001
  181.2000   112.4823     8.1696     8.0315
  181.3000   112.2290     8.2010     8.0317
  181.4000   111.9592     8.2012     8.0320
  181.5000   111.3901     8.2014     8.0322
  181.6000   111.1679     8.2589     8.0324
  181.7000   110.7397     8.2591     8.0615
  181.8000   110.3600     8.2593     8.0889
  181.9000   109.8675     8.2596     8.0891
