~VERSION INFORMATION
 VERS.                2.0:   CWLS LOG ASCII STANDARD - VERSION 2.0
 WRAP.                 NO:   ONE LINE PER DEPTH STEP
~WELL INFORMATION
#MNEM.UNIT      DATA TYPE    INFORMATION
#----------   ------------   ------------------------------
 STRT.F           10.0000:   START DEPTH
 STOP.F          580.0000:   STOP DEPTH
 STEP.F            0.5000:   STEP LENGTH
 NULL.          -999.2500:   NO VALUE
 COMP. FENIX & SCISSON INC:   COMPANY
 WELL.     NPR 3 #28-S-34:   WELL
 FLD .        TEAPOT DOME:   FIELD
 LOC .      S34 T39N R78W:   LOCATION
 CNTY.            NATRONA:   COUNTY
 STAT.            WYOMING:   STATE
 CTRY. UNITED STATES OF AMERICA:   COUNTRY
 SRVC.           BIRDWELL:   SERVICE COMPANY
 DATE.        05-AUG-1978:   LOGDATE
 API .       490251068200:   API NUMBER
~CURVE INFORMATION
#MNEM.UNIT       API CODE    CURVE DESCRIPTION
#----------   ------------   ------------------------------
 DEPT.F                  :   
 SPR .MV     05 010 01 00:   SPONTANEOUS POTENTIAL FROM RES.
 IL  .OHMM   05 120 00 00:   INDUCTION LOG
 SN  .OHMM   05 040 16 00:   SHORT NORMAL 16"
 GRD .GAPI   45 310 01 00:   GAMMA RAY FROM DENSITY LOG
 CALD.IN     45 280 60 00:   CALIPER
 RHOB.G/C3   45 350 01 00:   BULK DENSITY
 DPHI.DEC    45 890 12 00:   DENSITY POROSITY SANDSTONE
 CORR.G/C3   45 356 01 00:   DENSITY CORRECTION
~PARAMETER INFORMATION
#MNEM.UNIT          VALUE    DESCRIPTION
#----------   ------------   ------------------------------
 PD  .                 GL:   PERMANENT DATUM
 EPD .F              5191:   ELEVATION PERMANENT DATUM
 LMF .                 KB:   LOG MEASURED FROM
 DAPD.F                 4:   FEET ABOVE PERMANENT DATUM
 DMF .                 KB:   DRILLING MEASURED FROM
 EKB .F              5195:   KELLING BUSHING
 EGL .F              5191:   GROUND LEVEL
 DATE.             8-5-78:   RUN DATE
 RUN .                  1:   RUN NUMBER
 DD  .F               570:   DEPTH DRILLER
 DL  .F               586:   DEPTH LOGGER
 BLI .F               580:   BOTTOM LOG INTERVAL
 TLI .F                30:   TOP LOG INTERVAL
 CS  .IN            8.625:   CASING SIZE
 BS  .IN            7.875:   BIT SIZE
 BSD .F               570:   BIT SIZE AT DEPTH
 DFT .                KCL:   DRILLING FLUID TYPE
 DFD .                8.6:   DRILLING FLUID DENSITY
 DFV .                 32:   DRILLING FLUID VISCOSITY
 DFPH.                9.5:   DRILLING FLUID PH
 MSS .          FLOW LINE:   MUD SAMPLE SOURCE
 RMS .OHMM             .9:   RESISTIVITY MUD SAMPLE
 MST .F                74:   MUD SAMPLE TEMPERATURE
 RMF .OHMM            .17:   RESISTIVITY MUD FILTRATE SAMPLE
 MFST.F                79:   MUD FILTRATE SAMPLE TEMPERATURE
 RMC .OHMM            .42:   RESISTIVITY MUD CAKE
 MCST.F                80:   MUD CAKE SAMPLE TEMPERATURE
 MFSS.               MEAS:   MUD FILTRATE SAMPLE SOURCE
 TCS .HRS               3:   TIME CURCULATED STOPPED
 LUN .               3006:   LOGGING UNIT NUMBER
 LUL .               CASP:   LOGGING UNIT LOCATION
 ENGI.             MILLER:   RECORDING ENGINEER
 WITN.           MCGINLEY:   WITNESSED BY
 CLNT.            A2DTECH:   CLIENT CODE
 ORIG.           5" PRINT:   ORIGIN OF DATA
 UWI .       490251068200:   UNIQUE WELL ID
 DICO. A2D Technologies, Inc.:   DIGITIZING COMPANY
~OTHER INFORMATION
~A   DEPT      SPR         IL         SN         GRD      CALD       RHOB       DPHI       CORR   
# ...
  536.5000   -14.0180     9.6770     8.7680    67.7260     7.7200     2.4410     0.1410     0.0030
  537.0000   -13.9730     9.6910     8.7440    68.6760     7.7100     2.4380     0.1420     0.0000
  537.5000   -13.9290     9.7060     8.7190    69.2920     7.7000     2.4340     0.1420    -0.0050
  538.0000   -13.8840     9.7200     8.6780    68.6840     7.6900     2.4330     0.1410    -0.0060
  538.5000   -13.8400     9.7350     8.6130    69.0910     7.6870     2.4350     0.1400    -0.0040
  539.0000   -13.7960     9.7490     8.5480    70.1640     7.6920     2.4380     0.1390    -0.0020
  539.5000   -13.7530     9.7640     8.4830    69.1170     7.6970     2.4400     0.1410    -0.0010
  540.0000   -13.7090     9.7780     8.4180    67.3670     7.7010     2.4370     0.1420    -0.0030
  540.5000   -13.9320     9.7930     8.3530    66.1770     7.7020     2.4340     0.1430    -0.0060
  541.0000   -14.4330     9.8090     8.2880    66.2840     7.6930     2.4340     0.1400    -0.0060
  541.5000   -14.8850     9.8130     8.2380    65.9510     7.6840     2.4360     0.1360    -0.0030
  542.0000   -14.7890     9.7150     8.2630    65.9680     7.6750     2.4430     0.1330     0.0010
  542.5000   -14.6830     9.6930     8.2840    67.8410     7.6670     2.4510     0.1290     0.0040
  543.0000   -14.5810     9.6720     8.3050    69.8070     7.6520     2.4580     0.1270     0.0080
  543.5000   -14.5660     9.6520     8.3250    71.7900     7.6380     2.4650     0.1250     0.0110
  544.0000   -14.8430     9.6320     8.3460    73.8240     7.6240     2.4710     0.1240     0.0150
  544.5000   -15.1140     9.6120     8.3670    74.5550     7.6090     2.4730     0.1230     0.0150
  545.0000   -15.3830     9.5930     8.3880    73.6300     7.5950     2.4710     0.1240     0.0150
  545.5000   -15.6530     9.5730     8.3750    74.0330     7.5800     2.4660     0.1260     0.0140
  546.0000   -15.9230     9.5540     8.3560    74.1660     7.5660     2.4640     0.1270     0.0140
  546.5000   -16.1920     9.5210     8.3380    72.7330     7.5510     2.4610     0.1290     0.0130
  547.0000   -16.4620     9.4370     8.3200    71.4140     7.5370     2.4590     0.1290     0.0130
  547.5000   -16.7320     9.3540     8.3020    71.6010     7.5260     2.4560     0.1290     0.0130
  548.0000   -17.0030     9.2710     8.2830    72.0510     7.5320     2.4570     0.1290     0.0120
  548.5000   -17.2840     9.1890     8.2650    70.6750     7.5390     2.4590     0.1280     0.0120
  549.0000   -17.2640     9.1060     8.2470    69.2260     7.5450     2.4610     0.1290     0.0120
  549.5000   -17.2250     9.0230     8.2200    71.2370     7.5510     2.4630     0.1300     0.0110
  550.0000   -17.1870     8.9480     8.1830    75.2060     7.5570     2.4600     0.1310     0.0110
  550.5000   -17.1440     8.9560     8.1470    75.6740     7.5640     2.4560     0.1320     0.0090
  551.0000   -17.0120     8.9630     8.1110    75.6040     7.5700     2.4530     0.1320     0.0110
  551.5000   -16.9090     8.9700     8.0740    76.8500     7.5760     2.4500     0.1300     0.0140
  552.0000   -17.1560     8.9770     8.0380    78.1070     7.5820     2.4540     0.1270     0.0170
  552.5000   -17.4140     8.9840     8.0010    77.0710     7.5840     2.4670     0.1210     0.0190
  553.0000   -17.6780     8.9920     7.9650    76.5810     7.5820     2.4770     0.1190     0.0210
  553.5000   -17.9410     8.9990     7.9350    77.4900     7.5800     2.4780     0.1200     0.0200
  554.0000   -18.2050     9.0060     7.9190    77.7220     7.5780     2.4770     0.1210     0.0200
  554.5000   -18.4690     9.0130     7.9040    75.7260     7.5770     2.4760     0.1220     0.0200
  555.0000   -18.7330     9.0200     7.8880    74.0950     7.5750     2.4760     0.1230     0.0190
  555.5000   -18.9960     9.0270     7.8720    74.8800     7.5730     2.4720     0.1240     0.0190
  556.0000   -19.2590     9.0310     7.8560    77.9250     7.5710     2.4680     0.1240     0.0180
  556.5000   -19.5230     8.9750     7.8410    80.5820     7.5700     2.4690     0.1240     0.0180
  557.0000   -19.7110     8.9260     7.8250    80.3150     7.5680     2.4710     0.1230     0.0180
  557.5000   -19.4020     8.8770     7.8090    77.9550     7.5660     2.4730     0.1230     0.0170
  558.0000   -18.9950     8.8270     7.7970    75.5900     7.5650     2.4740     0.1230     0.0170
  558.5000   -19.0870     8.7850     7.8850    73.4190     7.5590     2.4710     0.1260     0.0160
  559.0000   -19.4170     8.6920     7.9630    73.7750     7.5530     2.4660     0.1280     0.0160
  559.5000   -19.7500     8.6080     8.0140    75.9670     7.5480     2.4620     0.1300     0.0150
  560.0000   -19.8990     8.5230     7.9380    77.6950     7.5420     2.4580     0.1290     0.0150
  560.5000   -19.9290     8.4390     7.8810    75.5080     7.5360     2.4580     0.1260     0.0150
  561.0000   -19.9620     8.3540     7.8250    72.6930     7.5310     2.4610     0.1250     0.0140
  561.5000   -19.9940     8.2700     7.7680    69.8670     7.5250     2.4640     0.1250     0.0140
  562.0000   -20.0260     8.1850     7.7120    68.3980     7.5340     2.4680     0.1250     0.0130
  562.5000   -20.0580     8.1010     7.6540    69.8040     7.5490     2.4700     0.1250     0.0130
  563.0000   -20.0900     8.0140     7.5550    72.4280     7.5630     2.4680     0.1230     0.0160
  563.5000   -20.1220     7.8600     7.4520    74.8940     7.5780     2.4670     0.1210     0.0190
  564.0000   -20.1540     7.7190     7.3490    77.3980     7.5840     2.4740     0.1190     0.0220
  564.5000   -20.1860     7.5780     7.2460    79.0020     7.5790     2.4790     0.1200     0.0250
  565.0000   -20.2180     7.4370     7.1440    78.5760     7.5740     2.4790     0.1230     0.0220
  565.5000   -20.2500     7.3490     7.0410    80.6630     7.5700     2.4740     0.1250     0.0180
  566.0000   -20.2820     7.2750     6.9380    82.7660     7.5650     2.4690     0.1280     0.0130
  566.5000   -20.3140     7.2010     6.8230    82.6630     7.5600     2.4590     0.1320     0.0080
  567.0000   -20.3460     7.1270     6.6530    82.5900     7.5550     2.4430     0.1390     0.0030
  567.5000   -20.3780     6.6860     6.4840    83.0570     7.5500     2.4270     0.1490    -0.0010
  568.0000   -20.4100     6.1450     6.3140    88.0710     7.5450     2.4110     0.1580    -0.0060
  568.5000   -20.4420     5.6040     6.1440    93.0570     7.5470     2.3950     0.1630    -0.0030
  569.0000   -20.4740     5.0610     5.9740    97.9840     7.5500     2.3910     0.1560     0.0120
  569.5000   -20.4870     4.8780     5.8040   102.9240     7.5530     2.4350     0.1460     0.0260
  570.0000   -20.1270     5.0320     5.6340   104.6790     7.5560     2.4700     0.1360     0.0290
  570.5000   -19.7590     5.2140     5.4650   100.1580     7.5590     2.4710     0.1250     0.0060
  571.0000   -19.4070     5.2500     5.2990    93.8610     7.5620     2.4730     0.1150     0.0000
  571.5000   -18.8970     5.1080     5.5100    87.5680     7.5640     2.4840     0.1090     0.0090
  572.0000   -18.9310     5.8030     5.8580    82.4370     7.5420     2.4940     0.1130     0.0050
  572.5000   -18.9510     6.3800     6.2060    81.0000     7.5200     2.4950     0.1160    -0.0030
  573.0000   -18.9710     6.9560     6.5540    81.4080     7.5040     2.4880     0.1150    -0.0020
  573.5000   -18.9920     7.5330     6.9020    82.3610     7.5010     2.4890     0.1140     0.0010
  574.0000   -19.0130     8.1620     7.2430    79.4520     7.4970     2.4890     0.1160    -0.0020
  574.5000   -19.0350     8.3900     7.3170    76.4080     7.4940     2.4820     0.1180    -0.0050
  575.0000   -19.0570     8.2900     7.3900    73.7840     7.4900     2.4750     0.1200    -0.0080
  575.5000   -19.0790     8.1290     7.4630    73.6830     7.4860     2.4780     0.1220    -0.0110
  576.0000   -19.0990     7.9680     7.5360    75.9370     7.4490     2.4730     0.1240    -0.0130
  576.5000   -19.0860     7.9400     7.6090    78.1800     7.2940     2.4670     0.1240    -0.0090
