~VERSION INFORMATION
 VERS.                2.0:   CWLS LOG ASCII STANDARD - VERSION 2.0
 WRAP.                 NO:   ONE LINE PER DEPTH STEP
~WELL INFORMATION
#MNEM.UNIT      DATA TYPE    INFORMATION
#----------   ------------   ------------------------------
 STRT.F           21.0000:   START DEPTH
 STOP.F          543.0000:   STOP DEPTH
 STEP.F            0.5000:   STEP LENGTH
 NULL.          -999.2500:   NO VALUE
 COMP. FENIX & SCISSON INC:   COMPANY
 WELL.      NPR #3 #46-10:   WELL
 FLD .             TEAPOT:   FIELD
 LOC .      S10 T38N R78W:   LOCATION
 CNTY.            NATRONA:   COUNTY
 STAT.            WYOMING:   STATE
 CTRY. UNITED STATES OF AMERICA:   COUNTRY
 SRVC.              Welex:   SERVICE COMPANY
 DATE.        08-MAY-1980:   LOGDATE
 API .       490251081100:   API NUMBER
~CURVE INFORMATION
#MNEM.UNIT       API CODE    CURVE DESCRIPTION
#----------   ------------   ------------------------------
 DEPT.F                  :   
 SGRD.OHMM   07 220 05 00:   SHALLOW GUARD RESISTIVITY
 ILD .OHMM   07 120 46 00:   INDUCTION LOG DEEP RESISTIVITY
 ILM .OHMM   07 120 44 00:   INDUCTION LOG MEDIUM
 SPR .MV     07 010 01 00:   SPONTANEOUS POTENTIAL
 CALD.IN     45 280 60 00:   CALIPER
 GRD .GAPI   45 310 01 00:   GAMMA RAY FROM DENSITY LOG
 CORR.G/C3   45 356 01 00:   DENSITY CORRECTION
 RHOB.G/C3   45 350 01 00:   BULK DENSITY
 DPHI.DEC    45 890 12 00:   DENSITY POROSITY SANDSTONE
~PARAMETER INFORMATION
#MNEM.UNIT          VALUE    DESCRIPTION
#----------   ------------   ------------------------------
 PD  .                 GL:   PERMANENT DATUM
 EPD .F              5206:   ELEVATION PERMANENT DATUM
 LMF .                 KB:   LOG MEASURED FROM
 DAPD.F                 5:   FEET ABOVE PERMANENT DATUM
 DMF .                 KB:   DRILLING MEASURED FROM
 EKB .F              5211:   KELLING BUSHING
 EGL .F              5206:   GROUND LEVEL
 DATE.             5-8-80:   RUN DATE
 RUN .                  1:   RUN NUMBER
 DD  .F               530:   DEPTH DRILLER
 DL  .F               543:   DEPTH LOGGER
 BLI .F               541:   BOTTOM LOG INTERVAL
 TLI .F                30:   TOP LOG INTERVAL
 BS  .IN            7.875:   BIT SIZE
 BSD .F               530:   BIT SIZE AT DEPTH
 DFT .            KCL MUD:   DRILLING FLUID TYPE
 DFD .                9.1:   DRILLING FLUID DENSITY
 DFV .                 43:   DRILLING FLUID VISCOSITY
 MSS .                PIT:   MUD SAMPLE SOURCE
 RMS .OHMM            .89:   RESISTIVITY MUD SAMPLE
 MST .F                75:   MUD SAMPLE TEMPERATURE
 RMF .OHMM            .71:   RESISTIVITY MUD FILTRATE SAMPLE
 MFST.F                75:   MUD FILTRATE SAMPLE TEMPERATURE
 RMC .OHMM           1.08:   RESISTIVITY MUD CAKE
 MCST.F                75:   MUD CAKE SAMPLE TEMPERATURE
 MFSS.           MEASURED:   MUD FILTRATE SAMPLE SOURCE
 MCSS.           MEASURED:   MUD CAKE SAMPLE SOURCE
 BHT .F               100:   BOTTOM HOLE TEMPERATURE
 TCS .HRS               2:   TIME CURCULATED STOPPED
 MRT .F               100:   MAXIMUM RECORDED TEMPERATURE
 LUN .               9685:   LOGGING UNIT NUMBER
 LUL .             CASPER:   LOGGING UNIT LOCATION
 ENGI.            TOTHILL:   RECORDING ENGINEER
 WITN.              AMEND:   WITNESSED BY
 CLNT.            A2DTECH:   CLIENT CODE
 ORIG.           5" PRINT:   ORIGIN OF DATA
 UWI .       490251081100:   UNIQUE WELL ID
 DICO. A2D Technologies, Inc.:   DIGITIZING COMPANY
~OTHER INFORMATION
~A   DEPT     SGRD        ILD        ILM        SPR        CALD        GRD        CORR       RHOB     DPHI   
# ...
   94.0000    11.0860     7.7378     9.6244   -33.9052     7.8149   110.6109     0.0371     2.4518     0.1402
   94.5000    10.9653     7.6668     9.5853   -33.2438     7.8055   110.4849     0.0520     2.4750     0.1225
   95.0000    10.8834     7.3303     9.4911   -33.4924     7.7961   110.3286     0.0487     2.4723     0.1193
   95.5000    10.8834     7.1163     9.3450   -33.8682     7.7867   110.3291     0.0395     2.4538     0.1315
   96.0000    10.5904     7.1285     9.1993   -34.2453     7.7810   110.3336     0.0294     2.4347     0.1417
   96.5000    10.4101     6.8622     9.0561   -34.6428     7.7909   109.9824     0.0218     2.4190     0.1506
   97.0000    10.2032     6.6536     8.9152   -34.9372     7.8005   109.4374     0.0176     2.4089     0.1578
   97.5000    10.1096     6.4469     8.7231   -34.9259     7.8101   109.1396     0.0133     2.4000     0.1641
   98.0000    10.0168     6.2593     8.6430   -34.9267     7.8197   108.5154     0.0091     2.3881     0.1677
   98.5000    10.0145     6.1449     8.4851   -34.8758     7.8292   107.5993     0.0055     2.3825     0.1761
   99.0000    10.0158     6.0885     8.5279   -34.7317     7.8388   106.6913     0.0107     2.3881     0.1746
   99.5000    10.2201     6.0327     8.5742   -34.7264     7.8486   105.5444     0.0166     2.4030     0.1650
  100.0000    10.3725     6.1449     8.6207   -34.7325     7.8589   104.4042     0.0279     2.4199     0.1555
  100.5000    10.5268     6.2071     8.7018   -34.6787     7.8217   104.4860     0.0335     2.4399     0.1445
  101.0000    10.6846     6.2593     8.8155   -34.5482     7.8338   104.5237     0.0307     2.4352     0.1420
  101.5000    10.7889     6.2593     8.9307   -34.3262     7.8447   103.4122     0.0250     2.4196     0.1495
  102.0000    10.7856     6.4011     9.0474   -34.3204     7.8562   102.3678     0.0193     2.4104     0.1577
  102.5000    10.6839     6.5861     9.1656   -34.2225     7.8588   101.6330     0.0148     2.4027     0.1636
  103.0000    10.6845     6.7765     9.2192   -34.1305     7.8589   101.7641     0.0111     2.3949     0.1685
  103.5000    10.6854     6.9725     9.1651   -34.0384     7.8589   102.7172     0.0074     2.3867     0.1734
  104.0000    10.6869     7.1226     9.0508   -33.9462     7.8589   102.5512     0.0080     2.3866     0.1747
  104.5000    10.5483     7.1224     9.0529   -33.8541     7.8589   103.2474     0.0122     2.3983     0.1673
  105.0000    10.3931     7.1217     9.0501   -33.7619     7.8589   103.5130     0.0163     2.4048     0.1620
  105.5000    10.5230     7.1217     9.2230   -33.6698     7.8589   103.7484     0.0205     2.4051     0.1624
  106.0000    10.7836     7.1218     9.0958   -33.5776     7.8588   103.7416     0.0248     2.4038     0.1629
  106.5000    10.6471     7.1220     8.9591   -33.4855     7.8590   103.7420     0.0229     2.3962     0.1656
  107.0000    10.4903     7.0796     8.7990   -33.3932     7.8485   103.8681     0.0193     2.3864     0.1721
  107.5000    10.3931     6.9526     8.8002   -33.3013     7.8309   104.6328     0.0196     2.3876     0.1734
  108.0000    10.3931     6.9274     8.8039   -33.2084     7.8133   105.4034     0.0205     2.3921     0.1695
  108.5000    10.3931     6.9646     8.9337   -33.1954     7.7977   105.6457     0.0193     2.3922     0.1695
  109.0000    10.4894     7.0089     9.0265   -33.2341     7.7919   105.9243     0.0182     2.3957     0.1682
  109.5000    10.6875     7.0535     9.1202   -33.2740     7.7859   106.2501     0.0151     2.3865     0.1725
  110.0000    10.9044     7.0984     9.2150   -33.3139     7.7798   106.8219     0.0111     2.3788     0.1772
  110.5000    10.9842     7.1436     9.3046   -33.3536     7.7737   107.3872     0.0093     2.3802     0.1771
  111.0000    10.7211     7.1893     9.3908   -33.3934     7.7674   107.9507     0.0121     2.3915     0.1720
  111.5000    10.5428     7.2540     9.3066   -33.4331     7.7621   108.5255     0.0150     2.3987     0.1664
  112.0000    10.3675     7.2203     9.1509   -33.4729     7.7474   109.0779     0.0184     2.4025     0.1612
  112.5000    10.2032     7.1602     8.9977   -33.5128     7.7927   108.2763     0.0203     2.4122     0.1584
  113.0000    10.1096     7.1013     8.8472   -33.5534     7.8355   108.6211     0.0195     2.4125     0.1581
  113.5000    10.0132     7.0428     8.6430   -33.5593     7.8555   109.0254     0.0184     2.4100     0.1592
  114.0000    10.0953     6.9848     8.6430   -33.4988     7.8475   108.1274     0.0124     2.4032     0.1647
  114.5000    10.2024     6.9274     8.7386   -33.3633     7.8399   107.6021     0.0064     2.3913     0.1700
  115.0000    10.3103     6.8703     8.8364   -33.2284     7.8389   106.5259     0.0072     2.3897     0.1723
  115.5000    10.4195     6.8638     8.9677   -33.0925     7.8389   106.3073     0.0077     2.3944     0.1685
  116.0000    10.4900     6.8638     8.9677   -32.9600     7.8396   106.5281     0.0101     2.3982     0.1667
  116.5000    10.3149     6.8638     8.9535   -32.8360     7.8517   106.7235     0.0151     2.4198     0.1570
  117.0000    10.2032     6.8638     8.9296   -32.5955     7.8636   106.5043     0.0244     2.4313     0.1479
  117.5000    10.3411     6.8638     8.9057   -32.5876     7.8758   106.2869     0.0270     2.4380     0.1419
  118.0000    10.3931     6.8638     8.8039   -32.5873     7.8787   105.6780     0.0277     2.4335     0.1448
  118.5000    10.2032     6.8638     8.8012   -32.5855     7.8788   105.1346     0.0348     2.4434     0.1376
  119.0000    10.3371     6.8638     8.8061   -32.7335     7.8787   105.4680     0.0373     2.4515     0.1352
  119.5000    10.3931     6.8638     8.8104   -32.7816     7.8787   105.8295     0.0300     2.4362     0.1407
  120.0000    10.2126     6.8639     8.8137   -32.7826     7.8787   106.4234     0.0262     2.4200     0.1500
  120.5000    10.1096     6.8637     8.8169   -32.7822     7.8788   107.0537     0.0260     2.4282     0.1534
  121.0000    10.3419     6.8653     8.8202   -32.7821     7.8787   107.3650     0.0273     2.4272     0.1486
  121.5000    10.4894     6.8231     8.8235   -32.7821     7.8783   107.4327     0.0275     2.4271     0.1489
  122.0000    10.3305     6.7607     8.8268   -32.7821     7.8582   107.4956     0.0340     2.4419     0.1421
  122.5000    10.2032     6.6989     8.8300   -32.7821     7.8248   107.5574     0.0293     2.4333     0.1400
  123.0000    10.1096     6.6376     8.8333   -32.7821     7.8434   107.6158     0.0227     2.4195     0.1524
  123.5000    10.1154     6.5750     8.8366   -32.7821     7.8609   107.9276     0.0245     2.4198     0.1533
  124.0000    10.1246     6.5119     8.8399   -32.7821     7.8782   108.2728     0.0178     2.4117     0.1535
  124.5000    10.1338     6.4495     8.8432   -32.7821     7.8788   108.4541     0.0107     2.3978     0.1657
  125.0000    10.1431     6.3875     8.8464   -32.7821     7.8788   108.7437     0.0121     2.4039     0.1628
  125.5000    10.1523     6.3263     8.8497   -32.7821     7.8788   109.7374     0.0133     2.4019     0.1636
  126.0000    10.1615     6.3035     8.8530   -32.7821     7.8781   110.8591     0.0146     2.4041     0.1634
  126.5000    10.1708     6.2876     8.8563   -32.7820     7.8604   111.5564     0.0125     2.3939     0.1663
  127.0000    10.1800     6.2717     8.8596   -32.7808     7.8421   111.6669     0.0039     2.3779     0.1774
  127.5000    10.1893     6.2558     8.8629   -32.8346     7.8326   111.7800     0.0059     2.3723     0.1803
  128.0000    10.1986     6.2400     8.8661   -32.9022     7.8249   111.5033     0.0139     2.3926     0.1727
  128.5000    10.2117     6.2242     8.8694   -32.9688     7.8190   110.7482     0.0214     2.4111     0.1597
  129.0000    10.2287     6.2085     8.8727   -32.9793     7.8195   109.9936     0.0191     2.4051     0.1572
  129.5000    10.2457     6.2017     8.8760   -33.1342     7.8046   109.1153     0.0162     2.4079     0.1623
  130.0000    10.2628     6.2025     8.8793   -33.3069     7.8142   107.6996     0.0176     2.4154     0.1565
