~VERSION INFORMATION
 VERS.                2.0:   CWLS LOG ASCII STANDARD - VERSION 2.0
 WRAP.                 NO:   ONE LINE PER DEPTH STEP
~WELL INFORMATION
#MNEM.UNIT      DATA TYPE    INFORMATION
#----------   ------------   ------------------------------
 STRT.F            0.0000:   START DEPTH
 STOP.F          551.0000:   STOP DEPTH
 STEP.F            0.1000:   STEP LENGTH
 NULL.          -999.2500:   NO VALUE
 COMP.       F D SERV INC:   COMPANY
 WELL.    62-2 SX-3 #62-3:   WELL
 FLD .          N.P.R. #3:   FIELD
 LOC .       S3 T38N R78W:   LOCATION
 CNTY.            NATRONA:   COUNTY
 STAT.            WYOMING:   STATE
 CTRY. UNITED STATES OF AMERICA:   COUNTRY
 SRVC.     Atlas Wireline:   SERVICE COMPANY
 DATE.        17-APR-1992:   LOGDATE
 API .       490252250700:   API NUMBER
~CURVE INFORMATION
#MNEM.UNIT       API CODE    CURVE DESCRIPTION
#----------   ------------   ------------------------------
 DEPT.F                  :   
 GRR .GAPI   07 310 01 00:   GAMMA RAY
 RILD.OHMM   07 120 46 00:   INDUCTION LOG DEEP RESISTIVITY
 RILM.OHMM   07 120 44 00:   INDUCTION LOG MEDIUM RESISTIVITY
~PARAMETER INFORMATION
#MNEM.UNIT          VALUE    DESCRIPTION
#----------   ------------   ------------------------------
 PD  .                 GL:   PERMANENT DATUM
 EPD .F              5130:   ELEVATION PERMANENT DATUM
 LMF .                 KB:   LOG MEASURED FROM
 DAPD.F                 5:   FEET ABOVE PERMANENT DATUM
 DMF .                 KB:   DRILLING MEASURED FROM
 EKB .F              5135:   KELLING BUSHING
 EDF .F              5134:   DRILLING FLOOR
 EGL .F              5130:   GROUND LEVEL
 DATE.        17-APR-1992:   RUN DATE
 RUN .                  1:   RUN NUMBER
 DD  .F               560:   DEPTH DRILLER
 DL  .F               560:   DEPTH LOGGER
 BLI .F               558:   BOTTOM LOG INTERVAL
 CS  .IN            8.625:   CASING SIZE
 CBD .F                47:   CASING BOTTOM DRILLER
 CBL .F                50:   CASING BOTTOM LOGGER
 BS  .IN            7.875:   BIT SIZE
 BSD .F               560:   BIT SIZE AT DEPTH
 DFT .                AIR:   DRILLING FLUID TYPE
 TCS .HRS               2:   TIME CURCULATED STOPPED
 MRT .F                83:   MAXIMUM RECORDED TEMPERATURE
 LUN .           HL- 6274:   LOGGING UNIT NUMBER
 LUL .             CASPER:   LOGGING UNIT LOCATION
 ENGI.            LEBSOCK:   RECORDING ENGINEER
 WITN.        GARY STRONG:   WITNESSED BY
 CLNT.            A2DTECH:   CLIENT CODE
 ORIG.           5" PRINT:   ORIGIN OF DATA
 UWI .       490252250700:   UNIQUE WELL ID
 DICO. A2D Technologies, Inc.:   DIGITIZING COMPANY
~OTHER INFORMATION
~A    DEPT      GRR      RILD       RILM   
# ...
  273.0000   137.4747     7.9566     7.6104
  273.1000   138.0442     7.9571     7.5148
  273.2000   138.6773     7.9377     7.4774
  273.3000   139.1130     7.8932     7.4080
  273.4000   139.2666     7.8482     7.3420
  273.5000   139.3111     7.8049     7.3006
  273.6000   139.5779     7.7612     7.2577
  273.7000   139.5818     7.7407     7.2186
  273.8000   139.5861     7.7154     7.1780
  273.9000   139.7072     7.6313     7.1576
  274.0000   139.8971     7.5816     7.1471
  274.1000   139.9014     7.5460     7.1081
  274.2000   139.9056     7.5037     7.1084
  274.3000   140.1034     7.4617     7.1085
  274.4000   140.2167     7.4197     7.0859
  274.5000   140.3017     7.3748     7.0595
  274.6000   140.6009     7.3369     7.0596
  274.7000   141.4402     7.2673     7.0598
  274.8000   142.0852     7.2043     7.0251
  274.9000   142.8277     7.1639     6.9856
  275.0000   143.5703     7.1236     6.9624
  275.1000   144.3127     7.0838     6.9556
  275.2000   145.0919     7.0133     6.9143
  275.3000   145.5637     6.9771     6.9145
  275.4000   146.0603     6.9653     6.8589
  275.5000   146.4357     6.9294     6.8002
  275.6000   146.6860     6.9300     6.7620
  275.7000   146.9282     6.8968     6.7230
  275.8000   146.9333     6.8582     6.6475
  275.9000   146.7390     6.8046     6.5727
  276.0000   146.6384     6.7218     6.5192
  276.1000   146.5580     6.6009     6.4825
  276.2000   146.3438     6.5663     6.4459
  276.3000   146.3491     6.5295     6.4047
  276.4000   146.1349     6.4755     6.3736
  276.5000   145.8931     6.4026     6.3605
  276.6000   145.7561     6.3305     6.3319
  276.7000   145.7603     6.2594     6.2665
  276.8000   145.7647     6.2166     6.2290
  276.9000   145.7688     6.1429     6.1962
  277.0000   145.7730     6.0616     6.1613
  277.1000   145.9023     6.0176     6.1266
  277.2000   146.1527     5.8650     6.0921
  277.3000   146.4030     5.8078     6.0578
  277.4000   146.6985     5.7012     6.0237
  277.5000   147.1055     5.5860     5.9373
  277.6000   147.4566     5.4973     5.8734
  277.7000   147.6181     5.4323     5.8195
  277.8000   147.6546     5.3742     5.7241
  277.9000   147.9296     5.3138     5.6502
  278.0000   147.9334     5.2540     5.5960
  278.1000   147.7722     5.1949     5.5525
  278.2000   147.3124     5.1373     5.5335
  278.3000   146.5785     5.1029     5.5336
  278.4000   145.8324     5.1032     5.5338
  278.5000   145.3525     5.1035     5.5049
  278.6000   144.8648     5.1038     5.5173
  278.7000   144.3768     5.1076     5.5342
  278.8000   143.8162     5.1405     5.5343
  278.9000   143.1143     5.1668     5.5345
  279.0000   142.8328     5.1966     5.5347
  279.1000   142.4247     5.2267     5.5591
  279.2000   142.2354     5.2569     5.5738
  279.3000   142.3324     5.2882     5.5837
  279.4000   142.5829     5.3472     5.6156
  279.5000   142.8536     5.3861     5.6528
  279.6000   143.3094     5.4173     5.6801
  279.7000   144.1449     5.4573     5.6927
  279.8000   144.9074     5.5185     5.7052
  279.9000   145.2908     5.5562     5.7378
  280.0000   145.2950     5.6087     5.7733
  280.1000   145.0533     5.6734     5.8036
  280.2000   144.6218     5.7268     5.8368
  280.3000   144.2669     5.7686     5.8702
  280.4000   144.0251     5.8781     5.9113
  280.5000   143.7629     5.9088     5.9794
  280.6000   143.2030     5.9658     6.0134
  280.7000   142.9968     6.0193     6.0478
  280.8000   142.4485     6.0615     6.1008
  280.9000   141.9081     6.1323     6.1600
  281.0000   141.5855     6.2019     6.1952
  281.1000   140.8033     6.2734     6.2365
  281.2000   140.5773     6.3457     6.2961
  281.3000   140.5090     6.4079     6.3463
  281.4000   140.3963     6.4473     6.3962
  281.5000   140.1543     6.5338     6.4694
  281.6000   139.9125     6.5654     6.5501
  281.7000   139.6706     6.6034     6.5842
  281.8000   139.4287     6.6415     6.6474
  281.9000   139.3241     6.6799     6.7063
  282.0000   139.3283     6.7217     6.7529
  282.1000   139.3082     6.7573     6.8315
  282.2000   139.0347     6.8502     6.9084
  282.3000   138.8246     6.9503     6.9280
  282.4000   138.7401     7.0303     6.9693
  282.5000   138.7443     7.1112     7.0374
  282.6000   138.8372     7.1932     7.0777
  282.7000   139.3581     7.2441     7.1253
  282.8000   139.3622     7.3086     7.1926
  282.9000   139.7214     7.3665     7.2503
  283.0000   140.2179     7.3740     7.2917
  283.1000   140.7788     7.4715     7.3280
  283.2000   141.5134     7.5083     7.3283
  283.3000   142.1073     7.5517     7.3659
  283.4000   142.9015     7.5783     7.3801
  283.5000   143.8900     7.5859     7.3986
  283.6000   144.7937     7.6326     7.4408
  283.7000   145.5082     7.6331     7.4845
  283.8000   146.0616     7.6336     7.4847
  283.9000   146.0654     7.6549     7.5165
  284.0000   146.0696     7.6883     7.5376
  284.1000   145.9690     7.6896     7.5379
  284.2000   145.7271     7.7340     7.5401
  284.3000   145.4773     7.7439     7.5912
  284.4000   145.4814     7.7445     7.5914
  284.5000   145.3041     7.7596     7.5916
  284.6000   145.0622     7.8000     7.5918
  284.7000   144.8890     7.8006     7.5920
  284.8000   144.9053     7.8011     7.5922
  284.9000   145.2008     7.8301     7.6308
  285.0000   145.4060     7.8569     7.6459
  285.1000   145.6563     7.8575     7.6646
  285.2000   145.9954     7.8581     7.6999
  285.3000   146.4595     7.9013     7.7002
  285.4000   146.7345     7.9144     7.7426
  285.5000   147.1819     7.9371     7.7546
  285.6000   147.6785     7.9710     7.7548
  285.7000   147.9571     7.9716     7.7669
  285.8000   148.0137     7.9723     7.8096
  285.9000   148.2681     8.0093     7.8099
  286.0000   148.0303     8.0293     7.8458
  286.1000   147.4176     8.0299     7.8650
  286.2000   146.9415     8.0305     7.8805
  286.3000   146.6269     8.0310     7.9256
  286.4000   146.1550     8.0315     7.9764
  286.5000   145.8736     8.0321     7.9766
  286.6000   145.6713     8.0326     7.9769
  286.7000   145.5788     8.0332     7.9960
  286.8000   145.5831     8.0338     8.0332
  286.9000   145.6235     8.0344     8.0335
  287.0000   145.8945     8.0349     8.0337
  287.1000   146.1243     8.0355     8.0339
  287.2000   146.3746     8.0361     8.0341
  287.3000   146.6250     8.0366     8.0344
  287.4000   146.8188     8.0373     8.0346
  287.5000   146.8230     8.0378     8.0349
  287.6000   147.0733     8.0383     7.9990
  287.7000   147.1341     8.0389     7.9793
  287.8000   147.1383     8.0394     7.9795
  287.9000   147.1425     8.0400     7.9797
  288.0000   147.1467     8.0405     7.9800
  288.1000   147.1516     8.0411     7.9410
  288.2000   147.1552     8.0417     7.8963
  288.3000   147.1594     8.0422     7.8699
  288.4000   147.1637     8.0428     7.8624
  288.5000   147.1679     8.0434     7.8155
  288.6000   147.1724     8.0095     7.7741
  288.7000   147.1763     7.9884     7.7615
  288.8000   147.0070     7.9890     7.7617
  288.9000   146.8823     7.9895     7.7511
  289.0000   146.8865     7.9901     7.7074
  289.1000   146.8907     7.9527     7.6640
  289.2000   146.6449     7.9354     7.6549
  289.3000   146.5966     7.9360     7.6311
  289.4000   146.4637     7.9300     7.6020
  289.5000   146.2218     7.8818     7.5983
  289.6000   145.9798     7.8823     7.5495
  289.7000   145.7065     7.8829     7.5497
  289.8000   145.4964     7.8629     7.5499
  289.9000   145.2545     7.8289     7.5501
  290.0000   145.1134     7.8295     7.5574
  290.1000   145.1177     7.8301     7.6035
  290.2000   145.1221     7.8306     7.6037
  290.3000   145.1262     7.8312     7.6039
  290.4000   145.3079     7.8317     7.6041
  290.5000   145.5582     7.8322     7.6043
  290.6000   145.7440     7.8329     7.6045
  290.7000   145.7564     7.8334     7.6047
  290.8000   146.0559     7.8339     7.6385
  290.9000   146.0593     7.8344     7.6538
  291.0000   146.2047     7.8350     7.6454
  291.1000   146.4550     7.8356     7.6370
