~VERSION INFORMATION
 VERS.                2.0:   CWLS LOG ASCII STANDARD - VERSION 2.0
 WRAP.                 NO:   ONE LINE PER DEPTH STEP
~WELL INFORMATION
#MNEM.UNIT      DATA TYPE    INFORMATION
#----------   ------------   ------------------------------
 STRT.F           12.5000:   START DEPTH
 STOP.F          604.0000:   STOP DEPTH
 STEP.F            0.5000:   STEP LENGTH
 NULL.          -999.2500:   NO VALUE
 COMP. FENIX & SCISSON INC:   COMPANY
 WELL.   SX-3 NPR 3 #61-3:   WELL
 FLD .             TEAPOT:   FIELD
 LOC .       S3 T38N R78W:   LOCATION
 CNTY.            NATRONA:   COUNTY
 STAT.            WYOMING:   STATE
 CTRY. UNITED STATES OF AMERICA:   COUNTRY
 SRVC.           BIRDWELL:   SERVICE COMPANY
 DATE.        03-DEC-1978:   LOGDATE
 API .       490251074100:   API NUMBER
~CURVE INFORMATION
#MNEM.UNIT       API CODE    CURVE DESCRIPTION
#----------   ------------   ------------------------------
 DEPT.F                  :   
 SPR .MV     05 010 01 00:   SPONTANEOUS POTENTIAL FROM RES.
 SN  .OHMM   05 040 16 00:   SHORT NORMAL 16"
 IL  .OHMM   05 120 00 00:   INDUCTION LOG
 CALD.IN     45 280 60 00:   CALIPER
 GRD .GAPI   45 310 01 00:   GAMMA RAY FROM DENSITY LOG
 DEN .G/C3   45 350 01 00:   COMPENSATED BULK DENSTIY
 CORR.G/C3   45 356 01 00:   DENSITY CORRECTION
 DPHI.DEC    45 890 12 00:   DENSITY POROSITY SANDSTONE
~PARAMETER INFORMATION
#MNEM.UNIT          VALUE    DESCRIPTION
#----------   ------------   ------------------------------
 PD  .                 GL:   PERMANENT DATUM
 EPD .F              5099:   ELEVATION PERMANENT DATUM
 LMF .                 KB:   LOG MEASURED FROM
 DAPD.F                 4:   FEET ABOVE PERMANENT DATUM
 DMF .                 KB:   DRILLING MEASURED FROM
 EKB .F              5103:   KELLING BUSHING
 EGL .F              5099:   GROUND LEVEL
 DATE.            12-3-78:   RUN DATE
 RUN .                  1:   RUN NUMBER
 DD  .F               615:   DEPTH DRILLER
 DL  .F               604:   DEPTH LOGGER
 BLI .F               598:   BOTTOM LOG INTERVAL
 TLI .F                40:   TOP LOG INTERVAL
 CS  .IN            8.625:   CASING SIZE
 CBL .F                35:   CASING BOTTOM LOGGER
 BS  .IN            7.875:   BIT SIZE
 BSD .F               615:   BIT SIZE AT DEPTH
 DFT .                KCL:   DRILLING FLUID TYPE
 DFD .                8.8:   DRILLING FLUID DENSITY
 DFV .                 42:   DRILLING FLUID VISCOSITY
 DFPH.               12.2:   DRILLING FLUID PH
 DFL .                 10:   DRILLING FLUID LOSS
 MSS .           FLOWLINE:   MUD SAMPLE SOURCE
 RMS .OHMM            .24:   RESISTIVITY MUD SAMPLE
 MST .F                58:   MUD SAMPLE TEMPERATURE
 RMF .OHMM             .3:   RESISTIVITY MUD FILTRATE SAMPLE
 MFST.F                54:   MUD FILTRATE SAMPLE TEMPERATURE
 RMC .OHMM            .34:   RESISTIVITY MUD CAKE
 MCST.F                56:   MUD CAKE SAMPLE TEMPERATURE
 MFSS.           MEASURED:   MUD FILTRATE SAMPLE SOURCE
 MCSS.           MEASURED:   MUD CAKE SAMPLE SOURCE
 RMB .OHMM            .27:   RESISTIVITY MUD AT BHT
 BHT .F                56:   BOTTOM HOLE TEMPERATURE
 TCS .HRS               3:   TIME CURCULATED STOPPED
 MRT .F                52:   MAXIMUM RECORDED TEMPERATURE
 LUN .               2958:   LOGGING UNIT NUMBER
 LUL .                CPR:   LOGGING UNIT LOCATION
 ENGI.            ROLLINS:   RECORDING ENGINEER
 WITN.              AMEND:   WITNESSED BY
 CLNT.            A2DTECH:   CLIENT CODE
 ORIG.       2", 5" PRINT:   ORIGIN OF DATA
 UWI .       490251074100:   UNIQUE WELL ID
 DICO. A2D Technologies, Inc.:   DIGITIZING COMPANY
~OTHER INFORMATION
~A   DEPT      SPR         SN         IL       CALD         GRD       DEN       CORR       DPHI   
# ...
  134.0000   -49.5851     9.3166     8.2365     8.0809   107.9587     2.4717     0.0131     0.1337
  134.5000   -50.1622     9.3211     8.2501     8.0808   105.0698     2.4714     0.0068     0.1336
  135.0000   -50.7409     9.3257     8.2638     8.0808   103.9866     2.4710     0.0040     0.1354
  135.5000   -51.2968     9.3302     8.2775     8.0808   104.5209     2.4687     0.0051     0.1368
  136.0000   -51.4671     9.3348     8.2912     8.0808   106.9555     2.4662     0.0062     0.1354
  136.5000   -51.6217     9.3393     8.3048     8.0808   109.3827     2.4681     0.0073     0.1329
  137.0000   -51.7781     9.3439     8.3193     8.0808   109.6111     2.4733     0.0083     0.1303
  137.5000   -51.9348     9.3484     8.3372     8.0808   109.4058     2.4780     0.0094     0.1302
  138.0000   -52.0915     9.3530     8.3549     8.0808   109.7945     2.4788     0.0105     0.1304
  138.5000   -52.2482     9.3576     8.3726     8.0808   110.3915     2.4796     0.0116     0.1296
  139.0000   -52.4050     9.3621     8.3904     8.0808   110.7873     2.4803     0.0127     0.1259
  139.5000   -52.5617     9.3667     8.4082     8.0808   110.5158     2.4813     0.0133     0.1217
  140.0000   -52.7186     9.3711     8.4261     8.0808   109.0012     2.4888     0.0121     0.1176
  140.5000   -52.8754     9.3744     8.4440     8.0808   105.9012     2.4962     0.0110     0.1159
  141.0000   -53.0312     9.4275     8.4619     8.0808   103.9610     2.5011     0.0099     0.1179
  141.5000   -53.0798     9.4882     8.5156     8.0808   103.7579     2.4968     0.0088     0.1231
  142.0000   -53.0122     9.5493     8.6030     8.0808   103.3812     2.4900     0.0077     0.1264
  142.5000   -52.9450     9.6108     8.6913     8.0808   102.4851     2.4842     0.0066     0.1268
  143.0000   -52.8773     9.6727     8.7806     8.0808   101.5607     2.4813     0.0055     0.1283
  143.5000   -52.8099     9.7350     8.8708     8.0808   101.4154     2.4763     0.0044     0.1338
  144.0000   -52.7425     9.7978     8.9618     8.0801   103.2133     2.4696     0.0037     0.1380
  144.5000   -52.6750     9.8468     9.0539     8.0781   106.3764     2.4629     0.0049     0.1395
  145.0000   -52.6076     9.8887     9.1468     8.0761   109.5998     2.4619     0.0073     0.1344
  145.5000   -52.5401     9.9306     9.2408     8.0742   109.5966     2.4670     0.0110     0.1296
  146.0000   -52.4730     9.9733     9.3356     8.0722   108.9750     2.4739     0.0148     0.1247
  146.5000   -52.4052    10.0279     9.4315     8.0703   109.4294     2.4808     0.0141     0.1224
  147.0000   -52.3395    10.1181     9.5283     8.0683   109.7157     2.4878     0.0123     0.1224
  147.5000   -52.0647    10.2082     9.6262     8.0663   108.6762     2.4892     0.0104     0.1233
  148.0000   -51.6448    10.2991     9.7250     8.0644   108.7439     2.4882     0.0087     0.1241
  148.5000   -51.2227    10.3907     9.8249     8.0625   110.5441     2.4871     0.0075     0.1249
  149.0000   -50.8006    10.4832     9.9258     8.0577   111.9951     2.4858     0.0075     0.1266
  149.5000   -50.3788    10.5765    10.0277     8.0408   111.6909     2.4796     0.0076     0.1312
  150.0000   -49.9570    10.6707    10.1308     8.0242   111.3621     2.4732     0.0097     0.1357
  150.5000   -49.5351    10.7657    10.2340     8.0076   113.0607     2.4668     0.0123     0.1384
  151.0000   -49.1130    10.8615    10.3661     7.9912   117.2172     2.4643     0.0180     0.1305
  151.5000   -48.6919    10.9582    10.5215     7.9814   119.7090     2.4735     0.0205     0.1224
  152.0000   -48.2678    11.0558    10.6800     7.9826   117.8472     2.4831     0.0180     0.1233
  152.5000   -48.0950    11.1542    10.8408     7.9837   115.9829     2.4897     0.0156     0.1240
  153.0000   -48.0916    11.2535    11.0040     7.9848   115.5574     2.4876     0.0134     0.1234
  153.5000   -48.0915    11.3537    11.1696     7.9859   114.1451     2.4871     0.0133     0.1181
  154.0000   -48.0871    11.4548    11.3377     7.9870   113.5242     2.4947     0.0132     0.1136
  154.5000   -48.2737    11.5568    11.5087     7.9881   113.2673     2.5020     0.0130     0.1152
  155.0000   -48.4891    11.6596    11.5966     7.9892   110.6862     2.5029     0.0129     0.1170
  155.5000   -48.7049    11.7634    11.5968     7.9903   107.7029     2.4980     0.0127     0.1174
  156.0000   -48.9201    11.8235    11.5740     7.9914   104.7121     2.4957     0.0126     0.1172
  156.5000   -49.1354    11.8441    11.5075     7.9925   101.7235     2.4977     0.0124     0.1170
  157.0000   -49.3509    11.8648    11.4413     7.9936    98.6872     2.4996     0.0123     0.1169
  157.5000   -49.5642    11.8855    11.3754     7.9947    98.1567     2.5010     0.0121     0.1177
  158.0000   -49.7003    11.9061    11.3100     7.9958    99.2850     2.5008     0.0120     0.1205
  158.5000   -49.6986    11.9219    11.2449     7.9969   101.4893     2.4964     0.0118     0.1245
  159.0000   -49.6990    11.8257    11.1803     7.9980   103.6128     2.4901     0.0116     0.1285
  159.5000   -49.6988    11.7483    11.1159     7.9991   105.3506     2.4837     0.0114     0.1319
  160.0000   -49.6988    11.6713    11.0521     8.0002   106.2645     2.4774     0.0153     0.1331
  160.5000   -49.6988    11.5948    10.9701     7.9992   111.9930     2.4718     0.0182     0.1344
  161.0000   -49.6988    11.5188    10.9718     7.9907   117.8934     2.4682     0.0196     0.1353
  161.5000   -49.6988    11.4434    10.9711     7.9824   117.5316     2.4676     0.0211     0.1364
  162.0000   -49.6988    11.3684    10.9711     7.9742   112.5688     2.4672     0.0225     0.1387
  162.5000   -49.6988    11.2939    10.9709     7.9656   108.9888     2.4643     0.0234     0.1417
  163.0000   -49.6988    11.2624    10.9717     7.9437   105.6600     2.4586     0.0295     0.1444
  163.5000   -49.6988    11.2414    10.9409     7.9023   105.8946     2.4533     0.0426     0.1367
  164.0000   -49.6988    11.2205    10.9039     7.8609   107.1073     2.4623     0.0560     0.1288
  164.5000   -49.6988    11.1996    10.8673     7.8572   107.0861     2.4761     0.0693     0.1268
  165.0000   -49.6984    11.1787    10.8308     7.8863   106.9511     2.4822     0.0818     0.1241
  165.5000   -49.6987    11.1579    10.7944     7.9159   108.3527     2.4869     0.0899     0.1208
  166.0000   -49.7234    11.1370    10.7581     7.9455   110.1117     2.4908     0.0922     0.1286
  166.5000   -49.8332    11.1163    10.7220     7.9752   110.5120     2.4793     0.0944     0.1369
  167.0000   -49.9389    11.0956    10.6860     8.0018   110.6835     2.4657     0.1119     0.1403
  167.5000   -50.0448    11.0749    10.6501     7.9991   110.8484     2.4644     0.1373     0.1252
  168.0000   -50.1503    11.0542    10.6143     7.9933   110.8645     2.4924     0.1571     0.1147
  168.5000   -50.2565    11.0336    10.5786     7.9875   110.6138     2.5174     0.1400     0.1042
  169.0000   -50.3005    11.0131    10.5431     7.9818   110.5218     2.5238     0.1088     0.1020
  169.5000   -50.3014    10.9925    10.5077     7.9760   112.5816     2.5240     0.0777     0.1071
  170.0000   -50.3013    10.9720    10.4724     7.9703   114.9133     2.5132     0.0512     0.1167
  170.5000   -50.3012    10.9516    10.4372     7.9653   116.0996     2.4991     0.0360     0.1264
  171.0000   -50.3012    10.9312    10.4021     7.9841   114.3310     2.4847     0.0322     0.1290
  171.5000   -50.3012    10.9108    10.3672     7.9921   112.5808     2.4788     0.0290     0.1294
  172.0000   -50.3012    10.8904    10.3323     8.0008   112.5907     2.4771     0.0257     0.1322
  172.5000   -50.3009    10.8701    10.2976     8.0098   113.5705     2.4746     0.0223     0.1383
  173.0000   -50.3003    10.7746    10.2631     8.0188   114.5165     2.4665     0.0215     0.1440
  173.5000   -50.3030    10.6798    10.2285     8.0278   113.5192     2.4583     0.0215     0.1381
  174.0000   -50.4595    10.5859    10.1942     8.0368   111.2791     2.4634     0.0215     0.1319
