~VERSION INFORMATION
 VERS.                2.0:   CWLS LOG ASCII STANDARD - VERSION 2.0
 WRAP.                 NO:   ONE LINE PER DEPTH STEP
~WELL INFORMATION
#MNEM.UNIT      DATA TYPE    INFORMATION
#----------   ------------   ------------------------------
 STRT.F            3.5000:   START DEPTH
 STOP.F          523.0000:   STOP DEPTH
 STEP.F            0.5000:   STEP LENGTH
 NULL.          -999.2500:   NO VALUE
 COMP.       F D SERV INC:   COMPANY
 WELL.    88-8 SX 3 #88-3:   WELL
 FLD .             TEAPOT:   FIELD
 LOC .       S3 T38N R78W:   LOCATION
 CNTY.            NATRONA:   COUNTY
 STAT.            WYOMING:   STATE
 CTRY. UNITED STATES OF AMERICA:   COUNTRY
 SRVC.      Western Atlas:   SERVICE COMPANY
 DATE.        28-NOV-1992:   LOGDATE
 API .       490252256200:   API NUMBER
~CURVE INFORMATION
#MNEM.UNIT       API CODE    CURVE DESCRIPTION
#----------   ------------   ------------------------------
 DEPT.F                  :   
 GRR .GAPI   07 310 01 00:   GAMMA RAY
 RILD.OHMM   07 120 46 00:   INDUCTION LOG DEEP RESISTIVITY
 RILM.OHMM   07 120 44 00:   RESITIVITY LONG MEDIUM
 C13 .IN     45 280 13 00:   CALIPER X
 PORZ.DEC    45 890 12 00:   DENSITY POROSITY SANDSTONE
 NPHI.DEC    42 890 03 00:   NEUTRON POROSITY SANDSTONE
 ZCOR.G/C3   45 356 01 00:   DENSITY CORRECTION
 ZDEN.G/C3   45 350 01 00:   BULK DENSITY
~PARAMETER INFORMATION
#MNEM.UNIT          VALUE    DESCRIPTION
#----------   ------------   ------------------------------
 PD  .                 GL:   PERMANENT DATUM
 EPD .F              5126:   ELEVATION PERMANENT DATUM
 LMF .                 KB:   LOG MEASURED FROM
 DAPD.F                10:   FEET ABOVE PERMANENT DATUM
 DMF .                 KB:   DRILLING MEASURED FROM
 EKB .F              5136:   KELLING BUSHING
 EDF .F              5135:   DRILLING FLOOR
 EGL .F              5126:   GROUND LEVEL
 DATE.        28-NOV-1992:   RUN DATE
 RUN .                  1:   RUN NUMBER
 DD  .F               525:   DEPTH DRILLER
 DL  .F               525:   DEPTH LOGGER
 BLI .F               516:   BOTTOM LOG INTERVAL
 TLI .F                76:   TOP LOG INTERVAL
 CS  .IN            8.625:   CASING SIZE
 CBD .F                95:   CASING BOTTOM DRILLER
 CBL .F                76:   CASING BOTTOM LOGGER
 BS  .IN            7.875:   BIT SIZE
 BSD .F               525:   BIT SIZE AT DEPTH
 DFT .           AIR FOAM:   DRILLING FLUID TYPE
 MRT .F                70:   MAXIMUM RECORDED TEMPERATURE
 LUN .            HL-6274:   LOGGING UNIT NUMBER
 LUL .             CASPER:   LOGGING UNIT LOCATION
 ENGI.             RAUTIO:   RECORDING ENGINEER
 WITN.           ED REISH:   WITNESSED BY
 CLNT.            A2DTECH:   CLIENT CODE
 ORIG.           5" PRINT:   ORIGIN OF DATA
 UWI .       490252256200:   UNIQUE WELL ID
 DICO. A2D Technologies, Inc.:   DIGITIZING COMPANY
~OTHER INFORMATION
~A    DEPT     GRR       RILD       RILM        C13       PORZ       NPHI       ZCOR       ZDEN   
# ...
  165.5000   128.6145    10.8127    10.8501     8.3193     0.0973     0.2653     0.0439     2.4823
  166.0000   126.8072    10.6654    10.7002     8.3343     0.0988     0.2662     0.0277     2.4733
  166.5000   125.0000    10.4476    10.5479     8.3193     0.1031     0.2743     0.0277     2.4651
  167.0000   126.8072    10.2343    10.3345     8.3042     0.1095     0.2812     0.0322     2.4666
  167.5000   131.3253    10.2359    10.1916     8.3193     0.1109     0.2852     0.0367     2.4711
  168.0000   131.9277    10.1667     9.9814     8.3193     0.1079     0.2873     0.0397     2.4741
  168.5000   130.7229    10.1680     9.9119     8.3193     0.1064     0.2876     0.0427     2.4748
  169.0000   129.5181    10.0995     9.8428     8.3343     0.1055     0.2852     0.0457     2.4756
  169.5000   131.3253     9.9616     9.8422     8.3042     0.1064     0.2834     0.0457     2.4711
  170.0000   133.2128     9.8263     9.8324     8.3193     0.1088     0.2822     0.0427     2.4651
  170.5000   135.5422     9.6928     9.6383     8.3042     0.1124     0.2837     0.0307     2.4553
  171.0000   137.9518     9.5605     9.5712     8.3042     0.1157     0.2864     0.0277     2.4500
  171.5000   140.0602     9.4961     9.5045     8.3042     0.1193     0.2882     0.0307     2.4523
  172.0000   140.3615     9.3025     9.3731     8.3193     0.1202     0.2888     0.0337     2.4470
  172.5000   136.1446     9.3035     9.3078     8.3343     0.1211     0.2891     0.0367     2.4493
  173.0000   131.5783     9.3049     9.1792     8.3343     0.1226     0.2891     0.0382     2.4523
  173.5000   128.3132     9.1782     9.1784     8.3343     0.1202     0.2885     0.0412     2.4545
  174.0000   124.6988     9.1797     9.1778     8.3330     0.1187     0.2864     0.0366     2.4560
  174.5000   121.9880     9.2446     9.2410     8.3316     0.1175     0.2837     0.0322     2.4576
  175.0000   124.0964     9.2939     9.3047     8.3303     0.1157     0.2816     0.0382     2.4583
  175.5000   128.3132     9.3761     9.2398     8.3289     0.1150     0.2807     0.0457     2.4598
  176.0000   130.7229     9.4423     9.3033     8.3275     0.1138     0.2804     0.0502     2.4636
  176.5000   127.8976     9.5753     9.3027     8.3262     0.1135     0.2808     0.0472     2.4733
  177.0000   122.5904     9.8456     9.3389     8.3248     0.1096     0.2796     0.0382     2.4853
  177.5000   123.1928     9.9841     9.4312     8.3235     0.1018     0.2750     0.0350     2.4921
  178.0000   125.6024     9.9165     9.5621     8.3221     0.0976     0.2714     0.0382     2.4838
  178.5000   127.7108     9.7815     9.6946     8.3207     0.1006     0.2699     0.0547     2.4921
  179.0000   127.7108     9.5160     9.6940     8.3194     0.0982     0.2669     0.0637     2.5056
  179.5000   124.0683     9.1936     9.6902     8.3180     0.0918     0.2609     0.0577     2.5192
  180.0000   116.8675     8.9437     9.4933     8.3167     0.0813     0.2561     0.0367     2.5237
  180.5000   114.1566     8.6410     9.1696     8.3153     0.0765     0.2543     0.0277     2.5002
  181.0000   120.1807     8.3482     8.9804     8.3139     0.0897     0.2637     0.0307     2.4726
  181.5000   125.0000     8.1213     8.7345     8.3126     0.1036     0.2782     0.0322     2.4591
  182.0000   129.8193     7.9557     8.4367     8.3112     0.1108     0.2871     0.0307     2.4545
  182.5000   133.1325     7.9016     8.1490     8.3099     0.1174     0.2929     0.0262     2.4448
  183.0000   135.5422     7.7940     7.9193     8.3085     0.1216     0.3025     0.0307     2.4403
  183.5000   131.6265     7.8251     7.7622     8.3071     0.1270     0.3106     0.0397     2.4380
  184.0000   131.6265     7.8507     7.6550     8.3058     0.1264     0.3103     0.0502     2.4396
  184.5000   133.1325     7.8517     7.6545     8.3042     0.1231     0.3001     0.0577     2.4448
  185.0000   133.4337     7.8527     7.5487     8.3042     0.1219     0.2971     0.0427     2.4478
  185.5000   133.1325     7.9634     7.6006     8.3193     0.1222     0.2965     0.0322     2.4470
  186.0000   131.0120     8.0197     7.6001     8.3042     0.1174     0.3013     0.0322     2.4493
  186.5000   127.7108     8.0765     7.6524     8.3343     0.1135     0.3028     0.0352     2.4553
  187.0000   123.7952     8.1337     7.6518     8.3343     0.1102     0.3023     0.0367     2.4621
  187.5000   123.1928     8.1560     7.7581     8.3343     0.1087     0.3008     0.0307     2.4666
  188.0000   127.7108     8.1925     7.8115     8.3324     0.1090     0.2990     0.0277     2.4688
  188.5000   130.7229     8.2504     7.8653     8.3304     0.1083     0.2978     0.0292     2.4703
  189.0000   134.3374     8.3090     7.9743     8.3283     0.1068     0.3005     0.0352     2.4718
  189.5000   137.4518     8.4085     7.9800     8.3263     0.1059     0.3020     0.0412     2.4748
  190.0000   143.0723     8.5841     8.0843     8.3243     0.1053     0.2996     0.0442     2.4763
  190.5000   146.3855     8.7340     8.1965     8.3222     0.1095     0.2971     0.0427     2.4718
  191.0000   140.0602     8.8478     8.2530     8.3202     0.1147     0.2927     0.0397     2.4604
  191.5000   134.9398     8.9723     8.3097     8.3181     0.1225     0.2879     0.0397     2.4470
  192.0000   133.5543     9.0988     8.3818     8.3161     0.1195     0.2876     0.0442     2.4485
  192.5000   138.2630     9.0999     8.5134     8.3141     0.1143     0.2897     0.0427     2.4591
  193.0000   137.3494     9.1011     8.6063     8.3120     0.1113     0.2903     0.0382     2.4651
  193.5000   136.7470     8.9092     8.7201     8.3100     0.1088     0.2897     0.0292     2.4688
  194.0000   136.4458     8.7335     8.8411     8.3079     0.1059     0.2885     0.0277     2.4733
  194.5000   136.7470     8.6146     8.7794     8.3059     0.1050     0.2873     0.0339     2.4763
  195.0000   138.5542     8.4973     8.7788     8.3042     0.1053     0.2873     0.0397     2.4763
  195.5000   140.6626     8.4986     8.7493     8.3042     0.1041     0.2879     0.0322     2.4771
  196.0000   141.2651     8.4408     8.6537     8.3042     0.1059     0.2897     0.0337     2.4756
  196.5000   137.9518     8.3840     8.5371     8.3193     0.1083     0.2921     0.0352     2.4696
  197.0000   137.3494     8.4433     8.4776     8.3343     0.1074     0.2927     0.0307     2.4673
  197.5000   139.4578     8.5033     8.4186     8.3193     0.1071     0.2927     0.0337     2.4711
  198.0000   143.0723     8.5043     8.4180     8.3343     0.1074     0.2928     0.0397     2.4711
  198.5000   144.2771     8.5055     8.4174     8.3343     0.1089     0.2922     0.0442     2.4688
  199.0000   145.1807     8.5068     8.4169     8.3343     0.1107     0.2915     0.0457     2.4658
  199.5000   144.2771     8.5079     8.4163     8.3343     0.1128     0.2901     0.0442     2.4628
  200.0000   139.7590     8.5090     8.4157     8.3343     0.1137     0.2895     0.0457     2.4606
  200.5000   136.7470     8.3342     8.4150     8.3343     0.1122     0.2901     0.0472     2.4628
  201.0000   140.9639     8.2767     8.3564     8.3343     0.1101     0.2934     0.0473     2.4681
  201.5000   145.4819     8.3342     8.3559     8.3343     0.1095     0.2979     0.0427     2.4666
  202.0000   146.6868     8.3342     8.3553     8.3343     0.1149     0.3003     0.0382     2.4591
  202.5000   146.3855     8.3342     8.2971     8.3343     0.1185     0.2970     0.0307     2.4553
  203.0000   146.9879     8.3342     8.2965     8.3341     0.1176     0.2982     0.0276     2.4560
  203.5000   146.9879     8.2197     8.2386     8.3339     0.1136     0.2997     0.0232     2.4636
  204.0000   141.8675     8.1067     8.1812     8.3337     0.1116     0.3007     0.0307     2.4666
  204.5000   137.6506     8.0508     8.1242     8.3335     0.1110     0.3022     0.0337     2.4666
  205.0000   135.5422     8.0508     8.0676     8.3333     0.1113     0.3022     0.0367     2.4666
  205.5000   135.8434     7.9953     7.9561     8.3332     0.1107     0.3016     0.0382     2.4664
