~VERSION INFORMATION
 VERS.                2.0:   CWLS LOG ASCII STANDARD - VERSION 2.0
 WRAP.                 NO:   ONE LINE PER DEPTH STEP
~WELL INFORMATION
#MNEM.UNIT      DATA TYPE    INFORMATION
#----------   ------------   ------------------------------
 STRT.F            0.0000:   START DEPTH
 STOP.F          446.0000:   STOP DEPTH
 STEP.F            0.5000:   STEP LENGTH
 NULL.          -999.2500:   NO VALUE
 COMP.       F D SERV INC:   COMPANY
 WELL. NAVAL PETROLEUM RESERVE 3 SX-1 #63-5-10:   WELL
 FLD .            WILDCAT:   FIELD
 LOC .      S10 T38N R78W:   LOCATION
 CNTY.            NATRONA:   COUNTY
 STAT.            WYOMING:   STATE
 CTRY. UNITED STATES OF AMERICA:   COUNTRY
 SRVC.     Atlas Wireline:   SERVICE COMPANY
 DATE.        02-FEB-1993:   LOGDATE
 API .       490252257100:   API NUMBER
~CURVE INFORMATION
#MNEM.UNIT       API CODE    CURVE DESCRIPTION
#----------   ------------   ------------------------------
 DEPT.F                  :   
 GRR .GAPI   07 310 01 00:   GAMMA RAY
 RILD.OHMM   07 120 46 00:   INDUCTION LOG DEEP RESISTIVITY
 RILM.OHMM   07 120 44 00:   RESITIVITY LONG MEDIUM
 PORZ.DEC    45 890 12 00:   DENSITY POROSITY SANDSTONE
 ZCOR.G/C3   45 356 01 00:   DENSITY CORRECTION
 ZDEN.G/C3   45 350 01 00:   BULK DENSITY
 NPHI.DEC    42 890 03 00:   NEUTRON POROSITY SANDSTONE
 C13 .IN     45 280 13 00:   CALIPER X
~PARAMETER INFORMATION
#MNEM.UNIT          VALUE    DESCRIPTION
#----------   ------------   ------------------------------
 PD  .                 GL:   PERMANENT DATUM
 EPD .F              5182:   ELEVATION PERMANENT DATUM
 LMF .                 KB:   LOG MEASURED FROM
 DAPD.F                10:   FEET ABOVE PERMANENT DATUM
 DMF .                 KB:   DRILLING MEASURED FROM
 EKB .F              5192:   KELLING BUSHING
 EDF .F              5191:   DRILLING FLOOR
 EGL .F              5182:   GROUND LEVEL
 DATE.        02-FEB-1993:   RUN DATE
 RUN .                  1:   RUN NUMBER
 DD  .F               450:   DEPTH DRILLER
 DL  .F               450:   DEPTH LOGGER
 BLI .F               442:   BOTTOM LOG INTERVAL
 CS  .IN            8.625:   CASING SIZE
 CBD .F                84:   CASING BOTTOM DRILLER
 CBL .F                84:   CASING BOTTOM LOGGER
 BS  .IN            7.875:   BIT SIZE
 BSD .F               450:   BIT SIZE AT DEPTH
 DFT .                AIR:   DRILLING FLUID TYPE
 MRT .F                51:   MAXIMUM RECORDED TEMPERATURE
 LUN .            HL 6274:   LOGGING UNIT NUMBER
 LUL .             CASPER:   LOGGING UNIT LOCATION
 ENGI.       P. RASMUSSEN:   RECORDING ENGINEER
 WITN.          G. STRONG:   WITNESSED BY
 CLNT.            A2DTECH:   CLIENT CODE
 ORIG.           5" PRINT:   ORIGIN OF DATA
 UWI .       490252257100:   UNIQUE WELL ID
 DICO. A2D Technologies, Inc.:   DIGITIZING COMPANY
~OTHER INFORMATION
~A    DEPT      GRR      RILD       RILM       PORZ       ZCOR       ZDEN       NPHI        C13   
# ...
  162.0000   136.9634     7.3802     7.0306     0.1128    -0.0157     2.4899     0.3266     8.2108
  162.5000   138.4604     6.7895     6.6962     0.1240    -0.0098     2.4640     0.3318     8.2252
  163.0000   141.4656     6.2464     6.2465     0.1294    -0.0068     2.4386     0.3378     8.2243
  163.5000   145.1494     5.8270     5.7837     0.1331    -0.0114     2.4349     0.3435     8.2085
  164.0000   146.8727     5.3565     4.9675     0.1394    -0.0145     2.4303     0.3496     8.2078
  164.5000   140.8254     4.8305     4.4147     0.1505    -0.0146     2.4205     0.3559     8.2070
  165.0000   135.6858     4.1756     3.9506     0.1620    -0.0087     2.4129     0.3659     8.2063
  165.5000   134.4424     3.6598     3.4569     0.1717    -0.0043     2.3971     0.3719     8.2206
  166.0000   131.7387     3.2463     3.0348     0.1951    -0.0149     2.3564     0.3882     8.2350
  166.5000   129.3141     2.9104     2.8310     0.2354    -0.0210     2.3338     0.4005     8.2341
  167.0000   126.5878     2.7720     2.7720     0.2601    -0.0241     2.2857     0.4023     8.2334
  167.5000   121.2721     2.6956     2.7522     0.2789    -0.0047     2.2424     0.3951     8.2327
  168.0000   115.7025     2.6762     2.7897     0.2704     0.0103     2.1968     0.3711     8.2318
  168.5000   113.5795     2.6942     2.9073     0.2433     0.0177     2.1870     0.3551     8.2311
  169.0000   114.7748     2.7689     3.0934     0.2157     0.0159     2.2208     0.3503     8.2304
  169.5000   121.2741     2.9462     3.3705     0.2037    -0.0005     2.3013     0.3597     8.2295
  170.0000   130.4355     3.2904     3.8319     0.2025     0.0024     2.3133     0.3721     8.2288
  170.5000   139.1723     3.6496     4.3395     0.1911     0.0098     2.3140     0.3483     8.2131
  171.0000   140.0687     4.3084     4.7801     0.1710     0.0157     2.3398     0.3414     8.2123
  171.5000   140.0543     4.8120     5.2650     0.1313     0.0172     2.4163     0.3333     8.2267
  172.0000   140.3420     5.3370     5.5635     0.1205     0.0035     2.4396     0.3372     8.2258
  172.5000   143.0456     5.6787     5.7980     0.1196    -0.0102     2.4509     0.3393     8.2251
  173.0000   146.3525     5.9592     6.0424     0.1241    -0.0147     2.4493     0.3391     8.2243
  173.5000   146.0392     6.2554     6.2967     0.1266    -0.0102     2.4403     0.3409     8.2236
  174.0000   147.2319     6.5168     6.5169     0.1254    -0.0103     2.4410     0.3439     8.2228
  174.5000   148.1255     6.6519     6.6065     0.1212    -0.0168     2.4530     0.3457     8.2071
  175.0000   148.4187     6.5587     6.5135     0.1152    -0.0225     2.4620     0.3448     8.1911
  175.5000   148.7061     6.2383     6.0757     0.1128    -0.0196     2.4635     0.3425     8.2207
  176.0000   148.3903     5.7467     5.6677     0.1125    -0.0167     2.4650     0.3410     8.2349
  176.5000   148.0772     5.3608     5.3981     0.1174    -0.0108     2.4461     0.3458     8.2491
  177.0000   147.7642     5.0706     5.1399     0.1285    -0.0064     2.4107     0.3573     8.2333
  177.5000   149.6129     4.9304     4.9305     0.1436    -0.0005     2.3926     0.3693     8.2326
  178.0000   155.5818     4.8614     4.8614     0.1586     0.0055     2.3858     0.3705     8.2319
  178.5000   154.6655     4.8601     4.8942     0.1601    -0.0051     2.3926     0.3603     8.2311
  179.0000   149.2243     4.8926     4.8926     0.1560    -0.0097     2.3948     0.3558     8.2304
  179.5000   144.0342     4.9595     5.0634     0.1551    -0.0113     2.3948     0.3540     8.2297
  180.0000   142.5650     5.0972     5.2404     0.1554    -0.0114     2.4053     0.3505     8.2288
  180.5000   144.0592     5.3490     5.4613     0.1425    -0.0115     2.4256     0.3423     8.2281
  181.0000   147.0644     5.6522     5.8969     0.1341    -0.0116     2.4338     0.3372     8.2274
  181.5000   151.9799     6.1826     6.1827     0.1307    -0.0117     2.4375     0.3406     8.2116
  182.0000   153.6782     6.3112     6.3547     0.1284    -0.0118     2.4458     0.3418     8.2107
  182.5000   148.2341     6.3530     6.4864     0.1263    -0.0119     2.4548     0.3352     8.2100
  183.0000   146.4128     6.5772     6.8064     0.1206    -0.0120     2.4660     0.3307     8.2093
  183.5000   145.7979     6.8046     7.1922     0.1151    -0.0166     2.4698     0.3277     8.1783
  184.0000   145.7839     7.0914     7.4437     0.1093    -0.0242     2.4682     0.3255     8.1776
  184.5000   146.9792     7.3393     7.7039     0.1096    -0.0287     2.4641     0.3229     8.1922
  185.0000   149.6828     7.5487     7.9728     0.1135    -0.0258     2.4606     0.3214     8.2214
  185.5000   152.7129     7.7529     7.9707     0.1150    -0.0169     2.4614     0.3205     8.2205
  186.0000   151.7688     7.9141     7.8590     0.1144    -0.0065     2.4621     0.3197     8.2349
  186.5000   147.8359     7.8569     7.8027     0.1139    -0.0006     2.4613     0.3212     8.2342
  187.0000   144.5063     7.8002     7.6929     0.1151    -0.0067     2.4590     0.3248     8.2485
  187.5000   142.3831     7.6909     7.5851     0.1166    -0.0173     2.4575     0.3275     8.2477
  188.0000   142.9725     7.4788     7.4272     0.1181    -0.0249     2.4544     0.3288     8.2470
  188.5000   145.6760     7.2726     7.3232     0.1197    -0.0250     2.4529     0.3291     8.2462
  189.0000   147.7763     7.0716     7.2201     0.1200    -0.0251     2.4536     0.3315     8.2303
  189.5000   148.9965     7.0210     7.1189     0.1194    -0.0251     2.4536     0.3342     8.2296
  190.0000   150.7673     6.8274     6.9708     0.1191    -0.0252     2.4536     0.3343     8.2138
  190.5000   151.3621     6.6853     6.7757     0.1204    -0.0223     2.4490     0.3337     8.2130
  191.0000   152.8562     6.5005     6.4111     0.1240    -0.0194     2.4407     0.3346     8.2123
  191.5000   154.9565     6.1486     6.1062     0.1282    -0.0165     2.4384     0.3376     8.2116
  192.0000   153.1323     5.8968     5.7357     0.1291    -0.0198     2.4309     0.3414     8.2108
  192.5000   151.0094     5.5334     5.3063     0.1358    -0.0257     2.4075     0.3485     8.2100
  193.0000   150.0930     4.9910     4.9565     0.1541    -0.0228     2.3669     0.3578     8.2093
  193.5000   149.1262     4.6882     4.8534     0.1693    -0.0033     2.3412     0.3690     8.2086
  194.0000   148.5620     4.5906     4.8521     0.1921     0.0116     2.3329     0.3768     8.2077
  194.5000   151.5644     4.7216     4.8892     0.1798     0.0130     2.3736     0.3645     8.2222
  195.0000   153.6647     4.9169     5.0201     0.1515     0.0054     2.4239     0.3471     8.2214
  195.5000   153.9550     5.1241     5.2681     0.1333    -0.0085     2.4450     0.3360     8.2357
  196.0000   148.8126     5.3033     5.6444     0.1233    -0.0233     2.4517     0.3314     8.2348
  196.5000   143.9747     5.7610     6.1741     0.1194    -0.0144     2.4539     0.3279     8.2341
  197.0000   141.5501     6.2153     6.5694     0.1179    -0.0145     2.4554     0.3282     8.2184
  197.5000   143.1472     6.6593     6.7991     0.1167    -0.0146     2.4576     0.3309     8.1874
  198.0000   148.7643     6.9400     7.0368     0.1162    -0.0147     2.4591     0.3339     8.1565
  198.5000   152.9762     7.2321     7.3329     0.1201    -0.0147     2.4516     0.3376     8.1558
  199.0000   155.6798     7.4333     7.5370     0.1216    -0.0102     2.4508     0.3391     8.1853
  199.5000   158.4333     7.5878     7.6401     0.1204    -0.0059     2.4515     0.3382     8.2147
  200.0000   160.4808     7.7984     7.7446     0.1096    -0.0075     2.4718     0.3322     8.2138
  200.5000   158.9635     7.8498     7.8496     0.1060    -0.0060     2.4733     0.3310     8.2281
  201.0000   153.8267     7.8472     7.9022     0.1042    -0.0061     2.4770     0.3307     8.2422
  201.5000   151.1031     7.8440     7.9538     0.1028    -0.0061     2.4807     0.3316     8.2413
  202.0000   151.9994     7.8414     7.9511     0.1022    -0.0077     2.4829     0.3335     8.2252
