~VERSION INFORMATION
 VERS.                2.0:   CWLS LOG ASCII STANDARD - VERSION 2.0
 WRAP.                 NO:   ONE LINE PER DEPTH STEP
~WELL INFORMATION
#MNEM.UNIT      DATA TYPE    INFORMATION
#----------   ------------   ------------------------------
 STRT.F           16.0000:   START DEPTH
 STOP.F          484.5000:   STOP DEPTH
 STEP.F            0.5000:   STEP LENGTH
 NULL.          -999.2500:   NO VALUE
 COMP. FENIX & SCISSON INC:   COMPANY
 WELL. NPR 3 #83 SX 10-10:   WELL
 FLD .             TEAPOT:   FIELD
 LOC .      S10 T38N R78W:   LOCATION
 CNTY.            NATRONA:   COUNTY
 STAT.            WYOMING:   STATE
 CTRY. UNITED STATES OF AMERICA:   COUNTRY
 SRVC.           BIRDWELL:   SERVICE COMPANY
 DATE.        25-NOV-1978:   LOGDATE
 API .       490251075200:   API NUMBER
~CURVE INFORMATION
#MNEM.UNIT       API CODE    CURVE DESCRIPTION
#----------   ------------   ------------------------------
 DEPT.F                  :   
 SPR .MV     05 010 01 00:   SPONTANEOUS POTENTIAL FROM RES.
 SN  .OHMM   05 040 16 00:   SHORT NORMAL 16"
 IL  .OHMM   05 120 00 00:   INDUCTION LOG
 CALD.IN     45 280 60 00:   CALIPER
 GRD .GAPI   45 310 01 00:   GAMMA RAY FROM DENSITY LOG
 CORR.G/C3   45 356 01 00:   DENSITY CORRECTION
 DPHI.DEC    45 890 12 00:   DENSITY POROSITY SANDSTONE
 RHOB.G/C3   45 350 01 00:   BULK DENSITY
~PARAMETER INFORMATION
#MNEM.UNIT          VALUE    DESCRIPTION
#----------   ------------   ------------------------------
 PD  .                 GL:   PERMANENT DATUM
 EPD .F              5145:   ELEVATION PERMANENT DATUM
 LMF .                 KB:   LOG MEASURED FROM
 DAPD.F                 4:   FEET ABOVE PERMANENT DATUM
 DMF .                 KB:   DRILLING MEASURED FROM
 EKB .F              5149:   KELLING BUSHING
 EGL .F              5145:   GROUND LEVEL
 DATE.           11-25-78:   RUN DATE
 RUN .                  1:   RUN NUMBER
 DD  .F               490:   DEPTH DRILLER
 DL  .F               487:   DEPTH LOGGER
 BLI .F               481:   BOTTOM LOG INTERVAL
 TLI .F                30:   TOP LOG INTERVAL
 CS  .IN            8.625:   CASING SIZE
 CBD .F                40:   CASING BOTTOM DRILLER
 CBL .F                35:   CASING BOTTOM LOGGER
 BS  .IN            7.875:   BIT SIZE
 BSD .F               490:   BIT SIZE AT DEPTH
 DFT .             SEAMUD:   DRILLING FLUID TYPE
 DFD .                8.8:   DRILLING FLUID DENSITY
 DFV .                 38:   DRILLING FLUID VISCOSITY
 DFPH.               11.1:   DRILLING FLUID PH
 DFL .                9.6:   DRILLING FLUID LOSS
 MSS .           FLOWLINE:   MUD SAMPLE SOURCE
 RMS .OHMM            .28:   RESISTIVITY MUD SAMPLE
 MST .F                58:   MUD SAMPLE TEMPERATURE
 RMF .OHMM            .25:   RESISTIVITY MUD FILTRATE SAMPLE
 MFST.F                70:   MUD FILTRATE SAMPLE TEMPERATURE
 RMC .OHMM             .3:   RESISTIVITY MUD CAKE
 MCST.F                70:   MUD CAKE SAMPLE TEMPERATURE
 MFSS.           MEASURED:   MUD FILTRATE SAMPLE SOURCE
 MCSS.           MEASURED:   MUD CAKE SAMPLE SOURCE
 BHT .F                58:   BOTTOM HOLE TEMPERATURE
 TCS .HRS               3:   TIME CURCULATED STOPPED
 MRT .F                58:   MAXIMUM RECORDED TEMPERATURE
 LUN .               3029:   LOGGING UNIT NUMBER
 LUL .               CASP:   LOGGING UNIT LOCATION
 ENGI.           REYNOLDS:   RECORDING ENGINEER
 WITN.           DINSMORE:   WITNESSED BY
 CLNT.            A2DTECH:   CLIENT CODE
 ORIG.     1", 2.5" PRINT:   ORIGIN OF DATA
 UWI .       490251075200:   UNIQUE WELL ID
 DICO. A2D Technologies, Inc.:   DIGITIZING COMPANY
~OTHER INFORMATION
~A   DEPT      SPR         SN         IL       CALD         GRD      CORR       DPHI       RHOB   
# ...
  178.0000   -47.1500     8.8490     7.9060     7.5750   108.0470     0.0920     0.1170     2.4870
  178.5000   -47.1860     8.9370     8.0030     7.5790   108.9520     0.0770     0.1240     2.4790
  179.0000   -47.1700     9.0250     8.0780     7.5820   108.3030     0.0600     0.1320     2.4660
  179.5000   -46.9420     9.0890     8.1530     7.5860   107.6890     0.0480     0.1360     2.4650
  180.0000   -46.7200     9.1040     8.2290     7.5890   108.1680     0.0430     0.1380     2.4650
  180.5000   -46.4820     9.1180     8.3040     7.5930   109.3020     0.0360     0.1400     2.4640
  181.0000   -46.2670     9.1330     8.3790     7.5960   108.1170     0.0300     0.1420     2.4540
  181.5000   -46.0030     9.1470     8.4540     7.6000   106.1100     0.0230     0.1430     2.4440
  182.0000   -46.0520     9.1620     8.5300     7.6030   107.1500     0.0200     0.1450     2.4530
  182.5000   -46.2550     9.1760     8.6050     7.6070   109.0500     0.0250     0.1340     2.4650
  183.0000   -46.4470     9.1910     8.6800     7.6100   109.8900     0.0310     0.1290     2.4760
  183.5000   -46.6420     9.2050     8.7550     7.6140   109.5760     0.0300     0.1290     2.4750
  184.0000   -46.8370     9.2200     8.8300     7.6180   109.6970     0.0250     0.1300     2.4740
  184.5000   -47.0310     9.2350     8.9170     7.6210   111.9630     0.0210     0.1320     2.4720
  185.0000   -47.2260     9.2530     8.8600     7.6250   113.7520     0.0200     0.1260     2.4720
  185.5000   -47.4200     9.2440     8.7920     7.6280   113.4720     0.0200     0.1200     2.4810
  186.0000   -47.6150     9.2260     8.7250     7.6320   112.4270     0.0200     0.1150     2.4930
  186.5000   -47.8100     9.2080     8.6570     7.6350   111.1990     0.0200     0.1110     2.5040
  187.0000   -48.0040     9.1900     8.5890     7.6390   110.4370     0.0200     0.1110     2.5020
  187.5000   -48.1990     9.1720     8.5220     7.6420   111.5430     0.0200     0.1180     2.4900
  188.0000   -48.3930     9.1540     8.4540     7.6460   112.0030     0.0180     0.1290     2.4800
  188.5000   -48.5880     9.1380     8.3870     7.6490   109.1790     0.0140     0.1350     2.4690
  189.0000   -48.7830     9.1200     8.3190     7.6490   108.1050     0.0110     0.1350     2.4640
  189.5000   -48.9770     9.0970     8.2510     7.6490   110.3170     0.0080     0.1350     2.4640
  190.0000   -49.1720     9.0990     8.1840     7.6490   112.2160     0.0140     0.1350     2.4630
  190.5000   -49.3660     8.8280     8.1260     7.6490   113.9040     0.0250     0.1310     2.4670
  191.0000   -49.5610     8.5620     7.7960     7.6490   114.1670     0.0280     0.1270     2.4710
  191.5000   -49.7560     8.2950     7.5100     7.6490   112.1400     0.0280     0.1330     2.4740
  192.0000   -49.9500     8.0280     7.2230     7.6490   110.2140     0.0270     0.1390     2.4630
  192.5000   -50.1440     7.7610     6.9370     7.6490   108.8000     0.0250     0.1460     2.4470
  193.0000   -50.3400     7.3340     6.6250     7.6490   109.6210     0.0320     0.1510     2.4380
  193.5000   -50.5320     6.8450     6.2850     7.6490   110.3670     0.0420     0.1510     2.4350
  194.0000   -50.7310     6.3550     5.9130     7.6490   111.2670     0.0510     0.1520     2.4360
  194.5000   -50.9190     5.8650     5.5400     7.6490   111.9230     0.0460     0.1700     2.4050
  195.0000   -51.1220     5.3560     5.1670     7.6310   113.0340     0.0400     0.1990     2.3620
  195.5000   -51.2340     4.8400     4.7940     7.6090   111.0230     0.0360     0.2280     2.3190
  196.0000   -51.4400     4.3230     4.4220     7.5870   106.9410     0.0360     0.2570     2.2780
  196.5000   -51.6460     3.8070     4.0490     7.5660   103.1590     0.0360     0.2770     2.2430
  197.0000   -51.8540     3.2110     3.6760     7.5410   101.7240     0.0360     0.2670     2.2300
  197.5000   -52.0580     3.0060     3.3030     7.5370   107.7700     0.0360     0.2450     2.2660
  198.0000   -52.2660     2.8620     2.7170     7.5700   112.8880     0.0360     0.2230     2.2990
  198.5000   -52.4680     3.0440     2.8620     7.5980   119.0950     0.0360     0.2010     2.3330
  199.0000   -52.6800     3.2260     3.2010     7.6320   119.8990     0.0430     0.1790     2.3670
  199.5000   -52.8730     3.5550     3.5390     7.6520   116.4380     0.0550     0.1570     2.4010
  200.0000   -53.1130     4.0960     3.8780     7.6540   114.7850     0.0510     0.1390     2.4350
  200.5000   -53.1120     4.6370     4.2170     7.6580   117.7950     0.0460     0.1240     2.4690
  201.0000   -52.7830     5.1780     4.5560     7.6610   120.8780     0.0450     0.1180     2.4950
  201.5000   -52.4960     5.7190     4.8950     7.6650   122.6920     0.0480     0.1160     2.4960
  202.0000   -52.1860     6.2600     5.2340     7.6690   124.7100     0.0410     0.1220     2.4870
  202.5000   -51.8880     6.7010     5.5720     7.6720   126.3400     0.0340     0.1280     2.4740
  203.0000   -51.5840     6.9340     5.9110     7.6760   128.1750     0.0320     0.1350     2.4640
  203.5000   -51.2830     7.0050     6.1830     7.6800   126.6110     0.0320     0.1380     2.4600
  204.0000   -50.9810     7.0050     6.2910     7.6830   124.4610     0.0320     0.1400     2.4560
  204.5000   -50.6750     7.0050     6.3990     7.6870   123.8300     0.0320     0.1430     2.4530
  205.0000   -50.4190     7.0050     6.5030     7.6890   124.6890     0.0320     0.1460     2.4500
  205.5000   -50.3780     7.0050     6.2700     7.6870   122.9940     0.0330     0.1490     2.4460
  206.0000   -50.3320     7.0050     6.0460     7.6850   121.0570     0.0340     0.1560     2.4360
  206.5000   -50.2970     7.0050     5.8230     7.6830   121.0230     0.0350     0.1780     2.4080
  207.0000   -50.2550     6.5030     5.5990     7.6820   121.8230     0.0360     0.1740     2.3980
  207.5000   -50.2170     6.1510     5.5020     7.6800   115.9460     0.0360     0.1670     2.4120
  208.0000   -50.1750     5.9710     5.4500     7.6780   110.2920     0.0360     0.1620     2.4190
  208.5000   -50.1380     5.8160     5.4050     7.6760   112.8310     0.0350     0.1610     2.4220
  209.0000   -50.0940     5.7110     5.3600     7.6740   119.1880     0.0350     0.1570     2.4300
  209.5000   -50.0630     5.8530     5.3160     7.6720   123.0460     0.0340     0.1500     2.4420
  210.0000   -50.0040     6.1340     5.3020     7.6710   123.1100     0.0340     0.1440     2.4540
  210.5000   -50.1220     6.4160     5.3020     7.6690   123.7010     0.0330     0.1370     2.4640
  211.0000   -50.3900     6.6980     5.5620     7.6670   121.9230     0.0330     0.1330     2.4700
  211.5000   -50.6320     6.9790     5.8060     7.6650   118.2060     0.0330     0.1280     2.4770
  212.0000   -50.8810     7.2610     6.0510     7.6630   115.4210     0.0300     0.1240     2.4840
  212.5000   -51.1310     7.5430     6.2950     7.6610   112.7580     0.0240     0.1270     2.4790
  213.0000   -51.3820     7.8250     6.5400     7.6600   111.7940     0.0200     0.1290     2.4730
  213.5000   -51.5650     8.1060     6.7840     7.6580   112.5450     0.0220     0.1320     2.4700
  214.0000   -51.2490     8.3880     7.0280     7.6560   114.2830     0.0240     0.1340     2.4640
  214.5000   -50.9230     8.6700     7.2730     7.6540   115.6260     0.0250     0.1360     2.4550
  215.0000   -50.5870     8.9170     7.5170     7.6520   118.3840     0.0270     0.1380     2.4530
  215.5000   -50.2600     8.9170     7.7180     7.6500   122.3130     0.0290     0.1410     2.4560
  216.0000   -49.9260     8.9170     7.8200     7.6470   123.3140     0.0440     0.1340     2.4640
  216.5000   -49.6160     8.8730     7.9770     7.6420   121.9050     0.0600     0.1280     2.4740
  217.0000   -49.5210     8.8330     7.9360     7.6370   123.0020     0.0690     0.1260     2.4800
  217.5000   -49.4450     8.7920     7.8470     7.6320   125.0310     0.0680     0.1240     2.4830
  218.0000   -49.3680     8.7530     7.7590     7.6270   124.6060     0.0680     0.1230     2.4840
