~VERSION INFORMATION
 VERS.                2.0:   CWLS LOG ASCII STANDARD - VERSION 2.0
 WRAP.                 NO:   ONE LINE PER DEPTH STEP
~WELL INFORMATION
#MNEM.UNIT      DATA TYPE    INFORMATION
#----------   ------------   ------------------------------
 STRT.F          717.0000:   START DEPTH
 STOP.F         2448.0000:   STOP DEPTH
 STEP.F            0.5000:   STEP LENGTH
 NULL.          -999.2500:   NO VALUE
 COMP.   FLUOR DANIEL INC:   COMPANY
 WELL. NAVAL PETROLEUM RESERVE 3X27 #34-27:   WELL
 FLD .             TEAPOT:   FIELD
 LOC .      S27 T39N R78W:   LOCATION
 CNTY.            NATRONA:   COUNTY
 STAT.            WYOMING:   STATE
 CTRY. UNITED STATES OF AMERICA:   COUNTRY
 SRVC.            Unknown:   SERVICE COMPANY
 DATE.        17-MAY-1996:   LOGDATE
 API .       490252279300:   API NUMBER
~CURVE INFORMATION
#MNEM.UNIT       API CODE    CURVE DESCRIPTION
#----------   ------------   ------------------------------
 DEPT.F                  :   
 TGAS.TC/CC  91 830 01 00:   TOTAL GAS UNIT
 ROP .FT/HR  91 810 01 00:   RAT OF DRILLING PENETRATION
~PARAMETER INFORMATION
#MNEM.UNIT          VALUE    DESCRIPTION
#----------   ------------   ------------------------------
 EPD .F              5039:   ELEVATION PERMANENT DATUM
 EKB .F              5049:   KELLING BUSHING
 EGL .F              5039:   GROUND LEVEL
 DATE.        17-MAY-1996:   RUN DATE
 RUN .                  1:   RUN NUMBER
 ENGI.     R.HUSK/C.TOWER:   RECORDING ENGINEER
 CLNT.            A2DTECH:   CLIENT CODE
 ORIG.           5" PRINT:   ORIGIN OF DATA
 UWI .       490252279300:   UNIQUE WELL ID
 DICO. A2D Technologies, Inc.:   DIGITIZING COMPANY
~OTHER INFORMATION
~A   DEPT       TGAS        ROP 
# ...
 2296.5000     2.9746     0.8068
 2297.0000     3.1632     0.7977
 2297.5000     3.1650     0.7980
 2298.0000     3.1668     0.7982
 2298.5000     3.1687     0.7983
 2299.0000     3.1705     0.7985
 2299.5000     3.1728     0.7987
 2300.0000     3.3613     0.7989
 2300.5000     3.3631     0.7991
 2301.0000     3.3649     0.8087
 2301.5000     3.5535     0.8088
 2302.0000     3.5553     1.5609
 2302.5000     3.5571     1.5611
 2303.0000     3.5590     1.5613
 2303.5000     3.5608     1.5615
 2304.0000     3.5627     1.2327
 2304.5000     3.5645     1.2235
 2305.0000     3.5667     1.2331
 2305.5000     3.5685     1.2333
 2306.0000     3.5704     1.2335
 2306.5000     3.5676     0.7825
 2307.0000     3.5363     0.7827
 2307.5000     3.5050     0.7829
 2308.0000     3.4880     0.7831
 2308.5000     3.4835     0.7833
 2309.0000     3.4798     0.7835
 2309.5000     3.4762     0.7837
 2310.0000     3.4725     0.7839
 2310.5000     3.4689     0.7840
 2311.0000     3.4652     0.7842
 2311.5000     3.4616     0.7844
 2312.0000     3.4579     0.6436
 2312.5000     3.4543     0.6344
 2313.0000     3.4506     0.6346
 2313.5000     3.4469     0.6442
 2314.0000     3.4424     0.6444
 2314.5000     3.4388     0.6446
 2315.0000     3.4351     0.6448
 2315.5000     3.4315     0.6449
 2316.0000     3.2411     0.6545
 2316.5000     3.0507     0.6547
 2317.0000     3.0471     0.6549
 2317.5000     3.0434     0.6645
 2318.0000     3.0397     0.6741
 2318.5000     3.0361     1.0043
 2319.0000     3.0324     1.0128
 2319.5000     3.0286     1.0130
 2320.0000     3.0242     1.0038
 2320.5000     3.0206     0.9287
 2321.0000     3.0169     0.9290
 2321.5000     3.0133     0.9385
 2322.0000     3.0096     1.7470
 2322.5000     3.0060     1.7566
 2323.0000     3.1899     1.7568
 2323.5000     3.3722     1.7476
 2324.0000     3.3685     1.2120
 2324.5000     3.3647     1.2217
 2325.0000     3.3610     1.2218
 2325.5000     3.3566     1.2126
 2326.0000     3.3529     0.8274
 2326.5000     3.3493     0.8276
 2327.0000     3.3456     0.8278
 2327.5000     3.3420     0.8186
 2328.0000     3.3383     0.8188
 2328.5000     3.3347     0.8234
 2329.0000     3.3310     0.8133
 2329.5000     3.3274     0.8083
 2330.0000     3.3237     0.8095
 2330.5000     3.3199     0.9868
 2331.0000     3.3155     0.9868
 2331.5000     3.3118     0.9868
 2332.0000     3.3082     0.8835
 2332.5000     3.3045     0.8929
 2333.0000     3.3009     0.8929
 2333.5000     3.2972     0.8929
 2334.0000     3.2936     0.8835
 2334.5000     3.2899     0.8787
 2335.0000     3.2863     0.8835
 2335.5000     3.2826     0.8835
 2336.0000     3.2788     0.8835
 2336.5000     3.2744     0.8835
 2337.0000     3.2708     0.8835
 2337.5000     3.2671     1.0056
 2338.0000     3.0767     1.0056
 2338.5000     2.8864     1.0056
 2339.0000     2.8827     1.0056
 2339.5000     2.8791     1.0056
 2340.0000     2.8754     0.9023
 2340.5000     2.8717     0.9132
 2341.0000     2.8680     0.9305
 2341.5000     2.8643     0.9305
 2342.0000     2.8599     0.9305
 2342.5000     2.8562     0.9211
 2343.0000     2.8526     0.9211
 2343.5000     2.8489     0.9211
 2344.0000     2.8453     0.7331
 2344.5000     2.8416     0.7331
 2345.0000     2.8380     0.7331
 2345.5000     2.8343     0.7331
 2346.0000     2.8307     0.7425
 2346.5000     3.0137     0.7425
 2347.0000     3.0100     0.7425
 2347.5000     3.0055     0.7425
 2348.0000     3.0019     0.7425
 2348.5000     2.8115     0.7425
 2349.0000     2.8078     0.7425
 2349.5000     2.8042     0.7425
 2350.0000     2.8005     0.7425
 2350.5000     2.7969     0.7268
 2351.0000     2.7932     0.6485
 2351.5000     2.7896     0.6391
 2352.0000     2.7859     0.6391
 2352.5000     2.7822     0.6391
 2353.0000     2.7777     0.6485
 2353.5000     2.7740     0.6485
 2354.0000     2.7704     0.7801
 2354.5000     2.7667     0.7801
 2355.0000     2.5764     0.7801
 2355.5000     2.5727     0.7801
 2356.0000     2.5691     1.4380
 2356.5000     2.5654     1.4192
 2357.0000     2.7485     1.4192
 2357.5000     2.7448     1.4192
 2358.0000     2.7411     1.4192
 2358.5000     3.1101     0.6579
 2359.0000     3.1064     0.6579
 2359.5000     3.1027     0.6579
 2360.0000     3.0991     1.0620
 2360.5000     3.0954     1.0620
 2361.0000     3.0918     1.0526
 2361.5000     3.0881     1.0526
 2362.0000     3.0845     0.7895
 2362.5000     3.0808     0.7989
 2363.0000     3.0946     0.8177
 2363.5000     3.1263     0.7989
 2364.0000     3.1579     0.7989
 2364.5000     3.1896     0.7989
 2365.0000     3.2123     0.7989
 2365.5000     3.0311     0.7989
 2366.0000     3.2269     0.9689
 2366.5000     3.2343     0.9774
 2367.0000     3.2416     0.9774
 2367.5000     3.0622     0.9680
 2368.0000     2.8828     0.8647
 2368.5000     2.8905     0.8741
 2369.0000     2.8993     0.8741
 2369.5000     2.9066     0.8553
 2370.0000     2.9140     0.7801
 2370.5000     2.9213     0.7895
 2371.0000     2.9286     0.7900
 2371.5000     2.9359     0.7989
 2372.0000     2.9433     0.7989
 2372.5000     2.7621     0.7989
 2373.0000     2.5842     0.7989
 2373.5000     2.5918     0.7989
 2374.0000     2.2257     0.7989
 2374.5000     2.2165     0.7989
 2375.0000     2.0536     0.7989
 2375.5000     2.0628     0.7989
 2376.0000     2.0701     0.5921
 2376.5000     2.0775     0.5921
 2377.0000     2.2697     0.5921
 2377.5000     2.0903     0.5921
 2378.0000     2.0994     0.5921
 2378.5000     2.2935     0.6015
 2379.0000     2.3008     0.6015
 2379.5000     2.3081     0.6015
 2380.0000     2.3155     0.6015
 2380.5000     2.3228     0.6015
 2381.0000     2.1434     0.6015
 2381.5000     2.1510     0.5921
 2382.0000     2.1599     0.7425
 2382.5000     1.9787     0.7425
 2383.0000     1.9878     0.7425
 2383.5000     1.9952     0.7519
 2384.0000     2.0025     0.7613
 2384.5000     2.0098     0.7613
 2385.0000     2.0171     0.7519
 2385.5000     2.0245     0.7613
 2386.0000     2.0318     0.7613
 2386.5000     2.2259     0.7613
 2387.0000     2.2332     0.7613
 2387.5000     2.2407     0.7519
 2388.0000     2.2779     0.9586
 2388.5000     2.4419     0.9680
 2389.0000     2.4510     0.9680
 2389.5000     2.4584     0.9270
 2390.0000     2.4657     0.7801
 2390.5000     2.4730     0.7801
 2391.0000     2.4804     0.7801
 2391.5000     2.4877     0.7801
 2392.0000     2.4950     1.8891
 2392.5000     2.5024     1.8891
 2393.0000     2.3228     1.8891
 2393.5000     2.3303     1.8891
 2394.0000     2.3378     0.7801
 2394.5000     2.3452     0.7989
 2395.0000     2.1655     0.7989
 2395.5000     2.3614     0.7989
 2396.0000     2.3688     0.7989
 2396.5000     2.5628     0.7989
 2397.0000     2.5701     0.7962
 2397.5000     2.5775     0.7935
 2398.0000     2.5848     0.7908
 2398.5000     2.5921     0.7889
 2399.0000     2.5995     0.7891
 2399.5000     2.6068     0.7893
 2400.0000     2.6141     0.7895
 2400.5000     2.6216     0.7897
 2401.0000     2.6290     0.7899
 2401.5000     2.6379     0.7901
 2402.0000     2.6453     0.7902
 2402.5000     2.6526     0.7904
 2403.0000     2.6599     0.7906
 2403.5000     2.6672     0.7908
 2404.0000     2.6746     0.7910
 2404.5000     2.4933     0.7916
 2405.0000     2.5025     0.7925
 2405.5000     2.5098     0.7934
 2406.0000     2.5330     0.7940
 2406.5000     2.5570     0.6439
 2407.0000     2.5811     0.6444
 2407.5000     2.6052     0.6447
 2408.0000     2.6141     0.6451
 2408.5000     2.6141     0.6455
 2409.0000     2.4274     0.6459
 2409.5000     2.4274     0.6463
 2410.0000     2.4274     0.6467
 2410.5000     2.4274     0.6470
 2411.0000     2.4274     0.6474
 2411.5000     2.6141     0.6478
 2412.0000     2.6141     0.7609
 2412.5000     2.6141     0.7613
 2413.0000     2.6141     0.7617
 2413.5000     2.6141     0.7620
 2414.0000     2.6141     0.7624
 2414.5000     2.6141     0.7628
 2415.0000     2.6141     0.7632
 2415.5000     2.6141     0.7636
 2416.0000     2.6141     0.7640
 2416.5000     2.6141     0.7643
 2417.0000     2.6141     0.7647
 2417.5000     2.6141     0.7557
