~VERSION INFORMATION
 VERS.                2.0:   CWLS LOG ASCII STANDARD - VERSION 2.0
 WRAP.                 NO:   ONE LINE PER DEPTH STEP
~WELL INFORMATION
#MNEM.UNIT      DATA TYPE    INFORMATION
#----------   ------------   ------------------------------
 STRT.F           32.0000:   START DEPTH
 STOP.F          688.5000:   STOP DEPTH
 STEP.F            0.5000:   STEP LENGTH
 NULL.          -999.2500:   NO VALUE
 COMP. FENIX & SCISSON INC:   COMPANY
 WELL.       NPR 3 #78-34:   WELL
 FLD .  TEAPOT DOME NPR-3:   FIELD
 LOC .      S34 T39N R78W:   LOCATION
 CNTY.            NATRONA:   COUNTY
 STAT.            WYOMING:   STATE
 CTRY. UNITED STATES OF AMERICA:   COUNTRY
 SRVC.           BIRDWELL:   SERVICE COMPANY
 DATE.        16-AUG-1978:   LOGDATE
 API .       490251070700:   API NUMBER
~CURVE INFORMATION
#MNEM.UNIT       API CODE    CURVE DESCRIPTION
#----------   ------------   ------------------------------
 DEPT.F                  :   
 SPR .MV     05 010 01 00:   SPONTANEOUS POTENTIAL
 SN  .OHMM   05 040 16 00:   SHORT NORMAL 16'
 ILD .OHMM   05 120 46 00:   INDUCTION LOG DEEP RESISTIVITY
 CALD.IN     45 280 60 00:   CALIPER
 GRD .GAPI   45 310 01 00:   GAMMA RAY FROM DENSITY LOG
 RHOB.G/C3   45 350 01 00:   BULK DENSITY
 DPHI.DEC    45 890 12 00:   DENSITY POROSITY SANDSTONE
 CORR.G/C3   45 356 01 00:   DENSITY CORRECTION
~PARAMETER INFORMATION
#MNEM.UNIT          VALUE    DESCRIPTION
#----------   ------------   ------------------------------
 PD  .                 GL:   PERMANENT DATUM
 EPD .F              5085:   ELEVATION PERMANENT DATUM
 LMF .                 KB:   LOG MEASURED FROM
 DAPD.F                 4:   FEET ABOVE PERMANENT DATUM
 DMF .                 KB:   DRILLING MEASURED FROM
 EKB .F              5089:   KELLING BUSHING
 EGL .F              5085:   GROUND LEVEL
 DATE.          8-16-1978:   RUN DATE
 RUN .                  1:   RUN NUMBER
 DD  .F               680:   DEPTH DRILLER
 DL  .F               688:   DEPTH LOGGER
 BLI .F               682:   BOTTOM LOG INTERVAL
 TLI .F                50:   TOP LOG INTERVAL
 CS  .IN            8.625:   CASING SIZE
 CBD .F                40:   CASING BOTTOM DRILLER
 BS  .IN            7.875:   BIT SIZE
 BSD .F               680:   BIT SIZE AT DEPTH
 DFT .                KCL:   DRILLING FLUID TYPE
 RMS .OHMM            .32:   RESISTIVITY MUD SAMPLE
 MST .F                64:   MUD SAMPLE TEMPERATURE
 RMF .OHMM             .3:   RESISTIVITY MUD FILTRATE SAMPLE
 MFST.F                76:   MUD FILTRATE SAMPLE TEMPERATURE
 RMC .OHMM            .16:   RESISTIVITY MUD CAKE
 MCST.F                64:   MUD CAKE SAMPLE TEMPERATURE
 MFSS.               MEAS:   MUD FILTRATE SAMPLE SOURCE
 MCSS.               MEAS:   MUD CAKE SAMPLE SOURCE
 TCS .HRS               1:   TIME CURCULATED STOPPED
 LUN .               3006:   LOGGING UNIT NUMBER
 LUL .               CASP:   LOGGING UNIT LOCATION
 ENGI.             MILLER:   RECORDING ENGINEER
 WITN.           MCGINLEY:   WITNESSED BY
 CLNT.            A2DTECH:   CLIENT CODE
 ORIG.           5" PRINT:   ORIGIN OF DATA
 UWI .       490251070700:   UNIQUE WELL ID
 DICO. A2D Technologies, Inc.:   DIGITIZING COMPANY
~OTHER INFORMATION
~A   DEPT      SPR         SN        ILD       CALD         GRD      RHOB       DPHI       CORR   
# ...
   72.5000   -28.6621     9.9716     9.8201     7.7858    71.3548     2.4087     0.1681     0.0279
   73.0000   -28.6805    10.2039     9.9639     7.8209    70.4525     2.4102     0.1630     0.0269
   73.5000   -28.6988    10.4417    10.1106     7.8896    69.4975     2.4134     0.1597     0.0258
   74.0000   -28.7172    10.6850    10.2698     7.9568    68.5511     2.4052     0.1682     0.0248
   74.5000   -28.7357    10.7945    10.3207     8.0240    67.6003     2.3945     0.1744     0.0245
   75.0000   -28.7547    10.8509    10.3739     8.0912    67.4588     2.3837     0.1816     0.0269
   75.5000   -28.7616    10.9077    10.4280     8.1586    68.5844     2.3672     0.1914     0.0293
   76.0000   -28.6207    10.9646    10.4825     8.2260    69.7703     2.3565     0.2016     0.0336
   76.5000   -28.4592    11.0219    10.5373     8.2874    70.6667     2.3552     0.1965     0.0385
   77.0000   -28.2975    11.0795    10.5924     8.2853    70.7361     2.3692     0.1908     0.0435
   77.5000   -28.1374    11.1374    10.6477     8.2686    70.2450     2.3836     0.1820     0.0484
   78.0000   -27.9912    11.1956    10.7034     8.2508    69.7609     2.4002     0.1674     0.0499
   78.5000   -27.4233    11.2541    10.7593     8.2330    69.4323     2.4193     0.1592     0.0487
   79.0000   -26.8143    11.3130    10.8155     8.2152    69.6243     2.4227     0.1573     0.0471
   79.5000   -26.2073    11.3721    10.8721     8.1977    69.7785     2.4252     0.1549     0.0454
   80.0000   -25.7410    11.4315    10.9289     8.1799    68.8267     2.4278     0.1514     0.0439
   80.5000   -25.7508    11.4913    10.9860     8.1427    67.7736     2.4297     0.1503     0.0437
   81.0000   -25.7512    11.5513    11.0434     8.0190    67.5806     2.4274     0.1574     0.0435
   81.5000   -25.7515    11.6117    11.1012     7.8975    67.8657     2.4097     0.1691     0.0432
   82.0000   -25.7514    11.6720    11.1567     7.7761    69.1192     2.3920     0.1807     0.0430
   82.5000   -25.7505    11.7405    11.2469     7.6547    70.3618     2.3804     0.1845     0.0428
   83.0000   -25.7504    11.8098    11.3342     7.5333    70.1685     2.3787     0.1843     0.0426
   83.5000   -25.8164    11.8797    11.4221     7.4120    68.5796     2.3787     0.1868     0.0423
   84.0000   -26.2290    11.9501    11.5106     7.3205    66.9401     2.3788     0.1845     0.0421
   84.5000   -26.6374    12.0208    11.5999     7.2816    65.2787     2.3857     0.1808     0.0416
   85.0000   -27.0593    12.0920    11.6899     7.2689    64.7215     2.3932     0.1753     0.0395
   85.5000   -27.2025    12.1636    11.7806     7.2482    64.1905     2.3995     0.1701     0.0374
   86.0000   -27.2689    12.2356    11.8719     7.2537    63.0669     2.4018     0.1732     0.0354
   86.5000   -27.3334    12.3081    11.9640     7.2685    63.0409     2.3998     0.1731     0.0350
   87.0000   -27.3989    12.3810    12.0568     7.2829    64.1874     2.3978     0.1718     0.0387
   87.5000   -27.4642    12.4578    12.1189     7.2976    64.4675     2.4011     0.1705     0.0423
   88.0000   -27.5305    12.3704    11.9849     7.3368    66.3239     2.4148     0.1630     0.0459
   88.5000   -27.5307    12.2792    11.8848     7.5149    69.3230     2.4256     0.1533     0.0495
   89.0000   -27.4927    12.1887    11.7858     7.6629    70.6468     2.4248     0.1558     0.0499
   89.5000   -27.4536    12.0989    11.6876     7.7223    70.9342     2.4218     0.1562     0.0498
   90.0000   -27.4145    12.0098    11.5903     7.7824    71.2061     2.4228     0.1549     0.0563
   90.5000   -27.3772    11.9213    11.4938     7.8425    70.7165     2.4185     0.1613     0.0685
   91.0000   -27.4218    11.8334    11.3981     7.9027    69.1079     2.4108     0.1685     0.0982
   91.5000   -27.5722    11.7462    11.3032     7.9622    66.9534     2.4237     0.1571     0.1284
   92.0000   -27.7215    11.6597    11.2091     8.0117    65.8064     2.4451     0.1400     0.1584
   92.5000   -27.8711    11.5738    11.1158     8.0220    65.8126     2.4665     0.1222     0.1825
   93.0000   -28.0203    11.4885    11.0232     8.0110    65.7901     2.4775     0.1260     0.1601
   93.5000   -28.1911    11.4038    10.9315     7.9992    65.0202     2.4582     0.1363     0.1195
   94.0000   -28.5389    11.3198    10.8271     7.9867    64.2030     2.4284     0.1539     0.0788
   94.5000   -28.8894    11.2364    10.6440     8.0201    63.6977     2.3974     0.1714     0.0455
   95.0000   -29.2392    11.1536    10.4640     8.0604    64.7171     2.3802     0.1853     0.0367
   95.5000   -29.5617    11.0714    10.2870     8.1008    67.0936     2.3672     0.1919     0.0339
   96.0000   -29.6783    10.9898    10.1130     8.1411    69.0902     2.3557     0.1985     0.0320
   96.5000   -29.7873    10.8810     9.9419     8.1814    69.4045     2.3525     0.1981     0.0327
   97.0000   -29.9073    10.7510     9.7912     8.2222    69.1868     2.3518     0.1977     0.0334
   97.5000   -30.4679    10.6226     9.7060     8.2633    69.0143     2.3527     0.2008     0.0340
   98.0000   -31.6070    10.4957     9.6215     8.2353    69.1803     2.3537     0.2018     0.0347
   98.5000   -32.7406    10.3703     9.5398     8.2012    69.3438     2.3548     0.2003     0.0353
   99.0000   -33.8800    10.2480     9.4541     8.1675    69.5214     2.3557     0.1988     0.0360
   99.5000   -35.0178    10.1210     8.9319     8.1338    70.3228     2.3575     0.1915     0.0366
  100.0000   -35.2177     9.7122     8.4375     8.1002    71.9586     2.3725     0.1852     0.0373
  100.5000   -35.2670     9.1717     7.9721     8.0666    73.6426     2.3840     0.1800     0.0379
  101.0000   -35.3156     8.6654     7.5323     8.0329    73.7334     2.3818     0.1829     0.0369
  101.5000   -35.3661     8.1868     7.1169     7.9993    73.3950     2.3796     0.1860     0.0358
  102.0000   -35.4169     7.7342     6.7243     7.9656    73.2445     2.3875     0.1745     0.0347
  102.5000   -35.4676     7.3078     6.3534     7.9320    73.3814     2.3933     0.1769     0.0351
  103.0000   -35.5183     7.0451     5.9132     7.8983    72.5264     2.3920     0.1804     0.0402
  103.5000   -35.5690     7.0715     5.9188     7.8647    71.3170     2.3950     0.1721     0.0450
  104.0000   -35.6197     7.1076     5.8640     7.8310    70.5816     2.4103     0.1570     0.0487
  104.5000   -35.6705     7.1439     5.9212     7.7973    71.8361     2.4399     0.1420     0.0489
  105.0000   -35.7212     7.1804     5.9248     7.7712    75.7781     2.4669     0.1313     0.0467
  105.5000   -35.7719     7.2171     5.9392     7.7489    79.5996     2.4687     0.1309     0.0443
  106.0000   -35.8226     7.2429     5.9495     7.7264    83.4371     2.4701     0.1277     0.0485
  106.5000   -35.8733     7.1763     5.9598     7.7040    86.0563     2.4788     0.1222     0.0546
  107.0000   -35.9240     7.1163     5.9700     7.6815    87.9186     2.4829     0.1242     0.0607
  107.5000   -35.9748     7.0568     5.9803     7.6591    89.5571     2.4896     0.1198     0.0632
  108.0000   -36.0255     6.9978     5.9906     7.6366    89.3972     2.4999     0.1106     0.0604
  108.5000   -36.0765     6.9394     6.0009     7.6269    86.3176     2.5056     0.1058     0.0489
  109.0000   -36.1276     6.8814     6.0113     7.6267    81.6284     2.4938     0.1187     0.0374
  109.5000   -36.1644     6.8542     6.0216     7.6267    78.9441     2.4745     0.1297     0.0259
  110.0000   -36.0760     6.8542     6.0320     7.6267    79.8781     2.4591     0.1344     0.0201
  110.5000   -35.9880     6.8542     6.0424     7.6267    83.3497     2.4590     0.1398     0.0205
  111.0000   -35.9003     6.8542     6.0528     7.6267    86.6508     2.4603     0.1366     0.0209
  111.5000   -35.8126     6.8542     6.0633     7.6267    88.4842     2.4587     0.1334     0.0213
  112.0000   -35.7250     6.8542     6.0737     7.6267    86.5710     2.4540     0.1424     0.0217
  112.5000   -35.6374     6.8542     6.0842     7.6267    84.1335     2.4516     0.1373     0.0221
