~VERSION INFORMATION
 VERS.                2.0:   CWLS LOG ASCII STANDARD - VERSION 2.0
 WRAP.                 NO:   ONE LINE PER DEPTH STEP
~WELL INFORMATION
#MNEM.UNIT      DATA TYPE    INFORMATION
#----------   ------------   ------------------------------
 STRT.F          630.0000:   START DEPTH
 STOP.F         1708.0000:   STOP DEPTH
 STEP.F            0.5000:   STEP LENGTH
 NULL.          -999.2500:   NO VALUE
 COMP. FENIX & SCISSON INC:   COMPANY
 WELL.      SHX 34 #58-34:   WELL
 FLD .             TEAPOT:   FIELD
 LOC .      S34 T39N R78W:   LOCATION
 CNTY.            NATRONA:   COUNTY
 STAT.            WYOMING:   STATE
 CTRY. UNITED STATES OF AMERICA:   COUNTRY
 SRVC.           BIRDWELL:   SERVICE COMPANY
 DATE.        28-MAR-1979:   LOGDATE
 API .       490251077400:   API NUMBER
~CURVE INFORMATION
#MNEM.UNIT       API CODE    CURVE DESCRIPTION
#----------   ------------   ------------------------------
 DEPT.F                  :   
 CORR.G/C3   45 356 01 00:   DENSITY CORRECTION
 DPHI.DEC    45 890 12 00:   DENSITY POROSITY SANDSTONE
 RHOB.G/C3   45 350 01 00:   BULK DENSITY
 CALD.IN     45 280 60 00:   CALIPER
 GRD .GAPI   45 310 01 00:   GAMMA RAY FROM DENSITY LOG
~PARAMETER INFORMATION
#MNEM.UNIT          VALUE    DESCRIPTION
#----------   ------------   ------------------------------
 PD  .                 GL:   PERMANENT DATUM
 EPD .F              5120:   ELEVATION PERMANENT DATUM
 LMF .                 KB:   LOG MEASURED FROM
 DAPD.F                10:   FEET ABOVE PERMANENT DATUM
 DMF .                 KB:   DRILLING MEASURED FROM
 EKB .F              5130:   KELLING BUSHING
 EGL .F              5120:   GROUND LEVEL
 DATE.            3-28-79:   RUN DATE
 RUN .                  2:   RUN NUMBER
 DD  .F              1720:   DEPTH DRILLER
 DL  .F              1708:   DEPTH LOGGER
 BLI .F              1708:   BOTTOM LOG INTERVAL
 TLI .F               649:   TOP LOG INTERVAL
 CS  .IN            9.625:   CASING SIZE
 CBD .F               639:   CASING BOTTOM DRILLER
 CBL .F               646:   CASING BOTTOM LOGGER
 BS  .IN             8.75:   BIT SIZE
 BSD .F              1720:   BIT SIZE AT DEPTH
 DFT .                OIL:   DRILLING FLUID TYPE
 TCS .HRS               3:   TIME CURCULATED STOPPED
 MRT .F               150:   MAXIMUM RECORDED TEMPERATURE
 LUN .               2959:   LOGGING UNIT NUMBER
 LUL .             CASPER:   LOGGING UNIT LOCATION
 ENGI.         B. ROLLINS:   RECORDING ENGINEER
 WITN.              AMEND:   WITNESSED BY
 CLNT.            A2DTECH:   CLIENT CODE
 ORIG.           5" PRINT:   ORIGIN OF DATA
 UWI .       490251077400:   UNIQUE WELL ID
 DICO. A2D Technologies, Inc.:   DIGITIZING COMPANY
~OTHER INFORMATION
~A   DEPT     CORR       DPHI       RHOB       CALD         GRD  
# ...
 1301.0000     0.0700     0.0317     2.5005     9.2718   128.4054
 1301.5000     0.0673     0.0384     2.4983     9.2648   128.6518
 1302.0000     0.0597     0.0462     2.4869     9.2598   124.7128
 1302.5000     0.0686     0.0478     2.4695     9.2536   121.3889
 1303.0000     0.0925     0.0426     2.4989     9.2463   124.0264
 1303.5000     0.1044     0.0346     2.5383     9.2390   126.3104
 1304.0000     0.1005     0.0266     2.5327     9.2317   124.1261
 1304.5000     0.0981     0.0215     2.5053     9.2244   122.0610
 1305.0000     0.0746     0.0425     2.4778     9.2171   122.8377
 1305.5000     0.0456     0.0534     2.4617     9.2099   121.6940
 1306.0000     0.0539     0.0506     2.4650     9.2026   115.4377
 1306.5000     0.0736     0.0454     2.4816     9.1951   111.7382
 1307.0000     0.0925     0.0291     2.5007     9.1882   114.8882
 1307.5000     0.0941     0.0335     2.5049     9.1804   116.9602
 1308.0000     0.0800     0.0318     2.4921     9.1797   114.6938
 1308.5000     0.0739     0.0296     2.5024     9.1735   113.8453
 1309.0000     0.0550     0.0368     2.4951     9.1684   116.9044
 1309.5000     0.0357     0.0420     2.4827     9.1625   119.8955
 1310.0000     0.0249     0.0448     2.4738     9.1566   120.9203
 1310.5000     0.0297     0.0431     2.4769     9.1519   119.1921
 1311.0000     0.0348     0.0456     2.4804     9.1447   114.8891
 1311.5000     0.0280     0.0489     2.4731     9.1368   110.5773
 1312.0000     0.0204     0.0516     2.4680     9.0736   106.9812
 1312.5000     0.0184     0.0474     2.4707     9.0160   107.6770
 1313.0000     0.0170     0.0430     2.4737     8.9519   109.6571
 1313.5000     0.0159     0.0538     2.4713     8.8921   112.7990
 1314.0000     0.0158     0.0709     2.4540     8.8726   115.9485
 1314.5000     0.0182     0.0717     2.4381     8.9141   118.9302
 1315.0000     0.0284     0.0721     2.4275     8.9369   122.0503
 1315.5000     0.0382     0.0733     2.4267     8.7871   125.9944
 1316.0000     0.0481     0.0749     2.4310     8.7772   124.5128
 1316.5000     0.0564     0.0729     2.4203     8.8510   121.8824
 1317.0000     0.0643     0.0701     2.4397     8.9784   121.0263
 1317.5000     0.0720     0.0546     2.4622     9.0056   122.3255
 1318.0000     0.0776     0.0414     2.4861     9.0285   123.3807
 1318.5000     0.0891     0.0321     2.5099     9.0537   119.3285
 1319.0000     0.1028     0.0159     2.5244     9.0753   113.2216
 1319.5000     0.0994     0.0231     2.5082     9.0970   107.1959
 1320.0000     0.0962     0.0199     2.5144     9.0566   105.2079
 1320.5000     0.1274     0.0068     2.5389     9.0141   110.3916
 1321.0000     0.1605    -0.0080     2.5675     8.9700   114.5848
 1321.5000     0.1428     0.0032     2.5565     8.9252   117.7862
 1322.0000     0.1111     0.0264     2.5186     8.8813   114.8657
 1322.5000     0.0756     0.0422     2.4813     8.8629   109.9246
 1323.0000     0.0853     0.0374     2.4898     8.9357   107.4239
 1323.5000     0.1041     0.0324     2.4985     9.0015   108.7758
 1324.0000     0.1119     0.0303     2.5048     9.0180   113.4814
 1324.5000     0.1053     0.0317     2.5007     9.0086   117.4851
 1325.0000     0.1008     0.0327     2.4973     8.9996   121.7393
 1325.5000     0.0953     0.0291     2.4934     8.9914   125.4409
 1326.0000     0.0802     0.0246     2.4951     8.9833   128.1848
 1326.5000     0.0856     0.0202     2.5090     8.9808   126.9575
 1327.0000     0.1032     0.0167     2.5284     9.0200   125.1548
 1327.5000     0.1038     0.0159     2.5228     9.0660   123.1204
 1328.0000     0.0880     0.0228     2.5066     9.1124   121.4833
 1328.5000     0.0764     0.0510     2.4717     9.1607   120.1031
 1329.0000     0.0629     0.0622     2.4456     9.1826   118.6055
 1329.5000     0.0494     0.0630     2.4457     9.1920   117.4037
 1330.0000     0.0391     0.0630     2.4455     9.2020   116.5726
 1330.5000     0.0489     0.0576     2.4513     9.2129   115.6530
 1331.0000     0.0696     0.0445     2.4698     9.2167   115.2480
 1331.5000     0.0901     0.0375     2.4962     9.2030   116.2787
 1332.0000     0.0916     0.0377     2.5026     9.1897   117.2410
 1332.5000     0.0772     0.0378     2.5005     9.1761   118.3580
 1333.0000     0.0630     0.0380     2.4957     9.1621   119.5255
 1333.5000     0.0486     0.0382     2.4917     9.1482   120.2340
 1334.0000     0.0357     0.0430     2.4860     9.1403   115.1425
 1334.5000     0.0324     0.0494     2.4726     9.1684   113.5537
 1335.0000     0.0387     0.0510     2.4604     9.1971   116.3670
 1335.5000     0.0591     0.0375     2.4860     9.2195   118.0904
 1336.0000     0.0792     0.0234     2.5135     9.2219   116.8140
 1336.5000     0.0833     0.0175     2.5251     9.2278   115.1242
 1337.0000     0.0762     0.0239     2.5109     9.2331   113.2906
 1337.5000     0.0699     0.0293     2.4993     9.2384   112.9399
 1338.0000     0.0636     0.0347     2.4875     9.2439   115.2454
 1338.5000     0.0573     0.0401     2.4821     9.2490   117.0803
 1339.0000     0.0509     0.0454     2.4769     9.2546   115.8187
 1339.5000     0.0446     0.0456     2.4743     9.2604   113.8832
 1340.0000     0.0382     0.0446     2.4734     9.2752   112.2198
 1340.5000     0.0319     0.0445     2.4788     9.2905   111.7837
 1341.0000     0.0257     0.0473     2.4780     9.3061   112.3764
 1341.5000     0.0186  -999.2500     2.4703     9.3215   114.6563
 1342.0000     0.0192  -999.2500     2.4625     9.3369   119.9596
 1342.5000     0.0256  -999.2500     2.4718     9.3524   115.7192
 1343.0000     0.0281  -999.2500     2.4871     9.3679   107.2872
 1343.5000  -999.2500  -999.2500     2.4987     9.3834   108.1549
 1344.0000  -999.2500  -999.2500     2.5033     9.3989   112.4244
 1344.5000  -999.2500  -999.2500     2.5112     9.4142   116.4132
 1345.0000  -999.2500  -999.2500     2.5154     9.4302   117.6131
 1345.5000  -999.2500  -999.2500     2.5101     9.4450   117.8554
 1346.0000  -999.2500  -999.2500     2.5052     9.4587   119.8674
 1346.5000  -999.2500  -999.2500     2.5018     9.4435   122.4732
 1347.0000  -999.2500  -999.2500     2.4985     9.4285   124.9632
 1347.5000  -999.2500  -999.2500     2.4901     9.4126   126.4708
 1348.0000  -999.2500  -999.2500     2.4830     9.3966   125.6844
 1348.5000  -999.2500  -999.2500     2.4753     9.3795   124.8040
 1349.0000  -999.2500  -999.2500     2.4727     9.3396   122.8566
 1349.5000  -999.2500  -999.2500     2.4700     9.2969   119.5486
 1350.0000  -999.2500  -999.2500     2.4676     9.2537   113.2400
 1350.5000  -999.2500  -999.2500     2.4651     9.2105   114.7200
 1351.0000  -999.2500     0.0554     2.4623     9.1678   115.9842
 1351.5000  -999.2500     0.0579     2.4629     9.1251   114.2189
 1352.0000  -999.2500     0.0604     2.4685     9.0799   111.7514
 1352.5000  -999.2500     0.0630     2.4737     9.0577   112.9301
 1353.0000  -999.2500     0.0655     2.4913     9.0513   113.1793
 1353.5000  -999.2500     0.0681     2.4996     9.0444   111.0321
 1354.0000  -999.2500     0.0706     2.4985     9.0353   109.4599
 1354.5000  -999.2500     0.0732     2.5006     9.0270   111.8894
 1355.0000  -999.2500     0.0757     2.4813     9.0251   114.4153
 1355.5000  -999.2500     0.0783     2.4480     8.9706   116.8900
 1356.0000  -999.2500     0.0808     2.4175     8.8727   118.5591
 1356.5000  -999.2500     0.0821     2.4051     8.7831   117.4910
 1357.0000  -999.2500     0.0797     2.4446     8.7026   117.9567
 1357.5000  -999.2500     0.0764     2.4802     8.7095   117.6983
 1358.0000  -999.2500     0.0730     2.4928     8.7388   116.0591
 1358.5000  -999.2500     0.0697     2.4958     8.7687   114.1832
 1359.0000  -999.2500     0.0666     2.4870     8.8036   116.3459
 1359.5000  -999.2500     0.0634     2.4722     8.8254   115.4283
 1360.0000  -999.2500     0.0602     2.4553     8.9030   111.3214
 1360.5000  -999.2500     0.0441     2.4615     8.9890   109.1229
 1361.0000  -999.2500     0.0483     2.4740     9.0217   110.2340
 1361.5000  -999.2500  -999.2500     2.4811     9.0161   111.7456
