~VERSION INFORMATION
 VERS.                2.0:   CWLS LOG ASCII STANDARD - VERSION 2.0
 WRAP.                 NO:   ONE LINE PER DEPTH STEP
~WELL INFORMATION
#MNEM.UNIT      DATA TYPE    INFORMATION
#----------   ------------   ------------------------------
 STRT.F           23.0000:   START DEPTH
 STOP.F         2536.0000:   STOP DEPTH
 STEP.F            0.5000:   STEP LENGTH
 NULL.          -999.2500:   NO VALUE
 COMP. FENIX & SCISSON INC:   COMPANY
 WELL.     14 SHX 3 #14-3:   WELL
 FLD .             TEAPOT:   FIELD
 LOC .       S3 T38N R78W:   LOCATION
 CNTY.            NATRONA:   COUNTY
 STAT.            WYOMING:   STATE
 CTRY. UNITED STATES OF AMERICA:   COUNTRY
 SRVC.           BIRDWELL:   SERVICE COMPANY
 DATE.        20-MAR-1979:   LOGDATE
 API .       490251073900:   API NUMBER
~CURVE INFORMATION
#MNEM.UNIT       API CODE    CURVE DESCRIPTION
#----------   ------------   ------------------------------
 DEPT.F                  :   
 SPR .MV     07 010 01 00:   SPONTANEOUS POTENTIAL
 SN  .OHMM   07 040 16 00:   SHORT NORMAL 16'
 IL  .OHMM   07 120 00 00:   INDUCTION LOG
 GRD .GAPI   45 310 01 00:   GAMMA RAY FROM DENSITY LOG
 CALD.IN     45 280 60 00:   CALIPER
 CORR.G/C3   45 356 01 00:   DENSITY CORRECTION
 DEN .G/C3   45 350 01 00:   
 DPHI.DEC    45 890 12 00:   DENSITY POROSITY SANDSTONE
~PARAMETER INFORMATION
#MNEM.UNIT          VALUE    DESCRIPTION
#----------   ------------   ------------------------------
 PD  .                 GL:   PERMANENT DATUM
 EPD .F              5208:   ELEVATION PERMANENT DATUM
 LMF .                 KB:   LOG MEASURED FROM
 DAPD.F                10:   FEET ABOVE PERMANENT DATUM
 DMF .                 KB:   DRILLING MEASURED FROM
 EKB .F              5218:   KELLING BUSHING
 EGL .F              5208:   GROUND LEVEL
 DATE.            3-20-79:   RUN DATE
 RUN .                  1:   RUN NUMBER
 DD  .F              2580:   DEPTH DRILLER
 DL  .F              2536:   DEPTH LOGGER
 BLI .F              2536:   BOTTOM LOG INTERVAL
 TLI .F               400:   TOP LOG INTERVAL
 CS  .IN            9.625:   CASING SIZE
 CBL .F               680:   CASING BOTTOM LOGGER
 BS  .IN             8.75:   BIT SIZE
 BSD .F              2580:   BIT SIZE AT DEPTH
 DFT .                AIR:   DRILLING FLUID TYPE
 TCS .HRS               6:   TIME CURCULATED STOPPED
 LUN .               2959:   LOGGING UNIT NUMBER
 LUL .             CASPER:   LOGGING UNIT LOCATION
 ENGI.            ROLLINS:   RECORDING ENGINEER
 WITN.           DINSMORE:   WITNESSED BY
 CLNT.            A2DTECH:   CLIENT CODE
 ORIG. 1", 2", 2.5", 5" PRINT:   ORIGIN OF DATA
 UWI .       490251073900:   UNIQUE WELL ID
 DICO. A2D Technologies, Inc.:   DIGITIZING COMPANY
~OTHER INFORMATION
~A   DEPT      SPR         SN         IL        GRD       CALD       CORR        DEN       DPHI   
# ...
  671.0000  -999.2500  -999.2500  -999.2500  -999.2500  -999.2500     0.0709     2.4546     0.1453
  671.5000  -999.2500  -999.2500  -999.2500  -999.2500  -999.2500     0.0838     2.4211     0.1622
  672.0000  -999.2500  -999.2500  -999.2500  -999.2500  -999.2500     0.0967     2.3966     0.1741
  672.5000  -999.2500  -999.2500  -999.2500  -999.2500  -999.2500     0.1097     2.4106     0.1652
  673.0000  -999.2500  -999.2500  -999.2500  -999.2500  -999.2500     0.1291     2.4315     0.1520
  673.5000  -999.2500  -999.2500  -999.2500  -999.2500  -999.2500     0.1497     2.4529     0.1392
  674.0000  -999.2500  -999.2500  -999.2500  -999.2500  -999.2500     0.1777     2.4533     0.1403
  674.5000  -999.2500  -999.2500  -999.2500  -999.2500  -999.2500     0.2327     2.4544     0.1394
  675.0000  -999.2500  -999.2500  -999.2500  -999.2500  -999.2500     0.2375     2.4673     0.1315
  675.5000  -999.2500  -999.2500  -999.2500  -999.2500  -999.2500     0.2373     2.4499     0.1408
  676.0000  -999.2500  -999.2500  -999.2500  -999.2500  -999.2500     0.2841     2.4247     0.1432
  676.5000  -999.2500  -999.2500  -999.2500  -999.2500  -999.2500     0.2794     2.4705     0.1367
  677.0000  -999.2500  -999.2500  -999.2500  -999.2500  -999.2500     0.2801     2.4710     0.1367
  677.5000  -999.2500  -999.2500  -999.2500  -999.2500  -999.2500  -999.2500     2.4493     0.1320
  678.0000  -999.2500  -999.2500  -999.2500  -999.2500  -999.2500  -999.2500     2.4275     0.1273
  678.5000  -999.2500  -999.2500  -999.2500  -999.2500  -999.2500  -999.2500     2.4057     0.1226
  679.0000  -999.2500  -999.2500  -999.2500  -999.2500    10.8296  -999.2500     2.3839     0.1179
  679.5000  -999.2500  -999.2500  -999.2500  -999.2500    10.8073  -999.2500     2.3621     0.1132
  680.0000  -999.2500  -999.2500  -999.2500  -999.2500    10.7850  -999.2500     2.3403     0.1085
  680.5000  -999.2500  -999.2500  -999.2500   203.3578    10.7627  -999.2500     2.3186     0.1038
  681.0000  -999.2500  -999.2500  -999.2500   161.4261    10.7404  -999.2500     2.3023     0.1110
  681.5000  -999.2500  -999.2500  -999.2500   167.1141    10.7181     0.4535     2.2859     0.1202
  682.0000  -999.2500  -999.2500  -999.2500   170.3036    10.7238     0.4983     2.2879     0.1125
  682.5000  -999.2500  -999.2500  -999.2500   171.6490    10.6847     0.4987     2.3320     0.0995
  683.0000  -999.2500  -999.2500  -999.2500   165.0306    10.6624     0.4992     2.3692     0.0865
  683.5000  -999.2500  -999.2500  -999.2500   159.2543    10.6384     0.4996     2.3929     0.0677
  684.0000  -999.2500  -999.2500  -999.2500   156.9725    10.6222     0.5001     2.3833     0.0694
  684.5000  -999.2500  -999.2500  -999.2500   156.0909    10.6192     0.5007     2.3505     0.0837
  685.0000  -999.2500  -999.2500  -999.2500   155.3458    10.6144     0.5013     2.3219     0.0988
  685.5000  -999.2500  -999.2500  -999.2500   154.5241    10.6097     0.5002     2.2915     0.1139
  686.0000  -999.2500  -999.2500  -999.2500   151.9722    10.6053     0.5048     2.2587     0.1347
  686.5000  -999.2500  -999.2500  -999.2500   147.3356    10.6007     0.4826     2.2600     0.1290
  687.0000  -999.2500  -999.2500  -999.2500   146.2589    10.5961     0.4733     2.3547     0.0989
  687.5000  -999.2500  -999.2500  -999.2500   148.4997    10.5914     0.4718     2.6420    -0.0495
  688.0000  -999.2500  -999.2500  -999.2500   150.5440    10.5878     0.3742     2.6087    -0.0319
  688.5000  -999.2500  -999.2500  -999.2500   152.5827    10.5737     0.1266     2.4960     0.0205
  689.0000  -999.2500  -999.2500  -999.2500   154.7302    10.5490     0.0723     2.5004     0.0143
  689.5000  -999.2500  -999.2500  -999.2500   156.7032    10.5254     0.0798     2.5167     0.0229
  690.0000  -999.2500  -999.2500  -999.2500   158.9061    10.5017     0.0768     2.5297     0.0114
  690.5000  -999.2500  -999.2500  -999.2500   159.0723    10.4778     0.0579     2.5094     0.0294
  691.0000  -999.2500  -999.2500  -999.2500   157.2247    10.4541     0.0500     2.4804     0.0612
  691.5000  -999.2500  -999.2500  -999.2500   152.9142    10.4303     0.0556     2.4860     0.0419
  692.0000  -999.2500  -999.2500  -999.2500   148.7050    10.4065     0.0597     2.4992     0.0192
  692.5000  -999.2500  -999.2500  -999.2500   146.2817    10.3827     0.0643     2.5014     0.0234
  693.0000  -999.2500  -999.2500  -999.2500   150.4938    10.3589     0.0665     2.4925     0.0252
  693.5000  -999.2500  -999.2500  -999.2500   153.9875    10.3351     0.0672     2.4920     0.0240
  694.0000  -999.2500  -999.2500  -999.2500   158.0531    10.3112     0.0681     2.4978     0.0321
  694.5000  -999.2500  -999.2500  -999.2500   156.6649    10.2876     0.0692     2.5007     0.0192
  695.0000  -999.2500  -999.2500  -999.2500   154.3159    10.2636     0.0679     2.5017     0.0230
  695.5000  -999.2500  -999.2500  -999.2500   152.4952    10.2395     0.0615     2.5029     0.0365
  696.0000  -999.2500  -999.2500  -999.2500   151.5381    10.2238     0.0553     2.5040     0.0172
  696.5000  -999.2500  -999.2500  -999.2500   150.9436    10.2316     0.0489     2.5054     0.0524
  697.0000  -999.2500  -999.2500  -999.2500   150.2509    10.2388     0.0426     2.5032     0.1852
  697.5000  -999.2500  -999.2500  -999.2500   150.1530    10.2468     0.0363     2.4919     0.0728
  698.0000  -999.2500  -999.2500  -999.2500   149.6606    10.2546     0.0298     2.4813     0.0231
  698.5000  -999.2500  -999.2500  -999.2500   149.3879    10.2623     0.0238     2.4696     0.0418
  699.0000  -999.2500  -999.2500  -999.2500   149.0346    10.2701     0.0214     2.4666     0.0861
  699.5000  -999.2500  -999.2500  -999.2500   146.5471    10.2779     0.0433     2.4792     0.0630
  700.0000  -999.2500  -999.2500  -999.2500   143.5701    10.2857     0.0708     2.5032     0.0346
  700.5000  -999.2500  -999.2500  -999.2500   140.5763    10.2934     0.0963     2.5272     0.0038
  701.0000  -999.2500  -999.2500  -999.2500   140.1294    10.3012     0.0953     2.5370     0.0030
  701.5000  -999.2500  -999.2500  -999.2500   140.1839    10.3090     0.0639     2.5237     0.0183
  702.0000  -999.2500  -999.2500  -999.2500   141.9023    10.3167     0.0375     2.4930     0.0386
  702.5000  -999.2500  -999.2500  -999.2500   143.5912    10.3245     0.0099     2.4729     0.0353
  703.0000  -999.2500  -999.2500  -999.2500   144.9551    10.3322    -0.0013     2.4649     0.0386
  703.5000  -999.2500  -999.2500  -999.2500   144.6578    10.3400    -0.0098     2.4552     0.0440
  704.0000  -999.2500  -999.2500  -999.2500   144.4837    10.3477    -0.0089     2.4513     0.0483
  704.5000  -999.2500  -999.2500  -999.2500   144.3726    10.3555     0.0073     2.4669     0.0379
  705.0000  -999.2500  -999.2500  -999.2500   148.2218    10.3633     0.0213     2.4822     0.0292
  705.5000  -999.2500  -999.2500  -999.2500   151.7336    10.3710     0.0290     2.4943     0.0224
  706.0000  -999.2500  -999.2500  -999.2500   156.0535    10.3788     0.0349     2.5037     0.1275
  706.5000  -999.2500  -999.2500  -999.2500   154.7789    10.3873     0.0409     2.5133     0.0143
  707.0000  -999.2500  -999.2500  -999.2500   153.0809    10.3964     0.0369     2.5052     0.0194
  707.5000  -999.2500  -999.2500  -999.2500   152.4387    10.4056     0.0329     2.4970     0.0277
  708.0000  -999.2500  -999.2500  -999.2500   148.2655    10.4148     0.0297     2.4904     0.0329
  708.5000  -999.2500  -999.2500  -999.2500   144.2798    10.4240     0.0349     2.4992     0.0224
  709.0000  -999.2500  -999.2500  -999.2500   141.4089    10.4332     0.0391     2.5131     0.1077
  709.5000  -999.2500  -999.2500  -999.2500   142.4461    10.4424     0.0437     2.5171     0.1929
  710.0000  -999.2500  -999.2500  -999.2500   145.0843    10.4516     0.0481     2.5198     0.1073
  710.5000  -999.2500  -999.2500  -999.2500   147.6142    10.4608     0.0528     2.5138     0.0216
  711.0000  -999.2500  -999.2500  -999.2500   149.2709    10.4700     0.0569     2.5105     0.2277
