~VERSION INFORMATION
 VERS.                2.0:   CWLS LOG ASCII STANDARD - VERSION 2.0
 WRAP.                 NO:   ONE LINE PER DEPTH STEP
~WELL INFORMATION
#MNEM.UNIT      DATA TYPE    INFORMATION
#----------   ------------   ------------------------------
 STRT.F            1.0000:   START DEPTH
 STOP.F          755.5000:   STOP DEPTH
 STEP.F            0.5000:   STEP LENGTH
 NULL.          -999.2500:   NO VALUE
 COMP. FENIX & SCISSON INC:   COMPANY
 WELL.       25-SX #25-14:   WELL
 FLD .        TEAPOT DOME:   FIELD
 LOC .      S14 T38N R78W:   LOCATION
 CNTY.            NATRONA:   COUNTY
 STAT.            WYOMING:   STATE
 CTRY. UNITED STATES OF AMERICA:   COUNTRY
 SRVC.           BIRDWELL:   SERVICE COMPANY
 DATE.        29-DEC-1978:   LOGDATE
 API .       490251076000:   API NUMBER
~CURVE INFORMATION
#MNEM.UNIT       API CODE    CURVE DESCRIPTION
#----------   ------------   ------------------------------
 DEPT.F                  :   
 SPR .MV     05 010 01 00:   SPONTANEOUS POTENTIAL FROM RES.
 SN  .OHMM   05 040 16 00:   SHORT NORMAL 16"
 IL  .OHMM   05 120 00 00:   INDUCTION LOG
 CALD.IN     45 280 60 00:   CALIPER
 GRD .GAPI   45 310 01 00:   GAMMA RAY FROM DENSITY LOG
 CORR.G/C3   45 356 01 00:   DENSITY CORRECTION
 DPHI.DEC    45 890 12 00:   DENSITY POROSITY SANDSTONE
 RHOB.G/C3   45 350 01 00:   BULK DENSITY
~PARAMETER INFORMATION
#MNEM.UNIT          VALUE    DESCRIPTION
#----------   ------------   ------------------------------
 PD  .                 GL:   PERMANENT DATUM
 EPD .F              5214:   ELEVATION PERMANENT DATUM
 LMF .                 KB:   LOG MEASURED FROM
 DAPD.F                 4:   FEET ABOVE PERMANENT DATUM
 DMF .                 KB:   DRILLING MEASURED FROM
 EKB .F              5218:   KELLING BUSHING
 EGL .F              5214:   GROUND LEVEL
 DATE.           12-29-79:   RUN DATE
 RUN .                  1:   RUN NUMBER
 DD  .F               765:   DEPTH DRILLER
 DL  .F               747:   DEPTH LOGGER
 BLI .F               740:   BOTTOM LOG INTERVAL
 TLI .F                40:   TOP LOG INTERVAL
 CS  .IN            8.625:   CASING SIZE
 CBD .F                40:   CASING BOTTOM DRILLER
 CBL .F                40:   CASING BOTTOM LOGGER
 BS  .IN            7.875:   BIT SIZE
 BSD .F               765:   BIT SIZE AT DEPTH
 DFT .                KCL:   DRILLING FLUID TYPE
 DFD .                8.8:   DRILLING FLUID DENSITY
 DFV .                 48:   DRILLING FLUID VISCOSITY
 DFPH.                9.2:   DRILLING FLUID PH
 MSS .           FLOWLINE:   MUD SAMPLE SOURCE
 RMS .OHMM            .17:   RESISTIVITY MUD SAMPLE
 MST .F                56:   MUD SAMPLE TEMPERATURE
 RMF .OHMM            .15:   RESISTIVITY MUD FILTRATE SAMPLE
 MFST.F                56:   MUD FILTRATE SAMPLE TEMPERATURE
 RMC .OHMM            .23:   RESISTIVITY MUD CAKE
 MCST.F                64:   MUD CAKE SAMPLE TEMPERATURE
 MFSS.           MEASURED:   MUD FILTRATE SAMPLE SOURCE
 MCSS.           MEASURED:   MUD CAKE SAMPLE SOURCE
 RMB .OHMM            .16:   RESISTIVITY MUD AT BHT
 BHT .F                59:   BOTTOM HOLE TEMPERATURE
 TCS .HRS              12:   TIME CURCULATED STOPPED
 MRT .F                59:   MAXIMUM RECORDED TEMPERATURE
 LUN .               2958:   LOGGING UNIT NUMBER
 LUL .             CASPER:   LOGGING UNIT LOCATION
 ENGI.            ROLLINS:   RECORDING ENGINEER
 WITN.         RICHARDSON:   WITNESSED BY
 CLNT.            A2DTECH:   CLIENT CODE
 ORIG.           5" PRINT:   ORIGIN OF DATA
 UWI .       490251076000:   UNIQUE WELL ID
 DICO. A2D Technologies, Inc.:   DIGITIZING COMPANY
~OTHER INFORMATION
~A    DEPT     SPR         SN         IL       CALD         GRD      CORR       DPHI       RHOB   
# ...
  406.0000   -61.9980     6.7150     5.9390     7.5190   101.0930     0.0180     0.1020     2.5130
  406.5000   -62.0330     6.6920     5.9130     7.5180   103.0230     0.0190     0.1030     2.5060
  407.0000   -62.0680     6.6700     5.8870     7.5160   107.6150     0.0190     0.1040     2.5060
  407.5000   -62.1030     6.6480     5.8610     7.5150   108.6860     0.0190     0.1040     2.5060
  408.0000   -62.1380     6.6260     5.8340     7.5130   107.0030     0.0200     0.1040     2.5050
  408.5000   -62.1740     6.6040     5.8080     7.5110   103.7750     0.0200     0.1050     2.5050
  409.0000   -62.2090     6.5810     5.7820     7.5100   103.2820     0.0200     0.1070     2.5040
  409.5000   -62.2890     6.5560     5.7560     7.5080   103.2730     0.0200     0.1120     2.5040
  410.0000   -62.4070     6.5310     5.7080     7.5070   103.2690     0.0200     0.1160     2.4980
  410.5000   -62.5240     6.5060     5.6510     7.5050   103.2740     0.0210     0.1210     2.4910
  411.0000   -62.6710     6.4810     5.5940     7.5040   102.2260     0.0210     0.1260     2.4830
  411.5000   -62.9530     6.4560     5.5550     7.5020   100.4960     0.0210     0.1270     2.4760
  412.0000   -63.2400     6.4310     5.5410     7.5010    99.0270     0.0200     0.1260     2.4710
  412.5000   -63.5280     6.4060     5.5290     7.4990   100.1440     0.0190     0.1270     2.4680
  413.0000   -63.8150     6.3810     5.5160     7.4960   102.9700     0.0170     0.1270     2.4670
  413.5000   -63.8460     6.3560     5.5040     7.5320   104.5770     0.0150     0.1290     2.4670
  414.0000   -63.8650     6.3310     5.4910     7.5570   104.7790     0.0140     0.1310     2.4670
  414.5000   -63.8830     6.3080     5.4790     7.5570   106.1690     0.0120     0.1330     2.4640
  415.0000   -63.9030     6.2890     5.4670     7.5570   107.1270     0.0110     0.1340     2.4610
  415.5000   -63.9210     6.2710     5.4540     7.5570   107.2050     0.0090     0.1350     2.4580
  416.0000   -63.9400     6.2520     5.4420     7.5570   107.3050     0.0100     0.1350     2.4550
  416.5000   -63.9590     6.2340     5.4290     7.5570   106.8570     0.0110     0.1320     2.4550
  417.0000   -63.9780     6.2150     5.4170     7.5570   105.5520     0.0170     0.1300     2.4550
  417.5000   -63.9980     6.1960     5.4040     7.5570   104.3070     0.0180     0.1280     2.4570
  418.0000   -64.0170     6.1780     5.3920     7.5570   103.9530     0.0190     0.1290     2.4610
  418.5000   -64.0810     6.1590     5.3800     7.5570   103.6360     0.0210     0.1300     2.4630
  419.0000   -64.2250     6.1190     5.3680     7.5570   103.3210     0.0200     0.1280     2.4640
  419.5000   -64.3690     6.0700     5.2630     7.5570   103.0890     0.0180     0.1260     2.4640
  420.0000   -64.5130     6.0200     5.1470     7.5570   103.1560     0.0170     0.1290     2.4650
  420.5000   -64.6550     5.9710     5.0300     7.5570   103.2120     0.0160     0.1310     2.4640
  421.0000   -64.7890     5.9210     4.9710     7.5570   103.2870     0.0140     0.1310     2.4610
  421.5000   -65.2260     5.8970     4.9710     7.5570   105.2940     0.0130     0.1290     2.4580
  422.0000   -65.7220     5.8970     4.9710     7.5570   107.5910     0.0110     0.1270     2.4570
  422.5000   -66.0340     5.8970     4.9710     7.5570   109.6780     0.0100     0.1250     2.4640
  423.0000   -66.0300     5.8970     4.9710     7.5570   109.7220     0.0090     0.1250     2.4640
  423.5000   -66.0310     5.8970     4.9710     7.5570   109.7180     0.0090     0.1250     2.4640
  424.0000   -66.0320     5.8970     4.9710     7.5530   109.7060     0.0090     0.1240     2.4660
  424.5000   -66.0320     6.0020     5.0360     7.5460   110.0960     0.0090     0.1230     2.4690
  425.0000   -66.0320     6.0510     5.1080     7.5380   111.2790     0.0090     0.1210     2.4690
  425.5000   -66.0320     6.0520     5.1440     7.5300   110.9640     0.0110     0.1200     2.4710
  426.0000   -66.0320     6.0540     5.1440     7.5230   109.0460     0.0130     0.1190     2.4750
  426.5000   -66.0320     6.0560     5.1440     7.5190   108.1380     0.0130     0.1210     2.4780
  427.0000   -66.0320     6.0580     5.1440     7.5240   109.3930     0.0140     0.1230     2.4750
  427.5000   -66.0320     6.0600     5.1480     7.5300   111.0460     0.0140     0.1220     2.4710
  428.0000   -66.0290     6.0620     5.1610     7.5360   114.0120     0.0150     0.1190     2.4670
  428.5000   -66.1240     6.0640     5.1740     7.5340   116.3960     0.0150     0.1170     2.4760
  429.0000   -66.2340     6.0650     5.1870     7.5290   116.3620     0.0150     0.1140     2.4890
  429.5000   -66.3440     6.0670     5.2000     7.5250   116.8280     0.0160     0.1100     2.4960
  430.0000   -66.4240     6.0690     5.2130     7.5210   117.2720     0.0160     0.1080     2.4990
  430.5000   -66.3690     6.0710     5.2260     7.5160   114.5470     0.0170     0.1090     2.5000
  431.0000   -66.3160     6.0730     5.2330     7.5120   111.6220     0.0170     0.1100     2.5000
  431.5000   -66.2650     6.0750     5.2330     7.5070   110.5220     0.0180     0.1100     2.4970
  432.0000   -66.3080     6.0760     5.2330     7.5030   109.9530     0.0180     0.1110     2.4930
  432.5000   -66.4860     6.0780     5.2330     7.4980   109.9230     0.0180     0.1130     2.4890
  433.0000   -66.6630     6.0800     5.2330     7.5040   109.9210     0.0190     0.1160     2.4860
  433.5000   -66.8290     6.0820     5.2330     7.5130   110.0240     0.0180     0.1180     2.4820
  434.0000   -66.8460     6.0840     5.2330     7.5220   110.2020     0.0170     0.1210     2.4780
  434.5000   -66.8580     6.0860     5.2120     7.5310   110.3850     0.0150     0.1240     2.4740
  435.0000   -66.8700     6.0880     5.1880     7.5370   110.7780     0.0140     0.1250     2.4720
  435.5000   -66.8820     6.0890     5.1650     7.5350   112.2100     0.0120     0.1230     2.4700
  436.0000   -66.8950     6.0910     5.1440     7.5330   113.6470     0.0110     0.1210     2.4690
  436.5000   -66.9070     6.0930     5.1440     7.5310   114.2890     0.0090     0.1190     2.4670
  437.0000   -66.9190     6.0950     5.1440     7.5300   114.7040     0.0080     0.1180     2.4720
  437.5000   -66.9310     6.0970     5.1440     7.5280   114.3120     0.0060     0.1150     2.4800
  438.0000   -66.9430     6.0990     5.1440     7.5260   113.0660     0.0050     0.1140     2.4830
  438.5000   -66.9550     6.1010     5.1440     7.5240   111.2760     0.0030     0.1130     2.4830
  439.0000   -66.9670     6.0780     5.1440     7.5230   108.4020     0.0030     0.1120     2.4830
  439.5000   -66.9790     6.0330     5.1440     7.5210   107.3300     0.0040     0.1100     2.4860
  440.0000   -66.9910     5.9880     5.1440     7.5190   107.3540     0.0080     0.1090     2.4930
  440.5000   -67.0040     5.9420     5.1440     7.5180   106.1960     0.0120     0.1070     2.4990
  441.0000   -67.0170     5.8970     5.1440     7.5160   104.8940     0.0150     0.1070     2.5010
  441.5000   -67.0290     5.8470     5.1450     7.5140   104.3630     0.0190     0.1080     2.5030
  442.0000   -67.1420     5.8330     5.1210     7.5120   109.4990     0.0190     0.1090     2.5030
  442.5000   -67.3730     5.8190     5.0740     7.5110   114.8480     0.0190     0.1100     2.5030
  443.0000   -67.6030     5.8040     5.0280     7.5090   115.8280     0.0190     0.1110     2.5000
  443.5000   -67.8330     5.7760     4.9810     7.5070   115.6290     0.0180     0.1120     2.4970
  444.0000   -68.0630     5.7330     4.9350     7.5050   114.2690     0.0180     0.1130     2.4930
  444.5000   -68.2940     5.6910     4.8880     7.5040   116.5380     0.0180     0.1130     2.4900
  445.0000   -68.5240     5.6480     4.8410     7.5020   114.1190     0.0170     0.1130     2.4900
  445.5000   -68.7550     5.6060     4.7950     7.5000   111.1540     0.0170     0.1130     2.4900
  446.0000   -68.9850     5.5630     4.7480     7.4990   108.6720     0.0160     0.1130     2.4910
