~VERSION INFORMATION
 VERS.                2.0:   CWLS LOG ASCII STANDARD - VERSION 2.0
 WRAP.                 NO:   ONE LINE PER DEPTH STEP
~WELL INFORMATION
#MNEM.UNIT      DATA TYPE    INFORMATION
#----------   ------------   ------------------------------
 STRT.F           20.0000:   START DEPTH
 STOP.F          508.0000:   STOP DEPTH
 STEP.F            0.5000:   STEP LENGTH
 NULL.          -999.2500:   NO VALUE
 COMP. FENIX & SCISSON INC:   COMPANY
 WELL.      NPR #3 #45-10:   WELL
 FLD .             TEAPOT:   FIELD
 LOC .      S10 T38N R78W:   LOCATION
 CNTY.            NATRONA:   COUNTY
 STAT.            WYOMING:   STATE
 CTRY. UNITED STATES OF AMERICA:   COUNTRY
 SRVC.              Welex:   SERVICE COMPANY
 DATE.        09-MAY-1980:   LOGDATE
 API .       490251081000:   API NUMBER
~CURVE INFORMATION
#MNEM.UNIT       API CODE    CURVE DESCRIPTION
#----------   ------------   ------------------------------
 DEPT.F                  :   
 SPR .MV     07 010 01 00:   SPONTANEOUS POTENTIAL
 SGRD.OHMM   07 220 05 00:   SHALLOW GUARD RESISTIVITY
 ILD .OHMM   07 120 46 00:   INDUCTION LOG DEEP RESISTIVITY
 ILM .OHMM   07 120 44 00:   INDUCTION LOG MEDIUM
 GRD .GAPI   45 310 01 00:   GAMMA RAY FROM DENSITY LOG
 CALD.IN     45 280 60 00:   CALIPER
 CORR.G/C3   45 356 01 00:   DENSITY CORRECTION
 RHOB.G/C3   45 350 01 00:   BULK DENSITY
 DPHI.DEC    45 890 12 00:   DENSITY POROSITY SANDSTONE
~PARAMETER INFORMATION
#MNEM.UNIT          VALUE    DESCRIPTION
#----------   ------------   ------------------------------
 PD  .                 GL:   PERMANENT DATUM
 EPD .F              5228:   ELEVATION PERMANENT DATUM
 LMF .                 KB:   LOG MEASURED FROM
 DAPD.F                 5:   FEET ABOVE PERMANENT DATUM
 DMF .                 KB:   DRILLING MEASURED FROM
 EKB .F              5233:   KELLING BUSHING
 EGL .F              5228:   GROUND LEVEL
 DATE.             5-9-80:   RUN DATE
 RUN .                  1:   RUN NUMBER
 DD  .F               507:   DEPTH DRILLER
 DL  .F               510:   DEPTH LOGGER
 BLI .F               508:   BOTTOM LOG INTERVAL
 TLI .F                20:   TOP LOG INTERVAL
 BS  .IN            7.875:   BIT SIZE
 BSD .F               507:   BIT SIZE AT DEPTH
 DFT .                KCL:   DRILLING FLUID TYPE
 DFD .                8.9:   DRILLING FLUID DENSITY
 DFV .                 42:   DRILLING FLUID VISCOSITY
 MSS .                PIT:   MUD SAMPLE SOURCE
 RMS .OHMM            .36:   RESISTIVITY MUD SAMPLE
 MST .F                75:   MUD SAMPLE TEMPERATURE
 RMF .OHMM            .29:   RESISTIVITY MUD FILTRATE SAMPLE
 MFST.F                75:   MUD FILTRATE SAMPLE TEMPERATURE
 RMC .OHMM            .43:   RESISTIVITY MUD CAKE
 MCST.F                75:   MUD CAKE SAMPLE TEMPERATURE
 MFSS.           MEASURED:   MUD FILTRATE SAMPLE SOURCE
 MCSS.           MEASURED:   MUD CAKE SAMPLE SOURCE
 TCS .HRS               2:   TIME CURCULATED STOPPED
 MRT .F               100:   MAXIMUM RECORDED TEMPERATURE
 LUN .               9685:   LOGGING UNIT NUMBER
 LUL .             CASPER:   LOGGING UNIT LOCATION
 ENGI.            TOTHILL:   RECORDING ENGINEER
 WITN.           DINSMORE:   WITNESSED BY
 CLNT.            A2DTECH:   CLIENT CODE
 ORIG.         2.5" PRINT:   ORIGIN OF DATA
 UWI .       490251081000:   UNIQUE WELL ID
 DICO. A2D Technologies, Inc.:   DIGITIZING COMPANY
~OTHER INFORMATION
~A   DEPT      SPR       SGRD        ILD        ILM         GRD        CALD       CORR       RHOB       DPHI 
   20.0000  -999.2500  -999.2500  -999.2500  -999.2500    97.0766     7.9076     0.0312     2.4155     0.1555
   20.5000  -999.2500  -999.2500  -999.2500  -999.2500    96.4718     7.9076     0.0433     2.4255     0.1454
   21.0000  -999.2500  -999.2500  -999.2500  -999.2500    96.8666     7.8675     0.0503     2.4416     0.1400
   21.5000  -999.2500  -999.2500  -999.2500  -999.2500    97.3874     7.8675     0.0473     2.4497     0.1338
   22.0000  -999.2500  -999.2500  -999.2500  -999.2500    97.7665     7.8675     0.0620     2.4712     0.1323
   22.5000  -999.2500  -999.2500  -999.2500  -999.2500    97.9618     7.9086     0.0795     2.4966     0.1305
   23.0000  -999.2500  -999.2500  -999.2500  -999.2500    98.1571     7.9709     0.0969     2.5181     0.1287
   23.5000  -999.2500  -999.2500  -999.2500  -999.2500    98.4329     7.9980     0.1058     2.5085     0.1279
   24.0000   -50.8032     4.5698     4.0880     4.2427    98.7756     7.9838     0.0798     2.4782     0.1260
   24.5000   -50.8032     4.5698     4.0880     4.2427    99.3636     7.9817     0.0610     2.4624     0.1241
   25.0000   -50.4016     4.5988     4.0880     4.2427    99.9642     7.9781     0.0546     2.4489     0.1330
   25.5000   -50.4016     4.6555     4.0880     4.1646   100.3944     7.9752     0.0483     2.4368     0.1442
   26.0000   -50.4016     4.6197     4.0128     4.1646   100.6766     7.9722     0.0397     2.4213     0.1547
   26.5000   -50.4016     4.5668     4.0128     4.1646    99.8915     7.9690     0.0353     2.4183     0.1557
   27.0000   -50.5594     4.4886     4.0128     4.1646    98.8346     7.9659     0.0496     2.4260     0.1527
   27.5000   -50.7174     4.5121     4.0322     4.1851    97.6678     7.9628     0.0604     2.4313     0.1362
   28.0000   -50.7750     4.4372     4.0098     4.1613    97.3298     7.9598     0.0374     2.4311     0.1612
   28.5000   -50.9186     4.3864     4.0084     4.0849    97.2683     7.9567     0.0495     2.4286     0.1490
   29.0000   -51.0602     4.3361     4.0218     4.0694    96.1690     7.9536     0.0747     2.4379     0.1386
   29.5000   -51.1967     4.2865     3.9241     4.0529    96.1694     7.9506     0.0699     2.4365     0.1424
   30.0000   -51.1777     4.2374     3.8580     4.0365    96.8586     7.9477     0.0593     2.4305     0.1451
   30.5000   -51.1561     4.1889     3.8705     4.0136    97.4028     7.9503     0.0519     2.4102     0.1587
   31.0000   -51.1274     4.1646     3.8649     4.0446    97.9703     7.9594     0.0411     2.4216     0.1514
   31.5000   -51.1024     4.7168     3.8649     4.1128    98.3961     7.9684     0.0673     2.4464     0.1401
   32.0000   -51.0767     5.4997     3.8665     4.1810    98.5775     7.9774     0.0802     2.4601     0.1311
   32.5000   -51.0505     6.1070     3.8816     4.2504    98.8101     7.9865     0.0939     2.4763     0.1188
   33.0000   -51.0247     5.9484     3.9040     4.3209    98.9053     7.9956     0.0935     2.4705     0.1222
   33.5000   -50.9989     5.7938     3.9265     4.4032    98.8886     8.0045     0.0728     2.4571     0.1327
   34.0000   -50.9731     5.7105     3.9635     4.4613    99.3412     8.0136     0.0812     2.4636     0.1263
   34.5000   -50.9474     5.8389     4.0187     4.5303   100.0015     8.0234     0.0906     2.4743     0.1191
   35.0000   -50.9217     6.0377     4.0746     4.6004   100.6646     8.0259     0.1033     2.4863     0.1119
   35.5000   -50.8959     5.8611     4.1313     4.6716   101.2987     8.0175     0.0992     2.4929     0.1081
   36.0000   -50.8702     5.6947     4.1888     4.7439   101.8950     8.0100     0.0877     2.4866     0.1141
   36.5000   -50.8445     5.5023     4.2471     4.8173   101.9146     8.0025     0.0662     2.4654     0.1233
   37.0000   -50.8183     5.5771     4.3062     4.8918   101.8995     7.9948     0.0406     2.4495     0.1354
   37.5000   -50.7884     5.7671     4.3661     4.9675   101.9449     7.9873     0.0327     2.4439     0.1379
   38.0000   -50.7531     5.9636     4.4269     5.0444   101.9837     7.9797     0.0383     2.4425     0.1385
   38.5000   -50.7173     6.1668     4.4885     5.1224   103.1072     7.9720     0.0434     2.4509     0.1349
   39.0000   -50.6813     6.3836     4.5510     5.2017   102.8571     7.9644     0.0549     2.4634     0.1271
   39.5000   -50.6461     6.2152     4.6117     5.2819   102.6500     7.9568     0.0675     2.4820     0.1192
   40.0000   -50.6099     6.0386     4.7399     5.3636   102.7876     7.9492     0.0823     2.4837     0.1121
   40.5000   -50.5747     6.2642     4.7715     5.4498   103.7063     7.9416     0.0769     2.4725     0.1217
   41.0000   -50.5387     6.5088     4.8298     5.5403   104.5791     7.9337     0.0725     2.4733     0.1190
   41.5000   -50.5000     6.6251     4.8889     5.6323   105.3920     7.9264     0.0637     2.4706     0.1215
   42.0000   -50.4720     6.4533     4.9486     5.7258   106.2000     7.9190     0.0463     2.4571     0.1291
   42.5000   -50.4284     6.3814     5.0086     5.8209   107.0292     7.9094     0.0295     2.4447     0.1367
   43.0000   -50.2666     6.4392     5.0689     5.9176   107.2460     7.9237     0.0128     2.4296     0.1452
   43.5000   -49.6257     6.6335     5.1312     6.0157   106.8839     7.9600    -0.0038     2.4100     0.1549
   44.0000   -49.6097     6.8308     5.1932     6.1155   106.5730     7.9951    -0.0207     2.4010     0.1636
   44.5000   -49.5893     7.0340     5.2560     6.2169   106.2821     8.0296    -0.0181     2.4100     0.1596
   45.0000   -49.6002     7.2697     5.4011     6.3200   105.9596     8.0618    -0.0071     2.4221     0.1520
   45.5000   -49.5982     7.2209     5.4748     6.4249   105.6321     8.1010     0.0034     2.4342     0.1441
   46.0000   -49.5967     7.1657     5.5601     6.4835   104.9939     8.0725     0.0137     2.4468     0.1362
   46.5000   -49.5983     7.1359     5.6468     6.4092   104.3504     8.0619     0.0249     2.4585     0.1294
   47.0000   -49.5978     6.9977     5.7341     6.3359   104.3402     8.0233     0.0337     2.4707     0.1237
   47.5000   -49.5984     7.0372     5.8240     6.2633   104.3286     8.0332     0.0391     2.4785     0.1181
   48.0000   -49.5984     7.0843     5.9151     6.1916   104.3331     8.0498     0.0456     2.4753     0.1202
   48.5000   -49.5984     7.1308     6.0073     6.1508   104.3411     8.0736     0.0450     2.4667     0.1198
   49.0000   -49.5984     7.2621     6.1010     6.2731   104.2595     8.1128     0.0468     2.4837     0.1232
   49.5000   -49.5986     7.4784     6.1962     6.3948   104.0968     8.0933     0.0563     2.4779     0.1171
   50.0000   -49.5986     7.7010     6.2930     6.5188   103.9411     8.0751     0.0588     2.4614     0.1138
   50.5000   -49.5992     7.9303     6.3914     6.6453   103.7868     8.0563     0.0553     2.4822     0.1186
   51.0000   -49.5990     8.1664     6.4904     6.7742   103.6283     8.0365     0.0617     2.4977     0.1066
   51.5000   -49.5986     8.4083     6.5916     6.9057   103.4712     8.0176     0.0682     2.5086     0.0960
   52.0000   -49.6017     8.5500     6.6944     7.0304   103.3186     7.9983     0.0630     2.4883     0.1072
   52.5000   -49.5967     8.3114     6.7492     7.1306   103.1567     7.9790     0.0470     2.4806     0.1161
   53.0000   -49.5909     8.3703     6.8531     7.2322   103.1228     7.9599     0.0436     2.4755     0.1201
   53.5000   -49.3693     8.9171     6.9507     7.3353   103.1273     7.9406     0.0461     2.4759     0.1204
   54.0000   -49.1173     8.8832     7.0498     7.4059   103.0932     7.9214     0.0475     2.4755     0.1208
   54.5000   -48.8562     8.7530     7.1502     7.5237   103.3957     7.9074     0.0623     2.4755     0.1193
   55.0000   -48.6039     9.0722     7.2525     7.7503   103.8632     7.9073     0.0517     2.4597     0.1169
   55.5000   -48.3525    10.0371     7.3558     7.9827   104.2948     7.9096     0.0449     2.4614     0.1285
   56.0000   -48.0771    11.5645     7.4606     8.1289   104.5253     7.8857     0.0501     2.4667     0.1249
