~VERSION INFORMATION
 VERS.                2.0:   CWLS LOG ASCII STANDARD - VERSION 2.0
 WRAP.                 NO:   ONE LINE PER DEPTH STEP
~WELL INFORMATION
#MNEM.UNIT      DATA TYPE    INFORMATION
#----------   ------------   ------------------------------
 STRT.F           10.0000:   START DEPTH
 STOP.F          833.5000:   STOP DEPTH
 STEP.F            0.5000:   STEP LENGTH
 NULL.          -999.2500:   NO VALUE
 COMP. FENIX & SCISSON INC:   COMPANY
 WELL.       NPR 3 #46-11:   WELL
 FLD .             TEAPOT:   FIELD
 LOC .      S11 T38N R78W:   LOCATION
 CNTY.            NATRONA:   COUNTY
 STAT.            WYOMING:   STATE
 CTRY. UNITED STATES OF AMERICA:   COUNTRY
 SRVC.           BIRDWELL:   SERVICE COMPANY
 DATE.        17-DEC-1978:   LOGDATE
 API .       490251075600:   API NUMBER
~CURVE INFORMATION
#MNEM.UNIT       API CODE    CURVE DESCRIPTION
#----------   ------------   ------------------------------
 DEPT.F                  :   
 GRD .GAPI   45 310 01 00:   GAMMA RAY FROM DENSITY LOG
 CALD.IN     45 280 60 00:   CALIPER
 CORR.G/C3   45 356 01 00:   DENSITY CORRECTION
 DPHI.DEC    45 890 12 00:   DENSITY POROSITY SANDSTONE
 RHOB.G/C3   45 350 01 00:   BULK DENSITY
 SPR .MV     05 010 01 00:   SPONTANEOUS POTENTIAL FROM RES.
 SN  .OHMM   05 040 16 00:   SHORT NORMAL 16"
 IL  .OHMM   05 120 00 00:   INDUCTION LOG
~PARAMETER INFORMATION
#MNEM.UNIT          VALUE    DESCRIPTION
#----------   ------------   ------------------------------
 PD  .                 GL:   PERMANENT DATUM
 EPD .F              5193:   ELEVATION PERMANENT DATUM
 LMF .                 KB:   LOG MEASURED FROM
 DAPD.F                 4:   FEET ABOVE PERMANENT DATUM
 DMF .                 KB:   DRILLING MEASURED FROM
 EKB .F              5197:   KELLING BUSHING
 EGL .F              5193:   GROUND LEVEL
 DATE.           12-17-78:   RUN DATE
 RUN .                  1:   RUN NUMBER
 DD  .F               845:   DEPTH DRILLER
 DL  .F               834:   DEPTH LOGGER
 BLI .F               827:   BOTTOM LOG INTERVAL
 TLI .F                60:   TOP LOG INTERVAL
 CS  .IN            8.625:   CASING SIZE
 CBD .F                40:   CASING BOTTOM DRILLER
 CBL .F                42:   CASING BOTTOM LOGGER
 BS  .IN            7.875:   BIT SIZE
 BSD .F               845:   BIT SIZE AT DEPTH
 DFT .                KCL:   DRILLING FLUID TYPE
 DFD .                8.8:   DRILLING FLUID DENSITY
 DFV .                 36:   DRILLING FLUID VISCOSITY
 DFPH.               10.5:   DRILLING FLUID PH
 MSS .          FLOW LINE:   MUD SAMPLE SOURCE
 RMS .OHMM            .34:   RESISTIVITY MUD SAMPLE
 MST .F                62:   MUD SAMPLE TEMPERATURE
 RMF .OHMM            .26:   RESISTIVITY MUD FILTRATE SAMPLE
 MFST.F                66:   MUD FILTRATE SAMPLE TEMPERATURE
 RMC .OHMM            .42:   RESISTIVITY MUD CAKE
 MCST.F                68:   MUD CAKE SAMPLE TEMPERATURE
 MFSS.           MEASURED:   MUD FILTRATE SAMPLE SOURCE
 MCSS.           MEASURED:   MUD CAKE SAMPLE SOURCE
 RMB .OHMM           .288:   RESISTIVITY MUD AT BHT
 BHT .F                73:   BOTTOM HOLE TEMPERATURE
 TCS .HRS               4:   TIME CURCULATED STOPPED
 MRT .F                73:   MAXIMUM RECORDED TEMPERATURE
 LUN .               3006:   LOGGING UNIT NUMBER
 LUL .             CASPER:   LOGGING UNIT LOCATION
 ENGI.         B. ROLLINS:   RECORDING ENGINEER
 WITN.         RICHARDSON:   WITNESSED BY
 CLNT.            A2DTECH:   CLIENT CODE
 ORIG.           5" PRINT:   ORIGIN OF DATA
 UWI .       490251075600:   UNIQUE WELL ID
 DICO. A2D Technologies, Inc.:   DIGITIZING COMPANY
~OTHER INFORMATION
~A   DEPT      GRD       CALD       CORR       DPHI       RHOB        SPR         SN         IL   
# ...
   50.5000    73.1600     7.9510     0.0050     0.3060     2.1080  -999.2500  -999.2500  -999.2500
   51.0000    71.4720     8.0450     0.0060     0.2820     2.1410  -999.2500  -999.2500  -999.2500
   51.5000    75.1480     8.0230     0.0080     0.2650     2.1750  -999.2500  -999.2500  -999.2500
   52.0000    80.5400     7.9930     0.0100     0.2600     2.2080  -999.2500  -999.2500  -999.2500
   52.5000    85.9860     7.9620     0.0110     0.2590     2.2250  -999.2500  -999.2500  -999.2500
   53.0000    91.4080     7.9320     0.0130     0.2640     2.2250  -999.2500  -999.2500  -999.2500
   53.5000    95.4060     7.9100     0.0140     0.2680     2.2200  -999.2500  -999.2500  -999.2500
   54.0000    94.3020     7.9160     0.0160     0.2720     2.2160  -999.2500  -999.2500  -999.2500
   54.5000    92.8790     7.9380     0.0100     0.2760     2.2110  -999.2500  -999.2500  -999.2500
   55.0000    91.4550     7.9590     0.0030     0.2700     2.2090  -999.2500  -999.2500  -999.2500
   55.5000    91.1670     7.9800    -0.0040     0.2630     2.2090  -999.2500  -999.2500  -999.2500
   56.0000    91.7900     8.0020    -0.0040     0.2560     2.2250  -999.2500  -999.2500  -999.2500
   56.5000    91.2850     8.0240     0.0050     0.2130     2.2470  -999.2500  -999.2500  -999.2500
   57.0000    88.3840     8.0350     0.0090     0.1740     2.3010  -999.2500  -999.2500  -999.2500
   57.5000    84.3740     8.0440     0.0070     0.1290     2.3530  -999.2500  -999.2500  -999.2500
   58.0000    75.3430     8.0520     0.0060     0.1420     2.4040  -999.2500  -999.2500  -999.2500
   58.5000    65.5270     8.0600     0.0040     0.1610     2.4520   -20.5310  -999.2500  -999.2500
   59.0000    58.4740     8.0680     0.0030     0.1870     2.4180   -20.7440  -999.2500  -999.2500
   59.5000    59.7510     8.0760     0.0010     0.1840     2.3850   -20.9580  -999.2500  -999.2500
   60.0000    72.8810     8.0840     0.0000     0.1760     2.3610   -21.1710  -999.2500  -999.2500
   60.5000    91.3390     8.0930    -0.0010     0.1690     2.3730   -21.3840  -999.2500  -999.2500
   61.0000    99.3650     8.1010    -0.0020     0.1650     2.3870   -21.5980  -999.2500     6.9830
   61.5000   101.9980     8.1090    -0.0030     0.1640     2.3960   -21.8110  -999.2500     6.7170
   62.0000   103.4580     8.1180    -0.0050     0.1630     2.3970   -21.9200  -999.2500     6.4490
   62.5000   103.5050     8.1280    -0.0060     0.1620     2.3990   -22.1310  -999.2500     6.1790
   63.0000   103.6840     8.1380    -0.0060     0.1600     2.4000   -22.3430  -999.2500     5.9080
   63.5000   104.5100     8.1470    -0.0070     0.1590     2.4010   -22.5720  -999.2500     5.6380
   64.0000   105.3210     8.1560    -0.0070     0.1570     2.4020   -22.7060  -999.2500     5.3680
   64.5000   106.0620     8.1630    -0.0070     0.1560     2.4030   -22.7020     7.9470     5.3920
   65.0000   105.6560     8.2190    -0.0070     0.1580     2.4050   -22.7150     7.8530     5.1460
   65.5000   103.6210     8.2380    -0.0080     0.1620     2.4030   -22.7260     7.7590     5.1150
   66.0000   101.6150     8.2350    -0.0080     0.1650     2.3970   -22.7340     7.6650     5.0840
   66.5000   101.4840     8.2020    -0.0080     0.1690     2.3910   -22.7450     7.5710     5.0530
   67.0000   101.7050     8.1710    -0.0080     0.1700     2.3890   -22.7540     7.4770     5.0220
   67.5000   100.6750     8.1750    -0.0090     0.1700     2.3890   -22.7640     7.3360     4.9920
   68.0000    99.5160     8.2010    -0.0090     0.1700     2.3890   -22.7740     7.3760     4.9610
   68.5000   100.9780     8.2260    -0.0090     0.1650     2.3900   -22.7840     7.2420     4.9300
   69.0000   103.3020     8.2480    -0.0100     0.1600     2.3960   -22.7940     7.1480     4.8990
   69.5000   103.6270     8.2200    -0.0100     0.1540     2.4040   -22.8040     7.0540     4.8680
   70.0000   103.3440     8.1910    -0.0100     0.1480     2.4110   -22.8140     6.9600     4.8370
   70.5000   103.2640     8.1620    -0.0100     0.1510     2.4180   -22.8240     6.8660     4.8070
   71.0000   103.6610     8.1980    -0.0110     0.1540     2.4170   -22.8340     6.7720     4.7760
   71.5000   104.0170     8.3060    -0.0110     0.1580     2.4130   -22.8440     6.6780     4.7450
   72.0000   104.3690     8.2800    -0.0110     0.1570     2.4080   -22.8540     6.5840     4.7140
   72.5000   104.7200     8.2490    -0.0110     0.1550     2.4030   -22.8640     6.4900     4.6840
   73.0000   105.0700     8.2270    -0.0120     0.1550     2.4030   -22.8740     6.3960     4.6530
   73.5000   105.4210     8.2200    -0.0120     0.1580     2.4030   -22.8840     6.3020     4.6230
   74.0000   104.8450     8.2120    -0.0120     0.1620     2.3990   -22.8940     6.2060     4.6250
   74.5000   103.2150     8.2050    -0.0120     0.1670     2.3940   -22.9040     6.1050     4.6270
   75.0000   101.6040     8.1980    -0.0110     0.1710     2.3900   -22.9140     6.0040     4.6290
   75.5000   100.0110     8.1910    -0.0110     0.1680     2.3860   -22.9240     5.9030     4.6320
   76.0000    98.7240     8.1830    -0.0110     0.1650     2.3880   -22.9340     5.8020     4.6340
   76.5000    97.4120     8.1760    -0.0100     0.1640     2.3890   -22.9440     5.7010     4.6360
   77.0000    96.0930     8.1710    -0.0100     0.1680     2.3860   -22.9530     5.6000     4.6380
   77.5000    94.7620     8.1790    -0.0100     0.1720     2.3830   -22.9630     5.4990     4.6410
   78.0000    94.6260     8.1860    -0.0100     0.1770     2.3790   -22.9730     5.3980     4.6430
   78.5000    94.7560     8.1930    -0.0100     0.1720     2.3800   -22.9830     5.2970     4.6450
   79.0000    94.9290     8.2010    -0.0110     0.1670     2.3840   -22.9930     5.1960     4.6470
   79.5000    95.9880     8.2080    -0.0110     0.1680     2.3870   -23.0030     5.1690     4.6500
   80.0000    97.0950     8.2150    -0.0110     0.1690     2.3890   -23.0130     5.1690     4.6520
   80.5000    98.1980     8.2230    -0.0110     0.1680     2.3900   -23.0230     5.1690     4.6540
   81.0000    98.7740     8.2300    -0.0110     0.1660     2.3910   -23.0330     5.1690     4.6570
   81.5000    98.4090     8.2250    -0.0110     0.1620     2.3940   -23.0430     5.1690     4.6590
   82.0000    98.3190     8.2190    -0.0110     0.1590     2.3980   -23.0530     5.1690     4.6610
   82.5000    99.7080     8.2140    -0.0120     0.1550     2.4020   -23.0630     5.1690     4.6630
   83.0000   101.1050     8.2090    -0.0120     0.1540     2.4040   -23.0720     5.1690     4.6660
   83.5000   101.7250     8.2030    -0.0120     0.1540     2.4040   -23.0830     5.1690     4.6680
   84.0000   100.3180     8.1980    -0.0120     0.1570     2.4040   -23.0950     5.1690     4.6700
   84.5000    98.5660     8.1930    -0.0120     0.1620     2.4030   -23.1410     5.1690     4.6720
   85.0000    96.8270     8.1870    -0.0120     0.1680     2.3970   -23.1850     5.1690     4.6750
   85.5000    95.6160     8.1820    -0.0120     0.1670     2.3910   -23.2310     5.1690     4.6770
   86.0000    97.9240     8.1770    -0.0130     0.1650     2.3880   -23.2760     5.1690     4.6790
   86.5000   100.2500     8.1710    -0.0130     0.1640     2.3870   -23.3210     5.1690     4.6820
   87.0000   102.4810     8.1750    -0.0130     0.1660     2.3860   -23.3670     5.1690     4.6840
   87.5000   103.1600     8.1820    -0.0130     0.1680     2.3870   -23.4120     5.1690     4.6860
   88.0000   102.5930     8.1900    -0.0130     0.1670     2.3870   -23.4570     5.1690     4.6880
   88.5000   102.2280     8.1980    -0.0130     0.1650     2.3870   -23.5020     5.1690     4.6910
   89.0000   103.2480     8.2060    -0.0140     0.1650     2.3870   -23.5480     5.1690     4.6930
   89.5000   104.2350     8.2140    -0.0140     0.1660     2.3870   -23.5930     5.1690     4.6950
   90.0000   103.2050     8.2220    -0.0140     0.1670     2.3880   -23.6380     5.1690     4.6980
   90.5000   101.9940     8.2300    -0.0140     0.1670     2.3880   -23.6830     5.1690     4.7000
