~VERSION INFORMATION
 VERS.                2.0:   CWLS LOG ASCII STANDARD - VERSION 2.0
 WRAP.                 NO:   ONE LINE PER DEPTH STEP
~WELL INFORMATION
#MNEM.UNIT      DATA TYPE    INFORMATION
#----------   ------------   ------------------------------
 STRT.F           30.0000:   START DEPTH
 STOP.F          510.0000:   STOP DEPTH
 STEP.F            0.5000:   STEP LENGTH
 NULL.          -999.2500:   NO VALUE
 COMP. FENIX & SCISSON INC:   COMPANY
 WELL.    66-SX 3FP #54-3:   WELL
 FLD .             TEAPOT:   FIELD
 LOC .       S3 T38N R78W:   LOCATION
 CNTY.            NATRONA:   COUNTY
 STAT.            WYOMING:   STATE
 CTRY. UNITED STATES OF AMERICA:   COUNTRY
 SRVC.              Welex:   SERVICE COMPANY
 DATE.        25-JUN-1980:   LOGDATE
 API .       490251081400:   API NUMBER
~CURVE INFORMATION
#MNEM.UNIT       API CODE    CURVE DESCRIPTION
#----------   ------------   ------------------------------
 DEPT.F                  :   
 SGRD.OHMM   07 220 05 00:   SHALLOW GUARD RESISTIVITY
 ILD .OHMM   07 120 46 00:   INDUCTION LOG DEEP RESISTIVITY
 ILM .OHMM   07 120 44 00:   INDUCTION LOG MEDIUM
 CALD.IN     45 280 60 00:   CALIPER
 GRD .GAPI   45 310 01 00:   GAMMA RAY FROM DENSITY LOG
 CORR.G/C3   45 356 01 00:   DENSITY CORRECTION
 NPHI.DEC    42 890 03 00:   NEUTRON POROSITY SANDSTONE
 DPHI.DEC    45 890 12 00:   DENSITY POROSITY SANDSTONE
 SPR .MV     07 010 01 00:   SPONTANEOUS POTENTIAL
 RHOB.G/C3   45 350 01 00:   BULK DENSITY
~PARAMETER INFORMATION
#MNEM.UNIT          VALUE    DESCRIPTION
#----------   ------------   ------------------------------
 PD  .                 GL:   PERMANENT DATUM
 EPD .F              5158:   ELEVATION PERMANENT DATUM
 LMF .                 KB:   LOG MEASURED FROM
 DAPD.F                 5:   FEET ABOVE PERMANENT DATUM
 DMF .                 KB:   DRILLING MEASURED FROM
 EKB .F              5163:   KELLING BUSHING
 EGL .F              5158:   GROUND LEVEL
 DATE.            6-25-80:   RUN DATE
 RUN .                  1:   RUN NUMBER
 DD  .F               516:   DEPTH DRILLER
 DL  .F               512:   DEPTH LOGGER
 BLI .F               510:   BOTTOM LOG INTERVAL
 TLI .F                30:   TOP LOG INTERVAL
 BS  .IN            9.875:   BIT SIZE
 BSD .F               516:   BIT SIZE AT DEPTH
 DFT .            KCL MUD:   DRILLING FLUID TYPE
 DFD .                9.2:   DRILLING FLUID DENSITY
 DFV .                 52:   DRILLING FLUID VISCOSITY
 DFPH.                 12:   DRILLING FLUID PH
 DFL .                  6:   DRILLING FLUID LOSS
 MSS .           FLOWLINE:   MUD SAMPLE SOURCE
 RMB .OHMM            .35:   RESISTIVITY MUD AT BHT
 BHT .F                75:   BOTTOM HOLE TEMPERATURE
 TCS .HRS               1:   TIME CURCULATED STOPPED
 MRT .F                75:   MAXIMUM RECORDED TEMPERATURE
 LUN .               1892:   LOGGING UNIT NUMBER
 LUL .             CASPER:   LOGGING UNIT LOCATION
 ENGI.            TOTHILL:   RECORDING ENGINEER
 WITN.              AMEND:   WITNESSED BY
 CLNT.            A2DTECH:   CLIENT CODE
 ORIG.           5" PRINT:   ORIGIN OF DATA
 UWI .       490251081400:   UNIQUE WELL ID
 DICO. A2D Technologies, Inc.:   DIGITIZING COMPANY
~OTHER INFORMATION
~A   DEPT       SGRD        ILD        ILM     CALD        GRD       CORR       NPHI       DPHI        SPR       RHOB   
# ...
  298.0000     9.6051     7.1602     9.3733    10.0916   103.8480     0.0661     0.2433     0.0974   -51.7629     2.4900
  298.5000    10.3998     7.3773     9.9693    10.0910    98.8171     0.0742     0.2362     0.1004   -50.8496     2.4822
  299.0000    11.8381     7.8796    10.5528    10.0905    95.0554     0.0845     0.2292     0.1047   -50.1783     2.5194
  299.5000    13.7747     8.3687    11.1706    10.0899    91.4198     0.0941     0.2219     0.1099   -49.3304     2.5090
  300.0000    16.0282     9.0803    12.1672    10.0894    85.4225     0.0911     0.2146     0.1159   -48.4267     2.4919
  300.5000    17.9938    10.0664    13.4172    10.0888    78.9514     0.0865     0.2106     0.1260   -47.5496     2.4746
  301.0000    19.4489    11.1596    15.2499    10.0883    70.2004     0.0818     0.2126     0.1361   -47.1866     2.4576
  301.5000    19.9083    12.2565    15.0322    10.0877    63.8550     0.0789     0.2175     0.1462   -46.8998     2.4433
  302.0000    19.0140    13.1722    14.7227    10.0872    60.4614     0.0961     0.2222     0.1614   -46.6093     2.4237
  302.5000    19.8656    14.0927    14.5648    10.0865    60.5348     0.0874     0.2259     0.1762   -46.2697     2.4039
  303.0000    20.8756    14.9721    14.6750    10.0789    63.3970     0.0837     0.2303     0.1913   -45.8657     2.3843
  303.5000    21.7199    15.1599    14.7499    10.0703    63.8997     0.0938     0.2339     0.1900   -45.4638     2.3685
  304.0000    22.3503    15.3773    14.8251    10.0618    64.8119     0.1005     0.2313     0.1882   -45.0609     2.3606
  304.5000    22.9990    15.5979    15.0222    10.0533    66.4127     0.0911     0.2294     0.1972   -44.6579     2.3511
  305.0000    23.6988    15.8216    15.2388    10.0448    67.9918     0.0798     0.2316     0.2093   -44.2551     2.3353
  305.5000    24.5143    16.0486    15.4598    10.0363    69.0823     0.0685     0.2346     0.2174   -43.8492     2.3197
  306.0000    25.3580    16.2788    15.6839    10.0278    68.2055     0.0571     0.2350     0.2268   -43.6559     2.3042
  306.5000    26.2304    16.5123    15.9112    10.0192    67.2811     0.0508     0.2343     0.2356   -43.5631     2.2913
  307.0000    27.1359    16.7491    16.1417    10.0107    66.5679     0.0508     0.2322     0.2378   -43.3433     2.2928
  307.5000    27.9216    16.9864    16.4148    10.0112    66.5837     0.0668     0.2302     0.2184   -42.9479     2.3087
  308.0000    28.6499    17.4216    16.4134    10.0131    66.6035     0.0835     0.2297     0.2110   -42.5081     2.3300
  308.5000    29.3972    17.8991    16.4139    10.0150    65.8512     0.0821     0.2358     0.2309   -41.9963     2.3207
  309.0000    29.8320    18.3916    16.4135    10.0169    64.9861     0.0775     0.2365     0.2366   -41.4864     2.3054
  309.5000    29.6159    18.8973    16.4135    10.0188    64.1292     0.0730     0.2334     0.2380   -40.9753     2.2900
  310.0000    28.8929    19.4170    16.3099    10.0207    64.0755     0.0705     0.2309     0.2390   -40.4636     2.2848
  310.5000    27.8534    19.7261    16.1448    10.0226    66.5212     0.0677     0.2326     0.2370   -40.1439     2.2885
  311.0000    26.8495    19.3425    15.9814    10.0245    68.8139     0.0663     0.2375     0.2271   -39.8631     2.2966
  311.5000    25.5198    18.8820    15.8197    10.0263    69.7909     0.0682     0.2425     0.2172   -39.5905     2.3102
  312.0000    25.6742    18.4325    15.6596    10.0282    70.8997     0.0703     0.2474     0.2097   -39.4766     2.3257
  312.5000    25.9898    17.9938    15.5328    10.0288    74.6604     0.0702     0.2493     0.2031   -39.4560     2.3411
  313.0000    25.7713    17.8446    15.6552    10.0288    76.9135     0.0684     0.2456     0.1966   -39.8387     2.3531
  313.5000    25.5005    17.6967    15.7580    10.0288    76.3833     0.0686     0.2420     0.1913   -40.1888     2.3613
  314.0000    25.2841    17.2011    15.8210    10.0288    76.4241     0.0788     0.2373     0.1828   -40.0640     2.3697
  314.5000    25.4455    16.4119    14.8460    10.0275    77.8408     0.0905     0.2330     0.1773   -39.8655     2.3736
  315.0000    25.5823    16.1249    14.2995    10.0245    78.8206     0.1023     0.2369     0.1802   -39.6706     2.3763
  315.5000    25.7520    16.5448    14.5568    10.0215    77.4473     0.1110     0.2398     0.1737   -39.4720     2.3878
  316.0000    25.6062    16.8634    14.8938    10.0184    76.1165     0.1235     0.2391     0.1687   -39.5282     2.4005
  316.5000    25.4193    17.1881    15.1103    10.0154    75.5642     0.1216     0.2371     0.1655   -39.7604     2.4106
  317.0000    25.2338    17.6660    15.0150    10.0123    76.4298     0.1132     0.2351     0.1622   -39.9954     2.4034
  317.5000    25.0497    17.5850    14.9171    10.0096    77.2798     0.1048     0.2332     0.1600   -40.2300     2.4121
  318.0000    24.8223    17.4418    14.7643    10.0096    78.1291     0.0963     0.2290     0.1586   -40.4659     2.4198
  318.5000    24.9194    17.2998    14.3206    10.0095    78.9850     0.0879     0.2240     0.1572   -40.5154     2.4018
  319.0000    25.0955    17.1590    13.9106    10.0087    79.5890     0.0800     0.2189     0.1557   -40.3212     2.4225
  319.5000    25.2829    17.0193    13.9936    10.0080    77.6161     0.0781     0.2139     0.1551   -40.1831     2.4230
  320.0000    25.8349    16.8733    14.1466    10.0072    75.5902     0.0759     0.2082     0.1574   -40.1344     2.4264
  320.5000    26.4331    16.6559    14.3021    10.0064    73.5727     0.0742     0.2002     0.1496   -39.8285     2.4358
  321.0000    26.7164    16.4290    14.4607    10.0057    72.9092     0.0773     0.2035     0.1326   -39.5195     2.4507
  321.5000    25.1716    16.2048    14.5643    10.0049    72.1585     0.0902     0.2092     0.1298   -39.2099     2.4655
  322.0000    22.4964    15.9838    14.4062    10.0042    73.9016     0.0978     0.2234     0.1266   -39.2741     2.4749
  322.5000    20.7863    15.7658    14.2344    10.0034    78.0790     0.0938     0.2376     0.1322   -39.3643     2.4593
  323.0000    20.5988    15.5508    13.6990    10.0027    78.4584     0.0896     0.2475     0.1432   -39.6115     2.4431
  323.5000    20.4251    15.3387    13.1829    10.0019    77.6921     0.0912     0.2518     0.1530   -39.9154     2.4309
  324.0000    20.2496    15.1295    12.6866    10.0012    78.9032     0.0943     0.2495     0.1547   -40.2224     2.4252
  324.5000    20.0739    14.9228    12.2093    10.0004    79.0910     0.0904     0.2478     0.1630   -40.3515     2.4145
  325.0000    19.8996    14.6982    11.7499     9.9996    78.3468     0.0836     0.2422     0.1640   -40.3166     2.4046
  325.5000    19.7268    14.7001    11.3077     9.9989    79.1886     0.0841     0.2391     0.1650   -40.2790     2.4070
  326.0000    19.5556    14.5410    10.8823     9.9981    81.6142     0.0940     0.2377     0.1581   -40.2401     2.4259
  326.5000    19.3858    14.4363    10.7540     9.9974    81.3935     0.1040     0.2332     0.1473   -40.2048     2.4433
  327.0000    19.2871    14.2995    10.8870     9.9966    81.2308     0.1082     0.2316     0.1431   -40.2744     2.4474
  327.5000    19.1978    14.3635    10.9912     9.9958    80.9744     0.1108     0.2388     0.1415   -40.6944     2.4530
  328.0000    19.1088    14.4316    11.0968     9.9951    82.0765     0.1120     0.2403     0.1394   -41.0991     2.4587
  328.5000    19.0203    14.2389    11.2040     9.9943    81.8134     0.1122     0.2368     0.1355   -41.5013     2.4644
  329.0000    18.9322    14.0623    11.2594     9.9936    81.2146     0.1122     0.2374     0.1315   -41.5532     2.4652
  329.5000    18.8445    14.0248    11.1443     9.9928    81.9259     0.1121     0.2388     0.1319   -41.5523     2.4606
  330.0000    18.7572    13.9714    11.0657     9.9921    82.4130     0.1095     0.2392     0.1338   -41.5565     2.4539
  330.5000    18.6702    13.9183    10.9877     9.9913    81.9611     0.1049     0.2349     0.1379   -41.2826     2.4472
  331.0000    18.5837    13.8653    10.9108     9.9908    81.7775     0.0967     0.2318     0.1439   -40.8835     2.4397
