~VERSION INFORMATION
 VERS.                2.0:   CWLS LOG ASCII STANDARD - VERSION 2.0
 WRAP.                 NO:   ONE LINE PER DEPTH STEP
~WELL INFORMATION
#MNEM.UNIT      DATA TYPE    INFORMATION
#----------   ------------   ------------------------------
 STRT.F            0.0000:   START DEPTH
 STOP.F          790.0000:   STOP DEPTH
 STEP.F            0.1000:   STEP LENGTH
 NULL.          -999.2500:   NO VALUE
 COMP.   FLUOR DANIEL INC:   COMPANY
 WELL.   72-2 X-34 #72-34:   WELL
 FLD .          N.P.R. #3:   FIELD
 LOC .      S34 T39N R78W:   LOCATION
 CNTY.            NATRONA:   COUNTY
 STAT.            WYOMING:   STATE
 CTRY. UNITED STATES OF AMERICA:   COUNTRY
 SRVC.      Western Atlas:   SERVICE COMPANY
 DATE.        25-MAR-1995:   LOGDATE
 API .       490252269300:   API NUMBER
~CURVE INFORMATION
#MNEM.UNIT       API CODE    CURVE DESCRIPTION
#----------   ------------   ------------------------------
 DEPT.F                  :   
 GRR .GAPI   07 310 01 00:   GAMMA RAY
 RILD.OHMM   07 120 46 00:   INDUCTION LOG DEEP RESISTIVITY
 RILM.OHMM   07 120 44 00:   INDUCTION LOG MEDIUM RESISTIVITY
~PARAMETER INFORMATION
#MNEM.UNIT          VALUE    DESCRIPTION
#----------   ------------   ------------------------------
 PD  .                 GL:   PERMANENT DATUM
 EPD .F              5058:   ELEVATION PERMANENT DATUM
 LMF .                 KB:   LOG MEASURED FROM
 DAPD.F                10:   FEET ABOVE PERMANENT DATUM
 DMF .                 KB:   DRILLING MEASURED FROM
 EKB .F              5068:   KELLING BUSHING
 EDF .F              5067:   DRILLING FLOOR
 EGL .F              5058:   GROUND LEVEL
 DATE.        25-MAR-1995:   RUN DATE
 RUN .                  1:   RUN NUMBER
 DD  .F               796:   DEPTH DRILLER
 DL  .F               798:   DEPTH LOGGER
 BLI .F               790:   BOTTOM LOG INTERVAL
 TLI .F                96:   TOP LOG INTERVAL
 CS  .IN            9.625:   CASING SIZE
 CBD .F                95:   CASING BOTTOM DRILLER
 CBL .F                96:   CASING BOTTOM LOGGER
 BS  .IN             8.75:   BIT SIZE
 BSD .F               796:   BIT SIZE AT DEPTH
 DFT .                AIR:   DRILLING FLUID TYPE
 MRT .F                97:   MAXIMUM RECORDED TEMPERATURE
 LUN .            HL 6530:   LOGGING UNIT NUMBER
 LUL .             CASPER:   LOGGING UNIT LOCATION
 ENGI.             RAUTIO:   RECORDING ENGINEER
 WITN.             STRONG:   WITNESSED BY
 CLNT.            A2DTECH:   CLIENT CODE
 ORIG.       2", 5" PRINT:   ORIGIN OF DATA
 UWI .       490252269300:   UNIQUE WELL ID
 DICO. A2D Technologies, Inc.:   DIGITIZING COMPANY
~OTHER INFORMATION
~A    DEPT      GRR      RILD       RILM   
# ...
  455.0000   115.8012     6.9293     7.0508
  455.1000   116.4597     6.9349     7.0507
  455.2000   116.7244     6.9791     7.0506
  455.3000   117.0179     6.9791     7.0505
  455.4000   117.4892     6.9791     7.0787
  455.5000   117.6423     6.9791     7.0995
  455.6000   117.7838     6.9791     7.0994
  455.7000   118.0486     6.9791     7.1046
  455.8000   118.2681     6.9791     7.1487
  455.9000   118.2694     6.9791     7.1485
  456.0000   118.2708     6.9791     7.1484
  456.1000   118.2718     6.9791     7.1725
  456.2000   118.2731     6.9791     7.1981
  456.3000   118.0366     6.9791     7.2045
  456.4000   117.5106     6.9791     7.2361
  456.5000   116.9847     6.9791     7.2479
  456.6000   116.4119     6.9791     7.2478
  456.7000   116.1731     6.9791     7.2477
  456.8000   116.1033     7.0033     7.2674
  456.9000   116.2494     7.0292     7.2981
  457.0000   116.4168     7.0292     7.2980
  457.1000   116.4681     7.0292     7.2979
  457.2000   116.7327     7.0292     7.3368
  457.3000   117.0428     7.0651     7.3485
  457.4000   117.4809     7.0798     7.3485
  457.5000   118.0093     7.0798     7.3483
  457.6000   118.5377     7.0923     7.3482
  457.7000   118.9899     7.1307     7.3481
  457.8000   119.2830     7.1307     7.3480
  457.9000   119.8495     7.1707     7.3479
  458.0000   120.0953     7.1819     7.3478
  458.1000   120.1630     7.1819     7.3477
  458.2000   120.3139     7.1819     7.3476
  458.3000   120.4765     7.1819     7.3475
  458.4000   120.4230     7.1823     7.3474
  458.5000   120.1679     7.2335     7.3473
  458.6000   120.1694     7.2335     7.3472
  458.7000   120.1705     7.2335     7.3471
  458.8000   119.8200     7.2335     7.3470
  458.9000   119.5508     7.2335     7.3469
  459.0000   119.4712     7.2335     7.3468
  459.1000   119.2088     7.2335     7.3879
  459.2000   118.9326     7.2736     7.3978
  459.3000   118.4351     7.2855     7.4231
  459.4000   118.3129     7.2855     7.4492
  459.5000   118.3141     7.2855     7.4491
  459.6000   118.3154     7.2855     7.4502
  459.7000   118.4358     7.2855     7.5007
  459.8000   118.9520     7.3379     7.5379
  459.9000   119.2524     7.3379     7.5528
  460.0000   119.9375     7.3660     7.5738
  460.1000   120.9101     7.3906     7.6053
  460.2000   122.0989     7.3906     7.6098
  460.3000   123.5896     7.3943     7.6581
  460.4000   125.3212     7.4438     7.6579
  460.5000   126.4137     7.4438     7.6578
  460.6000   127.4314     7.4762     7.6578
  460.7000   128.4870     7.4973     7.6741
  460.8000   129.2242     7.5132     7.7109
  460.9000   129.8644     7.5588     7.7108
  461.0000   130.6565     7.6054     7.7644
  461.1000   131.4147     7.6054     7.7643
  461.2000   131.7103     7.6424     7.7928
  461.3000   131.7113     7.6601     7.8182
  461.4000   131.5273     7.6803     7.8299
  461.5000   131.2649     7.7269     7.8725
  461.6000   130.9122     7.7739     7.8724
  461.7000   130.3432     7.8265     7.9133
  461.8000   129.5403     7.8265     7.9597
  461.9000   128.9197     7.8599     7.9822
  462.0000   128.2863     7.8827     7.9977
  462.1000   127.6609     7.8989     8.0376
  462.2000   127.0184     7.9394     8.0375
  462.3000   126.2980     7.9394     8.0374
  462.4000   125.7505     7.9862     8.0373
  462.5000   124.8835     7.9964     8.0371
  462.6000   124.1719     7.9964     8.0371
  462.7000   123.5726     7.9964     8.0370
  462.8000   123.1893     7.9964     8.0368
  462.9000   122.9269     7.9936     8.0367
  463.0000   122.7121     7.9394     7.9965
  463.1000   122.7135     7.9394     7.9808
  463.2000   122.7150     7.9394     7.9808
  463.3000   122.9322     7.9394     7.9806
  463.4000   123.1970     7.9394     7.9805
  463.5000   123.5831     7.9326     7.9804
  463.6000   124.1116     7.8827     7.9803
  463.7000   124.6663     7.8827     7.9455
  463.8000   125.5217     7.8827     7.8990
  463.9000   126.2504     7.8827     7.8699
  464.0000   127.2374     7.8827     7.8610
  464.1000   128.1450     7.8827     7.8150
  464.2000   129.0366     7.8827     7.7610
  464.3000   130.0923     7.8827     7.7237
  464.4000   131.1378     7.8827     7.6784
  464.5000   131.7514     7.8505     7.6536
  464.6000   131.9734     7.8265     7.6535
  464.7000   132.2382     7.8265     7.6534
  464.8000   132.5030     7.8265     7.6533
  464.9000   132.6893     7.8265     7.6531
  465.0000   132.6905     7.7818     7.6212
  465.1000   132.6918     7.7706     7.6000
  465.2000   132.4458     7.7434     7.5999
  465.3000   132.1836     7.7151     7.5998
  465.4000   131.9213     7.7151     7.5997
  465.5000   131.7636     7.7151     7.5995
  465.6000   131.7077     7.7151     7.5994
  465.7000   131.4355     7.7151     7.5993
  465.8000   130.8344     7.6841     7.5993
  465.9000   130.6096     7.6601     7.6095
  466.0000   130.3474     7.6601     7.6520
  466.1000   129.9544     7.6547     7.6519
  466.2000   129.4284     7.6054     7.6518
  466.3000   128.8667     7.6054     7.6517
  466.4000   128.0424     7.6054     7.6516
  466.5000   127.7916     7.6054     7.6515
  466.6000   126.9156     7.5877     7.6514
  466.7000   126.4909     7.5511     7.6513
  466.8000   126.6015     7.5511     7.6511
  466.9000   126.8663     7.5511     7.6510
  467.0000   127.1456     7.5131     7.6510
  467.1000   127.7401     7.4973     7.6508
  467.2000   128.2025     7.4973     7.6507
  467.3000   128.9141     7.4973     7.6506
  467.4000   129.7057     7.4973     7.6505
  467.5000   130.4093     7.4973     7.6504
  467.6000   130.9784     7.4973     7.6503
  467.7000   131.7910     7.4973     7.6502
  467.8000   132.0490     7.4973     7.6501
  467.9000   132.3138     7.4973     7.6460
  468.0000   132.2551     7.4973     7.5969
  468.1000   131.8788     7.4973     7.5968
  468.2000   131.4195     7.4973     7.5967
  468.3000   131.1379     7.4973     7.5966
  468.4000   130.5557     7.5264     7.5965
  468.5000   130.3214     7.5511     7.5964
  468.6000   129.6831     7.5511     7.5963
  468.7000   128.8936     7.5553     7.5962
  468.8000   128.1973     7.6054     7.5961
  468.9000   127.5811     7.6054     7.5959
  469.0000   126.5195     7.6054     7.5959
  469.1000   125.2767     7.6054     7.6066
  469.2000   124.6356     7.6220     7.6486
  469.3000   123.8460     7.6601     7.6485
  469.4000   123.1757     7.6601     7.6876
  469.5000   122.5067     7.6601     7.7016
  469.6000   121.4783     7.6601     7.7015
  469.7000   120.6185     7.6893     7.7014
  469.8000   120.1393     7.7151     7.7013
  469.9000   119.2279     7.7151     7.7012
  470.0000   118.3204     7.7151     7.7440
  470.1000   117.5313     7.7151     7.7546
  470.2000   116.8918     7.6734     7.7546
  470.3000   116.8959     7.6601     7.7367
  470.4000   117.2058     7.6601     7.7007
  470.5000   117.6444     7.6601     7.7005
  470.6000   118.0015     7.6601     7.7004
  470.7000   118.3900     7.6601     7.6626
  470.8000   118.9183     7.6601     7.6469
  470.9000   119.4760     7.6601     7.6468
  471.0000   120.3236     7.6601     7.6467
  471.1000   120.8145     7.6601     7.6466
  471.2000   121.5403     7.6601     7.6465
  471.3000   122.6322     7.6601     7.6463
  471.4000   123.8486     7.6601     7.6462
  471.5000   124.8488     7.6601     7.6462
  471.6000   125.6334     7.6601     7.6461
  471.7000   126.2422     7.6601     7.6460
  471.8000   126.6903     7.6601     7.6458
  471.9000   127.0426     7.6601     7.5928
  472.0000   127.4361     7.6601     7.5927
  472.1000   127.8833     7.6601     7.5926
  472.2000   128.1145     7.6238     7.5925
  472.3000   128.1158     7.6054     7.5924
  472.4000   128.3666     7.6054     7.5923
  472.5000   128.0249     7.5945     7.5922
  472.6000   127.6537     7.5486     7.5921
  472.7000   127.2841     7.4973     7.5919
  472.8000   126.6985     7.4973     7.5919
  472.9000   125.9215     7.4973     7.5918
  473.0000   125.3252     7.4745     7.5917
  473.1000   124.4132     7.4438     7.5915
