~VERSION INFORMATION
 VERS.                2.0:   CWLS LOG ASCII STANDARD - VERSION 2.0
 WRAP.                 NO:   ONE LINE PER DEPTH STEP
~WELL INFORMATION
#MNEM.UNIT      DATA TYPE    INFORMATION
#----------   ------------   ------------------------------
 STRT.F            0.0000:   START DEPTH
 STOP.F          524.0000:   STOP DEPTH
 STEP.F            0.5000:   STEP LENGTH
 NULL.          -999.2500:   NO VALUE
 COMP.       F D SERV INC:   COMPANY
 WELL. NAVAL PETROLEUM RESERVE 3 SX-1 #83-2-10:   WELL
 FLD .             TEAPOT:   FIELD
 LOC .      S10 T38N R78W:   LOCATION
 CNTY.            NATRONA:   COUNTY
 STAT.            WYOMING:   STATE
 CTRY. UNITED STATES OF AMERICA:   COUNTRY
 SRVC.     Atlas Wireline:   SERVICE COMPANY
 DATE.        10-FEB-1993:   LOGDATE
 API .       490252258100:   API NUMBER
~CURVE INFORMATION
#MNEM.UNIT       API CODE    CURVE DESCRIPTION
#----------   ------------   ------------------------------
 DEPT.F                  :   
 RILM.OHMM   07 120 44 00:   RESITIVITY LONG MEDIUM
 RILD.OHMM   07 120 46 00:   INDUCTION LOG DEEP RESISTIVITY
 GRR .GAPI   07 310 01 00:   GAMMA RAY
 PORZ.DEC    45 890 12 00:   DENSITY POROSITY
 ZCOR.G/C3   45 356 01 00:   DENSITY CORRECTION
 ZDEN.G/C3   45 350 01 00:   BULK DENSITY
 NPHI.DEC    42 890 03 00:   NEUTRON POROSITY SANDSTONE
 C13 .IN     45 280 13 00:   CALIPER X
~PARAMETER INFORMATION
#MNEM.UNIT          VALUE    DESCRIPTION
#----------   ------------   ------------------------------
 PD  .                 GL:   PERMANENT DATUM
 EPD .F              5156:   ELEVATION PERMANENT DATUM
 LMF .                 KB:   LOG MEASURED FROM
 DAPD.F                10:   FEET ABOVE PERMANENT DATUM
 DMF .                 KB:   DRILLING MEASURED FROM
 EKB .F              5166:   KELLING BUSHING
 EDF .F              5165:   DRILLING FLOOR
 EGL .F              5156:   GROUND LEVEL
 DATE.        10-FEB-1993:   RUN DATE
 RUN .                  1:   RUN NUMBER
 DD  .F               525:   DEPTH DRILLER
 DL  .F               526:   DEPTH LOGGER
 BLI .F               518:   BOTTOM LOG INTERVAL
 CS  .IN            8.625:   CASING SIZE
 CBD .F                80:   CASING BOTTOM DRILLER
 CBL .F                81:   CASING BOTTOM LOGGER
 BS  .IN            7.875:   BIT SIZE
 BSD .F               525:   BIT SIZE AT DEPTH
 DFT .                AIR:   DRILLING FLUID TYPE
 MRT .F                70:   MAXIMUM RECORDED TEMPERATURE
 LUN .            HL 6274:   LOGGING UNIT NUMBER
 LUL .             CASPER:   LOGGING UNIT LOCATION
 ENGI.          V. RAUTIO:   RECORDING ENGINEER
 WITN.          G. STRONG:   WITNESSED BY
 CLNT.            A2DTECH:   CLIENT CODE
 ORIG.           5" PRINT:   ORIGIN OF DATA
 UWI .       490252258100:   UNIQUE WELL ID
 DICO. A2D Technologies, Inc.:   DIGITIZING COMPANY
~OTHER INFORMATION
~A    DEPT    RILM       RILD         GRR      PORZ       ZCOR       ZDEN       NPHI        C13   
# ...
  283.5000     5.9538     5.8569   166.1036     0.0943     0.0045     2.4906     0.3417     8.2589
  284.0000     5.5514     5.5023   164.3955     0.0904    -0.0046     2.4996     0.3393     8.2433
  284.5000     5.2178     5.2777   163.3377     0.0937    -0.0136     2.4995     0.3417     8.2278
  285.0000     5.0394     5.1683   163.3150     0.1040    -0.0227     2.4837     0.3508     8.2274
  285.5000     5.0039     5.1320   162.6891     0.1205    -0.0257     2.4619     0.3683     8.2269
  286.0000     5.0769     5.1672   162.9681     0.1554    -0.0123     2.4092     0.3712     8.2114
  286.5000     5.2877     5.2763   162.9398     0.1852     0.0177     2.3537     0.3514     8.2109
  287.0000     5.4356     5.4220   162.0122     0.1711     0.0492     2.3610     0.3363     8.2257
  287.5000     5.7447     5.6513   160.7829     0.1479     0.0296     2.4039     0.3267     8.2251
  288.0000     6.0712     5.9725   160.4586     0.1254     0.0056     2.4430     0.3204     8.2398
  288.5000     6.3282     6.1927   161.9386     0.1029     0.0040     2.4816     0.3186     8.2392
  289.0000     6.5960     6.5332   161.9159     0.0986     0.0072     2.4896     0.3195     8.2388
  289.5000     6.8277     6.7625   160.9883     0.0956     0.0130     2.4933     0.3219     8.2384
  290.0000     7.1164     6.9516   159.7386     0.0905     0.0159     2.4978     0.3203     8.2379
  290.5000     7.1652     7.0476   157.6191     0.0884     0.0144     2.5039     0.3168     8.2375
  291.0000     7.0654     6.7130   155.1832     0.0899     0.0113     2.5015     0.3144     8.2370
  291.5000     6.7194     6.3066   152.4456     0.0989     0.0068     2.4925     0.3129     8.2365
  292.0000     6.0645     5.8422   150.2383     0.1010     0.0037     2.4842     0.3132     8.2512
  292.5000     5.5030     5.4893   149.3781     0.1001    -0.0008     2.4857     0.3163     8.2507
  293.0000     5.2056     5.4131   149.9588     0.0992    -0.0039     2.4834     0.3258     8.2352
  293.5000     5.1331     5.3750   151.1428     0.1100    -0.0054     2.4585     0.3421     8.2347
  294.0000     5.2041     5.3743   155.9410     0.1293     0.0005     2.4201     0.3511     8.2343
  294.5000     5.3496     5.3735   160.1416     0.1450     0.0144     2.4103     0.3451     8.2490
  295.0000     5.5761     5.5237   161.9289     0.1417     0.0290     2.4276     0.3292     8.2485
  295.5000     5.8119     5.7973   161.9063     0.1256     0.0199     2.4562     0.3225     8.2631
  296.0000     6.1851     6.2120   154.6382     0.1055     0.0201     2.4742     0.3280     8.2476
  296.5000     6.6281     6.6565   147.3757     0.1028     0.0198     2.4870     0.3265     8.2623
  297.0000     7.1545     7.0837   145.5431     0.0959     0.0168     2.5005     0.3216     8.2617
  297.5000     7.5587     7.5382   149.1553     0.0866     0.0062     2.5110     0.3189     8.2462
  298.0000     7.8242     7.9664   152.4360     0.0761     0.0032     2.5238     0.3180     8.2457
  298.5000     7.9876     8.0209   149.6927     0.0728     0.0031     2.5298     0.3180     8.2453
  299.0000     8.1543     8.1315   145.7485     0.0752     0.0016     2.5252     0.3171     8.2448
  299.5000     8.2667     8.1905   143.8944     0.0797    -0.0015     2.5177     0.3165     8.2444
  300.0000     8.3811     8.3574   142.0777     0.0797    -0.0045     2.5177     0.3160     8.2440
  300.5000     8.4388     8.4144   142.3680     0.0818    -0.0075     2.5128     0.3176     8.2737
  301.0000     8.4381     8.4133   144.7637     0.0860    -0.0106     2.5086     0.3193     8.2732
  301.5000     8.4964     8.5296   147.4646     0.0854    -0.0181     2.5079     0.3184     8.2727
  302.0000     8.4957     8.5282   148.9589     0.0860    -0.0241     2.5071     0.3196     8.2722
  302.5000     8.5543     8.5866   148.6397     0.0918    -0.0272     2.5018     0.3208     8.2567
  303.0000     8.5536     8.5852   149.5306     0.0951    -0.0287     2.4966     0.3205     8.2563
  303.5000     8.6126     8.5839   150.1234     0.0960    -0.0287     2.4928     0.3196     8.2407
  304.0000     8.6119     8.5828   149.7758     0.0942    -0.0273     2.4913     0.3178     8.2403
  304.5000     8.5518     8.5817   150.0884     0.0909    -0.0258     2.4928     0.3160     8.2550
  305.0000     8.4335     8.5803   152.7893     0.0894    -0.0243     2.4980     0.3142     8.2545
  305.5000     8.3747     8.5200   153.0769     0.0909    -0.0229     2.5018     0.3109     8.2692
  306.0000     8.2588     8.3437   152.1544     0.0906    -0.0199     2.5003     0.3094     8.2686
  306.5000     8.3735     8.2276   151.5359     0.0897    -0.0184     2.5003     0.3082     8.2682
  307.0000     8.4900     8.2840   151.8236     0.0919    -0.0169     2.5003     0.3061     8.2526
  307.5000     8.6676     8.5153   153.0162     0.0934    -0.0140     2.4973     0.2935     8.2522
  308.0000     8.9105     8.7631   150.8871     0.0913    -0.0095     2.4957     0.2863     8.2518
  308.5000     9.0972     9.1232   148.7614     0.0856    -0.0065     2.4988     0.2823     8.2514
  309.0000     9.0337     9.0591   146.0325     0.0804    -0.0020     2.5070     0.2769     8.2508
  309.5000     7.8096     8.2781   143.8773     0.0790     0.0024     2.5145     0.2724     8.2504
  310.0000     6.9894     7.4602   144.7943     0.0824     0.0099     2.5183     0.2739     8.2500
  310.5000     6.2989     6.7233   146.8919     0.0901     0.0174     2.5123     0.2812     8.2495
  311.0000     5.4653     6.0173   151.7250     0.1055     0.0204     2.4927     0.3007     8.2340
  311.5000     5.0105     5.8927   162.5466     0.1383     0.0128     2.4569     0.3408     8.2336
  312.0000     5.4071     5.8919   166.7558     0.1762    -0.0022     2.3670     0.3522     8.2331
  312.5000     5.7547     5.9323   166.4401     0.1747     0.0158     2.3602     0.3365     8.2478
  313.0000     6.4290     6.0999   154.3562     0.1344     0.0398     2.4069     0.3026     8.2472
  313.5000     7.1824     6.5795   141.0681     0.1082     0.0322     2.4663     0.2821     8.2468
  314.0000     8.1362     7.1984   132.9092     0.0848     0.0157     2.5107     0.2731     8.2615
  314.5000     9.1527     8.0408   131.9937     0.0790     0.0051     2.5190     0.2722     8.2609
  315.0000     9.6739     9.1701   133.8160     0.0797    -0.0011     2.5167     0.2746     8.2605
  315.5000    10.0143     9.7585   134.3720     0.0800    -0.0024     2.5182     0.2767     8.2601
  316.0000    10.1534    10.0313   135.8662     0.0761     0.0050     2.5242     0.2791     8.2596
  316.5000    10.2234    10.1083   139.7798     0.0743     0.0112     2.5272     0.2830     8.2591
  317.0000    10.3653    10.1686   141.8714     0.0743     0.0185     2.5265     0.2870     8.2587
  317.5000    10.5092    10.2376   141.2505     0.0775     0.0170     2.5197     0.2906     8.2583
  318.0000    10.7292    10.5248   141.5382     0.0839     0.0048     2.5076     0.2930     8.2728
  318.5000    11.1067    11.1215   149.0621     0.0854     0.0019     2.5054     0.2954     8.2724
  319.0000    11.7392    11.8352   152.3664     0.0839     0.0034     2.5091     0.2966     8.2870
  319.5000    12.9633    12.9484   152.6575     0.0800     0.0079     2.5189     0.2960     8.2715
  320.0000    14.4500    14.2643   139.9090     0.0767     0.0123     2.5219     0.2896     8.2560
  320.5000    15.5936    15.6061   115.2179     0.0785     0.0138     2.5114     0.2723     8.2254
  321.0000    17.5422    17.9221   103.8426     0.0985     0.0153     2.4911     0.2545     8.2415
  321.5000    20.4298    19.8066    93.1652     0.1180     0.0137     2.4519     0.2449     8.2847
  322.0000    22.8241    23.4723    88.3247     0.1322     0.0272     2.4271     0.2413     8.3145
  322.5000    24.9743    25.3269    83.7858     0.1463     0.0454     2.3994     0.2569     8.3291
  323.0000    27.5166    26.3980    80.7517     0.1614     0.0602     2.3668     0.2657     8.3285
  323.5000    28.8825    27.8972    80.1343     0.1785     0.0331     2.3443     0.2702     8.3130
