~VERSION INFORMATION
 VERS.                2.0:   CWLS LOG ASCII STANDARD - VERSION 2.0
 WRAP.                 NO:   ONE LINE PER DEPTH STEP
~WELL INFORMATION
#MNEM.UNIT      DATA TYPE    INFORMATION
#----------   ------------   ------------------------------
 STRT.F           42.0000:   START DEPTH
 STOP.F         3140.0000:   STOP DEPTH
 STEP.F            0.5000:   STEP LENGTH
 NULL.          -999.2500:   NO VALUE
 COMP. LAWRENCE-ALLISON & AS:   COMPANY
 WELL.     88 X 33 #88-33:   WELL
 FLD .             NPR #3:   FIELD
 LOC .      S33 T39N R78W:   LOCATION
 CNTY.            NATRONA:   COUNTY
 STAT.            WYOMING:   STATE
 CTRY. UNITED STATES OF AMERICA:   COUNTRY
 SRVC.       Schlumberger:   SERVICE COMPANY
 DATE.        13-DEC-1987:   LOGDATE
 API .       490251120300:   API NUMBER
~CURVE INFORMATION
#MNEM.UNIT       API CODE    CURVE DESCRIPTION
#----------   ------------   ------------------------------
 DEPT.F                  :   
 GRR .GAPI   07 310 01 00:   GAMMA RAY FROM RES
 SPR .MV     07 010 01 00:   SPONTANEOUS POTENTIAL
 ILD .OHMM   07 120 46 00:   INDUCTION LOG DEEP RES
 ILM .OHMM   07 120 44 00:   INDUCTION LOG MEDIUM RES
 SFLU.OHMM   07 220 01 00:   SPHERICALLY FOCUSED LOG UNAVERAGED RES
 DPHI.DEC    45 890 12 00:   DENSITY POROSITY SANDSTONE
 NPHI.DEC    42 890 03 00:   NEUTRON POROSITY SANDSTONE
 CALD.IN     45 280 60 00:   CALIPER FROM DENSITY LOG
 DRHO.G/C3   45 356 01 00:   DENSITY CORRECTION
 RHOB.G/C3   45 350 01 00:   BULK DENSITY
~PARAMETER INFORMATION
#MNEM.UNIT          VALUE    DESCRIPTION
#----------   ------------   ------------------------------
 PD  .                 GL:   PERMANENT DATUM
 EPD .F              5746:   ELEVATION PERMANENT DATUM
 LMF .                 KB:   LOG MEASURED FROM
 DAPD.F                11:   FEET ABOVE PERMANENT DATUM
 DMF .                 KB:   DRILLING MEASURED FROM
 EKB .F              5157:   KELLING BUSHING
 EGL .F              5146:   GROUND LEVEL
 DATE.        13-DEC-1987:   RUN DATE
 RUN .                  1:   RUN NUMBER
 DD  .F              3155:   DEPTH DRILLER
 DL  .F              3140:   DEPTH LOGGER
 BLI .F              3132:   BOTTOM LOG INTERVAL
 TLI .F               614:   TOP LOG INTERVAL
 CS  .IN            9.625:   CASING SIZE
 CBD .F               608:   CASING BOTTOM DRILLER
 CBL .F               614:   CASING BOTTOM LOGGER
 BS  .IN            7.875:   BIT SIZE
 BSD .F              3155:   BIT SIZE AT DEPTH
 DFT .       KCL DIS. PAC:   DRILLING FLUID TYPE
 DFD .                  9:   DRILLING FLUID DENSITY
 DFV .                 41:   DRILLING FLUID VISCOSITY
 DFPH.                9.5:   DRILLING FLUID PH
 DFL .                8.4:   DRILLING FLUID LOSS
 MSS .           FLOWLINE:   MUD SAMPLE SOURCE
 RMS .OHMM          0.523:   RESISTIVITY MUD SAMPLE
 MST .F                63:   MUD SAMPLE TEMPERATURE
 RMF .OHMM          0.435:   RESISTIVITY MUD FILTRATE SAMPLE
 MFST.F                63:   MUD FILTRATE SAMPLE TEMPERATURE
 RMC .OHMM          0.489:   RESISTIVITY MUD CAKE
 MCST.F                63:   MUD CAKE SAMPLE TEMPERATURE
 MFSS.              PRESS:   MUD FILTRATE SAMPLE SOURCE
 MCSS.               CALC:   MUD CAKE SAMPLE SOURCE
 RMB .OHMM          0.288:   RESISTIVITY MUD AT BHT
 BHT .F               120:   BOTTOM HOLE TEMPERATURE
 TCS .HRS            0600:   TIME CURCULATED STOPPED
 TLAB.HRS            1430:   TIME LOGGER AT BOTTOM
 MRT .F               120:   MAXIMUM RECORDED TEMPERATURE
 LUN .               8198:   LOGGING UNIT NUMBER
 LUL .             CASPER:   LOGGING UNIT LOCATION
 ENGI.          W. BENSON:   RECORDING ENGINEER
 WITN.        GARY STRONG:   WITNESSED BY
 CLNT.            A2DTECH:   CLIENT CODE
 ORIG.           5" PRINT:   ORIGIN OF DATA
 UWI .       490251120300:   UNIQUE WELL ID
 DICO. A2D Technologies, Inc.:   DIGITIZING COMPANY
~OTHER INFORMATION
~A   DEPT      GRR        SPR        ILD        ILM       SFLU       DPHI       NPHI       CALD       DRHO       RHOB   
# ...
 3090.5000   131.6046   -78.3208     3.6078     3.5829     4.2271     0.1150     0.2357     8.0390    -0.0264     2.4516
 3091.0000   126.8539   -78.1777     3.6577     3.6325     4.2262     0.1131     0.2336     8.0540    -0.0249     2.4524
 3091.5000   126.3936   -78.0346     3.7083     3.6573     4.2549     0.1101     0.2351     8.0540    -0.0235     2.4576
 3092.0000   127.5181   -78.0422     3.7596     3.7594     4.3431     0.1095     0.2354     8.0540    -0.0220     2.4614
 3092.5000   126.1107   -77.7485     3.7852     3.8114     4.4334     0.1092     0.2339     8.0540    -0.0212     2.4622
 3093.0000   120.7264   -77.6054     3.7845     3.8642     4.5887     0.1077     0.2300     8.0540    -0.0227     2.4621
 3093.5000   119.5918   -77.6130     3.8370     3.9721     4.8156     0.1053     0.2243     8.0540    -0.0242     2.4652
 3094.0000   124.1014   -77.9297     3.8631     3.9716     5.0537     0.1029     0.2213     8.0540    -0.0242     2.4690
 3094.5000   128.3869   -78.5432     3.8894     3.9710     5.1946     0.1005     0.2243     8.0540    -0.0212     2.4728
 3095.0000   131.3169   -78.8552     3.8888     3.9158     4.9821     0.0987     0.2315     8.0540    -0.0190     2.4758
 3095.5000   131.3101   -79.1491     3.8347     3.8347     4.7784     0.0981     0.2403     8.0540    -0.0182     2.4788
 3096.0000   129.7221   -79.0058     3.7553     3.7553     4.5830     0.0990     0.2427     8.0690    -0.0167     2.4803
 3096.5000   125.4231   -78.7120     3.7031     3.7288     4.4261     0.1020     0.2385     8.0690    -0.0160     2.4804
 3097.0000   125.8682   -78.3897     3.7026     3.7283     4.2746     0.1044     0.2360     8.0690    -0.0182     2.4759
 3097.5000   131.2831   -78.1246     3.6766     3.7278     4.2149     0.1062     0.2354     8.0840    -0.0197     2.4684
 3098.0000   133.0853   -78.4352     3.7017     3.7533     4.2728     0.1074     0.2357     8.0840    -0.0226     2.4669
 3098.5000   129.2365   -78.7439     3.7269     3.8315     4.3616     0.1077     0.2345     8.0840    -0.0256     2.4662
 3099.0000   126.9724   -78.9019     3.7523     3.8846     4.6411     0.1065     0.2321     8.0840    -0.0263     2.4655
 3099.5000   132.1598   -78.9094     3.7257     3.8040     4.9729     0.1047     0.2294     8.0840    -0.0263     2.4662
 3100.0000   136.8970   -78.9691     3.6995     3.7511     5.0064     0.0989     0.2297     8.0990    -0.0278     2.4768
 3100.5000   131.9204   -79.6203     3.6734     3.7247     4.6392     0.0956     0.2354     8.0990    -0.0278     2.4873
 3101.0000   128.9769   -79.8388     3.6476     3.6729     4.4813     0.0953     0.2445     8.0990    -0.0285     2.4858
 3101.5000   131.2292   -79.0951     3.6219     3.6219     4.3288     0.0994     0.2499     8.0990    -0.0300     2.4813
 3102.0000   136.4182   -78.3514     3.5469     3.5224     4.1526     0.1085     0.2499     8.0990    -0.0307     2.4641
 3102.5000   140.2519   -78.0596     3.4734     3.4494     4.0955     0.1125     0.2487     8.0990    -0.0315     2.4566
 3103.0000   141.1504   -77.7678     3.3780     3.3546     4.0955     0.1116     0.2478     8.0990    -0.0315     2.4573
 3103.5000   140.2384   -77.9277     3.2852     3.2625     4.1240     0.1107     0.2481     8.0990    -0.0300     2.4596
 3104.0000   137.0690   -78.5395     3.2395     3.2171     4.0955     0.1098     0.2496     8.0990    -0.0285     2.4611
 3104.5000   132.0924   -79.0006     3.2617     3.2167     3.8480     0.1089     0.2535     8.1139    -0.0270     2.4626
 3105.0000   131.6039   -79.4618     3.2839     3.2612     3.9017     0.1095     0.2559     8.1139    -0.0248     2.4611
 3105.5000   131.4012   -79.4711     3.1936     3.2607     3.9836     0.1131     0.2541     8.1139    -0.0241     2.4558
 3106.0000   126.6504   -79.4805     3.1058     3.1274     4.1526     0.1173     0.2517     8.1139    -0.0233     2.4481
 3106.5000   123.4810   -79.0380     3.0415     3.0415     4.2105     0.1131     0.2523     8.1139    -0.0226     2.4517
 3107.0000   126.6370   -78.8945     2.9579     2.9992     4.0113     0.1107     0.2571     8.0990    -0.0211     2.4612
 3107.5000   136.1182   -78.6049     2.8967     2.9575     3.7689     0.1122     0.2654     8.0990    -0.0219     2.4579
 3108.0000   145.5994   -78.6145     2.8564     2.8763     3.5168     0.1206     0.2727     8.0990    -0.0271     2.4444
 3108.5000   145.1328   -78.6239     2.8560     2.8560     3.3736     0.1327     0.2704     8.0990    -0.0307     2.4222
 3109.0000   138.9416   -78.6333     2.8556     2.8556     3.2815     0.1366     0.2686     8.0990    -0.0306     2.4162
 3109.5000   132.4234   -78.6427     2.8552     2.8951     3.3736     0.1360     0.2667     8.0990    -0.0300     2.4177
 3110.0000   134.3526   -78.6521     2.8548     2.8947     3.6660     0.1324     0.2625     8.0990    -0.0293     2.4252
 3110.5000   137.9238   -78.5105     2.8544     2.8943     3.9561     0.1263     0.2547     8.0990    -0.0270     2.4357
 3111.0000   138.3538   -78.3692     2.8343     2.8739     3.9836     0.1185     0.2517     8.0990    -0.0256     2.4470
 3111.5000   140.2155   -77.7785     2.7949     2.8536     3.9561     0.1122     0.2547     8.0990    -0.0233     2.4575
 3112.0000   143.3194   -77.3361     2.7752     2.8335     3.7689     0.1077     0.2652     8.0990    -0.0211     2.4650
 3112.5000   143.5056   -77.1925     2.7557     2.8136     3.5658     0.1074     0.2749     8.0990    -0.0196     2.4665
 3113.0000   142.5105   -77.5054     2.7174     2.7745     3.3736     0.1101     0.2785     8.0990    -0.0174     2.4575
 3113.5000   138.9723   -77.9665     2.6982     2.7549     3.2140     0.1194     0.2770     8.0990    -0.0152     2.4418
 3114.0000   139.4174   -78.4277     2.6607     2.6979     3.1918     0.1221     0.2743     8.0990    -0.0137     2.4425
 3114.5000   140.0900   -78.5876     2.6238     2.6604     3.1918     0.1185     0.2746     8.0990    -0.0115     2.4463
 3115.0000   138.2744   -78.7476     2.5694     2.6234     3.2815     0.1164     0.2770     8.0990    -0.0115     2.4493
 3115.5000   132.8459   -78.7570     2.5513     2.5869     3.3503     0.1161     0.2748     8.0990    -0.0144     2.4508
 3116.0000   131.9373   -78.6157     2.5158     2.5510     3.3971     0.1200     0.2721     8.0990    -0.0189     2.4516
 3116.5000   132.8324   -78.4721     2.4637     2.5330     3.3272     0.1257     0.2730     8.0990    -0.0219     2.4366
 3117.0000   134.6346   -78.3332     2.4294     2.4976     3.1918     0.1278     0.2800     8.0990    -0.0226     2.4306
 3117.5000   133.2708   -78.0390     2.3957     2.4628     2.9373     0.1290     0.2899     8.0990    -0.0219     2.4284
 3118.0000   131.2309   -77.8978     2.3949     2.4120     2.7983     0.1312     0.2981     8.0990    -0.0219     2.4261
 3118.5000   130.0946   -77.9095     2.3785     2.3950     2.8177     0.1330     0.2965     8.0990    -0.0219     2.4246
 3119.0000   129.6371   -77.7659     2.3947     2.3947     2.9170     0.1309     0.2899     8.0990    -0.0226     2.4261
 3119.5000  -999.2500   -77.9282     2.3944     2.4120     2.9783     0.1293     0.2857     8.0690    -0.0241     2.4284
 3120.0000  -999.2500   -77.7846     2.4107     2.4625     3.0198     0.1290     0.2872     8.0390    -0.0248     2.4314
 3120.5000  -999.2500   -77.7963     2.3925     2.5302     3.1479     0.1278     0.3086     8.0090    -0.0248     2.4329
 3121.0000  -999.2500   -77.6550     2.3604     2.5474     3.3736     0.1236     0.3204     7.9940    -0.0233     2.4360
 3121.5000  -999.2500   -76.9114     2.3422     2.5278     3.5658     0.1188     0.3240     7.9940    -0.0211     2.4406
 3122.0000  -999.2500   -76.4689     2.2953     2.4225     3.5168     0.1137     0.3243     7.9940    -0.0181     2.4466
 3122.5000  -999.2500   -76.1747     2.2634     2.3251     3.0198     0.1119     0.3243     7.9940    -0.0152     2.4569
 3123.0000  -999.2500   -76.1864     2.2454     2.2631     2.4533     0.1134     0.3240     7.9940    -0.0115     2.4540
 3123.5000  -999.2500   -76.7982     2.2316     2.2471     2.3830     0.1209     0.3237     7.9940    -0.0100     2.4412
