~VERSION INFORMATION
 VERS.                2.0:   CWLS LOG ASCII STANDARD - VERSION 2.0
 WRAP.                 NO:   ONE LINE PER DEPTH STEP
~WELL INFORMATION
#MNEM.UNIT      DATA TYPE    INFORMATION
#----------   ------------   ------------------------------
 STRT.F            0.0000:   START DEPTH
 STOP.F          635.0000:   STOP DEPTH
 STEP.F            0.1000:   STEP LENGTH
 NULL.          -999.2500:   NO VALUE
 COMP.   FLUOR DANIEL INC:   COMPANY
 WELL. NAVAL PETROLEUM RESERVE 3 SX-3 #72-7-3:   WELL
 FLD .             TEAPOT:   FIELD
 LOC .       S3 T38N R78W:   LOCATION
 CNTY.            NATRONA:   COUNTY
 STAT.            WYOMING:   STATE
 CTRY. UNITED STATES OF AMERICA:   COUNTRY
 SRVC.      Western Atlas:   SERVICE COMPANY
 DATE.        11-JAN-1995:   LOGDATE
 API .       490252264900:   API NUMBER
~CURVE INFORMATION
#MNEM.UNIT       API CODE    CURVE DESCRIPTION
#----------   ------------   ------------------------------
 DEPT.F                  :   
 GRR .GAPI   07 310 01 00:   GAMMA RAY
 RILD.OHMM   07 120 46 00:   INDUCTION LOG DEEP RESISTIVITY
 RILM.OHMM   07 120 44 00:   RESITIVITY LONG MEDIUM
~PARAMETER INFORMATION
#MNEM.UNIT          VALUE    DESCRIPTION
#----------   ------------   ------------------------------
 PD  .                 GL:   PERMANENT DATUM
 EPD .F              5144:   ELEVATION PERMANENT DATUM
 LMF .                 KB:   LOG MEASURED FROM
 DAPD.F                10:   FEET ABOVE PERMANENT DATUM
 DMF .                 KB:   DRILLING MEASURED FROM
 EKB .F              5154:   KELLING BUSHING
 EDF .F              5153:   DRILLING FLOOR
 EGL .F              5144:   GROUND LEVEL
 DATE.        11-JAN-1995:   RUN DATE
 RUN .                  1:   RUN NUMBER
 DD  .F               641:   DEPTH DRILLER
 DL  .F               642:   DEPTH LOGGER
 BLI .F               635:   BOTTOM LOG INTERVAL
 CS  .IN            9.625:   CASING SIZE
 CBD .F                97:   CASING BOTTOM DRILLER
 CBL .F                97:   CASING BOTTOM LOGGER
 BS  .IN             8.75:   BIT SIZE
 BSD .F               641:   BIT SIZE AT DEPTH
 DFT .                AIR:   DRILLING FLUID TYPE
 MRT .F                89:   MAXIMUM RECORDED TEMPERATURE
 LUN .            HL 6530:   LOGGING UNIT NUMBER
 LUL .             CASPER:   LOGGING UNIT LOCATION
 ENGI.      PAT RASMUSSEN:   RECORDING ENGINEER
 WITN.        STEVE HARDY:   WITNESSED BY
 CLNT.            A2DTECH:   CLIENT CODE
 ORIG.           5" PRINT:   ORIGIN OF DATA
 UWI .       490252264900:   UNIQUE WELL ID
 DICO. A2D Technologies, Inc.:   DIGITIZING COMPANY
~OTHER INFORMATION
~A    DEPT      GRR      RILD       RILM   
# ...
  309.4000   117.6412     6.8530     6.8914
  309.5000   116.0341     6.9350     6.9879
  309.6000   114.4593     7.0272     7.0221
  309.7000   113.3135     7.1023     7.0643
  309.8000   112.5141     7.1566     7.1273
  309.9000   111.4177     7.1995     7.1852
  310.0000   110.9366     7.2595     7.1921
  310.1000   110.4226     7.3271     7.2356
  310.2000   110.0624     7.3298     7.2862
  310.3000   109.8067     7.3787     7.2864
  310.4000   109.7490     7.4180     7.3153
  310.5000   110.2679     7.4306     7.3591
  310.6000   110.8304     7.4553     7.3888
  310.7000   111.3057     7.5000     7.3961
  310.8000   111.8244     7.5352     7.4406
  310.9000   112.3432     7.5378     7.4926
  311.0000   112.9667     7.5883     7.4928
  311.1000   113.6830     7.6285     7.5228
  311.2000   114.2018     7.6417     7.5454
  311.3000   114.7749     7.6670     7.5607
  311.4000   115.0082     7.6954     7.5983
  311.5000   115.0816     7.7056     7.5985
  311.6000   114.7972     7.7496     7.5988
  311.7000   114.1836     7.7500     7.6370
  311.8000   113.3557     7.7909     7.6828
  311.9000   112.3372     7.8045     7.7055
  312.0000   111.4686     7.8301     7.7214
  312.1000   110.7928     7.8594     7.7677
  312.2000   110.0206     7.8597     7.8138
  312.3000   109.3865     7.8601     7.8140
  312.4000   108.7783     7.8604     7.8142
  312.5000   108.1068     7.8607     7.8144
  312.6000   107.8445     7.8610     7.8386
  312.7000   107.2559     7.8614     7.8693
  312.8000   107.0373     7.8617     7.8781
  312.9000   106.7815     7.8717     7.9245
  313.0000   106.6586     7.9170     7.9247
  313.1000   106.5720     7.9174     7.9451
  313.2000   106.3162     7.9177     7.9690
  313.3000   106.0616     7.9180     8.0053
  313.4000   106.0644     7.9183     8.0363
  313.5000   105.8510     7.9361     8.0365
  313.6000   105.5952     7.9741     8.0379
  313.7000   105.4671     7.9744     8.0929
  313.8000   105.3857     7.9748     8.1346
  313.9000   105.1300     7.9751     8.1496
  314.0000   104.8701     8.0087     8.1499
  314.1000   104.5708     8.0312     8.1501
  314.2000   104.3625     8.0490     8.1599
  314.3000   104.1067     8.0877     8.2073
  314.4000   103.8509     8.0881     8.2075
  314.5000   103.5952     8.0884     8.2502
  314.6000   103.3737     8.0887     8.2651
  314.7000   103.3765     8.1226     8.2653
  314.8000   103.1299     8.1457     8.2655
  314.9000   103.0792     8.1460     8.2758
  315.0000   102.9205     8.1463     8.3235
  315.1000   102.6647     8.1480     8.3238
  315.2000   102.4822     8.2037     8.3240
  315.3000   102.4846     8.2040     8.3242
  315.4000   102.4871     8.2044     8.3514
  315.5000   102.4894     8.2047     8.3826
  315.6000   102.4918     8.2225     8.3828
  315.7000   102.8061     8.2624     8.3831
  315.8000   103.3249     8.2639     8.3833
  315.9000   103.7756     8.3206     8.4276
  316.0000   104.0603     8.3209     8.4782
  316.1000   104.6189     8.3213     8.5011
  316.2000   104.8596     8.3216     8.5208
  316.3000   105.1203     8.3395     8.5719
  316.4000   105.2302     8.3802     8.6206
  316.5000   105.2326     8.3815     8.6208
  316.6000   105.2350     8.4392     8.6667
  316.7000   105.2375     8.4395     8.7187
  316.8000   105.2401     8.4743     8.7420
  316.9000   105.4755     8.4989     8.7626
  317.0000   105.1683     8.5170     8.8151
  317.1000   104.6543     8.5587     8.8648
  317.2000   103.9374     8.5591     8.8651
  317.3000   103.0220     8.5595     8.8653
  317.4000   102.5079     8.5598     8.9041
  317.5000   101.9338     8.5949     8.9275
  317.6000   101.7079     8.6201     8.9277
  317.7000   101.4521     8.6204     8.9280
  317.8000   101.1963     8.6300     8.9282
  317.9000   100.9406     8.6811     8.9285
  318.0000   100.6848     8.6815     8.9287
  318.1000   100.4290     8.6818     8.9290
  318.2000   100.1381     8.6822     8.9292
  318.3000   100.1402     8.6825     8.9295
  318.4000   100.3215     8.6829     8.9297
  318.5000   100.7171     8.6833     8.9300
  318.6000   101.3270     8.6836     8.9302
  318.7000   102.0569     8.6840     8.9304
  318.8000   102.5757     8.6843     8.9307
  318.9000   103.1762     8.6847     8.9309
  319.0000   103.3958     8.6851     8.9312
  319.1000   103.8299     8.6854     8.9314
  319.2000   104.2191     8.6858     8.9317
  319.3000   104.5655     8.6861     8.9320
  319.4000   105.0425     8.6866     8.9322
  319.5000   105.3052     8.6869     8.9324
  319.6000   105.0059     8.6872     8.9327
  319.7000   104.5832     8.6876     8.9329
  319.8000   104.0692     8.6879     8.9332
  319.9000   103.6797     8.6883     8.9334
  320.0000   103.5045     8.6887     8.9337
  320.1000   103.4703     8.6891     8.9339
  320.2000   103.2073     8.6894     8.8941
  320.3000   103.2101     8.6898     8.8727
  320.4000   103.2121     8.6901     8.8505
  320.5000   103.2145     8.6905     8.7982
  320.6000   103.2169     8.6908     8.7511
  320.7000   103.1440     8.6912     8.7514
  320.8000   102.9193     8.6316     8.7034
  320.9000   102.9222     8.6319     8.6520
  321.0000   102.6788     8.6323     8.6316
  321.1000   102.6248     8.6074     8.6318
  321.2000   102.4693     8.5733     8.6321
  321.3000   102.2135     8.5737     8.6271
  321.4000   101.8176     8.5741     8.5729
  321.5000   101.0454     8.5745     8.5731
  321.6000   100.2201     8.5748     8.5342
  321.7000    99.5010     8.5751     8.5143
  321.8000    98.5320     8.5755     8.5146
  321.9000    97.5015     8.5595     8.5148
  322.0000    96.5800     8.5169     8.5095
  322.1000    95.8727     8.5173     8.4564
  322.2000    95.3797     8.5177     8.4567
  322.3000    95.1011     8.5180     8.4569
  322.4000    95.1033     8.4854     8.4571
  322.5000    95.2971     8.4599     8.4350
  322.6000    95.5577     8.4603     8.3991
  322.7000    96.0253     8.4606     8.3994
  322.8000    96.9813     8.4610     8.3996
  322.9000    98.4860     8.4029     8.3998
  323.0000    99.3477     8.3626     8.4001
  323.1000    99.8099     8.3455     8.4003
  323.2000   100.1426     8.3459     8.4005
  323.3000   100.5454     8.3307     8.4008
  323.4000   100.9660     8.2817     8.4010
  323.5000   101.1722     8.2320     8.4012
  323.6000   101.1746     8.2324     8.4015
  323.7000   101.1774     8.2327     8.4017
  323.8000   100.9547     8.2016     8.4019
  323.9000   100.5180     8.1534     8.4022
  324.0000   100.0040     8.1054     8.4024
  324.1000    99.4899     8.0578     8.4026
  324.2000    98.9760     8.0093     8.4029
  324.3000    98.4673     8.0097     8.3550
  324.4000    98.1732     7.9335     8.3057
  324.5000    97.9557     7.9000     8.2878
  324.6000    97.8755     7.8561     8.2651
  324.7000    97.7462     7.7637     8.2162
  324.8000    97.5782     7.6786     8.1743
  324.9000    97.5807     7.6323     8.1746
  325.0000    97.5831     7.5799     8.0622
  325.1000    97.8880     7.5082     8.0624
  325.2000    97.8900     7.4199     8.0016
  325.3000    97.8924     7.3326     7.9294
  325.4000    97.8949     7.2463     7.8825
  325.5000    97.9799     7.1610     7.8293
  325.6000    98.2405     7.0741     7.7349
  325.7000    98.5064     7.0745     7.6285
  325.8000    99.1134     7.0078     7.5919
  325.9000    99.5335     6.9254     7.5182
  326.0000    99.8872     6.8439     7.4507
  326.1000   100.2690     6.7634     7.3792
  326.2000   100.7105     6.6786     7.2487
  326.3000   101.0047     6.5568     7.1186
  326.4000   101.5445     6.4824     7.0207
  326.5000   102.0423     6.3761     6.9192
  326.6000   102.7650     6.2872     6.8233
  326.7000   103.5420     6.1796     6.7234
  326.8000   104.0870     6.0556     6.5921
  326.9000   104.3476     5.9754     6.4489
  327.0000   104.5801     5.8298     6.3721
  327.1000   104.5826     5.7639     6.2411
  327.2000   104.5849     5.6431     6.1501
  327.3000   104.5873     5.5313     6.0415
  327.4000   104.5897     5.4338     5.9348
  327.5000   104.4813     5.3290     5.8412
