~VERSION INFORMATION
 VERS.                2.0:   CWLS LOG ASCII STANDARD - VERSION 2.0
 WRAP.                 NO:   ONE LINE PER DEPTH STEP
~WELL INFORMATION
#MNEM.UNIT      DATA TYPE    INFORMATION
#----------   ------------   ------------------------------
 STRT.F          630.0000:   START DEPTH
 STOP.F         1708.0000:   STOP DEPTH
 STEP.F            0.5000:   STEP LENGTH
 NULL.          -999.2500:   NO VALUE
 COMP. FENIX & SCISSON INC:   COMPANY
 WELL.      SHX 34 #58-34:   WELL
 FLD .             TEAPOT:   FIELD
 LOC .      S34 T39N R78W:   LOCATION
 CNTY.            NATRONA:   COUNTY
 STAT.            WYOMING:   STATE
 CTRY. UNITED STATES OF AMERICA:   COUNTRY
 SRVC.           BIRDWELL:   SERVICE COMPANY
 DATE.        28-MAR-1979:   LOGDATE
 API .       490251077400:   API NUMBER
~CURVE INFORMATION
#MNEM.UNIT       API CODE    CURVE DESCRIPTION
#----------   ------------   ------------------------------
 DEPT.F                  :   
 CORR.G/C3   45 356 01 00:   DENSITY CORRECTION
 DPHI.DEC    45 890 12 00:   DENSITY POROSITY SANDSTONE
 RHOB.G/C3   45 350 01 00:   BULK DENSITY
 CALD.IN     45 280 60 00:   CALIPER
 GRD .GAPI   45 310 01 00:   GAMMA RAY FROM DENSITY LOG
~PARAMETER INFORMATION
#MNEM.UNIT          VALUE    DESCRIPTION
#----------   ------------   ------------------------------
 PD  .                 GL:   PERMANENT DATUM
 EPD .F              5120:   ELEVATION PERMANENT DATUM
 LMF .                 KB:   LOG MEASURED FROM
 DAPD.F                10:   FEET ABOVE PERMANENT DATUM
 DMF .                 KB:   DRILLING MEASURED FROM
 EKB .F              5130:   KELLING BUSHING
 EGL .F              5120:   GROUND LEVEL
 DATE.            3-28-79:   RUN DATE
 RUN .                  2:   RUN NUMBER
 DD  .F              1720:   DEPTH DRILLER
 DL  .F              1708:   DEPTH LOGGER
 BLI .F              1708:   BOTTOM LOG INTERVAL
 TLI .F               649:   TOP LOG INTERVAL
 CS  .IN            9.625:   CASING SIZE
 CBD .F               639:   CASING BOTTOM DRILLER
 CBL .F               646:   CASING BOTTOM LOGGER
 BS  .IN             8.75:   BIT SIZE
 BSD .F              1720:   BIT SIZE AT DEPTH
 DFT .                OIL:   DRILLING FLUID TYPE
 TCS .HRS               3:   TIME CURCULATED STOPPED
 MRT .F               150:   MAXIMUM RECORDED TEMPERATURE
 LUN .               2959:   LOGGING UNIT NUMBER
 LUL .             CASPER:   LOGGING UNIT LOCATION
 ENGI.         B. ROLLINS:   RECORDING ENGINEER
 WITN.              AMEND:   WITNESSED BY
 CLNT.            A2DTECH:   CLIENT CODE
 ORIG.           5" PRINT:   ORIGIN OF DATA
 UWI .       490251077400:   UNIQUE WELL ID
 DICO. A2D Technologies, Inc.:   DIGITIZING COMPANY
~OTHER INFORMATION
~A   DEPT     CORR       DPHI       RHOB       CALD         GRD  
# ...
  752.0000     0.1389     0.0518     2.4313     9.5105   112.5452
  752.5000     0.1251     0.0611     2.4562     9.5167   117.2126
  753.0000     0.1447     0.0725     2.4315     9.5260   114.3342
  753.5000     0.2175     0.0388     2.4528     9.5347   107.8200
  754.0000     0.3002    -0.0438     2.5638     9.5428   107.3734
  754.5000     0.4098    -0.0481     2.6199     9.5513   109.4567
  755.0000     0.4568    -0.0622     2.6365     9.5597   111.2299
  755.5000     0.4828    -0.0821     2.6768     9.5681   109.2418
  756.0000     0.4667    -0.0821     2.7248     9.5766   111.2770
  756.5000     0.3203    -0.0462     2.6697     9.5851   119.2585
  757.0000     0.1803    -0.0143     2.5748     9.5935   119.6286
  757.5000     0.0905     0.0613     2.4954     9.6020   118.4073
  758.0000     0.0485     0.0572     2.4419     9.6104   116.8808
  758.5000     0.0578     0.0497     2.4479     9.6189   115.4314
  759.0000     0.0830     0.0389     2.4696     9.6274   114.0098
  759.5000     0.0828     0.0442     2.4754     9.6358   113.0445
  760.0000     0.0839     0.0549     2.4534     9.6441   113.7653
  760.5000     0.0877     0.0478     2.4615     9.6530   114.7125
  761.0000     0.0909     0.0419     2.4727     9.6599   115.4976
  761.5000     0.0948     0.0361     2.4825     9.6820   117.5241
  762.0000     0.0979     0.0319     2.4925     9.7124   120.1367
  762.5000     0.0988     0.0311     2.4976     9.7425   117.8709
  763.0000     0.0824     0.0372     2.4897     9.7720   109.6881
  763.5000     0.0680     0.0398     2.4801     9.8025   105.7814
  764.0000     0.0525     0.0525     2.4618     9.8320   112.0859
  764.5000     0.0358     0.0623     2.4460     9.8585   117.6762
  765.0000     0.0312     0.0709     2.4300     9.8645   121.5384
  765.5000     0.0441     0.0669     2.4320     9.8736   124.1383
  766.0000     0.0545     0.0605     2.4502     9.8811   127.0236
  766.5000     0.0665     0.0489     2.4693     9.8887   125.7754
  767.0000     0.0684     0.0377     2.4843     9.8969   123.1891
  767.5000     0.0604     0.0357     2.4897     9.9010   120.6001
  768.0000     0.0471     0.0430     2.4885     9.8926   116.5131
  768.5000     0.0441     0.0403     2.4765     9.8709   109.8341
  769.0000     0.0534     0.0322     2.4978     9.8500   103.1183
  769.5000     0.0632     0.0219     2.5173     9.8288    99.6882
  770.0000     0.0645     0.0174     2.5157     9.8075   100.1460
  770.5000     0.0655     0.0202     2.5039     9.7863   102.6164
  771.0000     0.0662     0.0246     2.4934     9.7652   107.4632
  771.5000     0.0671     0.0348     2.4829     9.7436   112.3160
  772.0000     0.0676     0.0430     2.4733     9.7231   117.2129
  772.5000     0.0678     0.0438     2.4721     9.7013   122.0567
  773.0000     0.0588     0.0430     2.4748     9.7005   126.9759
  773.5000     0.0479     0.0479     2.4691     9.7049   131.8088
  774.0000     0.0443     0.0510     2.4566     9.7098   136.4213
  774.5000     0.0481     0.0507     2.4534     9.7145   141.4707
  775.0000     0.0575     0.0502     2.4594     9.7190   138.2179
  775.5000     0.0719     0.0470     2.4668     9.7240   132.8816
  776.0000     0.0869     0.0417     2.4742     9.7283   130.8088
  776.5000     0.0904     0.0390     2.4826     9.7328   130.0365
  777.0000     0.0869     0.0394     2.4829     9.7391   129.2941
  777.5000     0.0838     0.0398     2.4834     9.7269   125.6094
  778.0000     0.0815     0.0377     2.4834     9.6949   121.3175
  778.5000     0.0779     0.0359     2.4888     9.6650   117.4150
  779.0000     0.0741     0.0375     2.4864     9.6332   116.5495
  779.5000     0.0596     0.0391     2.4847     9.6183   116.4388
  780.0000     0.0545     0.0402     2.4775     9.6103   119.5133
  780.5000     0.0318     0.0488     2.4668     9.6020   121.3825
  781.0000     0.0292     0.0532     2.4583     9.5937   118.0129
  781.5000     0.0324     0.0560     2.4550     9.5841   114.4493
  782.0000     0.0416     0.0590     2.4516     9.5778   116.0631
  782.5000     0.0635     0.0536     2.4539     9.5476   114.7214
  783.0000     0.0843     0.0469     2.4691     9.5172   112.0973
  783.5000     0.1060     0.0404     2.4819     9.4848   109.4078
  784.0000     0.1108     0.0298     2.4954     9.4544   107.8984
  784.5000     0.1085     0.0459     2.4817     9.4222   110.2382
  785.0000     0.1087     0.0507     2.4652     9.4218   113.7870
  785.5000     0.1142     0.0523     2.4589     9.4442   117.1700
  786.0000     0.1109     0.0471     2.4647     9.4658   119.2015
  786.5000     0.0934     0.0399     2.4773     9.4879   120.1608
  787.0000     0.0779     0.0517     2.4673     9.5092   121.2048
  787.5000     0.0848     0.0496     2.4647     9.5320   122.2128
  788.0000     0.0963     0.0417     2.4826     9.5409   122.5835
  788.5000     0.0912     0.0491     2.4778     9.5522   121.2374
  789.0000     0.0829     0.0598     2.4473     9.5674   122.2397
  789.5000     0.1268     0.0438     2.4577     9.5828   121.2210
  790.0000     0.1653    -0.0104     2.5084     9.5977   119.8605
  790.5000     0.1878    -0.0026     2.5578     9.6129   119.9137
  791.0000     0.1558     0.0163     2.5278     9.6281   121.6710
  791.5000     0.1254     0.0351     2.4980     9.6432   123.4414
  792.0000     0.1199     0.0454     2.4794     9.6583   123.3747
  792.5000     0.1379     0.0406     2.4703     9.6735   120.4446
  793.0000     0.1557     0.0307     2.5026     9.6886   117.5669
  793.5000     0.1639     0.0208     2.5112     9.7037   115.5333
  794.0000     0.1375     0.0179     2.5217     9.7189   115.6986
  794.5000     0.1029     0.0191     2.5121     9.7340   120.2495
  795.0000     0.0688     0.0319     2.4908     9.7491   125.1097
  795.5000     0.0605     0.0442     2.4737     9.7644   122.5375
  796.0000     0.0402     0.0569     2.4618     9.7793   117.2497
  796.5000     0.0282     0.0639     2.4444     9.7943   113.8368
  797.0000     0.0387     0.0693     2.4293     9.8109   116.1728
  797.5000     0.0656     0.0594     2.4501     9.8215   118.6270
  798.0000     0.0876     0.0448     2.4733     9.8349   121.5500
  798.5000     0.0985     0.0295     2.4973     9.8512   122.5237
  799.0000     0.0943     0.0248     2.5106     9.8679   120.3621
  799.5000     0.0765     0.0265     2.5063     9.8841   119.4129
  800.0000     0.0644     0.0347     2.4932     9.9005   121.2237
  800.5000     0.0699     0.0423     2.4798     9.9168   122.9253
  801.0000     0.0773     0.0446     2.4732     9.9332   123.6089
  801.5000     0.0855     0.0431     2.4718     9.9495   123.7312
  802.0000     0.0840     0.0390     2.4821     9.9659   127.1814
  802.5000     0.0636     0.0416     2.4758     9.9822   132.1894
  803.0000     0.0470     0.0462     2.4688     9.9986   133.5426
  803.5000     0.0444     0.0486     2.4663    10.0149   130.3155
  804.0000     0.0414     0.0494     2.4659    10.0313   127.5891
  804.5000     0.0387     0.0494     2.4678    10.0477   125.8180
  805.0000     0.0360     0.0486     2.4688    10.0640   127.4602
  805.5000     0.0354     0.0486     2.4621    10.0806   127.5522
  806.0000     0.0348     0.0540     2.4550    10.0967   123.8347
  806.5000     0.0344     0.0585     2.4482    10.1131   126.8021
  807.0000     0.0339     0.0630     2.4434    10.1311   133.0279
  807.5000     0.0334     0.0638     2.4422    10.1353   136.8881
  808.0000     0.0330     0.0647     2.4419    10.1167   136.6756
  808.5000     0.0325     0.0661     2.4379    10.1000   133.1071
  809.0000     0.0319     0.0661     2.4374    10.0830   130.1250
  809.5000     0.0331     0.0639     2.4374    10.0658   126.9411
  810.0000     0.0353     0.0606     2.4446    10.0487   128.0597
  810.5000     0.0391     0.0573     2.4524    10.0316   131.6347
  811.0000     0.0431     0.0518     2.4597    10.0145   135.4001
  811.5000     0.0471     0.0438     2.4725     9.9974   137.6882
  812.0000     0.0378     0.0462     2.4654     9.9803   135.6091
  812.5000     0.0277     0.0540     2.4442     9.9633   130.8382
