~VERSION INFORMATION
 VERS.                2.0:   CWLS LOG ASCII STANDARD - VERSION 2.0
 WRAP.                 NO:   ONE LINE PER DEPTH STEP
~WELL INFORMATION
#MNEM.UNIT      DATA TYPE    INFORMATION
#----------   ------------   ------------------------------
 STRT.F           20.0000:   START DEPTH
 STOP.F          930.0000:   STOP DEPTH
 STEP.F            0.5000:   STEP LENGTH
 NULL.          -999.2500:   NO VALUE
 COMP. FENIX & SCISSON INC:   COMPANY
 WELL.     NPR 3 #45-S-14:   WELL
 FLD .        TEAPOT DOME:   FIELD
 LOC .      S14 T38N R78W:   LOCATION
 CNTY.            NATRONA:   COUNTY
 STAT.            WYOMING:   STATE
 CTRY. UNITED STATES OF AMERICA:   COUNTRY
 SRVC.           BIRDWELL:   SERVICE COMPANY
 DATE.        02-JAN-1979:   LOGDATE
 API .       490251076200:   API NUMBER
~CURVE INFORMATION
#MNEM.UNIT       API CODE    CURVE DESCRIPTION
#----------   ------------   ------------------------------
 DEPT.F                  :   
 GRD .GAPI   45 310 01 00:   GAMMA RAY FROM DENSITY LOG
 CALD.IN     45 280 60 00:   CALIPER
 RHOB.G/C3   45 350 01 00:   BULK DENSITY
 DPHI.DEC    45 890 12 00:   DENSITY POROSITY SANDSTONE
 CORR.G/C3   45 356 01 00:   DENSITY CORRECTION
~PARAMETER INFORMATION
#MNEM.UNIT          VALUE    DESCRIPTION
#----------   ------------   ------------------------------
 PD  .                 GL:   PERMANENT DATUM
 EPD .F              5261:   ELEVATION PERMANENT DATUM
 LMF .                 KB:   LOG MEASURED FROM
 DAPD.F                 4:   FEET ABOVE PERMANENT DATUM
 DMF .                 KB:   DRILLING MEASURED FROM
 EKB .F              5265:   KELLING BUSHING
 EGL .F              5261:   GROUND LEVEL
 DATE.             1-7-79:   RUN DATE
 RUN .                  1:   RUN NUMBER
 DD  .F               969:   DEPTH DRILLER
 DL  .F               928:   DEPTH LOGGER
 BLI .F               928:   BOTTOM LOG INTERVAL
 TLI .F                20:   TOP LOG INTERVAL
 CS  .IN            8.625:   CASING SIZE
 CBD .F                40:   CASING BOTTOM DRILLER
 CBL .F                46:   CASING BOTTOM LOGGER
 BS  .IN            7.875:   BIT SIZE
 BSD .F               969:   BIT SIZE AT DEPTH
 DFT .                KCL:   DRILLING FLUID TYPE
 DFD .                8.8:   DRILLING FLUID DENSITY
 DFV .                 42:   DRILLING FLUID VISCOSITY
 DFPH.                9.2:   DRILLING FLUID PH
 DFL .                 10:   DRILLING FLUID LOSS
 MSS .           FLOWLINE:   MUD SAMPLE SOURCE
 RMS .OHMM            .95:   RESISTIVITY MUD SAMPLE
 MST .F                60:   MUD SAMPLE TEMPERATURE
 RMF .OHMM            1.7:   RESISTIVITY MUD FILTRATE SAMPLE
 MFST.F                60:   MUD FILTRATE SAMPLE TEMPERATURE
 RMC .OHMM            1.6:   RESISTIVITY MUD CAKE
 MCST.F                60:   MUD CAKE SAMPLE TEMPERATURE
 MFSS.           MEASURED:   MUD FILTRATE SAMPLE SOURCE
 MCSS.           MEASURED:   MUD CAKE SAMPLE SOURCE
 RMB .OHMM            .98:   RESISTIVITY MUD AT BHT
 BHT .F                58:   BOTTOM HOLE TEMPERATURE
 TCS .HRS               4:   TIME CURCULATED STOPPED
 MRT .F                58:   MAXIMUM RECORDED TEMPERATURE
 LUN .               3006:   LOGGING UNIT NUMBER
 LUL .             CASPER:   LOGGING UNIT LOCATION
 ENGI.            ROLLINS:   RECORDING ENGINEER
 WITN.           DINSMORE:   WITNESSED BY
 CLNT.            A2DTECH:   CLIENT CODE
 ORIG.           5" PRINT:   ORIGIN OF DATA
 UWI .       490251076200:   UNIQUE WELL ID
 DICO. A2D Technologies, Inc.:   DIGITIZING COMPANY
~OTHER INFORMATION
~A   DEPT      GRD         CALD     RHOB       DPHI       CORR   
# ...
  264.0000    95.4500     7.7970     2.3560     0.2080     0.0250
  264.5000    99.7260     7.8160     2.3380     0.2230     0.0250
  265.0000   100.0990     7.8240     2.3190     0.2390     0.0300
  265.5000    99.2620     7.8100     2.2990     0.2420     0.0390
  266.0000    98.6780     7.7160     2.2830     0.2390     0.0410
  266.5000   102.4280     7.7680     2.2850     0.2180     0.0360
  267.0000   106.2440     7.8690     2.3100     0.1970     0.0310
  267.5000   102.4910     7.8630     2.3390     0.1880     0.0310
  268.0000    92.7090     7.8550     2.3650     0.1880     0.0300
  268.5000    90.6780     7.8480     2.3680     0.1910     0.0300
  269.0000    92.5050     7.8410     2.3680     0.1900     0.0300
  269.5000    97.7600     7.8330     2.3680     0.1830     0.0290
  270.0000   103.5890     7.8370     2.3750     0.1760     0.0290
  270.5000   104.8410     7.8490     2.3810     0.1730     0.0270
  271.0000   105.2570     7.8600     2.3870     0.1740     0.0250
  271.5000   105.5470     7.8700     2.3850     0.1770     0.0240
  272.0000   103.7110     7.8730     2.3800     0.1790     0.0240
  272.5000   102.1110     7.8750     2.3770     0.1780     0.0250
  273.0000    99.3200     7.8780     2.3770     0.1780     0.0260
  273.5000    98.4960     7.8800     2.3760     0.1850     0.0270
  274.0000   100.7280     7.8820     2.3670     0.1920     0.0280
  274.5000    98.9200     7.8850     2.3570     0.1930     0.0290
  275.0000    97.3680     7.8870     2.3560     0.1920     0.0320
  275.5000    96.1520     7.8890     2.3560     0.1900     0.0350
  276.0000    92.7010     7.8880     2.3570     0.1910     0.0370
  276.5000    94.1740     7.8840     2.3530     0.2050     0.0400
  277.0000    98.2910     7.8790     2.3330     0.2120     0.0420
  277.5000   100.5640     7.8740     2.3270     0.2140     0.0410
  278.0000   102.4350     7.8690     2.3260     0.2140     0.0390
  278.5000   101.6320     7.8640     2.3260     0.2070     0.0370
  279.0000    98.5410     7.8590     2.3270     0.2080     0.0350
  279.5000    97.4490     7.8540     2.3270     0.2140     0.0350
  280.0000    97.0020     7.8500     2.3210     0.2250     0.0450
  280.5000    96.5180     7.8450     2.3010     0.2380     0.0540
  281.0000    96.8190     7.8400     2.2820     0.2400     0.0640
  281.5000    97.2540     7.8350     2.2750     0.2430     0.0690
  282.0000    99.2010     7.8310     2.2720     0.2460     0.0750
  282.5000   101.9250     7.8370     2.2700     0.2500     0.0800
  283.0000   104.7470     7.8440     2.2690     0.2500     0.0850
  283.5000   105.3520     7.8500     2.2680     0.2500     0.0830
  284.0000   103.9080     7.8320     2.2690     0.2480     0.0800
  284.5000    99.4210     7.8110     2.2730     0.2220     0.0710
  285.0000    98.0230     7.8140     2.3010     0.1890     0.0580
  285.5000    96.0690     7.8170     2.3480     0.1820     0.0480
  286.0000    94.0650     7.8210     2.3720     0.1790     0.0410
  286.5000    93.2110     7.8250     2.3760     0.1830     0.0340
  287.0000    93.6530     7.8280     2.3710     0.1920     0.0280
  287.5000    95.8890     7.8320     2.3620     0.2030     0.0280
  288.0000    98.6430     7.8360     2.3400     0.2040     0.0330
  288.5000   101.7350     7.8390     2.3330     0.2100     0.0390
  289.0000   104.8080     7.8430     2.3320     0.2120     0.0440
  289.5000   107.6810     7.8470     2.3250     0.2140     0.0470
  290.0000   109.5350     7.8500     2.3220     0.2200     0.0470
  290.5000   106.1480     7.8430     2.3140     0.2280     0.0470
  291.0000   101.1160     7.8350     2.3020     0.2360     0.0470
  291.5000   101.0810     7.8270     2.2910     0.2440     0.0470
  292.0000   104.4920     7.8190     2.2780     0.2560     0.0470
  292.5000   109.2470     7.8120     2.2440     0.2870     0.0510
  293.0000   111.7250     7.8040     2.2080     0.2940     0.0580
  293.5000   111.3260     7.7960     2.1950     0.2750     0.0590
  294.0000   112.6030     7.7880     2.2110     0.2510     0.0540
  294.5000   115.3220     7.7800     2.2900     0.2150     0.0420
  295.0000   115.1200     7.7720     2.3490     0.1770     0.0360
  295.5000   104.9520     7.7640     2.3800     0.1730     0.0320
  296.0000    96.3950     7.7570     2.3900     0.1740     0.0270
  296.5000    95.2290     7.7510     2.3900     0.1740     0.0270
  297.0000    95.7800     7.7550     2.3900     0.1750     0.0280
  297.5000    95.1000     7.7600     2.3900     0.1760     0.0280
  298.0000    94.2640     7.7650     2.3890     0.1750     0.0280
  298.5000    96.4080     7.7690     2.3920     0.1710     0.0280
  299.0000    98.4950     7.7890     2.4010     0.1690     0.0290
  299.5000    99.9590     7.8110     2.4040     0.1650     0.0290
  300.0000   100.9790     7.8330     2.4050     0.1580     0.0270
  300.5000    97.5570     7.8550     2.4120     0.1570     0.0240
  301.0000    92.2820     7.8770     2.4170     0.1610     0.0220
  301.5000    89.1660     7.8880     2.4160     0.1620     0.0200
  302.0000    93.8910     7.8820     2.4160     0.1600     0.0190
  302.5000    98.9600     7.8760     2.4170     0.1570     0.0200
  303.0000    99.1190     7.8700     2.4170     0.1570     0.0210
  303.5000    98.2640     7.8640     2.4170     0.1590     0.0220
  304.0000    97.8140     7.8580     2.4170     0.1560     0.0220
  304.5000    97.5100     7.8520     2.4170     0.1540     0.0230
  305.0000    97.8790     7.8460     2.4170     0.1550     0.0230
  305.5000   101.2880     7.8400     2.4170     0.1600     0.0230
  306.0000   101.3330     7.8330     2.4170     0.1580     0.0230
  306.5000   100.3930     7.8050     2.4160     0.1570     0.0230
  307.0000   101.5920     7.7490     2.4160     0.1590     0.0230
  307.5000   106.2800     7.6930     2.4170     0.1600     0.0250
  308.0000   107.3610     7.6760     2.4170     0.1590     0.0270
  308.5000   104.6980     7.6860     2.4180     0.1530     0.0280
  309.0000   101.7950     7.6970     2.4190     0.1520     0.0300
  309.5000   100.5210     7.7060     2.4200     0.1510     0.0320
  310.0000    99.4850     7.7440     2.4210     0.1530     0.0340
  310.5000    99.3750     7.7890     2.4210     0.1550     0.0350
  311.0000    99.3160     7.8280     2.4170     0.1570     0.0370
  311.5000    99.5730     7.7800     2.4160     0.1600     0.0380
  312.0000   100.8050     7.7320     2.4150     0.1620     0.0400
  312.5000   101.3060     7.7420     2.4150     0.1610     0.0440
  313.0000   101.6230     7.7560     2.4170     0.1590     0.0470
  313.5000   101.9250     7.7700     2.4200     0.1590     0.0510
  314.0000   102.3140     7.7830     2.4220     0.1560     0.0530
  314.5000   105.1170     7.7970     2.4240     0.1520     0.0530
  315.0000   105.5430     7.8110     2.4290     0.1480     0.0530
  315.5000   101.1810     7.8240     2.4340     0.1440     0.0470
  316.0000    96.5810     7.8380     2.4360     0.1420     0.0410
  316.5000    95.6730     7.8510     2.4370     0.1430     0.0370
  317.0000    97.6230     7.8650     2.4340     0.1460     0.0370
  317.5000   100.5550     7.8780     2.4340     0.1520     0.0370
  318.0000   104.2410     7.8900     2.4290     0.1550     0.0370
  318.5000   105.6980     7.8860     2.4140     0.1570     0.0380
  319.0000   104.8330     7.8820     2.4130     0.1600     0.0390
  319.5000    99.4460     7.8790     2.4120     0.1630     0.0410
  320.0000    91.3830     7.8750     2.4060     0.1660     0.0420
  320.5000    93.9110     7.8700     2.4010     0.1680     0.0430
  321.0000    95.4750     7.8130     2.3980     0.1670     0.0510
  321.5000    95.5680     7.7520     2.3980     0.1670     0.0600
  322.0000    95.0870     7.7370     2.3980     0.1670     0.0680
  322.5000    95.5720     7.7300     2.3980     0.1640     0.0720
  323.0000    94.0840     7.7490     2.3990     0.1740     0.0650
  323.5000    90.7640     7.8520     2.3910     0.1860     0.0520
  324.0000    90.6690     7.8500     2.3720     0.2110     0.0440
  324.5000    96.4740     7.8510     2.3310     0.2370     0.0410
