~VERSION INFORMATION
 VERS.                2.0:   CWLS LOG ASCII STANDARD - VERSION 2.0
 WRAP.                 NO:   ONE LINE PER DEPTH STEP
~WELL INFORMATION
#MNEM.UNIT      DATA TYPE    INFORMATION
#----------   ------------   ------------------------------
 STRT.F          250.0000:   START DEPTH
 STOP.F         2527.0000:   STOP DEPTH
 STEP.F            0.5000:   STEP LENGTH
 NULL.          -999.2500:   NO VALUE
 COMP. FENIX & SCISSON INC:   COMPANY
 WELL.       NPR 3 #18-28:   WELL
 FLD .            WILDCAT:   FIELD
 LOC .      S28 T39N R78W:   LOCATION
 CNTY.            NATRONA:   COUNTY
 STAT.            WYOMING:   STATE
 CTRY. UNITED STATES OF AMERICA:   COUNTRY
 SRVC.            Unknown:   SERVICE COMPANY
 DATE.        01-MAY-1979:   LOGDATE
 API .       490251078000:   API NUMBER
~CURVE INFORMATION
#MNEM.UNIT       API CODE    CURVE DESCRIPTION
#----------   ------------   ------------------------------
 DEPT.F                  :   
 CORR.G/C3   45 356 01 00:   DENSITY CORRECTION
 DPHI.DEC    45 890 12 00:   DENSITY POROSITY SANDSTONE
 RHOB.G/C3   45 350 01 00:   BULK DENSITY
 CALD.IN     45 280 60 00:   CALIPER FROM DENSITY LOG
 GRD .GAPI   45 310 01 00:   GAMMA RAY FROM DENSITY LOG
~PARAMETER INFORMATION
#MNEM.UNIT          VALUE    DESCRIPTION
#----------   ------------   ------------------------------
 PD  .                 GL:   PERMANENT DATUM
 EPD .F              5079:   ELEVATION PERMANENT DATUM
 LMF .                 KB:   LOG MEASURED FROM
 DAPD.F                10:   FEET ABOVE PERMANENT DATUM
 DMF .                 KB:   DRILLING MEASURED FROM
 EKB .F              5089:   KELLING BUSHING
 EGL .F              5079:   GROUND LEVEL
 DATE.             5-1-79:   RUN DATE
 RUN .                  1:   RUN NUMBER
 DL  .F              2527:   DEPTH LOGGER
 BLI .F              2527:   BOTTOM LOG INTERVAL
 TLI .F               250:   TOP LOG INTERVAL
 CS  .IN            9.625:   CASING SIZE
 CBD .F               500:   CASING BOTTOM DRILLER
 CBL .F               495:   CASING BOTTOM LOGGER
 BS  .IN             8.75:   BIT SIZE
 DFT .                AIR:   DRILLING FLUID TYPE
 TCS .HRS              12:   TIME CURCULATED STOPPED
 LUL .             CASPER:   LOGGING UNIT LOCATION
 ENGI.         B. ROLLINS:   RECORDING ENGINEER
 WITN.           DINSMORE:   WITNESSED BY
 CLNT.            A2DTECH:   CLIENT CODE
 ORIG.           5" PRINT:   ORIGIN OF DATA
 UWI .       490251078000:   UNIQUE WELL ID
 DICO. A2D Technologies, Inc.:   DIGITIZING COMPANY
~OTHER INFORMATION
~A   DEPT     CORR       DPHI       RHOB       CALD         GRD  
# ...
 1897.0000     0.0574     0.0431     2.4929     9.0920   129.8978
 1897.5000     0.0430     0.0537     2.4687     9.0987   132.9159
 1898.0000     0.0290     0.0648     2.4512     9.1054   135.8642
 1898.5000     0.0230     0.0648     2.4491     9.1122   138.8126
 1899.0000     0.0312     0.0512     2.4713     9.1190   139.9280
 1899.5000     0.0449     0.0399     2.4907     9.1258   139.9447
 1900.0000     0.0593     0.0287     2.5040     9.1326   137.3719
 1900.5000     0.0549     0.0378     2.4922     9.1394   134.2003
 1901.0000     0.0437     0.0479     2.4808     9.1462   132.7250
 1901.5000     0.0398     0.0494     2.4699     9.1530   136.4258
 1902.0000     0.0457     0.0491     2.4721     9.1598   137.2615
 1902.5000     0.0516     0.0411     2.4874     9.1648   134.2302
 1903.0000     0.0575     0.0363     2.5009     9.1501   133.5284
 1903.5000     0.0634     0.0373     2.4961     9.1469   133.6408
 1904.0000     0.0694     0.0387     2.4934     9.1486   134.8326
 1904.5000     0.0761     0.0362     2.4965     9.1503   137.5233
 1905.0000     0.0758     0.0331     2.4994     9.1519   140.1522
 1905.5000     0.0704     0.0331     2.4990     9.1536   139.6558
 1906.0000     0.0604     0.0331     2.4980     9.1552   137.7935
 1906.5000     0.0501     0.0343     2.4970     9.1568   136.4070
 1907.0000     0.0466     0.0366     2.4960     9.1585   136.2297
 1907.5000     0.0467     0.0389     2.4950     9.1601   136.1801
 1908.0000     0.0449     0.0412     2.4919     9.1617   137.8516
 1908.5000     0.0385     0.0435     2.4836     9.1634   139.7312
 1909.0000     0.0321     0.0459     2.4752     9.1650   140.3469
 1909.5000     0.0309     0.0482     2.4747     9.1666   138.1098
 1910.0000     0.0305     0.0505     2.4782     9.1683   135.4891
 1910.5000     0.0217     0.0529     2.4675     9.1699   133.2957
 1911.0000     0.0175     0.0545     2.4650     9.1715   135.9389
 1911.5000     0.0293     0.0522     2.4739     9.1732   138.1967
 1912.0000     0.0406     0.0466     2.4827     9.1748   134.5496
 1912.5000     0.0522     0.0411     2.4916     9.1764   131.4392
 1913.0000     0.0509     0.0387     2.4950     9.1781   132.1114
 1913.5000     0.0408     0.0454     2.4838     9.1797   135.4115
 1914.0000     0.0305     0.0511     2.4725     9.1813   136.2832
 1914.5000     0.0290     0.0569     2.4634     9.1831   134.9340
 1915.0000     0.0324     0.0585     2.4586     9.1837   134.4814
 1915.5000     0.0360     0.0576     2.4602     9.1667   139.2091
 1916.0000     0.0361     0.0558     2.4663     9.1500   139.5219
 1916.5000     0.0303     0.0562     2.4635     9.1334   138.0082
 1917.0000     0.0245     0.0586     2.4562     9.1168   137.0010
 1917.5000     0.0210     0.0611     2.4516     9.1001   137.0017
 1918.0000     0.0306     0.0617     2.4539     9.0834   137.0650
 1918.5000     0.0486     0.0479     2.4761     9.0682   138.5833
 1919.0000     0.0666     0.0314     2.5002     9.0709   140.1232
 1919.5000     0.0772     0.0284     2.5173     9.0839   141.6440
 1920.0000     0.0556     0.0363     2.4832     9.0964   143.2615
 1920.5000     0.0322     0.0515     2.4659     9.1088   145.0488
 1921.0000     0.0344     0.0559     2.4641     9.1214   146.8289
 1921.5000     0.0365     0.0572     2.4626     9.1257   148.8226
 1922.0000     0.0369     0.0581     2.4574     9.1131   146.3429
 1922.5000     0.0322     0.0621     2.4524     9.1000   142.3160
 1923.0000     0.0253     0.0671     2.4454     9.0870   138.2317
 1923.5000     0.0182     0.0720     2.4386     9.0739   135.7071
 1924.0000     0.0129     0.0763     2.4316     9.0676   137.1929
 1924.5000     0.0202     0.0775     2.4292     9.0724   142.2286
 1925.0000     0.0329     0.0621     2.4478     9.1079   141.6317
 1925.5000     0.0456     0.0508     2.4690     9.1440   137.8602
 1926.0000     0.0583     0.0395     2.4808     9.1796   137.5727
 1926.5000     0.0708     0.0327     2.4937     9.1846   144.0618
 1927.0000     0.0733     0.0295     2.5092     9.1845   146.9114
 1927.5000     0.0644     0.0320     2.5048     9.1845   146.1410
 1928.0000     0.0531     0.0348     2.4906     9.1844   142.6257
 1928.5000     0.0498     0.0371     2.4918     9.1846   139.0587
 1929.0000     0.0531     0.0392     2.4959     9.1938   137.8174
 1929.5000     0.0564     0.0415     2.4962     9.2179   143.7083
 1930.0000     0.0597     0.0422     2.4911     9.2418   138.1225
 1930.5000     0.0630     0.0399     2.4877     9.2657   141.3838
 1931.0000     0.0633     0.0379     2.4950     9.2897   145.2507
 1931.5000     0.0525     0.0479     2.4836     9.2972   145.1501
 1932.0000     0.0414     0.0549     2.4666     9.2695   138.5435
 1932.5000     0.0422     0.0452     2.4766     9.2415   134.3601
 1933.0000     0.0511     0.0380     2.4945     9.2136   134.4063
 1933.5000     0.0527     0.0380     2.4941     9.1857   136.5266
 1934.0000     0.0438     0.0399     2.4904     9.1534   139.0480
 1934.5000     0.0469     0.0358     2.5010     9.1021   141.2825
 1935.0000     0.0645     0.0275     2.5165     9.0524   141.2799
 1935.5000     0.0742     0.0242     2.5121     9.0042   135.2302
 1936.0000     0.0614     0.0302     2.5021     8.9857   135.0768
 1936.5000     0.0470     0.0426     2.4922     8.9791   137.4746
 1937.0000     0.0491     0.0434     2.4842     9.0246   139.9981
 1937.5000     0.0500     0.0438     2.4872     9.0701   142.5114
 1938.0000     0.0507     0.0406     2.4915     9.1154   145.0049
 1938.5000     0.0508     0.0387     2.4955     9.1607   146.8404
 1939.0000     0.0487     0.0421     2.4888     9.2061   145.5748
 1939.5000     0.0467     0.0468     2.4795     9.2529   144.1166
 1940.0000     0.0404     0.0517     2.4701     9.2535   142.6064
 1940.5000     0.0324     0.0545     2.4638     9.2421   141.0883
 1941.0000     0.0308     0.0492     2.4764     9.2304   140.6818
 1941.5000     0.0415     0.0428     2.4882     9.2189   142.7326
 1942.0000     0.0449     0.0419     2.4834     9.2074   145.4660
 1942.5000     0.0364     0.0475     2.4747     9.1959   143.8071
 1943.0000     0.0323     0.0521     2.4706     9.1844   141.3094
 1943.5000     0.0347     0.0518     2.4780     9.1730   139.0516
 1944.0000     0.0466     0.0397     2.4924     9.1614   138.7099
 1944.5000     0.0584     0.0270     2.5069     9.1501   138.7070
 1945.0000     0.0690     0.0248     2.5159     9.1247   138.9171
 1945.5000     0.0677     0.0307     2.5058     9.0918   138.1259
 1946.0000     0.0498     0.0427     2.4824     9.0585   136.8550
 1946.5000     0.0368     0.0544     2.4588     9.0253   136.2431
 1947.0000     0.0331     0.0611     2.4547     8.9921   137.8508
 1947.5000     0.0272     0.0624     2.4511     8.9579   142.2806
 1948.0000     0.0265     0.0614     2.4494     8.9585   145.8579
 1948.5000     0.0370     0.0561     2.4624     8.9704   145.6448
 1949.0000     0.0471     0.0510     2.4742     8.9826   138.3497
 1949.5000     0.0484     0.0506     2.4714     8.9947   137.8863
 1950.0000     0.0371     0.0558     2.4659     9.0067   139.0008
 1950.5000     0.0231     0.0606     2.4593     9.0188   140.0222
 1951.0000     0.0174     0.0655     2.4526     9.0309   137.4908
 1951.5000     0.0181     0.0668     2.4459     9.0429   134.2120
 1952.0000     0.0190     0.0668     2.4437     9.0550   133.0468
 1952.5000     0.0305     0.0656     2.4465     9.0670   136.1084
 1953.0000     0.0433     0.0577     2.4591     9.0791   139.1489
 1953.5000     0.0562     0.0449     2.4841     9.0912   142.1586
 1954.0000     0.0559     0.0355     2.5021     9.1032   143.9815
 1954.5000     0.0484     0.0400     2.4876     9.1153   142.7735
 1955.0000     0.0482     0.0442     2.4853     9.1274   140.7571
 1955.5000     0.0507     0.0415     2.4873     9.1395   140.3166
 1956.0000     0.0449     0.0423     2.4860     9.1516   140.5863
 1956.5000     0.0390     0.0459     2.4834     9.1637   143.7429
 1957.0000     0.0424     0.0482     2.4801     9.1633   149.1613
 1957.5000     0.0455     0.0470     2.4774     9.1474   153.6510
