~VERSION INFORMATION
 VERS.                2.0:   CWLS LOG ASCII STANDARD - VERSION 2.0
 WRAP.                 NO:   ONE LINE PER DEPTH STEP
~WELL INFORMATION
#MNEM.UNIT      DATA TYPE    INFORMATION
#----------   ------------   ------------------------------
 STRT.F           14.0000:   START DEPTH
 STOP.F          449.0000:   STOP DEPTH
 STEP.F            0.5000:   STEP LENGTH
 NULL.          -999.2500:   NO VALUE
 COMP.   LAWRENCE-ALLISON:   COMPANY
 WELL. NPR 3 #51-65SX10OB2:   WELL
 FLD .             TEAPOT:   FIELD
 LOC .      S10 T38N R78W:   LOCATION
 CNTY.            NATRONA:   COUNTY
 STAT.            WYOMING:   STATE
 CTRY. UNITED STATES OF AMERICA:   COUNTRY
 SRVC.      Dresser Atlas:   SERVICE COMPANY
 DATE.        18-DEC-1984:   LOGDATE
 API .       490251100900:   API NUMBER
~CURVE INFORMATION
#MNEM.UNIT       API CODE    CURVE DESCRIPTION
#----------   ------------   ------------------------------
 DEPT.F                  :   
 PORD.DEC    45 890 12 00:   POROSITY DENSITY SANDSTONE
 CNC .DEC    42 890 03 00:   NEUTRON POROSITY SANDSTONE
 CALD.IN     45 280 60 00:   CALIPER FROM DENSITY
 CORR.G/C3   45 356 01 00:   DENSITY CORRECTION
 DEN .G/C3   45 350 01 00:   COMPENSATED BULK DENSTIY
 GRD .GAPI   45 310 01 00:   GAMMA RAY FROM DENSITY LOG
 AC  .US/F   60 520 00 00:   ACCOUSTIC
~PARAMETER INFORMATION
#MNEM.UNIT          VALUE    DESCRIPTION
#----------   ------------   ------------------------------
 PD  .                 GL:   PERMANENT DATUM
 EPD .F              5156:   ELEVATION PERMANENT DATUM
 LMF .                 GL:   LOG MEASURED FROM
 DMF .                 GL:   DRILLING MEASURED FROM
 EGL .F              5156:   GROUND LEVEL
 DATE.        18-DEC-1984:   RUN DATE
 RUN .                  1:   RUN NUMBER
 DD  .F               448:   DEPTH DRILLER
 DL  .F               451:   DEPTH LOGGER
 BLI .F               449:   BOTTOM LOG INTERVAL
 TLI .F                20:   TOP LOG INTERVAL
 CS  .IN            8.625:   CASING SIZE
 CBD .F                20:   CASING BOTTOM DRILLER
 CBL .F                20:   CASING BOTTOM LOGGER
 BS  .IN             6.25:   BIT SIZE
 BSD .F               448:   BIT SIZE AT DEPTH
 DFT .          KCL WATER:   DRILLING FLUID TYPE
 MSS .             MUDPIT:   MUD SAMPLE SOURCE
 RMS .OHMM          0.132:   RESISTIVITY MUD SAMPLE
 MST .F                95:   MUD SAMPLE TEMPERATURE
 RMF .OHMM          0.099:   RESISTIVITY MUD FILTRATE SAMPLE
 MFST.F                95:   MUD FILTRATE SAMPLE TEMPERATURE
 RMC .OHMM          0.165:   RESISTIVITY MUD CAKE
 MCST.F                95:   MUD CAKE SAMPLE TEMPERATURE
 MFSS.               CALC:   MUD FILTRATE SAMPLE SOURCE
 MCSS.               CALC:   MUD CAKE SAMPLE SOURCE
 TCS .HRS               5:   TIME CURCULATED STOPPED
 MRT .F               100:   MAXIMUM RECORDED TEMPERATURE
 LUN .               6270:   LOGGING UNIT NUMBER
 ENGI.        TOM GAUGHAN:   RECORDING ENGINEER
 WITN.             GROOMS:   WITNESSED BY
 CLNT.            A2DTECH:   CLIENT CODE
 ORIG.           5" PRINT:   ORIGIN OF DATA
 UWI .       490251100900:   UNIQUE WELL ID
 DICO. A2D Technologies, Inc.:   DIGITIZING COMPANY
~OTHER INFORMATION
~A   DEPT     PORD        CNC       CALD       CORR        DEN        GRD         AC   
# ...
  378.0000     0.1190     0.2222     6.4399     0.0324     2.4775    97.9524    88.4545
  378.5000     0.1220     0.2212     6.4412     0.0176     2.4700   101.2103    88.5348
  379.0000     0.1259     0.2212     6.4425     0.0042     2.4626   100.4005    88.6903
  379.5000     0.1312     0.2251     6.4290    -0.0017     2.4596    97.3791    88.8457
  380.0000     0.1297     0.2416     6.4303     0.0255     2.4657    96.7945    89.0012
  380.5000     0.1261     0.2485     6.4168     0.0407     2.4682    98.4412    89.0815
  381.0000     0.1269     0.2445     6.4033     0.0423     2.4628   101.5687    89.0867
  381.5000     0.1299     0.2391     6.3898     0.0350     2.4592   102.4706    89.1670
  382.0000     0.1335     0.2384     6.3763     0.0170     2.4585   101.5922    89.2474
  382.5000     0.1286     0.2387     6.3924    -0.0023     2.4661   100.4169    89.3277
  383.0000     0.1259     0.2411     6.3937    -0.0036     2.4692    99.2417    89.4080
  383.5000     0.1249     0.2464     6.4099     0.0089     2.4708    98.0665    89.5635
  384.0000     0.1231     0.2563     6.4113     0.0247     2.4748    99.1169    89.7240
  384.5000     0.1168     0.2566     6.3980     0.0494     2.4829   101.3541    89.8833
  385.0000     0.1098     0.2542     6.3994     0.0691     2.4927   101.5113    90.1177
  385.5000     0.1065     0.2418     6.4007     0.0843     2.4996    99.8939    90.3369
  386.0000     0.1085     0.2336     6.3872     0.0769     2.4989   101.0926    90.6426
  386.5000     0.1151     0.2372     6.3885     0.0560     2.4899   102.4397    90.7980
  387.0000     0.1187     0.2504     6.3746     0.0412     2.4810   102.0063    91.2540
  387.5000     0.1201     0.2657     6.3611     0.0233     2.4780   101.1278    91.7100
  388.0000     0.1207     0.2627     6.3479     0.0174     2.4773   101.5847    92.2411
  388.5000     0.1201     0.2578     6.3341     0.0041     2.4781   103.2290    92.7722
  389.0000     0.1191     0.2590     6.3357    -0.0033     2.4805   103.5371    93.3033
  389.5000     0.1179     0.2665     6.3519     0.0119     2.4828   103.5490    93.6842
  390.0000     0.1197     0.3001     6.3532    -0.0045     2.4791   105.9052    94.0650
  390.5000     0.1260     0.3205     6.3545     0.0017     2.4694   110.5204    94.8216
  391.0000     0.1354     0.3190     6.3558     0.0078     2.4514   118.8668    97.6066
  391.5000     0.1470     0.2963     6.3572     0.0155     2.4289   128.5244   103.0314
  392.0000     0.1664     0.2777     6.3585     0.0471     2.3929   126.1623   107.2434
  392.5000     0.1688     0.2609     6.3598     0.0383     2.4020   119.4975   107.9230
  393.0000     0.1513     0.2473     6.3611     0.0324     2.4421   110.7555   103.9469
  393.5000     0.1224     0.2457     6.3624     0.0296     2.4979   103.4972    98.1664
  394.0000     0.0893     0.2490     6.3638     0.0327     2.5383    98.1444    91.4844
  394.5000     0.0848     0.2460     6.3651     0.0434     2.5344    98.3264    89.6859
  395.0000     0.0875     0.2384     6.3667     0.0556     2.5211   101.6046    89.0132
  395.5000     0.0973     0.2284     6.3681     0.0632     2.5092   104.2870    89.3946
  396.0000     0.1009     0.2254     6.3842     0.0571     2.5107   103.1118    90.4511
  396.5000     0.0969     0.2341     6.3855     0.0485     2.5153   102.9722    90.9066
  397.0000     0.0957     0.2359     6.3868     0.0470     2.5146   104.3222    91.2869
  397.5000     0.0972     0.2370     6.4030     0.0389     2.5109   107.5981    91.3667
  398.0000     0.1004     0.2394     6.4043     0.0189     2.5073   108.6484    91.2962
  398.5000     0.1025     0.2451     6.4056     0.0281     2.5058   108.5117    91.1506
  399.0000     0.1040     0.2423     6.4070     0.0343     2.5029   108.2238    90.8547
  399.5000     0.1054     0.2390     6.4083     0.0404     2.4999   107.3483    90.5588
  400.0000     0.1060     0.2317     6.4068     0.0472     2.5002   106.6479    90.1127
  400.5000     0.1060     0.2335     6.3919     0.0557     2.5024   105.7442    89.6638
  401.0000     0.1011     0.2398     6.3769     0.0634     2.5100   105.6070    89.1397
  401.5000     0.0972     0.2506     6.3687     0.0606     2.5176   106.8124    88.6825
  402.0000     0.0960     0.2530     6.3704     0.0472     2.5184   107.2686    88.1668
  402.5000     0.0986     0.2481     6.3717     0.0294     2.5138   104.7648    87.7179
  403.0000     0.1034     0.2450     6.3731     0.0235     2.5051   100.9220    87.2868
  403.5000     0.1088     0.2413     6.3744     0.0252     2.4976    99.3010    86.9158
  404.0000     0.1109     0.2301     6.3460     0.0254     2.4932    99.6162    86.5448
  404.5000     0.1111     0.2299     6.3325     0.0255     2.4910   100.3728    86.3229
  405.0000     0.1120     0.2341     6.3487     0.0212     2.4911   102.3164    86.1773
  405.5000     0.1111     0.2328     6.3500     0.0063     2.4942   103.5181    86.6339
  406.0000     0.1092     0.2346     6.3514     0.0020     2.4973   102.9394    87.1644
  406.5000     0.1086     0.2388     6.3527     0.0021     2.4989   103.9928    87.3945
  407.0000     0.1092     0.2402     6.3540     0.0053     2.4982   105.0461    87.5494
  407.5000     0.1110     0.2399     6.3702     0.0085     2.4922   104.9125    87.4026
  408.0000     0.1153     0.2377     6.3715     0.0270     2.4840    99.2893    87.1079
  408.5000     0.1190     0.2443     6.3877     0.0495     2.4820    94.1112    86.8120
  409.0000     0.1174     0.2545     6.3890     0.0617     2.4858    94.2744    86.7404
  409.5000     0.1137     0.2542     6.3903     0.0695     2.4912    96.0695    86.9716
  410.0000     0.1072     0.2364     6.3917     0.0739     2.4958   101.7223    87.4270
  410.5000     0.1065     0.2279     6.3930     0.0646     2.4974   102.1822    87.6571
  411.0000     0.1119     0.2267     6.3944     0.0168     2.4922   102.9388    87.7369
  411.5000     0.1155     0.2294     6.3808    -0.0052     2.4803   104.4372    87.7415
  412.0000     0.1145     0.2338     6.3673    -0.0066     2.4894   107.4194    87.6709
  412.5000     0.1073     0.2380     6.3689     0.0042     2.4992   107.5788    87.5253
  413.0000     0.1058     0.2383     6.3703     0.0163     2.5031   106.1136    87.4549
  413.5000     0.1063     0.2376     6.3716     0.0330     2.4992   102.1225    87.4596
  414.0000     0.1087     0.2376     6.3729     0.0406     2.4867    99.1662    87.6935
  414.5000     0.1138     0.2394     6.3743     0.0363     2.4884   100.0749    87.9264
  415.0000     0.1107     0.2445     6.3756     0.0320     2.4940   102.6119    88.0748
  415.5000     0.1059     0.2553     6.3769     0.0382     2.5008   105.2973    88.2419
  416.0000     0.1065     0.2708     6.3631     0.0624     2.5021   106.0539    88.9115
  416.5000     0.1079     0.2729     6.3499     0.0715     2.5000   106.5138    89.7426
  417.0000     0.1065     0.2707     6.3512     0.0627     2.5016   107.4188    90.4986
  417.5000     0.1033     0.2653     6.3229     0.0493     2.5062   109.3623    90.9540
  418.0000     0.0988     0.2586     6.3242     0.0015     2.5168   111.1575    91.2592
  418.5000     0.0958     0.2541     6.3107     0.0106     2.5214   110.2821    91.4893
  419.0000     0.0936     0.2501     6.3120     0.0258     2.5222   109.4066    91.5690
  419.5000     0.0948     0.2486     6.2982     0.0365     2.5186   107.9377    91.4974
  420.0000     0.1005     0.2519     6.2998     0.0337     2.5089   107.3591    91.6535
  420.5000     0.1044     0.2657     6.3012     0.0233     2.5015   110.0519    91.9586
  421.0000     0.1040     0.2653     6.3025     0.0039     2.5030   111.5628    92.4892
  421.5000     0.1010     0.2569     6.3038     0.0191     2.5046   113.3457    92.9447
  422.0000     0.0970     0.2625     6.3051     0.0553     2.5138   112.8981    93.1747
  422.5000     0.0931     0.2740     6.3065     0.0690     2.5221   111.8719    93.3296
  423.0000     0.0898     0.2745     6.3078     0.0767     2.5275   112.2404    93.4094
