~VERSION INFORMATION
 VERS.                2.0:   CWLS LOG ASCII STANDARD - VERSION 2.0
 WRAP.                 NO:   ONE LINE PER DEPTH STEP
~WELL INFORMATION
#MNEM.UNIT      DATA TYPE    INFORMATION
#----------   ------------   ------------------------------
 STRT.F           60.0000:   START DEPTH
 STOP.F         3052.0000:   STOP DEPTH
 STEP.F            0.5000:   STEP LENGTH
 NULL.          -999.2500:   NO VALUE
 COMP.   FLUOR DANIEL INC:   COMPANY
 WELL. NAVAL PETROLEUM RESERVE 3 X-14 #57-14:   WELL
 FLD .            WILDCAT:   FIELD
 LOC .      S14 T38N R78W:   LOCATION
 CNTY.            NATRONA:   COUNTY
 STAT.            WYOMING:   STATE
 CTRY. UNITED STATES OF AMERICA:   COUNTRY
 SRVC.            Unknown:   SERVICE COMPANY
 DATE.        16-MAY-1995:   LOGDATE
 API .       490252272000:   API NUMBER
~CURVE INFORMATION
#MNEM.UNIT       API CODE    CURVE DESCRIPTION
#----------   ------------   ------------------------------
 DEPT.F                  :   
 ROP .FT/HR  91 810 01 00:   RAT OF DRILLING PENETRATION
 TGAS.TC/CC  91 830 01 00:   TOTAL GAS UNIT
~PARAMETER INFORMATION
#MNEM.UNIT          VALUE    DESCRIPTION
#----------   ------------   ------------------------------
 EKB .F              5312:   KELLING BUSHING
 EGL .F              5302:   GROUND LEVEL
 DATE.        16-MAY-1995:   RUN DATE
 RUN .                  1:   RUN NUMBER
 BLI .F              3062:   BOTTOM LOG INTERVAL
 TLI .F                60:   TOP LOG INTERVAL
 ENGI.     C.TOWER/R.HUSK:   RECORDING ENGINEER
 CLNT.            A2DTECH:   CLIENT CODE
 ORIG.           5" PRINT:   ORIGIN OF DATA
 UWI .       490252272000:   UNIQUE WELL ID
 DICO. A2D Technologies, Inc.:   DIGITIZING COMPANY
~OTHER INFORMATION
~A   DEPT        ROP       TGAS 
# ...
  303.0000     0.5261     1.1298
  303.5000     0.5267     1.1279
  304.0000     0.5271     1.1260
  304.5000     0.5276     1.1241
  305.0000     0.5280     1.1222
  305.5000     0.5379     1.1203
  306.0000     0.5384     1.1185
  306.5000     0.5388     1.1166
  307.0000     0.5393     1.1147
  307.5000     0.5398     1.1128
  308.0000     0.5402     1.1109
  308.5000     0.5407     1.1090
  309.0000     0.5411     1.1071
  309.5000     0.5416     1.1053
  310.0000     0.5421     1.1034
  310.5000     0.5426     1.1015
  311.0000     0.5430     1.0996
  311.5000     0.5435     1.0977
  312.0000     0.5440     1.0958
  312.5000     0.5444     1.0939
  313.0000     0.5449     1.0920
  313.5000     0.5453     1.0902
  314.0000     0.5458     1.0883
  314.5000     0.7425     1.0864
  315.0000     0.7430     1.0845
  315.5000     0.7436     1.0826
  316.0000     0.7440     1.0807
  316.5000     0.7445     1.0788
  317.0000     0.7449     1.0770
  317.5000     0.7454     1.0751
  318.0000     0.7458     1.0732
  318.5000     1.2696     1.0713
  319.0000     1.2701     1.0694
  319.5000     1.2706     1.0675
  320.0000     0.6450     1.0656
  320.5000     0.5425     1.0638
  321.0000     0.5431     1.0619
  321.5000     0.5435     1.0600
  322.0000     0.5440     1.0581
  322.5000     0.5444     1.0562
  323.0000     0.5449     1.0543
  323.5000     0.5453     1.0524
  324.0000     0.5458     1.0505
  324.5000     0.5464     1.0487
  325.0000     0.5468     1.0468
  325.5000     0.5473     1.0449
  326.0000     0.5477     1.0430
  326.5000     0.5482     1.0411
  327.0000     0.5486     1.0392
  327.5000     0.5491     1.0373
  328.0000     0.5495     1.0355
  328.5000     0.7743     1.0336
  329.0000     0.7842     1.0317
  329.5000     0.7847     1.0298
  330.0000     0.7851     1.0279
  330.5000     0.7856     1.0260
  331.0000     0.7860     1.0241
  331.5000     0.7865     1.0223
  332.0000     0.5720     1.0204
  332.5000     0.5164     1.0185
  333.0000     0.5168     1.0166
  333.5000     0.5174     1.0147
  334.0000     0.5084     1.0128
  334.5000     0.5089     1.0109
  335.0000     0.5094     1.0090
  335.5000     0.5098     1.0072
  336.0000     0.5103     1.0053
  336.5000     0.5108     1.0034
  337.0000     0.5112     1.0015
  337.5000     0.5117     0.9996
  338.0000     0.5122     0.9977
  338.5000     0.5127     0.9958
  339.0000     0.5131     0.9940
  339.5000     0.5136     0.9921
  340.0000     0.5140     0.9902
  340.5000     0.5145     0.9883
  341.0000     0.5150     0.9864
  341.5000     0.5154     0.9845
  342.0000     0.5160     0.9826
  342.5000     0.9931     0.9808
  343.0000     0.9935     0.9789
  343.5000     0.9845     0.9770
  344.0000     0.9851     0.9751
  344.5000     1.2940     0.9732
  345.0000     1.3038     0.9713
  345.5000     1.3042     0.9694
  346.0000     1.3140     0.9675
  346.5000     0.8286     0.9657
  347.0000     0.7822     0.9638
  347.5000     0.7921     0.9619
  348.0000     0.7925     0.9600
  348.5000     0.5407     0.9581
  349.0000     0.5224     0.9562
  349.5000     0.5230     0.9543
  350.0000     0.5140     0.9525
  350.5000     0.5144     0.9550
  351.0000     0.5148     0.9605
  351.5000     0.5152     0.9660
  352.0000     0.5156     0.9716
  352.5000     0.5159     0.9771
  353.0000     0.5163     0.9826
  353.5000     0.5167     0.9882
  354.0000     0.5170     0.9937
  354.5000     0.5174     0.9992
  355.0000     0.5178     1.0048
  355.5000     0.5181     1.0103
  356.0000     0.5185     1.0158
  356.5000     0.5189     1.0214
  357.0000     0.5193     1.0269
  357.5000     0.5197     1.0324
  358.0000     0.5201     1.0380
  358.5000     0.5204     1.0435
  359.0000     0.5208     1.0490
  359.5000     0.5212     1.0546
  360.0000     0.5215     1.0601
  360.5000     0.5219     1.0657
  361.0000     0.5223     1.0712
  361.5000     0.5226     1.0767
  362.0000     0.5230     1.0823
  362.5000     0.5234     1.0878
  363.0000     0.5144     1.0933
  363.5000     0.7578     1.0989
  364.0000     0.7956     1.1044
  364.5000     0.7959     1.1099
  365.0000     0.8150     1.1155
  365.5000     0.8341     1.1210
  366.0000     0.8157     1.1265
  366.5000     0.8067     1.1321
  367.0000     0.7978     1.1376
  367.5000     0.7981     1.1431
  368.0000     0.7985     1.1487
  368.5000     0.7989     1.1542
  369.0000     0.7993     1.1597
  369.5000     0.7997     1.1653
  370.0000     0.9776     1.1708
  370.5000     0.9780     1.1763
  371.0000     0.9784     1.1819
  371.5000     0.9787     1.1874
  372.0000     0.9417     1.1929
  372.5000     0.7925     1.1985
  373.0000     0.7929     1.2040
  373.5000     0.7933     1.2095
  374.0000     0.7936     1.2151
  374.5000     0.7940     1.2206
  375.0000     0.7944     1.2261
  375.5000     0.7948     1.2317
  376.0000     0.6270     1.2372
  376.5000     0.5431     1.2427
  377.0000     0.5436     1.2483
  377.5000     0.5440     1.2538
  378.0000     0.5443     1.2593
  378.5000     0.5447     1.2649
  379.0000     0.5451     1.2704
  379.5000     0.5454     1.2760
  380.0000     0.5925     1.2815
  380.5000     0.9948     1.2870
  381.0000     0.9951     1.2926
  381.5000     0.9956     1.2981
  382.0000     0.9959     1.3036
  382.5000     0.9963     1.3092
  383.0000     0.9967     1.3147
  383.5000     0.9970     1.3202
  384.0000     0.8012     1.3258
  384.5000     0.8015     1.3313
  385.0000     0.8019     1.3368
  385.5000     0.8023     1.3424
  386.0000     0.8026     1.3479
  386.5000     0.6597     1.3534
  387.0000     0.5230     1.3590
  387.5000     0.5234     1.3645
  388.0000     0.5238     1.3700
  388.5000     0.5242     1.3756
  389.0000     0.5245     1.3811
  389.5000     0.5249     1.3866
  390.0000     0.5253     1.3922
  390.5000     0.5256     1.3977
  391.0000     0.5260     1.4032
  391.5000     0.5264     1.4088
  392.0000     0.5267     1.4143
  392.5000     0.5271     1.4198
  393.0000     0.5275     1.4254
  393.5000     0.5279     1.4309
  394.0000     0.5283     1.4364
  394.5000     0.5287     1.4420
  395.0000     0.5290     1.4475
  395.5000     0.5294     1.4530
  396.0000     0.5298     1.4586
  396.5000     0.5301     1.4641
  397.0000     0.5305     1.4696
  397.5000     0.5308     1.4752
  398.0000     0.5312     1.4807
  398.5000     0.5316     1.4863
  399.0000     0.5320     1.4918
  399.5000     0.5324     1.4973
  400.0000     0.5234     1.5029
  400.5000     1.0097     1.5084
  401.0000     1.0102     1.5139
  401.5000     1.0105     1.5190
  402.0000     1.0109     1.5086
  402.5000     0.7588     1.4989
  403.0000     0.7593     1.4893
  403.5000     0.7597     1.4797
  404.0000     0.7694     1.4701
  404.5000     0.5548     1.4605
  405.0000     0.5551     1.4508
  405.5000     0.5555     1.4412
  406.0000     0.5559     1.4316
  406.5000     0.5563     1.4220
  407.0000     0.5567     1.4124
  407.5000     0.5571     1.4027
  408.0000     0.5574     1.3931
  408.5000     0.5578     1.3835
  409.0000     0.5582     1.3739
  409.5000     0.5585     1.3643
  410.0000     0.5589     1.3546
  410.5000     0.5593     1.3450
  411.0000     0.5596     1.3354
  411.5000     0.5601     1.3258
  412.0000     0.5604     1.3162
  412.5000     0.9814     1.3066
  413.0000     0.9817     1.2969
  413.5000     0.9821     1.2873
  414.0000     0.9825     1.2777
  414.5000     0.7958     1.2681
  415.0000     0.7963     1.2585
  415.5000     0.7966     1.2488
  416.0000     0.5353     1.2392
  416.5000     0.5358     1.2296
  417.0000     0.5361     1.2200
  417.5000     0.5365     1.2104
  418.0000     0.5369     1.2007
  418.5000     0.5466     1.1911
  419.0000     0.5469     1.1815
  419.5000     0.5473     1.1719
  420.0000     0.5477     1.1623
  420.5000     0.7817     1.1527
  421.0000     0.7821     1.1430
  421.5000     0.7824     1.1334
  422.0000     0.9885     1.1238
  422.5000     0.9888     1.1142
  423.0000     0.9892     1.1046
  423.5000     0.9896     1.0949
  424.0000     0.5413     1.0853
