~VERSION INFORMATION
 VERS.                2.0:   CWLS LOG ASCII STANDARD - VERSION 2.0
 WRAP.                 NO:   ONE LINE PER DEPTH STEP
~WELL INFORMATION
#MNEM.UNIT      DATA TYPE    INFORMATION
#----------   ------------   ------------------------------
 STRT.F           34.0000:   START DEPTH
 STOP.F          460.0000:   STOP DEPTH
 STEP.F            0.5000:   STEP LENGTH
 NULL.          -999.2500:   NO VALUE
 COMP. FENIX & SCISSON INC:   COMPANY
 WELL.     SX 3 FO #46--3:   WELL
 FLD .              NPR 3:   FIELD
 LOC .       S3 T38N R78W:   LOCATION
 CNTY.            NATRONA:   COUNTY
 STAT.            WYOMING:   STATE
 CTRY. UNITED STATES OF AMERICA:   COUNTRY
 SRVC.              Welex:   SERVICE COMPANY
 DATE.        10-JUL-1981:   LOGDATE
 API .       490251086000:   API NUMBER
~CURVE INFORMATION
#MNEM.UNIT       API CODE    CURVE DESCRIPTION
#----------   ------------   ------------------------------
 DEPT.F                  :   
 GRD .GAPI   45 310 01 00:   GAMMA RAY FROM DENSITY LOG
 CALD.IN     45 280 60 00:   CALIPER
 RHOB.G/C3   45 350 01 00:   BULK DENSITY
 DPHI.DEC    45 890 12 00:   DENSITY POROSITY SANDSTONE
 CORR.G/C3   45 356 01 00:   DENSITY CORRECTION
~PARAMETER INFORMATION
#MNEM.UNIT          VALUE    DESCRIPTION
#----------   ------------   ------------------------------
 PD  .                 GL:   PERMANENT DATUM
 EPD .F              5168:   ELEVATION PERMANENT DATUM
 LMF .                 KB:   LOG MEASURED FROM
 DAPD.F                 5:   FEET ABOVE PERMANENT DATUM
 DMF .                 KB:   DRILLING MEASURED FROM
 EKB .F              5173:   KELLING BUSHING
 EGL .F              5168:   GROUND LEVEL
 DATE.            7-10-80:   RUN DATE
 RUN .                  1:   RUN NUMBER
 DD  .F               470:   DEPTH DRILLER
 DL  .F               468:   DEPTH LOGGER
 BLI .F               460:   BOTTOM LOG INTERVAL
 TLI .F                46:   TOP LOG INTERVAL
 CS  .IN                7:   CASING SIZE
 CBD .F                46:   CASING BOTTOM DRILLER
 BS  .IN             6.25:   BIT SIZE
 BSD .F               470:   BIT SIZE AT DEPTH
 DFT .        AIR DRILLED:   DRILLING FLUID TYPE
 BHT .F                75:   BOTTOM HOLE TEMPERATURE
 TCS .HRS               2:   TIME CURCULATED STOPPED
 MRT .F                75:   MAXIMUM RECORDED TEMPERATURE
 ENGI.    JOYNER/PFRIMMER:   RECORDING ENGINEER
 WITN.              AMEND:   WITNESSED BY
 CLNT.            A2DTECH:   CLIENT CODE
 ORIG.           5" PRINT:   ORIGIN OF DATA
 UWI .       490251086000:   UNIQUE WELL ID
 DICO. A2D Technologies, Inc.:   DIGITIZING COMPANY
~OTHER INFORMATION
~A   DEPT       GRD      CALD       RHOB       DPHI       CORR   
# ...
   95.0000    91.6604     6.3081     2.5144     0.0995     0.0758
   95.5000    90.3892     6.3149     2.5145     0.0989     0.0789
   96.0000    91.7682     6.3218     2.5134     0.0986     0.0828
   96.5000    93.2355     6.3287     2.5181     0.0987     0.0825
   97.0000    91.6331     6.3356     2.5300     0.0921     0.0909
   97.5000    90.3132     6.3425     2.5416     0.0848     0.1025
   98.0000    92.5061     6.3392     2.5529     0.0776     0.1054
   98.5000    93.6002     6.3281     2.5633     0.0703     0.1114
   99.0000    89.5835     6.3170     2.5652     0.0691     0.1204
   99.5000    87.5721     6.3060     2.5681     0.0690     0.1222
  100.0000    87.7288     6.3057     2.5513     0.0719     0.1182
  100.5000    91.6402     6.3078     2.5269     0.0866     0.1081
  101.0000    94.2141     6.3098     2.5265     0.0934     0.0907
  101.5000    95.1731     6.3117     2.5255     0.0918     0.0856
  102.0000    94.9702     6.3137     2.5130     0.0985     0.0834
  102.5000    94.5896     6.3157     2.5012     0.1075     0.0726
  103.0000    94.2278     6.3177     2.4902     0.1148     0.0612
  103.5000    93.9368     6.3197     2.4903     0.1144     0.0580
  104.0000    94.9200     6.3217     2.4833     0.1134     0.0507
  104.5000    96.2632     6.3237     2.4681     0.1236     0.0389
  105.0000    97.7114     6.3251     2.4607     0.1329     0.0272
  105.5000    95.8298     6.3261     2.4481     0.1390     0.0269
  106.0000    94.7848     6.3270     2.4550     0.1345     0.0338
  106.5000    94.7731     6.3279     2.4639     0.1281     0.0408
  107.0000    94.0662     6.3288     2.4729     0.1254     0.0398
  107.5000    93.3191     6.3298     2.4762     0.1246     0.0344
  108.0000    92.7513     6.3307     2.4670     0.1314     0.0306
  108.5000    93.3288     6.3316     2.4692     0.1257     0.0367
  109.0000    94.1026     6.3325     2.4768     0.1216     0.0492
  109.5000    94.9186     6.3335     2.4843     0.1170     0.0615
  110.0000    94.5530     6.3344     2.4921     0.1153     0.0738
  110.5000    94.0896     6.3353     2.4923     0.1134     0.0830
  111.0000    94.5520     6.3362     2.4815     0.1179     0.0736
  111.5000    95.7478     6.3372     2.4713     0.1229     0.0632
  112.0000    96.3408     6.3381     2.4734     0.1254     0.0606
  112.5000    95.8031     6.3390     2.4774     0.1206     0.0633
  113.0000    95.1987     6.3399     2.4815     0.1194     0.0692
  113.5000    94.5465     6.3408     2.4827     0.1203     0.0698
  114.0000    95.9028     6.3418     2.4761     0.1210     0.0596
  114.5000    97.4145     6.3427     2.4689     0.1255     0.0496
  115.0000    98.9313     6.3436     2.4617     0.1305     0.0395
  115.5000   100.5089     6.3446     2.4546     0.1355     0.0296
  116.0000   100.8654     6.3446     2.4493     0.1376     0.0225
  116.5000   100.5233     6.3446     2.4526     0.1350     0.0264
  117.0000   100.6464     6.3446     2.4568     0.1319     0.0336
  117.5000   100.9587     6.3446     2.4612     0.1289     0.0406
  118.0000   101.2665     6.3446     2.4655     0.1258     0.0476
  118.5000   100.9740     6.3446     2.4698     0.1230     0.0526
  119.0000    99.6773     6.3446     2.4742     0.1218     0.0547
  119.5000    98.4433     6.3446     2.4784     0.1204     0.0553
  120.0000    97.2402     6.3446     2.4815     0.1190     0.0560
  120.5000    96.3502     6.3446     2.4815     0.1196     0.0566
  121.0000    95.5275     6.3446     2.4825     0.1200     0.0573
  121.5000    97.7958     6.3446     2.4835     0.1192     0.0580
  122.0000    97.9372     6.3446     2.4855     0.1190     0.0578
  122.5000    97.9230     6.3446     2.4807     0.1241     0.0491
  123.0000    99.1114     6.3446     2.4699     0.1288     0.0407
  123.5000   100.5001     6.3446     2.4655     0.1302     0.0367
  124.0000   101.8615     6.3446     2.4860     0.1185     0.0515
  124.5000   102.2698     6.3446     2.4835     0.1172     0.0503
  125.0000   100.3521     6.3446     2.4811     0.1190     0.0464
  125.5000   100.7349     6.3446     2.4792     0.1198     0.0506
  126.0000    99.0132     6.3446     2.4920     0.1164     0.0553
  126.5000    99.3571     6.3446     2.4929     0.1102     0.0523
  127.0000   101.1705     6.3446     2.4829     0.1183     0.0438
  127.5000   102.8420     6.3446     2.4730     0.1245     0.0353
  128.0000   103.6004     6.3446     2.4632     0.1303     0.0267
  128.5000   101.6392     6.3446     2.4538     0.1350     0.0207
  129.0000   100.2581     6.3446     2.4563     0.1346     0.0208
  129.5000   100.9994     6.3446     2.4668     0.1325     0.0260
  130.0000   101.1325     6.3446     2.4656     0.1294     0.0310
  130.5000    99.9084     6.3446     2.4686     0.1264     0.0360
  131.0000   100.3072     6.3446     2.4726     0.1233     0.0408
  131.5000   101.1079     6.3446     2.4761     0.1214     0.0433
  132.0000   101.6933     6.3446     2.4760     0.1242     0.0444
  132.5000   100.8024     6.3446     2.4678     0.1282     0.0425
  133.0000    99.4755     6.3446     2.4596     0.1322     0.0406
  133.5000    98.5099     6.3446     2.4516     0.1350     0.0386
  134.0000    99.2103     6.3446     2.4595     0.1326     0.0385
  134.5000   100.5945     6.3446     2.4678     0.1287     0.0386
  135.0000   101.9825     6.3446     2.4654     0.1296     0.0338
  135.5000   102.8661     6.3446     2.4622     0.1312     0.0284
  136.0000   101.5116     6.3446     2.4613     0.1322     0.0245
  136.5000    99.6366     6.3446     2.4673     0.1287     0.0269
  137.0000    97.8661     6.3446     2.4738     0.1234     0.0365
  137.5000    99.5455     6.3446     2.4803     0.1181     0.0458
  138.0000   102.0275     6.3446     2.4868     0.1128     0.0551
  138.5000   103.6452     6.3446     2.5064     0.1075     0.0643
  139.0000   102.5921     6.3446     2.5073     0.1022     0.0725
  139.5000   103.3547     6.3446     2.4985     0.1006     0.0653
  140.0000   105.9990     6.3446     2.4901     0.1088     0.0586
  140.5000   106.6399     6.3446     2.4819     0.1151     0.0518
  141.0000   106.3062     6.3446     2.4742     0.1214     0.0449
  141.5000   105.4468     6.3446     2.4766     0.1246     0.0446
  142.0000   103.0226     6.3446     2.4829     0.1194     0.0495
  142.5000   100.6524     6.3435     2.4835     0.1170     0.0537
  143.0000    99.4104     6.3390     2.4827     0.1178     0.0579
  143.5000    98.2268     6.3347     2.4855     0.1156     0.0620
  144.0000    96.9643     6.3303     2.4874     0.1138     0.0650
  144.5000    96.8190     6.3258     2.4841     0.1154     0.0578
  145.0000    98.5170     6.3257     2.4810     0.1184     0.0503
  145.5000   100.2331     6.3271     2.4800     0.1206     0.0424
  146.0000    99.3164     6.3285     2.4833     0.1187     0.0387
  146.5000    98.5692     6.3300     2.4822     0.1182     0.0396
  147.0000    99.7617     6.3314     2.4767     0.1206     0.0412
  147.5000   100.9130     6.3328     2.4808     0.1226     0.0428
  148.0000   101.7040     6.3342     2.4831     0.1214     0.0445
  148.5000   101.0545     6.3356     2.4766     0.1209     0.0426
  149.0000   100.3307     6.3371     2.4796     0.1220     0.0404
  149.5000   100.5555     6.3385     2.4739     0.1230     0.0387
  150.0000   100.8837     6.3399     2.4739     0.1236     0.0436
  150.5000    99.4790     6.3413     2.4850     0.1180     0.0484
  151.0000    97.5017     6.3428     2.4873     0.1154     0.0528
  151.5000    97.1831     6.3442     2.4812     0.1189     0.0488
  152.0000    99.0855     6.3432     2.4751     0.1221     0.0445
  152.5000   100.9030     6.3404     2.4691     0.1253     0.0403
  153.0000   102.7202     6.3375     2.4656     0.1284     0.0366
  153.5000   103.0743     6.3347     2.4623     0.1284     0.0394
  154.0000   102.7980     6.3319     2.4661     0.1218     0.0478
  154.5000   104.2290     6.3290     2.4801     0.1133     0.0627
  155.0000   104.2896     6.3262     2.4973     0.1090     0.0780
  155.5000   103.5388     6.3247     2.4906     0.1144     0.0727
