~VERSION INFORMATION
 VERS.                2.0:   CWLS LOG ASCII STANDARD - VERSION 2.0
 WRAP.                 NO:   ONE LINE PER DEPTH STEP
~WELL INFORMATION
#MNEM.UNIT      DATA TYPE    INFORMATION
#----------   ------------   ------------------------------
 STRT.F            4.0000:   START DEPTH
 STOP.F          614.0000:   STOP DEPTH
 STEP.F            0.1000:   STEP LENGTH
 NULL.          -999.2500:   NO VALUE
 COMP.   FLUOR DANIEL INC:   COMPANY
 WELL.     63-4 X 3 #63-3:   WELL
 FLD .          N.P.R. #3:   FIELD
 LOC .       S3 T38N R78W:   LOCATION
 CNTY.            NATRONA:   COUNTY
 STAT.            WYOMING:   STATE
 CTRY. UNITED STATES OF AMERICA:   COUNTRY
 SRVC.      Western Atlas:   SERVICE COMPANY
 DATE.        01-JUN-1995:   LOGDATE
 API .       490252271300:   API NUMBER
~CURVE INFORMATION
#MNEM.UNIT       API CODE    CURVE DESCRIPTION
#----------   ------------   ------------------------------
 DEPT.F                  :   
 GRR .GAPI   07 310 01 00:   GAMMA RAY
 RILD.OHMM   07 120 46 00:   INDUCTION LOG DEEP RESISTIVITY
 RILM.OHMM   07 120 44 00:   INDUCTION LOG MEDIUM RESISTIVITY
~PARAMETER INFORMATION
#MNEM.UNIT          VALUE    DESCRIPTION
#----------   ------------   ------------------------------
 PD  .                 GL:   PERMANENT DATUM
 EPD .F              5173:   ELEVATION PERMANENT DATUM
 LMF .                 KB:   LOG MEASURED FROM
 DAPD.F                10:   FEET ABOVE PERMANENT DATUM
 DMF .                 KB:   DRILLING MEASURED FROM
 EKB .F              5183:   KELLING BUSHING
 EDF .F              5182:   DRILLING FLOOR
 EGL .F              5173:   GROUND LEVEL
 DATE.        01-JUN-1995:   RUN DATE
 RUN .                  1:   RUN NUMBER
 DD  .F               626:   DEPTH DRILLER
 DL  .F               622:   DEPTH LOGGER
 BLI .F               614:   BOTTOM LOG INTERVAL
 TLI .F                95:   TOP LOG INTERVAL
 CS  .IN            9.625:   CASING SIZE
 CBD .F                95:   CASING BOTTOM DRILLER
 CBL .F                95:   CASING BOTTOM LOGGER
 BS  .IN             8.75:   BIT SIZE
 BSD .F               626:   BIT SIZE AT DEPTH
 DFT .                AIR:   DRILLING FLUID TYPE
 MRT .F               147:   MAXIMUM RECORDED TEMPERATURE
 LUN .            HL 6530:   LOGGING UNIT NUMBER
 LUL .             CASPER:   LOGGING UNIT LOCATION
 ENGI.        VERN RAUTIO:   RECORDING ENGINEER
 WITN.        STEVE HARDY:   WITNESSED BY
 CLNT.            A2DTECH:   CLIENT CODE
 ORIG.           5" PRINT:   ORIGIN OF DATA
 UWI .       490252271300:   UNIQUE WELL ID
 DICO. A2D Technologies, Inc.:   DIGITIZING COMPANY
~OTHER INFORMATION
~A    DEPT       GRR     RILD       RILM   
# ...
  604.6000     4.2387     7.3393     7.4005
  604.7000  -999.2500     7.2228     7.3454
  604.8000  -999.2500     7.1376     7.3024
  604.9000  -999.2500     7.0512     7.2425
  605.0000  -999.2500     6.9543     7.1672
  605.1000  -999.2500     6.8884     7.1224
  605.2000  -999.2500     6.8073     7.0305
  605.3000  -999.2500     6.7271     6.9934
  605.4000  -999.2500     6.6478     6.9223
  605.5000  -999.2500     6.5694     6.8183
  605.6000  -999.2500     6.4896     6.6983
  605.7000  -999.2500     6.3562     6.5895
  605.8000  -999.2500     6.2962     6.5095
  605.9000  -999.2500     6.1988     6.3838
  606.0000  -999.2500     6.0895     6.2827
  606.1000  -999.2500     5.9820     6.1723
  606.2000  -999.2500     5.8809     6.0235
  606.3000  -999.2500     5.8092     5.8341
  606.4000  -999.2500     5.7104     5.6225
  606.5000  -999.2500     5.5835     5.3935
  606.6000  -999.2500     5.4526     5.1533
  606.7000  -999.2500     5.2819     4.9386
  606.8000  -999.2500     5.0750     4.7922
  606.9000  -999.2500     4.8934     4.6801
  607.0000  -999.2500     4.6859     4.5598
  607.1000  -999.2500     4.5032     4.4266
  607.2000  -999.2500     4.3403     4.2955
  607.3000  -999.2500     4.1581     4.1313
  607.4000  -999.2500     3.9755     3.9589
  607.5000  -999.2500     3.8070     3.8250
  607.6000  -999.2500     3.6297     3.7011
  607.7000  -999.2500     3.4538     3.5802
  607.8000  -999.2500     3.3009     3.4756
  607.9000  -999.2500     3.1921     3.3712
  608.0000  -999.2500     3.1215     3.2215
  608.1000  -999.2500     3.0664     3.1033
  608.2000  -999.2500     3.0174     3.0033
  608.3000  -999.2500     2.9818     2.8963
  608.4000  -999.2500     2.9450     2.7917
  608.5000  -999.2500     2.9120     2.7101
  608.6000  -999.2500     2.8777     2.6309
  608.7000  -999.2500     2.8542     2.5471
  608.8000  -999.2500     2.8374     2.4931
  608.9000  -999.2500     2.8207     2.4562
  609.0000  -999.2500     2.8041     2.4356
  609.1000  -999.2500     2.7868     2.4272
  609.2000  -999.2500     2.7869     2.4274
  609.3000  -999.2500     2.7741     2.4275
  609.4000  -999.2500     2.7780     2.4276
  609.5000  -999.2500     2.7872     2.4278
  609.6000  -999.2500     2.7920     2.4279
  609.7000  -999.2500     2.8150     2.4364
  609.8000  -999.2500     2.8551     2.4450
  609.9000  -999.2500     2.8678     2.4452
  610.0000  -999.2500     2.8804     2.4476
  610.1000  -999.2500  -999.2500     2.4795
  610.2000  -999.2500  -999.2500     2.4931
  610.3000  -999.2500  -999.2500     2.5081
  610.4000  -999.2500  -999.2500     2.5495
  610.5000  -999.2500  -999.2500     2.6044
  610.6000  -999.2500  -999.2500     2.6552
  610.7000  -999.2500  -999.2500     2.7203
  610.8000  -999.2500  -999.2500     2.8095
  610.9000  -999.2500  -999.2500     2.8714
  611.0000  -999.2500  -999.2500     2.9406
  611.1000  -999.2500  -999.2500     3.0114
  611.2000  -999.2500  -999.2500     3.0762
  611.3000  -999.2500  -999.2500     3.1269
  611.4000  -999.2500  -999.2500     3.1659
  611.5000  -999.2500  -999.2500     3.2278
  611.6000  -999.2500  -999.2500     3.2811
  611.7000  -999.2500  -999.2500     3.3402
  611.8000  -999.2500  -999.2500     3.4004
  611.9000  -999.2500  -999.2500     3.4616
  612.0000  -999.2500  -999.2500     3.5292
  612.1000  -999.2500  -999.2500     3.6122
  612.2000  -999.2500  -999.2500     3.6828
  612.3000  -999.2500  -999.2500     3.7030
  612.4000  -999.2500  -999.2500     3.7419
  612.5000  -999.2500  -999.2500     3.7737
  612.6000  -999.2500  -999.2500     3.7869
  612.7000  -999.2500  -999.2500     3.7872
  612.8000  -999.2500  -999.2500     3.7893
  612.9000  -999.2500  -999.2500     3.8139
  613.0000  -999.2500  -999.2500     3.8141
  613.1000  -999.2500  -999.2500     3.8143
  613.2000  -999.2500  -999.2500     3.8145
  613.3000  -999.2500  -999.2500     3.8147
  613.4000  -999.2500  -999.2500     3.8149
  613.5000  -999.2500  -999.2500     3.8151
  613.6000  -999.2500  -999.2500     3.8154
  613.7000  -999.2500  -999.2500     3.8156
  613.8000  -999.2500  -999.2500     3.8158
  613.9000  -999.2500  -999.2500     3.8160
  614.0000  -999.2500  -999.2500     3.8162
