~VERSION INFORMATION
 VERS.                2.0:   CWLS LOG ASCII STANDARD - VERSION 2.0
 WRAP.                 NO:   ONE LINE PER DEPTH STEP
~WELL INFORMATION
#MNEM.UNIT      DATA TYPE    INFORMATION
#----------   ------------   ------------------------------
 STRT.F           30.0000:   START DEPTH
 STOP.F         2441.0000:   STOP DEPTH
 STEP.F            0.5000:   STEP LENGTH
 NULL.          -999.2500:   NO VALUE
 COMP. FENIX & SCISSON INC:   COMPANY
 WELL.      NPR 3 #81 S-4:   WELL
 FLD .             TEAPOT:   FIELD
 LOC .       S4 T38N R78W:   LOCATION
 CNTY.            NATRONA:   COUNTY
 STAT.            WYOMING:   STATE
 CTRY. UNITED STATES OF AMERICA:   COUNTRY
 SRVC.            Unknown:   SERVICE COMPANY
 DATE.        28-MAR-1978:   LOGDATE
 API .       490251060700:   API NUMBER
~CURVE INFORMATION
#MNEM.UNIT       API CODE    CURVE DESCRIPTION
#----------   ------------   ------------------------------
 DEPT.F                  :   
 CALD.IN     45 280 60 00:   CALIPER
 RHOB.G/C3   45 350 01 00:   BULK DENSITY
 DPHI.DEC    45 890 12 00:   DENSITY POROSITY SANDSTONE
 CORR.G/C3   45 356 01 00:   DENSITY CORRECTION
 GRD .GAPI   45 310 01 00:   GAMMA RAY FROM DENSITY LOG
~PARAMETER INFORMATION
#MNEM.UNIT          VALUE    DESCRIPTION
#----------   ------------   ------------------------------
 PD  .                 GL:   PERMANENT DATUM
 EPD .F              5169:   ELEVATION PERMANENT DATUM
 LMF .                 KB:   LOG MEASURED FROM
 DAPD.F                10:   FEET ABOVE PERMANENT DATUM
 DMF .                 KB:   DRILLING MEASURED FROM
 EKB .F              5179:   KELLING BUSHING
 EGL .F              5169:   GROUND LEVEL
 DATE.          3-28-1978:   RUN DATE
 RUN .                  1:   RUN NUMBER
 DD  .F              2454:   DEPTH DRILLER
 DL  .F              2443:   DEPTH LOGGER
 BLI .F              2441:   BOTTOM LOG INTERVAL
 TLI .F                40:   TOP LOG INTERVAL
 CS  .IN            9.625:   CASING SIZE
 CBD .F               660:   CASING BOTTOM DRILLER
 CBL .F               660:   CASING BOTTOM LOGGER
 BS  .IN             8.75:   BIT SIZE
 BSD .F              2454:   BIT SIZE AT DEPTH
 DFT .           AIR MIST:   DRILLING FLUID TYPE
 TCS .HRS               2:   TIME CURCULATED STOPPED
 LUN .               2958:   LOGGING UNIT NUMBER
 LUL .               CASP:   LOGGING UNIT LOCATION
 ENGI.             MILLER:   RECORDING ENGINEER
 CLNT.            A2DTECH:   CLIENT CODE
 ORIG.       2"  5" PRINT:   ORIGIN OF DATA
 UWI .       490251060700:   UNIQUE WELL ID
 DICO. A2D Technologies, Inc.:   DIGITIZING COMPANY
~OTHER INFORMATION
~A   DEPT     CALD       RHOB       DPHI       CORR        GRD   
# ...
 1006.0000    10.5627     2.5006     0.0938     0.0245   155.3454
 1006.5000    10.5494     2.5018     0.0970     0.0257   155.0438
 1007.0000    10.5361     2.4968     0.0978     0.0268   154.7212
 1007.5000    10.5228     2.4999     0.0998     0.0279   154.3968
 1008.0000    10.5096     2.4984     0.0922     0.0290   154.0692
 1008.5000    10.4963     2.4987     0.0954     0.0297   154.1651
 1009.0000    10.4830     2.5011     0.0932     0.0281   154.5222
 1009.5000    10.4703     2.5032     0.0910     0.0266   154.7088
 1010.0000    10.4644     2.4983     0.0947     0.0251   155.7195
 1010.5000    10.4588     2.4945     0.1018     0.0244   156.8936
 1011.0000    10.4532     2.4957     0.0993     0.0264   158.0695
 1011.5000    10.4530     2.4969     0.0981     0.0283   159.1178
 1012.0000    10.4579     2.4844     0.1002     0.0286   158.1034
 1012.5000    10.4629     2.4671     0.1074     0.0175   154.7823
 1013.0000    10.4678     2.4689     0.1118     0.0062   151.4906
 1013.5000    10.4728     2.4760     0.0946     0.0064   148.8908
 1014.0000    10.4778     2.4945     0.0981     0.0163   150.5197
 1014.5000    10.4827     2.4864     0.1042     0.0171   153.1177
 1015.0000    10.4877     2.4859     0.0970     0.0177   152.5926
 1015.5000    10.4927     2.4975     0.0930     0.0269   151.8844
 1016.0000    10.4976     2.5059     0.0974     0.0403   155.1102
 1016.5000    10.5026     2.5109     0.0880     0.0420   158.8487
 1017.0000    10.5075     2.5142     0.0870     0.0396   159.8446
 1017.5000    10.5121     2.5026     0.0958     0.0379   154.6555
 1018.0000    10.5163     2.4820     0.1034     0.0302   151.6224
 1018.5000    10.5205     2.4684     0.1083     0.0216   153.1509
 1019.0000    10.5247     2.4860     0.1042     0.0200   154.8316
 1019.5000    10.5287     2.4851     0.1052     0.0208   157.1888
 1020.0000    10.5395     2.4825     0.1005     0.0216   159.8371
 1020.5000    10.5516     2.5045     0.0803     0.0271   158.8365
 1021.0000    10.5637     2.5223     0.0869     0.0352   157.1642
 1021.5000    10.5758     2.4910     0.0973     0.0356   155.9150
 1022.0000    10.5879     2.4863     0.1010     0.0339   155.4227
 1022.5000    10.6000     2.5009     0.0918     0.0427   154.8492
 1023.0000    10.6121     2.5132     0.0870     0.0492   154.0587
 1023.5000    10.6243     2.5028     0.0941     0.0406   151.9153
 1024.0000    10.6364     2.4825     0.1017     0.0303   149.7586
 1024.5000    10.6482     2.4801     0.1054     0.0262   147.9419
 1025.0000    10.6470     2.4959     0.0978     0.0236   148.9222
 1025.5000    10.6451     2.5117     0.0847     0.0230   153.2963
 1026.0000    10.6433     2.5166     0.0850     0.0224   159.0800
 1026.5000    10.6415     2.5157     0.0854     0.0222   162.1120
 1027.0000    10.6397     2.5457     0.0583     0.0367   164.0197
 1027.5000    10.6379     2.5544     0.0733     0.0684   165.4252
 1028.0000    10.6361     2.5110     0.0905     0.0688   161.9455
 1028.5000    10.6343     2.4990     0.0978     0.0397   157.0302
 1029.0000    10.6325     2.4976     0.0994     0.0423   154.7609
 1029.5000    10.6307     2.5043     0.0958     0.0466   160.7610
 1030.0000    10.6289     2.5115     0.0915     0.0511   166.4579
 1030.5000    10.6288     2.5148     0.0874     0.0504   170.6030
 1031.0000    10.6288     2.5167     0.0834     0.0479   171.4951
 1031.5000    10.6288     2.5187     0.0862     0.0453   172.4184
 1032.0000    10.6288     2.5088     0.0922     0.0445   171.2738
 1032.5000    10.6289     2.5005     0.0884     0.0459   168.2982
 1033.0000    10.6289     2.5174     0.0870     0.0472   165.3340
 1033.5000    10.6277     2.5179     0.0889     0.0440   163.8649
 1034.0000    10.6265     2.4986     0.0947     0.0358   165.8694
 1034.5000    10.6252     2.5050     0.0938     0.0346   168.2160
 1035.0000    10.6239     2.5062     0.0926     0.0366   168.4890
 1035.5000    10.6227     2.5052     0.0904     0.0387   168.3436
 1036.0000    10.6214     2.5098     0.0902     0.0386   163.0868
 1036.5000    10.6201     2.4997     0.0922     0.0308   157.7824
 1037.0000    10.6188     2.5019     0.0918     0.0280   157.1469
 1037.5000    10.6176     2.5053     0.0915     0.0279   155.3999
 1038.0000    10.6163     2.5085     0.0883     0.0279   150.8522
 1038.5000    10.6150     2.5026     0.0944     0.0244   145.0013
 1039.0000    10.6138     2.4937     0.0998     0.0169   140.4822
 1039.5000    10.6125     2.4897     0.1022     0.0095   140.5542
 1040.0000    10.6112     2.4801     0.0992     0.0071   140.9130
 1040.5000    10.6100     2.4775     0.0958     0.0102   141.2637
 1041.0000    10.6087     2.5000     0.0974     0.0134   141.6098
 1041.5000    10.6074     2.4959     0.0994     0.0123   141.9574
 1042.0000    10.6061     2.4879     0.1006     0.0102   142.3037
 1042.5000    10.6049     2.4866     0.1006     0.0080   142.6357
 1043.0000    10.6036     2.4863     0.1024     0.0060   142.1801
 1043.5000    10.6023     2.4813     0.1052     0.0065   140.6516
 1044.0000    10.6011     2.4763     0.1078     0.0073   139.2817
 1044.5000    10.5998     2.4766     0.1074     0.0082   139.2764
 1045.0000    10.5985     2.4807     0.1067     0.0090   139.8313
 1045.5000    10.5973     2.4829     0.1059     0.0098   140.5122
 1046.0000    10.5960     2.4824     0.1052     0.0088   144.1283
 1046.5000    10.5947     2.4824     0.1057     0.0073   147.3188
 1047.0000    10.5935     2.4793     0.1067     0.0058   148.3829
 1047.5000    10.5922     2.4778     0.1074     0.0042   147.5634
 1048.0000    10.5909     2.4864     0.1038     0.0074   146.7222
 1048.5000    10.5897     2.4915     0.1004     0.0115   147.0738
 1049.0000    10.5918     2.4974     0.0941     0.0157   148.5972
 1049.5000    10.5974     2.5054     0.0914     0.0198   149.9398
 1050.0000    10.6030     2.5011     0.0947     0.0207   149.5050
 1050.5000    10.6086     2.4911     0.0985     0.0182   149.1929
 1051.0000    10.6142     2.4925     0.1009     0.0157   150.4627
 1051.5000    10.6197     2.4893     0.1002     0.0123   149.7889
 1052.0000    10.6253     2.4832     0.1043     0.0071   147.9911
 1052.5000    10.6309     2.4786     0.1066     0.0022   149.1522
 1053.0000    10.6365     2.4728     0.1108     0.0051   153.4909
 1053.5000    10.6421     2.4700     0.1122     0.0083   155.4173
 1054.0000    10.6478     2.4846     0.1032     0.0116   152.0928
 1054.5000    10.6479     2.4971     0.0962     0.0148   147.8632
 1055.0000    10.6469     2.5016     0.0959     0.0155   146.2948
 1055.5000    10.6459     2.4980     0.0982     0.0131   145.5052
 1056.0000    10.6449     2.4938     0.1000     0.0107   144.7260
 1056.5000    10.6440     2.4915     0.1008     0.0111   144.0087
 1057.0000    10.6430     2.4929     0.1014     0.0128   144.4428
 1057.5000    10.6420     2.4938     0.0996     0.0132   145.2474
 1058.0000    10.6410     2.4867     0.1023     0.0104   145.5932
 1058.5000    10.6400     2.4804     0.1066     0.0084   145.4527
 1059.0000    10.6391     2.4805     0.1066     0.0121   147.1484
 1059.5000    10.6381     2.4815     0.1020     0.0158   148.7364
 1060.0000    10.6371     2.4909     0.0971     0.0195   148.5013
 1060.5000    10.6361     2.5002     0.0922     0.0233   149.1102
 1061.0000    10.6352     2.4986     0.0990     0.0231   150.2310
 1061.5000    10.6342     2.4935     0.0978     0.0182   149.9185
 1062.0000    10.6332     2.4894     0.0991     0.0134   149.3771
 1062.5000    10.6322     2.4854     0.1046     0.0086   148.8081
 1063.0000    10.6313     2.4814     0.1054     0.0059   149.2295
 1063.5000    10.6303     2.4783     0.1074     0.0124   149.8588
 1064.0000    10.6293     2.4856     0.1028     0.0216   150.4944
 1064.5000    10.6214     2.4916     0.1003     0.0302   150.5457
 1065.0000    10.6080     2.4931     0.1006     0.0303   149.6827
 1065.5000    10.5944     2.4982     0.0976     0.0308   148.4775
 1066.0000    10.5903     2.5014     0.0973     0.0314   147.2583
 1066.5000    10.5918     2.4949     0.0994     0.0318   146.8707
