~VERSION INFORMATION
 VERS.                2.0:   CWLS LOG ASCII STANDARD - VERSION 2.0
 WRAP.                 NO:   ONE LINE PER DEPTH STEP
~WELL INFORMATION
#MNEM.UNIT      DATA TYPE    INFORMATION
#----------   ------------   ------------------------------
 STRT.F           32.0000:   START DEPTH
 STOP.F          738.0000:   STOP DEPTH
 STEP.F            0.5000:   STEP LENGTH
 NULL.          -999.2500:   NO VALUE
 COMP. FENIX & SCISSON INC:   COMPANY
 WELL.       NPR-3 #43-34:   WELL
 FLD .             TEAPOT:   FIELD
 LOC .      S34 T39N R78W:   LOCATION
 CNTY.            NATRONA:   COUNTY
 STAT.            WYOMING:   STATE
 CTRY. UNITED STATES OF AMERICA:   COUNTRY
 SRVC.            Unknown:   SERVICE COMPANY
 DATE.        26-AUG-1978:   LOGDATE
 API .       490251069900:   API NUMBER
~CURVE INFORMATION
#MNEM.UNIT       API CODE    CURVE DESCRIPTION
#----------   ------------   ------------------------------
 DEPT.F                  :   
 GRD .GAPI   45 310 01 00:   GAMMA RAY FROM DENSITY LOG
 CALD.IN     45 280 60 00:   CALIPER
 RHOB.G/C3   45 350 01 00:   BULK DENSITY
 DPHI.DEC    45 890 12 00:   DENSITY POROSITY SANDSTONE
 CORR.G/C3   45 356 01 00:   DENSITY CORRECTION
 SPR .MV     05 010 01 00:   SPONTANEOUS POTENTIAL FROM RES.
 SN  .OHMM   05 040 16 00:   SHORT NORMAL 16"
 ILD .OHMM   05 120 46 00:   INDUCTION LOG DEEP
~PARAMETER INFORMATION
#MNEM.UNIT          VALUE    DESCRIPTION
#----------   ------------   ------------------------------
 PD  .                 GL:   PERMANENT DATUM
 EPD .F              5110:   ELEVATION PERMANENT DATUM
 LMF .                 KB:   LOG MEASURED FROM
 DAPD.F                 4:   FEET ABOVE PERMANENT DATUM
 DMF .                 KB:   DRILLING MEASURED FROM
 EKB .F              5114:   KELLING BUSHING
 EGL .F              5110:   GROUND LEVEL
 DATE.            8-26-78:   RUN DATE
 RUN .                  1:   RUN NUMBER
 DD  .F               748:   DEPTH DRILLER
 DL  .F               738:   DEPTH LOGGER
 BLI .F               732:   BOTTOM LOG INTERVAL
 TLI .F                40:   TOP LOG INTERVAL
 CS  .IN            8.625:   CASING SIZE
 CBD .F                40:   CASING BOTTOM DRILLER
 CBL .F                40:   CASING BOTTOM LOGGER
 BS  .IN            7.875:   BIT SIZE
 BSD .F               748:   BIT SIZE AT DEPTH
 DFT .                KCL:   DRILLING FLUID TYPE
 DFD .                8.7:   DRILLING FLUID DENSITY
 DFV .                 33:   DRILLING FLUID VISCOSITY
 DFPH.                  9:   DRILLING FLUID PH
 DFL .                 10:   DRILLING FLUID LOSS
 MSS .          FLOW LINE:   MUD SAMPLE SOURCE
 RMS .OHMM            .36:   RESISTIVITY MUD SAMPLE
 MST .F                80:   MUD SAMPLE TEMPERATURE
 RMF .OHMM             .3:   RESISTIVITY MUD FILTRATE SAMPLE
 MFST.F                80:   MUD FILTRATE SAMPLE TEMPERATURE
 RMC .OHMM            .48:   RESISTIVITY MUD CAKE
 MCST.F                82:   MUD CAKE SAMPLE TEMPERATURE
 MFSS.               MEAS:   MUD FILTRATE SAMPLE SOURCE
 MCSS.               MEAS:   MUD CAKE SAMPLE SOURCE
 TCS .HRS               2:   TIME CURCULATED STOPPED
 LUN .               2958:   LOGGING UNIT NUMBER
 LUL .               CASP:   LOGGING UNIT LOCATION
 ENGI.             MILLER:   RECORDING ENGINEER
 WITN.              AMEND:   WITNESSED BY
 CLNT.            A2DTECH:   CLIENT CODE
 ORIG.           5" PRINT:   ORIGIN OF DATA
 UWI .       490251069900:   UNIQUE WELL ID
 DICO. A2D Technologies, Inc.:   DIGITIZING COMPANY
~OTHER INFORMATION
~A   DEPT       GRD      CALD       RHOB       DPHI       CORR        SPR         SN        ILD   
# ...
  234.5000    90.2648     7.3665     2.4987     0.1190     0.0180   -34.4209     7.6533     6.9894
  235.0000    88.8883     7.3652     2.4828     0.1288     0.0136   -34.5006     7.6544     6.7536
  235.5000    87.3595     7.3640     2.4731     0.1272     0.0134   -34.5803     7.4854     6.5259
  236.0000    86.7997     7.3627     2.4709     0.1254     0.0148   -34.6600     7.3672     6.3100
  236.5000    87.5087     7.3614     2.4736     0.1216     0.0168   -34.7397     7.2509     6.1759
  237.0000    93.1823     7.3601     2.4765     0.1208     0.0187   -34.8194     7.1364     6.0916
  237.5000    98.3466     7.3589     2.4793     0.1192     0.0206   -34.8983     7.0237     6.0098
  238.0000    98.8789     7.3576     2.4831     0.1155     0.0225   -34.9513     6.9128     5.9253
  238.5000    96.8903     7.3569     2.4925     0.1120     0.0244   -34.9504     6.8536     5.8627
  239.0000    97.4709     7.3595     2.4989     0.1173     0.0256   -34.9505     6.8508     5.9168
  239.5000    98.9132     7.3620     2.4922     0.1232     0.0222   -34.9505     6.9209     5.9486
  240.0000    95.1309     7.3645     2.4780     0.1244     0.0199   -34.9505     6.9682     6.0146
  240.5000    95.7512     7.3670     2.4750     0.1226     0.0174   -34.9505     7.0255     6.0814
  241.0000    96.5804     7.3695     2.4781     0.1218     0.0155   -34.9507     7.0833     6.1494
  241.5000    91.8892     7.3720     2.4819     0.1252     0.0161   -34.9505     7.1416     6.2330
  242.0000    93.1249     7.3745     2.4790     0.1286     0.0167   -34.9354     7.2004     6.3525
  242.5000    98.2213     7.3766     2.4719     0.1304     0.0172   -34.8506     7.2594     6.4738
  243.0000    96.2156     7.3741     2.4659     0.1291     0.0181   -34.7665     7.3098     6.5974
  243.5000    94.2133     7.3718     2.4680     0.1279     0.0203   -34.7674     7.3098     6.7233
  244.0000    93.5211     7.3694     2.4724     0.1204     0.0225   -34.8037     7.2896     6.8542
  244.5000    97.1352     7.3670     2.4767     0.1195     0.0234   -34.8401     7.2750     6.8792
  245.0000    98.7704     7.3647     2.4810     0.1200     0.0229   -34.8763     7.2603     6.9112
  245.5000    96.8758     7.3623     2.4850     0.1211     0.0225   -34.9126     7.2432     6.9433
  246.0000    94.8922     7.3599     2.4843     0.1222     0.0220   -34.9488     7.2641     6.9756
  246.5000    96.6335     7.3576     2.4809     0.1220     0.0215   -34.9850     7.2992     7.0081
  247.0000    97.1716     7.3552     2.4779     0.1228     0.0215   -35.0212     7.3344     7.0407
  247.5000    99.4312     7.3528     2.4780     0.1232     0.0215   -35.0574     7.3697     7.0735
  248.0000   102.7779     7.3505     2.4780     0.1240     0.0215   -35.0936     7.4052     7.1064
  248.5000   103.3207     7.3481     2.4786     0.1230     0.0216   -35.1299     7.4408     7.1110
  249.0000   102.5387     7.3457     2.4796     0.1219     0.0196   -35.1479     7.4454     6.9911
  249.5000   102.6029     7.3434     2.4806     0.1209     0.0195   -35.1853     7.3969     6.9105
  250.0000   102.1349     7.3410     2.4815     0.1199     0.0195   -35.2371     7.3424     6.8308
  250.5000   100.8493     7.3386     2.4820     0.1203     0.0195   -35.2900     7.2882     6.7919
  251.0000    99.5665     7.3366     2.4821     0.1254     0.0195   -35.3439     7.2344     6.7910
  251.5000    98.6232     7.3367     2.4787     0.1276     0.0195   -35.3470     7.1766     6.7915
  252.0000    98.4338     7.3367     2.4743     0.1250     0.0194   -35.3466     7.1766     6.7915
  252.5000    98.3047     7.3367     2.4722     0.1228     0.0210   -35.3465     7.2452     6.7915
  253.0000    95.7489     7.3367     2.4764     0.1212     0.0214   -35.3465     7.2088     6.7916
  253.5000    93.0128     7.3367     2.4804     0.1241     0.0193   -35.3465     7.1868     6.7916
  254.0000    90.5536     7.3367     2.4807     0.1280     0.0193   -35.3465     7.1763     6.7884
  254.5000    90.6903     7.3367     2.4731     0.1312     0.0187   -35.3465     7.1766     6.7659
  255.0000    92.4397     7.3367     2.4658     0.1316     0.0182   -35.3465     7.1766     6.7436
  255.5000    94.2416     7.3367     2.4640     0.1245     0.0176   -35.3465     7.1783     6.7213
  256.0000    97.4173     7.3367     2.4670     0.1212     0.0176   -35.3465     7.1891     6.6991
  256.5000   103.2194     7.3348     2.4770     0.1240     0.0183   -35.3465     7.1998     6.6770
  257.0000   103.9872     7.3315     2.4781     0.1268     0.0191   -35.3465     7.2106     6.6678
  257.5000   103.2236     7.3281     2.4736     0.1268     0.0199   -35.3465     7.2213     6.7611
  258.0000   101.5672     7.3248     2.4710     0.1245     0.0206   -35.3465     7.2321     6.8294
  258.5000   100.4310     7.3215     2.4736     0.1217     0.0214   -35.3465     7.2431     6.8984
  259.0000   100.0343     7.3182     2.4788     0.1190     0.0211   -35.3465     7.2765     6.9681
  259.5000   101.0756     7.3149     2.4840     0.1172     0.0205   -35.3465     7.3102     6.9814
  260.0000   106.5721     7.3115     2.4856     0.1172     0.0200   -35.3465     7.3441     6.9814
  260.5000   106.0533     7.3082     2.4886     0.1134     0.0195   -35.3465     7.3782     6.9814
  261.0000   102.9961     7.3049     2.4912     0.1089     0.0176   -35.3465     7.4124     6.9814
  261.5000   100.8379     7.3016     2.5018     0.1040     0.0206   -35.3465     7.4454     7.1234
  262.0000    99.7781     7.2983     2.5067     0.1098     0.0233   -35.3465     7.5533     7.1763
  262.5000    99.5774     7.2949     2.4991     0.1148     0.0217   -35.3465     7.6589     7.2296
  263.0000    98.5334     7.2916     2.4925     0.1148     0.0199   -35.3465     7.7663     7.2832
  263.5000    97.0904     7.2883     2.4898     0.1139     0.0180   -35.3465     7.8710     7.3371
  264.0000    98.2939     7.2850     2.4890     0.1132     0.0175   -35.3465     7.8642     7.3762
  264.5000   103.3922     7.2817     2.4890     0.1092     0.0173   -35.3465     7.9385     7.4490
  265.0000   103.8953     7.2783     2.4980     0.0945     0.0169   -35.3472     7.9789     7.5574
  265.5000   103.9709     7.2765     2.5157     0.0792     0.0164   -35.3498     8.0053     7.6674
  266.0000   101.8542     7.2765     2.5331     0.0796     0.0160   -35.3247     8.0875     7.7956
  266.5000   102.8123     7.2765     2.5491     0.0949     0.0156   -34.9138     8.1266     7.9164
  267.0000   102.9374     7.2766     2.5345     0.1062     0.0155   -34.5439     8.2061     7.9715
  267.5000   100.1906     7.2766     2.5138     0.1147     0.0155   -34.5527     8.2864     8.0270
  268.0000    97.6113     7.2767     2.4932     0.1195     0.0155   -34.5544     8.3674     8.0875
  268.5000    98.8991     7.2736     2.4809     0.1196     0.0155   -34.5545     8.3984     8.1690
  269.0000   100.1516     7.2450     2.4841     0.1171     0.0155   -34.5545     8.4235     8.1820
  269.5000   103.0317     7.2163     2.4887     0.1152     0.0155   -34.5545     8.4487     8.1950
  270.0000   102.9163     7.1875     2.4922     0.1192     0.0155   -34.5545     8.4739     8.2079
  270.5000   101.9622     7.1589     2.4853     0.1268     0.0155   -34.5545     8.4993     8.2204
  271.0000   103.1858     7.1301     2.4764     0.1300     0.0155   -34.5545     8.5238     8.2344
  271.5000   105.2608     7.1165     2.4713     0.1273     0.0162   -34.5545     8.5472     8.3657
  272.0000   105.6738     7.1159     2.4709     0.1248     0.0173   -34.5545     8.8188     8.5137
  272.5000   102.3509     7.1504     2.4734     0.1283     0.0185   -34.5545     8.9580     8.6643
  273.0000   102.0787     7.2080     2.4731     0.1322     0.0201   -34.5545     9.0174     8.8176
  273.5000   102.6855     7.2660     2.4669     0.1336     0.0241   -34.5545     9.1370     8.9736
  274.0000   103.6466     7.3182     2.4614     0.1332     0.0280   -34.5524    10.0838     9.1324
  274.5000   105.1919     7.3131     2.4609     0.1317     0.0389   -34.5461    10.0838     9.1982
