~VERSION INFORMATION
 VERS.                2.0:   CWLS LOG ASCII STANDARD - VERSION 2.0
 WRAP.                 NO:   ONE LINE PER DEPTH STEP
~WELL INFORMATION
#MNEM.UNIT      DATA TYPE    INFORMATION
#----------   ------------   ------------------------------
 STRT.F           18.0000:   START DEPTH
 STOP.F          647.0000:   STOP DEPTH
 STEP.F            0.5000:   STEP LENGTH
 NULL.          -999.2500:   NO VALUE
 COMP. FENIX & SCISSON INC:   COMPANY
 WELL. NAVAL PETROLEUM RESERVE 3 SX-1 #82-15:   WELL
 FLD .        TEAPOT DOME:   FIELD
 LOC .      S15 T38N R78W:   LOCATION
 CNTY.            NATRONA:   COUNTY
 STAT.            WYOMING:   STATE
 CTRY. UNITED STATES OF AMERICA:   COUNTRY
 SRVC.            Unknown:   SERVICE COMPANY
 DATE.        15-MAR-1979:   LOGDATE
 API .       490251076500:   API NUMBER
~CURVE INFORMATION
#MNEM.UNIT       API CODE    CURVE DESCRIPTION
#----------   ------------   ------------------------------
 DEPT.F                  :   
 SPR .MV     05 010 01 00:   SPONTANEOUS POTENTIAL FROM RES.
 SN  .OHMM   05 040 16 00:   SHORT NORMAL 16"
 IL  .OHMM   05 120 00 00:   INDUCTION LOG
 CALD.IN     45 280 60 00:   CALIPER
 GRD .GAPI   45 310 01 00:   GAMMA RAY FROM DENSITY LOG
 RHOB.G/C3   45 350 01 00:   BULK DENSITY
 DPHI.DEC    45 890 12 00:   DENSITY POROSITY SANDSTONE
 CORR.G/C3   45 356 01 00:   DENSITY CORRECTION
~PARAMETER INFORMATION
#MNEM.UNIT          VALUE    DESCRIPTION
#----------   ------------   ------------------------------
 PD  .                 GL:   PERMANENT DATUM
 EPD .F              5249:   ELEVATION PERMANENT DATUM
 LMF .                 KB:   LOG MEASURED FROM
 DAPD.F                 4:   FEET ABOVE PERMANENT DATUM
 DMF .                 KB:   DRILLING MEASURED FROM
 EKB .F              5253:   KELLING BUSHING
 EGL .F              5249:   GROUND LEVEL
 DATE.            1-15-79:   RUN DATE
 RUN .                  1:   RUN NUMBER
 DD  .F               670:   DEPTH DRILLER
 DL  .F               647:   DEPTH LOGGER
 BLI .F               640:   BOTTOM LOG INTERVAL
 TLI .F                30:   TOP LOG INTERVAL
 CS  .IN            8.625:   CASING SIZE
 CBD .F                40:   CASING BOTTOM DRILLER
 CBL .F                34:   CASING BOTTOM LOGGER
 BS  .IN            7.875:   BIT SIZE
 BSD .F               670:   BIT SIZE AT DEPTH
 DFT .                KCL:   DRILLING FLUID TYPE
 DFD .                8.9:   DRILLING FLUID DENSITY
 DFV .                 44:   DRILLING FLUID VISCOSITY
 DFPH.                8.5:   DRILLING FLUID PH
 DFL .               14.8:   DRILLING FLUID LOSS
 MSS .           FLOWLINE:   MUD SAMPLE SOURCE
 RMS .OHMM            .26:   RESISTIVITY MUD SAMPLE
 MST .F                61:   MUD SAMPLE TEMPERATURE
 RMF .OHMM            .25:   RESISTIVITY MUD FILTRATE SAMPLE
 MFST.F                60:   MUD FILTRATE SAMPLE TEMPERATURE
 RMC .OHMM             .2:   RESISTIVITY MUD CAKE
 MCST.F                60:   MUD CAKE SAMPLE TEMPERATURE
 MFSS.           MEASURED:   MUD FILTRATE SAMPLE SOURCE
 MCSS.           MEASURED:   MUD CAKE SAMPLE SOURCE
 RMB .OHMM            .27:   RESISTIVITY MUD AT BHT
 BHT .F                58:   BOTTOM HOLE TEMPERATURE
 TCS .HRS               5:   TIME CURCULATED STOPPED
 MRT .F                58:   MAXIMUM RECORDED TEMPERATURE
 LUN .               3006:   LOGGING UNIT NUMBER
 LUL .             CASPER:   LOGGING UNIT LOCATION
 ENGI.            ROLLINS:   RECORDING ENGINEER
 WITN.              AMEND:   WITNESSED BY
 CLNT.            A2DTECH:   CLIENT CODE
 ORIG.         2.5" PRINT:   ORIGIN OF DATA
 UWI .       490251076500:   UNIQUE WELL ID
 DICO. A2D Technologies, Inc.:   DIGITIZING COMPANY
~OTHER INFORMATION
~A   DEPT      SPR         SN         IL       CALD         GRD      RHOB       DPHI       CORR   
# ...
  382.5000   -70.8030     5.3940     4.4070     8.3870   110.4360     2.4520     0.1450     0.0090
  383.0000   -70.7500     5.3690     4.7210     8.3870   111.3660     2.4500     0.1460     0.0050
  383.5000   -70.7130     5.3140     4.9180     8.3860   116.2390     2.4450     0.1470     0.0040
  384.0000   -70.6700     5.2580     5.0160     8.3850   118.4530     2.4450     0.1480     0.0110
  384.5000   -70.6290     5.2020     5.0300     8.3840   117.0150     2.4420     0.1540     0.0180
  385.0000   -70.5870     5.1460     5.0430     8.3830   117.2360     2.4330     0.1590     0.0260
  385.5000   -70.5450     5.0900     5.0560     8.3820   119.6640     2.4250     0.1610     0.0300
  386.0000   -70.5040     5.0340     5.0700     8.3810   122.2430     2.4190     0.1640     0.0270
  386.5000   -70.4620     4.9780     5.0830     8.3800   124.8670     2.4160     0.1670     0.0260
  387.0000   -70.4190     4.9220     5.0960     8.3790   126.7710     2.4130     0.1670     0.0240
  387.5000   -70.3830     4.8660     5.1030     8.3780   125.3180     2.4170     0.1650     0.0220
  388.0000   -70.3100     4.8280     5.1480     8.3780   124.0030     2.4210     0.1620     0.0220
  388.5000   -70.2090     4.9910     5.2870     8.3770   122.5470     2.4220     0.1600     0.0220
  389.0000   -70.1160     5.1650     5.4270     8.3760   121.1800     2.4240     0.1510     0.0220
  389.5000   -70.0210     5.3400     5.5660     8.3750   119.7510     2.4370     0.1420     0.0220
  390.0000   -69.9260     5.5140     5.7050     8.3740   120.5970     2.4490     0.1370     0.0220
  390.5000   -69.8320     5.6890     5.8450     8.3730   125.0070     2.4640     0.1360     0.0220
  391.0000   -69.7380     5.8640     5.9840     8.3720   125.4690     2.4660     0.1350     0.0220
  391.5000   -69.6430     5.9340     6.0850     8.3710   124.8580     2.4680     0.1320     0.0220
  392.0000   -69.5480     5.9940     6.1700     8.3700   123.9950     2.4700     0.1280     0.0220
  392.5000   -69.4560     6.0540     6.2550     8.3690   123.3550     2.4730     0.1300     0.0220
  393.0000   -69.3580     6.1140     6.3400     8.3690   127.8240     2.4720     0.1310     0.0220
  393.5000   -69.2690     6.1740     6.4250     8.3680   125.9700     2.4710     0.1330     0.0220
  394.0000   -69.1650     6.2340     6.5100     8.3670   120.7740     2.4710     0.1330     0.0220
  394.5000   -69.2140     6.2940     6.5950     8.3660   118.0850     2.4700     0.1340     0.0220
  395.0000   -69.2860     6.3530     6.6800     8.3650   120.6170     2.4690     0.1340     0.0220
  395.5000   -69.3610     6.4130     6.7650     8.3640   122.8260     2.4680     0.1360     0.0220
  396.0000   -69.4320     6.4730     6.8500     8.3630   124.2420     2.4670     0.1390     0.0220
  396.5000   -69.5060     6.5330     6.9350     8.3620   122.4330     2.4670     0.1370     0.0220
  397.0000   -69.5780     6.5930     6.9840     8.3620   120.2200     2.4670     0.1340     0.0220
  397.5000   -69.6510     6.6530     6.7650     8.3600   117.3020     2.4670     0.1330     0.0220
  398.0000   -69.7240     6.7310     6.5520     8.3680   114.7880     2.4670     0.1370     0.0220
  398.5000   -69.7970     6.5840     6.2630     8.3880   114.8510     2.4650     0.1410     0.0220
  399.0000   -69.8700     6.3720     5.9420     8.4060   115.8170     2.4560     0.1440     0.0220
  399.5000   -69.9430     6.1610     5.6200     8.4250   117.9960     2.4490     0.1450     0.0220
  400.0000   -70.0160     5.9490     5.2990     8.4400   117.8550     2.4440     0.1460     0.0230
  400.5000   -70.0890     5.7380     4.9770     8.4400   116.1010     2.4380     0.1550     0.0320
  401.0000   -70.1620     5.5260     4.7080     8.4400   114.6230     2.4270     0.1640     0.0400
  401.5000   -70.2350     5.3150     4.5880     8.4400   113.6470     2.4150     0.1680     0.0490
  402.0000   -70.3080     5.1030     4.4680     8.4400   116.0130     2.4030     0.1800     0.0540
  402.5000   -70.3810     5.0100     4.3480     8.4400   119.4380     2.3910     0.1890     0.0510
  403.0000   -70.4540     5.2650     4.3220     8.4400   120.8060     2.3800     0.1700     0.0490
  403.5000   -70.5270     5.4820     4.4790     8.4400   119.5930     2.3820     0.1540     0.0470
  404.0000   -70.6000     5.6680     4.7290     8.4400   118.7590     2.4110     0.1370     0.0450
  404.5000   -70.6720     5.8190     4.9780     8.4400   117.7370     2.4460     0.1200     0.0430
  405.0000   -70.7450     5.9700     5.2280     8.4400   116.8300     2.4800     0.1220     0.0410
  405.5000   -70.7560     6.1210     5.4770     8.4400   115.8180     2.4860     0.1270     0.0390
  406.0000   -70.7370     6.2730     5.7270     8.4400   116.3830     2.4820     0.1330     0.0380
  406.5000   -70.7210     6.4240     5.9770     8.4400   117.6000     2.4770     0.1320     0.0380
  407.0000   -70.7050     6.5750     6.2260     8.4400   118.6990     2.4760     0.1280     0.0380
  407.5000   -70.6890     6.7260     6.4760     8.4400   119.8630     2.4810     0.1240     0.0370
  408.0000   -70.6730     6.8770     6.7310     8.4400   119.9880     2.4860     0.1210     0.0310
  408.5000   -70.6570     7.0280     6.7670     8.4400   119.4950     2.4910     0.1150     0.0260
  409.0000   -70.6400     7.1200     6.8030     8.4400   119.6310     2.4950     0.1170     0.0200
  409.5000   -70.6240     7.1320     6.8390     8.4390   120.0490     2.4970     0.1240     0.0180
  410.0000   -70.6080     7.1440     6.8760     8.4490   119.9700     2.4860     0.1300     0.0190
  410.5000   -70.5920     7.1560     6.9120     8.4720   119.3580     2.4720     0.1360     0.0190
  411.0000   -70.5750     7.1680     6.9490     8.4930   118.7760     2.4660     0.1350     0.0200
  411.5000   -70.5590     7.1810     6.9840     8.5160   119.0680     2.4670     0.1330     0.0200
  412.0000   -70.5430     7.1930     6.9710     8.5370   119.7800     2.4670     0.1340     0.0210
  412.5000   -70.5270     7.2050     6.9580     8.5570   120.4820     2.4670     0.1370     0.0210
  413.0000   -70.5100     7.2170     6.9450     8.5400   121.0500     2.4670     0.1340     0.0220
  413.5000   -70.4940     7.2290     6.9310     8.5210   121.4890     2.4700     0.1290     0.0210
  414.0000   -70.4780     7.2410     6.9180     8.5010   120.6700     2.4740     0.1280     0.0140
  414.5000   -70.4620     7.2530     6.9050     8.4810   119.3200     2.4770     0.1300     0.0070
  415.0000   -70.4450     7.2650     6.8920     8.4620   119.9650     2.4760     0.1310     0.0120
  415.5000   -70.4290     7.2780     6.8790     8.4420   121.3760     2.4760     0.1320     0.0200
  416.0000   -70.4130     7.2900     6.8660     8.4230   122.8010     2.4750     0.1320     0.0260
  416.5000   -70.3970     7.3020     6.8530     8.4020   123.7940     2.4760     0.1220     0.0230
  417.0000   -70.3810     7.3140     6.8400     8.4000   123.2440     2.4850     0.1170     0.0210
  417.5000   -70.3640     7.3270     6.8270     8.4000   119.8060     2.4940     0.1210     0.0180
  418.0000   -70.3630     7.3380     6.8140     8.4000   116.7910     2.4890     0.1250     0.0200
  418.5000   -70.3630     7.3500     6.8000     8.4000   113.8300     2.4820     0.1280     0.0240
  419.0000   -70.3630     7.3630     6.7870     8.4000   115.4700     2.4790     0.1290     0.0270
  419.5000   -70.3630     7.3820     6.7740     8.4000   118.5280     2.4800     0.1270     0.0300
  420.0000   -70.3630     7.3290     6.7610     8.4000   121.6180     2.4800     0.1260     0.0300
  420.5000   -70.3630     7.2050     6.7480     8.4000   123.4260     2.4800     0.1250     0.0290
  421.0000   -70.3630     7.0800     6.7350     8.4000   122.6670     2.4810     0.1280     0.0290
  421.5000   -70.3630     6.9560     6.6080     8.4000   122.8220     2.4770     0.1320     0.0280
  422.0000   -70.3630     6.8310     6.6080     8.4000   125.7910     2.4720     0.1360     0.0280
  422.5000   -70.3630     6.7070     6.3500     8.4000   129.8290     2.4670     0.1350     0.0270
