~VERSION INFORMATION
 VERS.                2.0:   CWLS LOG ASCII STANDARD - VERSION 2.0
 WRAP.                 NO:   ONE LINE PER DEPTH STEP
~WELL INFORMATION
#MNEM.UNIT      DATA TYPE    INFORMATION
#----------   ------------   ------------------------------
 STRT.F            2.0000:   START DEPTH
 STOP.F          560.0000:   STOP DEPTH
 STEP.F            0.1000:   STEP LENGTH
 NULL.          -999.2500:   NO VALUE
 COMP.       F D SERV INC:   COMPANY
 WELL. NAVAL PETROLEUM RESERVE 3 SX-3 #88-3:   WELL
 FLD .             NPR #3:   FIELD
 LOC .       S3 T38N R78W:   LOCATION
 CNTY.            NATRONA:   COUNTY
 STAT.            WYOMING:   STATE
 CTRY. UNITED STATES OF AMERICA:   COUNTRY
 SRVC.      Western Atlas:   SERVICE COMPANY
 DATE.        30-OCT-1992:   LOGDATE
 API .       490252254900:   API NUMBER
~CURVE INFORMATION
#MNEM.UNIT       API CODE    CURVE DESCRIPTION
#----------   ------------   ------------------------------
 DEPT.F                  :   
 GRR .GAPI   07 310 01 00:   GAMMA RAY
 RILD.OHMM   07 120 46 00:   INDUCTION LOG DEEP RESISTIVITY
 RILM.OHMM   07 120 44 00:   INDUCTION LOG MEDIUM RESISTIVITY
~PARAMETER INFORMATION
#MNEM.UNIT          VALUE    DESCRIPTION
#----------   ------------   ------------------------------
 PD  .                 GL:   PERMANENT DATUM
 EPD .F              5131:   ELEVATION PERMANENT DATUM
 LMF .                 KB:   LOG MEASURED FROM
 DAPD.F                10:   FEET ABOVE PERMANENT DATUM
 DMF .                 KB:   DRILLING MEASURED FROM
 EKB .F              5141:   KELLING BUSHING
 EDF .F              5140:   DRILLING FLOOR
 EGL .F              5131:   GROUND LEVEL
 DATE.        30-OCT-1992:   RUN DATE
 RUN .                  1:   RUN NUMBER
 DD  .F               568:   DEPTH DRILLER
 DL  .F               568:   DEPTH LOGGER
 BLI .F               560:   BOTTOM LOG INTERVAL
 CS  .IN            8.625:   CASING SIZE
 CBD .F                73:   CASING BOTTOM DRILLER
 CBL .F                73:   CASING BOTTOM LOGGER
 BS  .IN            7.875:   BIT SIZE
 BSD .F               568:   BIT SIZE AT DEPTH
 DFT .           AIR FOAM:   DRILLING FLUID TYPE
 BHT .F                63:   BOTTOM HOLE TEMPERATURE
 TCS .HRS               2:   TIME CURCULATED STOPPED
 MRT .F                63:   MAXIMUM RECORDED TEMPERATURE
 LUN .            HL-6274:   LOGGING UNIT NUMBER
 LUL .             CASPER:   LOGGING UNIT LOCATION
 ENGI.             RAUTIO:   RECORDING ENGINEER
 WITN.          BOB SYLAR:   WITNESSED BY
 CLNT.            A2DTECH:   CLIENT CODE
 ORIG.           5" PRINT:   ORIGIN OF DATA
 UWI .       490252254900:   UNIQUE WELL ID
 DICO. A2D Technologies, Inc.:   DIGITIZING COMPANY
~OTHER INFORMATION
~A    DEPT      GRR      RILD       RILM   
# ...
  293.2000   146.9879     7.5886     7.4773
  293.3000   146.9335     7.5890     7.4779
  293.4000   146.6868     7.5894     7.4783
  293.5000   146.6868     7.5899     7.4788
  293.6000   146.4595     7.5903     7.4793
  293.7000   146.3855     7.5907     7.4798
  293.8000   146.3855     7.5911     7.4804
  293.9000   146.1875     7.5956     7.4809
  294.0000   145.7831     7.6447     7.4815
  294.1000   145.7562     7.6451     7.4819
  294.2000   145.1807     7.6455     7.4824
  294.3000   144.4935     7.6459     7.4609
  294.4000   142.9730     7.6274     7.4319
  294.5000   141.0200     7.5941     7.4324
  294.6000   139.7590     7.5906     7.4329
  294.7000   139.7590     7.5426     7.4335
  294.8000   139.7590     7.5429     7.4339
  294.9000   139.7590     7.5434     7.4344
  295.0000   139.7590     7.5178     7.4127
  295.1000   139.9472     7.4922     7.3842
  295.2000   140.2056     7.4816     7.3771
  295.3000   140.4640     7.4377     7.3339
  295.4000   140.7225     7.3905     7.2843
  295.5000   140.9810     7.3908     7.2484
  295.6000   141.2651     7.3586     7.2060
  295.7000   141.4978     7.3155     7.1638
  295.8000   141.7562     7.2727     7.1219
  295.9000   141.8675     7.2301     7.0802
  296.0000   141.9719     7.1910     7.0381
  296.1000   142.1687     7.1915     6.9432
  296.2000   142.1687     7.1532     6.9087
  296.3000   142.1687     7.0801     6.8405
  296.4000   142.1687     7.0209     6.7603
  296.5000   142.1687     6.9630     6.6671
  296.6000   142.1687     6.8813     6.5497
  296.7000   142.1687     6.8034     6.4343
  296.8000   142.1687     6.7599     6.3052
  296.9000   142.1687     6.6524     6.2103
  297.0000   142.1687     6.5641     6.1011
  297.1000   142.1687     6.4653     6.0124
  297.2000   142.1687     6.3667     5.9418
  297.3000   142.3195     6.2920     5.8788
  297.4000   142.5779     6.2156     5.8444
  297.5000   142.7711     6.0958     5.8056
  297.6000   142.7936     5.9992     5.7467
  297.7000   143.0723     5.9195     5.7028
  297.8000   143.3104     5.8500     5.6695
  297.9000   143.9596     5.7950     5.6241
  298.0000   144.7350     5.7611     5.5581
  298.1000   145.4004     5.7296     5.4940
  298.2000   146.0512     5.7299     5.4577
  298.3000   147.0609     5.7302     5.4299
  298.4000   147.8916     5.7305     5.4207
  298.5000   148.6114     5.7309     5.4211
  298.6000   149.5838     5.7312     5.4215
  298.7000   150.6176     5.7237     5.4219
  298.8000   151.4281     5.6923     5.4222
  298.9000   152.0827     5.6926     5.4227
  299.0000   153.0643     5.6929     5.4230
  299.1000   153.6145     5.6688     5.4464
  299.2000   154.0980     5.6543     5.4792
  299.3000   154.6149     5.6546     5.5122
  299.4000   155.1317     5.6549     5.5454
  299.5000   155.8754     5.6552     5.5805
  299.6000   156.7679     5.6556     5.6553
  299.7000   157.2848     5.6261     5.7155
  299.8000   157.8313     5.6172     5.7348
  299.9000   158.3185     5.6175     5.7508
  300.0000   158.4337     5.6178     5.7794
  300.1000   158.5918     5.6107     5.8079
  300.2000   158.6197     5.5793     5.8365
  300.3000   158.2888     5.5732     5.9256
  300.4000   157.7718     5.5670     5.9798
  300.5000   157.2289     5.5609     5.9997
  300.6000   156.2472     5.5547     6.0218
  300.7000   155.2137     5.5486     6.0274
  300.8000   154.4996     5.5424     6.0641
  300.9000   153.9828     5.5427     6.0644
  301.0000   153.3916     5.5174     6.0390
  301.1000   152.5850     5.5049     6.0230
  301.2000   151.5060     5.5051     6.0121
  301.3000   151.0116     5.5053     5.9740
  301.4000   150.6992     5.5056     5.9001
  301.5000   150.2791     5.5058     5.8696
  301.6000   149.7623     5.5060     5.7898
  301.7000   149.3976     5.5062     5.7235
  301.8000   149.3976     5.5065     5.6910
  301.9000   149.3976     5.5067     5.6537
  302.0000   149.3976     5.5069     5.5452
  302.1000   149.6038     5.5454     5.4904
  302.2000   149.8623     5.5456     5.4487
  302.3000   150.0000     5.5459     5.4037
  302.4000   150.0779     5.5461     5.3499
  302.5000   150.3363     5.5463     5.3208
  302.6000   150.6024     5.5466     5.3210
  302.7000   150.9036     5.5789     5.2959
  302.8000   151.1116     5.5855     5.2847
  302.9000   151.3701     5.5858     5.2976
  303.0000   151.6285     5.5989     5.3219
  303.1000   151.8072     5.6315     5.3221
  303.2000   151.8811     5.6643     5.3530
  303.3000   152.4096     5.6645     5.3595
  303.4000   152.4096     5.6648     5.3778
  303.5000   152.6195     5.6847     5.4089
  303.6000   152.8779     5.7046     5.4402
  303.7000   153.0121     5.7048     5.4728
  303.8000   153.0936     5.7051     5.5033
  303.9000   153.3132     5.7054     5.5113
  304.0000   153.0121     5.7320     5.5289
  304.1000   151.5060     5.7454     5.5500
  304.2000   149.6011     5.7456     5.5545
  304.3000   148.4024     5.7525     5.5890
  304.4000   147.8013     5.7860     5.6189
  304.5000   147.2001     5.7863     5.6515
  304.6000   146.5990     5.7865     5.6842
  304.7000   145.9532     5.8068     5.7270
  304.8000   144.2191     5.8272     5.7901
  304.9000   144.0064     5.8274     5.8274
  305.0000   143.9157     5.8276     5.8872
  305.1000   144.1337     5.8684     5.9091
  305.2000   144.6329     5.8686     5.9414
  305.3000   145.1322     5.8892     6.0101
  305.4000   145.7179     5.9373     6.0776
  305.5000   145.9237     6.0134     6.1182
  305.6000   146.1727     6.1184     6.1782
  305.7000   146.3169     6.2256     6.2267
  305.8000   146.2618     6.3346     6.2941
  305.9000   146.0104     6.4681     6.4034
  306.0000   145.7106     6.6037     6.5139
  306.1000   145.3056     6.7112     6.6037
  306.2000   144.8040     6.7893     6.6656
  306.3000   144.5024     6.8843     6.7194
  306.4000   144.5012     6.9164     6.7583
  306.5000   144.5000     6.9566     6.8047
  306.6000   144.4988     6.9810     6.8851
  306.7000   144.4976     6.9813     6.9240
  306.8000   144.4964     6.9816     6.9641
  306.9000   144.5903     7.0223     6.9819
  307.0000   144.8393     7.0306     6.9964
  307.1000   145.0952     7.0309     7.0309
  307.2000   145.0940     7.0312     7.0313
  307.3000   145.0928     7.0315     7.0315
  307.4000   145.0916     7.0318     7.0318
  307.5000   145.0904     7.0322     7.0321
  307.6000   145.0498     7.0001     7.0197
  307.7000   144.7867     6.9842     6.9799
  307.8000   144.5470     6.9845     6.9364
  307.9000   144.2955     6.9848     6.9010
  308.0000   144.0441     6.9851     6.8618
  308.1000   143.6216     6.9452     6.8041
  308.2000   142.9044     6.9056     6.7374
  308.3000   142.3698     6.8899     6.6992
  308.4000   141.9012     6.8586     6.6559
  308.5000   141.0342     6.7880     6.6234
  308.6000   140.1640     6.7492     6.5859
  308.7000   139.4928     6.6722     6.5319
  308.8000   138.9911     6.5658     6.4577
  308.9000   138.4469     6.4535     6.3832
  309.0000   138.2169     6.3431     6.2556
  309.1000   137.9655     6.2203     6.1395
  309.2000   137.7141     6.0433     6.0007
  309.3000   137.5386     5.9061     5.8649
  309.4000   137.5374     5.7983     5.7385
  309.5000   137.5360     5.6797     5.6400
  309.6000   137.5349     5.5757     5.5765
  309.7000   137.7069     5.5119     5.5133
  309.8000   138.0780     5.4489     5.4507
  309.9000   138.5771     5.3867     5.3888
  310.0000   139.0562     5.3252     5.3325
  310.1000   139.3360     5.2825     5.3008
  310.2000   139.9929     5.2523     5.2435
  310.3000   141.0789     5.2223     5.1840
  310.4000   142.2113     5.1925     5.1409
  310.5000   143.2109     5.1570     5.1214
  310.6000   144.2257     5.1571     5.1216
  310.7000   145.6540     5.1396     5.1218
  310.8000   147.5828     5.1220     5.0952
  310.9000   149.5065     5.1222     5.0869
  311.0000   151.1444     5.1224     5.0871
  311.1000   152.5217     5.1227     5.0873
  311.2000   153.5212     5.1228     5.0875
  311.3000   154.6829     5.1231     5.0878
