~VERSION INFORMATION
 VERS.                2.0:   CWLS LOG ASCII STANDARD - VERSION 2.0
 WRAP.                 NO:   ONE LINE PER DEPTH STEP
~WELL INFORMATION
#MNEM.UNIT      DATA TYPE    INFORMATION
#----------   ------------   ------------------------------
 STRT.F           19.5000:   START DEPTH
 STOP.F          635.0000:   STOP DEPTH
 STEP.F            0.5000:   STEP LENGTH
 NULL.          -999.2500:   NO VALUE
 COMP. FENIX & SCISSON INC:   COMPANY
 WELL. NPR-3 68-S-34 #3-34:   WELL
 FLD .  TEAPOT DOME NPR-3:   FIELD
 LOC .      S34 T39N R78W:   LOCATION
 CNTY.            NATRONA:   COUNTY
 STAT.            WYOMING:   STATE
 CTRY. UNITED STATES OF AMERICA:   COUNTRY
 SRVC.           BIRDWELL:   SERVICE COMPANY
 DATE.        01-AUG-1978:   LOGDATE
 API .       490251070600:   API NUMBER
~CURVE INFORMATION
#MNEM.UNIT       API CODE    CURVE DESCRIPTION
#----------   ------------   ------------------------------
 DEPT.F                  :   
 SPR .MV     05 010 01 00:   SPONTANEOUS POTENTIAL
 SN  .OHMM   05 040 16 00:   SHORT NORMAL 16'
 ILD .OHMM   05 120 46 00:   INDUCTION LOG DEEP RESISTIVITY
 GRD .GAPI   45 310 01 00:   GAMMA RAY FROM DENSITY LOG
 CALD.IN     45 280 60 00:   CALIPER
 RHOB.G/C3   45 350 01 00:   BULK DENSITY
 DPHI.DEC    45 890 12 00:   DENSITY POROSITY SANDSTONE
 CORR.G/C3   45 356 01 00:   DENSITY CORRECTION
~PARAMETER INFORMATION
#MNEM.UNIT          VALUE    DESCRIPTION
#----------   ------------   ------------------------------
 PD  .                 GL:   PERMANENT DATUM
 EPD .F              5100:   ELEVATION PERMANENT DATUM
 LMF .                 KB:   LOG MEASURED FROM
 DAPD.F                 4:   FEET ABOVE PERMANENT DATUM
 DMF .                 KB:   DRILLING MEASURED FROM
 EKB .F              5104:   KELLING BUSHING
 EGL .F              5100:   GROUND LEVEL
 DATE.           9-1-1978:   RUN DATE
 RUN .                  1:   RUN NUMBER
 DD  .F               635:   DEPTH DRILLER
 DL  .F               635:   DEPTH LOGGER
 BLI .F               629:   BOTTOM LOG INTERVAL
 TLI .F                40:   TOP LOG INTERVAL
 CS  .IN            8.625:   CASING SIZE
 CBD .F                40:   CASING BOTTOM DRILLER
 CBL .F                40:   CASING BOTTOM LOGGER
 BS  .IN            7.875:   BIT SIZE
 BSD .F               635:   BIT SIZE AT DEPTH
 DFT .                KCL:   DRILLING FLUID TYPE
 DFD .                8.6:   DRILLING FLUID DENSITY
 DFV .                 32:   DRILLING FLUID VISCOSITY
 DFPH.                  9:   DRILLING FLUID PH
 DFL .                  7:   DRILLING FLUID LOSS
 MSS .          FLOW LINE:   MUD SAMPLE SOURCE
 RMS .OHMM             .4:   RESISTIVITY MUD SAMPLE
 MST .F                76:   MUD SAMPLE TEMPERATURE
 RMF .OHMM             .3:   RESISTIVITY MUD FILTRATE SAMPLE
 MFST.F                80:   MUD FILTRATE SAMPLE TEMPERATURE
 RMC .OHMM             .4:   RESISTIVITY MUD CAKE
 MCST.F                80:   MUD CAKE SAMPLE TEMPERATURE
 MFSS.               MEAS:   MUD FILTRATE SAMPLE SOURCE
 MCSS.               MEAS:   MUD CAKE SAMPLE SOURCE
 RMB .OHMM            .43:   RESISTIVITY MUD AT BHT
 BHT .F                70:   BOTTOM HOLE TEMPERATURE
 TCS .HRS               3:   TIME CURCULATED STOPPED
 MRT .F                70:   MAXIMUM RECORDED TEMPERATURE
 LUN .               2958:   LOGGING UNIT NUMBER
 LUL .               CASP:   LOGGING UNIT LOCATION
 ENGI.            POINTER:   RECORDING ENGINEER
 WITN.           MCGINLEY:   WITNESSED BY
 CLNT.            A2DTECH:   CLIENT CODE
 ORIG.           5" PRINT:   ORIGIN OF DATA
 UWI .       490251070600:   UNIQUE WELL ID
 DICO. A2D Technologies, Inc.:   DIGITIZING COMPANY
~OTHER INFORMATION
~A   DEPT      SPR         SN        ILD         GRD      CALD       RHOB       DPHI       CORR   
# ...
  465.0000   -17.4575     9.0961     8.8093   101.6039     7.1893     2.5170     0.1011     0.0364
  465.5000   -17.2674     9.1295     8.7395   103.4662     7.1792     2.5143     0.1060     0.0350
  466.0000   -17.0871     9.1630     8.7039   103.9501     7.1706     2.5081     0.1114     0.0336
  466.5000   -16.9048     9.1981     8.8957   103.7495     7.1815     2.4973     0.1132     0.0337
  467.0000   -16.7321     9.6251     9.1135   103.4952     7.1927     2.4950     0.1132     0.0341
  467.5000   -16.1002    10.0850     9.6611   101.7234     7.2038     2.4949     0.1179     0.0344
  468.0000   -15.2794    10.6715    10.4751    99.6758     7.2148     2.4881     0.1181     0.0348
  468.5000   -14.4477    11.2779    11.3577    97.4567     7.2258     2.4848     0.1168     0.0352
  469.0000   -13.6168    11.9175    12.3146    87.7230     7.2388     2.4843     0.1424     0.0353
  469.5000   -12.7802    12.5933    13.4705    73.5144     7.2528     2.4729     0.1677     0.0312
  470.0000   -11.9180    13.3075    15.3589    63.6822     7.2668     2.4214     0.1933     0.0275
  470.5000   -11.6623    14.0622    17.5120    65.7579     7.2807     2.3706     0.2129     0.0303
  471.0000   -11.3695    14.4379    19.9669    67.8534     7.2901     2.3249     0.2219     0.0333
  471.5000   -10.7286    14.7533    21.8250    66.7522     7.2900     2.3122     0.2322     0.0305
  472.0000   -10.0830    15.0762    21.7128    64.7357     7.2900     2.2993     0.2431     0.0273
  472.5000    -9.8125    15.4074    21.5936    62.7123     7.2900     2.2862     0.2450     0.0255
  473.0000    -9.7089    15.7254    21.4751    60.6730     7.2900     2.2744     0.2389     0.0254
  473.5000    -9.6080    16.0401    21.3572    58.9510     7.2900     2.2748     0.2321     0.0287
  474.0000    -9.5065    16.3604    21.2314    60.1602     7.2900     2.2896     0.2345     0.0258
  474.5000    -9.4047    16.6872    22.8129    62.2431     7.2900     2.2941     0.2450     0.0205
  475.0000    -9.3030    17.0206    24.0061    64.7064     7.2900     2.2706     0.2526     0.0215
  475.5000    -9.2012    17.3606    24.5954    67.8008     7.2900     2.2615     0.2506     0.0239
  476.0000    -9.0994    17.7075    25.4227    68.1648     7.2900     2.2649     0.2506     0.0260
  476.5000    -8.9974    18.0612    26.2384    62.7861     7.2900     2.2627     0.2519     0.0302
  477.0000    -8.8963    18.2123    26.9983    58.9829     7.2900     2.2603     0.2501     0.0417
  477.5000    -8.8511    18.2848    27.2198    55.1469     7.2900     2.2644     0.2457     0.0531
  478.0000    -8.8154    18.3276    27.2099    53.5249     7.2900     2.2700     0.2414     0.0542
  478.5000    -8.7797    17.9541    26.3181    54.3521     7.2900     2.2775     0.2371     0.0502
  479.0000    -8.7447    17.6943    25.4759    58.4404     7.2900     2.2850     0.2319     0.0447
  479.5000    -8.7082    17.4383    24.6605    61.1084     7.2900     2.2926     0.2267     0.0392
  480.0000    -8.6180    17.1859    23.8713    61.9855     7.2900     2.3001     0.2247     0.0336
  480.5000    -8.3465    16.9372    23.1073    62.8744     7.2900     2.3051     0.2358     0.0281
  481.0000    -8.0914    16.6921    22.3678    64.4712     7.2900     2.2938     0.2406     0.0230
  481.5000    -8.0531    16.5651    21.6520    66.3696     7.2900     2.2816     0.2380     0.0217
  482.0000    -8.0249    16.5651    20.9590    65.7592     7.2900     2.2738     0.2283     0.0296
  482.5000    -7.9954    16.5651    20.6539    64.2224     7.2900     2.2975     0.2130     0.0373
  483.0000    -7.9658    16.5651    21.1803    63.0872     7.2900     2.3317     0.1978     0.0375
  483.5000    -7.9361    16.5651    21.5769    64.1459     7.2900     2.3560     0.1941     0.0353
  484.0000    -7.9065    16.5111    22.0265    69.0882     7.2900     2.3530     0.1957     0.0323
  484.5000    -7.8768    16.3154    21.4596    69.3150     7.2900     2.3526     0.1961     0.0292
  485.0000    -7.8472    16.1219    20.8387    69.2986     7.2900     2.3534     0.1947     0.0260
  485.5000    -7.8175    15.9671    20.4649    70.7209     7.2900     2.3541     0.1957     0.0247
  486.0000    -7.7878    15.9916    20.8561    78.1887     7.2900     2.3541     0.2022     0.0238
  486.5000    -7.7580    16.0123    21.2521    80.8308     7.2900     2.3453     0.2152     0.0228
  487.0000    -7.7285    16.0329    21.7305    81.3064     7.2900     2.3259     0.2283     0.0219
  487.5000    -7.6987    16.0536    22.2197    81.0691     7.2900     2.3070     0.2347     0.0227
  488.0000    -7.7749    16.0743    22.6091    80.6940     7.2899     2.2877     0.2366     0.0250
  488.5000    -7.9466    16.0950    22.8515    76.0637     7.2906     2.2876     0.2289     0.0273
  489.0000    -8.1156    16.1145    22.8515    71.8633     7.3107     2.2930     0.2150     0.0294
  489.5000    -8.3160    15.7755    22.2146    71.1952     7.3314     2.3113     0.2011     0.0292
  490.0000    -9.0891    15.4593    21.5037    70.6395     7.3521     2.3355     0.1872     0.0288
  490.5000    -9.4322    15.1507    20.8155    71.6913     7.3727     2.3600     0.1751     0.0284
  491.0000    -9.7538    14.8486    20.1493    74.5981     7.3904     2.3851     0.1759     0.0280
  491.5000    -9.8643    14.5526    19.3694    75.3896     7.3890     2.3893     0.1769     0.0276
  492.0000    -9.8432    14.2624    18.5438    79.5729     7.3880     2.3871     0.1761     0.0270
  492.5000    -9.8193    13.9780    17.7534    79.7734     7.3871     2.3860     0.1715     0.0262
  493.0000    -9.7954    13.6992    16.9967    79.8213     7.3862     2.3905     0.1715     0.0255
  493.5000    -9.7718    13.5007    16.4082    79.8917     7.3853     2.3949     0.1715     0.0247
  494.0000    -9.7482    13.4204    16.3577    79.5490     7.3844     2.3948     0.1718     0.0240
  494.5000    -9.7246    13.3406    16.3008    79.0609     7.3835     2.3944     0.1713     0.0234
  495.0000    -9.7010    13.2613    16.2637    78.5615     7.3825     2.3945     0.1702     0.0230
  495.5000    -9.6775    13.1825    16.2632    78.1600     7.3816     2.3970     0.1705     0.0226
  496.0000    -9.6539    13.1570    16.2633    79.4998     7.3807     2.3989     0.1727     0.0223
  496.5000    -9.6303    13.1476    16.2633    80.5141     7.3798     2.3944     0.1773     0.0219
  497.0000    -9.6067    13.1383    16.2635    80.3986     7.3789     2.3863     0.1846     0.0215
  497.5000    -9.5831    13.1290    16.2657    80.3063     7.3780     2.3746     0.1909     0.0222
  498.0000    -9.5595    13.1197    16.2612    80.4568     7.3771     2.3628     0.1924     0.0233
  498.5000    -9.5357    13.1103    16.6477    80.9056     7.3762     2.3582     0.1935     0.0243
  499.0000    -9.5128    13.1011    16.7996    81.2143     7.3752     2.3594     0.1925     0.0254
  499.5000    -9.4856    13.0917    16.9029    79.1828     7.3743     2.3610     0.1915     0.0231
  500.0000    -9.6765    13.0824    17.0068    77.1054     7.3734     2.3628     0.1933     0.0202
  500.5000    -9.9595    13.0732    17.1114    76.4435     7.3725     2.3591     0.1967     0.0174
  501.0000   -10.2462    13.0639    17.2167    77.0619     7.3716     2.3533     0.1957     0.0159
  501.5000   -10.4909    13.0548    17.3442    77.6555     7.3707     2.3549     0.1938     0.0172
  502.0000   -10.5185    13.0460    17.1995    76.7727     7.3698     2.3585     0.1931     0.0184
  502.5000   -10.5510    12.9709    17.0195    75.8175     7.3689     2.3598     0.1931     0.0197
  503.0000   -10.5838    12.8838    16.8414    75.3147     7.3679     2.3606     0.1905     0.0209
  503.5000   -10.6167    12.7970    16.7101    76.3735     7.3670     2.3633     0.1865     0.0222
  504.0000   -10.6496    12.7101    16.6838    76.2760     7.3661     2.3707     0.1825     0.0235
  504.5000   -10.6825    12.6375    16.6575    73.2953     7.3652     2.3779     0.1815     0.0247
  505.0000   -10.7154    12.5684    16.6312    70.3109     7.3643     2.3797     0.1810     0.0254
