~VERSION INFORMATION
 VERS.                2.0:   CWLS LOG ASCII STANDARD - VERSION 2.0
 WRAP.                 NO:   ONE LINE PER DEPTH STEP
~WELL INFORMATION
#MNEM.UNIT      DATA TYPE    INFORMATION
#----------   ------------   ------------------------------
 STRT.F            0.0000:   START DEPTH
 STOP.F          545.0000:   STOP DEPTH
 STEP.F            0.1000:   STEP LENGTH
 NULL.          -999.2500:   NO VALUE
 COMP.       F D SERV INC:   COMPANY
 WELL. NAVAL PETROLEUM RESERVE 3 SX-3 #88-5-3:   WELL
 FLD .             TEAPOT:   FIELD
 LOC .       S3 T38N R78W:   LOCATION
 CNTY.            NATRONA:   COUNTY
 STAT.            WYOMING:   STATE
 CTRY. UNITED STATES OF AMERICA:   COUNTRY
 SRVC.     Atlas Wireline:   SERVICE COMPANY
 DATE.        14-OCT-1992:   LOGDATE
 API .       490252255700:   API NUMBER
~CURVE INFORMATION
#MNEM.UNIT       API CODE    CURVE DESCRIPTION
#----------   ------------   ------------------------------
 DEPT.F                  :   
 GRR .GAPI   07 310 01 00:   GAMMA RAY
 RILD.OHMM   07 120 46 00:   INDUCTION LOG DEEP RESISTIVITY
 RILM.OHMM   07 120 44 00:   INDUCTION LOG MEDIUM RESISTIVITY
~PARAMETER INFORMATION
#MNEM.UNIT          VALUE    DESCRIPTION
#----------   ------------   ------------------------------
 PD  .                 GL:   PERMANENT DATUM
 EPD .F              5152:   ELEVATION PERMANENT DATUM
 LMF .                 KB:   LOG MEASURED FROM
 DAPD.F                10:   FEET ABOVE PERMANENT DATUM
 DMF .                 KB:   DRILLING MEASURED FROM
 EKB .F              5162:   KELLING BUSHING
 EDF .F              5161:   DRILLING FLOOR
 EGL .F              5152:   GROUND LEVEL
 DATE.        14-OCT-1992:   RUN DATE
 RUN .                  1:   RUN NUMBER
 DD  .F               555:   DEPTH DRILLER
 DL  .F               552:   DEPTH LOGGER
 BLI .F               546:   BOTTOM LOG INTERVAL
 CS  .IN            8.625:   CASING SIZE
 CBD .F                85:   CASING BOTTOM DRILLER
 CBL .F                96:   CASING BOTTOM LOGGER
 BS  .IN            7.875:   BIT SIZE
 BSD .F               555:   BIT SIZE AT DEPTH
 DFT .           AIR FOAM:   DRILLING FLUID TYPE
 BHT .F                72:   BOTTOM HOLE TEMPERATURE
 TCS .HRS               2:   TIME CURCULATED STOPPED
 MRT .F                72:   MAXIMUM RECORDED TEMPERATURE
 LUN .            HL-6274:   LOGGING UNIT NUMBER
 LUL .             CASPER:   LOGGING UNIT LOCATION
 ENGI.             RAUTIO:   RECORDING ENGINEER
 WITN.        GARY STRONG:   WITNESSED BY
 CLNT.            A2DTECH:   CLIENT CODE
 ORIG.           5" PRINT:   ORIGIN OF DATA
 UWI .       490252255700:   UNIQUE WELL ID
 DICO. A2D Technologies, Inc.:   DIGITIZING COMPANY
~OTHER INFORMATION
~A    DEPT      GRR      RILD       RILM   
# ...
   91.0000    87.1953  -999.2500  -999.2500
   91.1000    87.1939  -999.2500  -999.2500
   91.2000    87.4234  -999.2500  -999.2500
   91.3000    87.6767  -999.2500  -999.2500
   91.4000    87.9299  -999.2500  -999.2500
   91.5000    88.1832  -999.2500  -999.2500
   91.6000    88.4837  -999.2500  -999.2500
   91.7000    88.9900  -999.2500  -999.2500
   91.8000    89.2875  -999.2500  -999.2500
   91.9000    89.4965  -999.2500  -999.2500
   92.0000    89.9139  -999.2500  -999.2500
   92.1000    90.3033  -999.2500  -999.2500
   92.2000    90.5566  -999.2500  -999.2500
   92.3000    90.7833  -999.2500  -999.2500
   92.4000    90.7819  -999.2500  -999.2500
   92.5000    91.0160  -999.2500  -999.2500
   92.6000    90.8905  -999.2500  -999.2500
   92.7000    90.7784  -999.2500  -999.2500
   92.8000    90.5818  -999.2500  -999.2500
   92.9000    90.0717  -999.2500  -999.2500
   93.0000    89.5616  -999.2500  -999.2500
   93.1000    88.9716  -999.2500  -999.2500
   93.2000    88.5413  -999.2500  -999.2500
   93.3000    88.2000  -999.2500  -999.2500
   93.4000    87.9443  -999.2500  -999.2500
   93.5000    87.6116  -999.2500  -999.2500
   93.6000    87.1327  -999.2500  -999.2500
   93.7000    86.8624  -999.2500  -999.2500
   93.8000    86.6214  -999.2500  -999.2500
   93.9000    86.1718  -999.2500  -999.2500
   94.0000    85.8098  -999.2500  -999.2500
   94.1000    85.4519  -999.2500  -999.2500
   94.2000    84.8853  -999.2500  -999.2500
   94.3000    84.1313  -999.2500  -999.2500
   94.4000    83.5506  -999.2500  -999.2500
   94.5000    83.5495  -999.2500  -999.2500
   94.6000    83.3750  -999.2500  -999.2500
   94.7000    83.2468  -999.2500  -999.2500
   94.8000    83.2456  -999.2500  -999.2500
   94.9000    83.2444  -999.2500  -999.2500
   95.0000    83.2432  -999.2500  -999.2500
   95.1000    83.2420  -999.2500  -999.2500
   95.2000    83.2408  -999.2500  -999.2500
   95.3000    83.3924  -999.2500  -999.2500
   95.4000    83.7525  -999.2500  -999.2500
   95.5000    84.3824  -999.2500  -999.2500
   95.6000    85.3990  -999.2500  -999.2500
   95.7000    86.5380  -999.2500  -999.2500
   95.8000    88.3275  -999.2500  -999.2500
   95.9000    91.0738  -999.2500  -999.2500
   96.0000    93.8618  9891.1064  9885.6318
   96.1000    96.5777  9891.1064  9885.7695
   96.2000    99.5894  9891.1064  9885.9082
   96.3000   102.4468  9891.1064  9886.0674
   96.4000   105.4343  9891.1064  9886.1797
   96.5000   108.2834  9891.1064  9886.3164
   96.6000   110.9238  9891.1064  6503.4160
   96.7000   113.2441  9891.1064  1626.5765
   96.8000   115.5412  3806.4409   685.4037
   96.9000   118.5735    34.3482     7.3899
   97.0000   121.6575     7.2129     4.9578
   97.1000   123.2555     5.3264     4.4706
   97.2000   124.8529     4.4094     4.1684
   97.3000   126.1049     3.5967     3.9864
   97.4000   127.0306     2.9947     3.8245
   97.5000   127.7477     2.5824     3.7334
   97.6000   128.2570     2.2940     3.8456
   97.7000   128.5559     2.0504     4.1133
   97.8000   128.7628     1.7979     4.2658
   97.9000   128.8540     1.7325     4.4286
   98.0000   128.9690     1.7031     4.6668
   98.1000   129.1519     1.6969     5.0181
   98.2000   129.1508     1.6969     5.4911
   98.3000   129.1495     1.6969     6.1295
   98.4000   129.1484     1.6969     6.6773
   98.5000   129.1472     1.6997     7.0442
   98.6000   129.1460     1.7205     7.4772
   98.7000   129.1447     1.7811     8.0769
   98.8000   129.1436     1.8792     8.6971
   98.9000   129.1423     2.0063     9.1203
   99.0000   129.1409     2.1612     9.3820
   99.1000   129.5647     2.3435     9.5041
   99.2000   129.9059     2.5383     9.6611
   99.3000   130.2799     2.7928     9.8799
   99.4000   130.7876     3.1632    10.1905
   99.5000   131.3243     3.4773    10.6443
   99.6000   132.1369     4.1309    11.2105
   99.7000   132.6110     5.3657    11.7555
   99.8000   133.3105     6.9676    12.3638
   99.9000   134.3645     8.2203    13.3786
  100.0000   135.7424     8.5681    14.0726
  100.1000   137.2850     8.8698    14.8378
  100.2000   138.7684     9.0032    15.3640
  100.3000   139.3393     9.0920    15.1750
  100.4000   139.5692     8.7527    14.2954
  100.5000   139.6396     8.0374    13.4356
  100.6000   139.6396     7.3560    12.8376
  100.7000   139.7415     6.7680    12.1853
  100.8000   139.9992     6.4071    11.6362
  100.9000   140.2402     6.3430    11.1311
  101.0000   139.9399     6.2681    10.5943
  101.1000   139.7083     6.2322    10.0570
  101.2000   139.6396     6.2192     9.6393
  101.3000   139.4933     6.1893     9.3117
  101.4000   138.8209     6.1893     9.2213
  101.5000   137.1051     6.1893     9.0770
  101.6000   134.0500     6.1893     8.9426
  101.7000   131.2312     6.1638     8.9432
  101.8000   129.8306     6.1466     9.1585
  101.9000   128.8571     6.1466     9.3784
  102.0000   128.0841     6.1392     9.5739
  102.1000   127.4166     6.1028     9.7200
  102.2000   127.0270     6.0621     9.9360
  102.3000   127.0270     6.0621    10.1437
  102.4000   127.0270     6.0621    10.3265
  102.5000   127.2623     6.0621    10.5002
  102.6000   127.5199     6.0621    10.6220
  102.7000   127.9275     6.0621    10.6221
  102.8000   128.6574     6.0621    10.6773
  102.9000   129.7527     6.0621    10.6514
  103.0000   131.0410     6.0621    10.5544
  103.1000   132.4324     6.0621    10.4297
  103.2000   133.8547     6.1024    10.2802
  103.3000   134.6230     6.1609    10.0381
  103.4000   135.1383     6.2145     9.7767
  103.5000   135.5445     6.3285     9.4224
  103.6000   135.7357     6.4964     8.8868
  103.7000   135.7119     6.7814     8.4334
  103.8000   135.4354     7.1122     8.1080
  103.9000   134.7189     7.4072     7.8451
  104.0000   133.9459     7.7140     7.6673
  104.1000   133.0194     8.0887     7.5690
  104.2000   132.0997     8.4733     7.5280
  104.3000   131.3950     8.8086     7.5170
  104.4000   130.9053     8.9045     7.5171
  104.5000   130.6306     8.9314     7.5172
  104.6000   130.6306     8.9314     7.5173
  104.7000   130.6306     8.9314     7.5174
  104.8000   130.6306     8.9314     7.5175
  104.9000   130.6306     8.9314     7.4758
  105.0000   130.7007     8.9314     7.4659
  105.1000   130.9309     8.8826     7.4389
  105.2000   130.9309     8.8300     7.4146
  105.3000   130.9309     8.7469     7.4021
  105.4000   131.1307     8.6218     7.3583
  105.5000   131.2312     8.4694     7.3130
  105.6000   131.3457     8.3244     7.3131
  105.7000   131.6034     8.2197     7.2786
  105.8000   131.8318     8.0841     7.2629
  105.9000   131.8318     7.9776     7.2426
  106.0000   132.0761     7.8553     7.2130
  106.1000   132.3337     7.7365     7.2131
  106.2000   132.4324     7.6451     7.2132
  106.3000   132.6651     7.5597     7.2133
  106.4000   133.1067     7.5125     7.2134
  106.5000   133.3643     7.4704     7.2135
  106.6000   133.6336     7.4607     7.2350
  106.7000   133.6336     7.4063     7.2638
  106.8000   134.0404     7.3582     7.2639
  106.9000   134.3950     7.3708     7.2643
  107.0000   134.7708     7.4148     7.3145
  107.1000   135.2861     7.4607     7.3146
  107.2000   135.8342     7.4607     7.3445
  107.3000   136.6366     7.4961     7.3885
  107.4000   137.1323     7.5125     7.4169
  107.5000   138.4685     7.5125     7.4170
  107.6000   140.0144     7.4991     7.4171
  107.7000   141.3205     7.4607     7.4172
  107.8000   142.5057     7.4607     7.4173
  107.9000   143.9131     7.4607     7.4174
  108.0000   144.4444     7.4607     7.4175
  108.1000   145.0450     7.4323     7.4176
  108.2000   145.0450     7.3883     7.4177
  108.3000   145.0450     7.3582     7.4178
  108.4000   144.9233     7.3582     7.4179
  108.5000   144.5866     7.3582     7.4180
  108.6000   144.0349     7.3074     7.4181
  108.7000   143.2432     7.3074     7.4182
  108.8000   142.0420     7.3074     7.4183
  108.9000   141.2068     7.3074     7.4184
  109.0000   140.0100     7.3117     7.4151
  109.1000   138.7217     7.3248     7.3675
