~VERSION INFORMATION
 VERS.                2.0:   CWLS LOG ASCII STANDARD - VERSION 2.0
 WRAP.                 NO:   ONE LINE PER DEPTH STEP
~WELL INFORMATION
#MNEM.UNIT      DATA TYPE    INFORMATION
#----------   ------------   ------------------------------
 STRT.F            0.0000:   START DEPTH
 STOP.F          625.0000:   STOP DEPTH
 STEP.F            0.5000:   STEP LENGTH
 NULL.          -999.2500:   NO VALUE
 COMP.       F D SERV INC:   COMPANY
 WELL.    75-3 SX-3 #72-3:   WELL
 FLD .             TEAPOT:   FIELD
 LOC .       S3 T38N R78W:   LOCATION
 CNTY.            NATRONA:   COUNTY
 STAT.            WYOMING:   STATE
 CTRY. UNITED STATES OF AMERICA:   COUNTRY
 SRVC.     Atlas Wireline:   SERVICE COMPANY
 DATE.        05-MAY-1992:   LOGDATE
 API .       490252251800:   API NUMBER
~CURVE INFORMATION
#MNEM.UNIT       API CODE    CURVE DESCRIPTION
#----------   ------------   ------------------------------
 DEPT.F                  :   
 CALD.IN     45 280 60 00:   CALIPER FROM DENSITY
 CORR.G/C3   45 356 01 00:   DENSITY CORRECTION
 DEN .G/C3   45 350 01 00:   COMPENSATED BULK DENSTIY
 GRD .GAPI   45 310 01 00:   GAMMA RAY FROM DENSITY LOG
 RILD.OHMM   07 120 46 00:   INDUCTION LOG DEEP RESISTIVITY
 RILM.OHMM   07 120 44 00:   INDUCTION LOG MEDIUM RESISTIVITY
 PORD.DEC    45 890 12 00:   POROSITY DENSITY SANDSTONE
~PARAMETER INFORMATION
#MNEM.UNIT          VALUE    DESCRIPTION
#----------   ------------   ------------------------------
 PD  .                 GL:   PERMANENT DATUM
 EPD .F              5148:   ELEVATION PERMANENT DATUM
 LMF .                 KB:   LOG MEASURED FROM
 DAPD.F                 5:   FEET ABOVE PERMANENT DATUM
 DMF .                 KB:   DRILLING MEASURED FROM
 EKB .F              5153:   KELLING BUSHING
 EDF .F              5152:   DRILLING FLOOR
 EGL .F              5148:   GROUND LEVEL
 DATE.        05-MAY-1992:   RUN DATE
 RUN .                  1:   RUN NUMBER
 DD  .F               630:   DEPTH DRILLER
 DL  .F               633:   DEPTH LOGGER
 BLI .F               625:   BOTTOM LOG INTERVAL
 CS  .IN            8.625:   CASING SIZE
 CBD .F                44:   CASING BOTTOM DRILLER
 CBL .F                49:   CASING BOTTOM LOGGER
 BS  .IN            7.875:   BIT SIZE
 BSD .F               630:   BIT SIZE AT DEPTH
 DFT .        AIR DRILLED:   DRILLING FLUID TYPE
 MRT .F                88:   MAXIMUM RECORDED TEMPERATURE
 LUN .           HL- 6274:   LOGGING UNIT NUMBER
 LUL .             CASPER:   LOGGING UNIT LOCATION
 ENGI.       P. RASHUSSEN:   RECORDING ENGINEER
 WITN.          G. STRONG:   WITNESSED BY
 CLNT.            A2DTECH:   CLIENT CODE
 ORIG.           5" PRINT:   ORIGIN OF DATA
 UWI .       490252251800:   UNIQUE WELL ID
 DICO. A2D Technologies, Inc.:   DIGITIZING COMPANY
~OTHER INFORMATION
~A    DEPT    CALD       CORR        DEN         GRD      RILD       RILM       PORD   
# ...
  364.0000     8.1355     0.0264     2.4939   196.5105     7.5299     7.5531     0.0959
  364.5000     8.1352     0.0264     2.4969   194.4238     7.5299     7.6582     0.0950
  365.0000     8.1499     0.0234     2.4983   191.4312     7.5299     7.7107     0.0937
  365.5000     8.1647     0.0173     2.5043   186.0325     7.5299     7.7637     0.0908
  366.0000     8.1643     0.0113     2.5103   183.0399     7.4775     7.7083     0.0869
  366.5000     8.1791    -0.0008     2.5179   183.3555     7.4775     7.7073     0.0833
  367.0000     8.1787    -0.0128     2.5224   186.6787     7.4255     7.7062     0.0797
  367.5000     8.1784    -0.0189     2.5268   187.2950     7.4229     7.7051     0.0773
  368.0000     8.1781    -0.0189     2.5268   185.2046     7.3739     7.7041     0.0748
  368.5000     8.1929    -0.0158     2.5223   182.5127     7.3226     7.7030     0.0755
  369.0000     8.1775    -0.0128     2.5177   180.7231     7.3226     7.7019     0.0773
  369.5000     8.1772    -0.0068     2.5146   182.2417     7.3313     7.7009     0.0806
  370.0000     8.1769     0.0053     2.5069   185.2641     7.3739     7.6998     0.0882
  370.5000     8.1766     0.0113     2.4980   187.6850     7.3739     7.7529     0.0930
  371.0000     8.1613     0.0143     2.4995   186.1962     7.3739     7.7515     0.0966
  371.5000     8.1460     0.0053     2.5040   187.6530     7.3739     7.6966     0.0963
  372.0000     8.1607    -0.0038     2.5024   189.1773     7.3226     7.6955     0.0933
  372.5000     8.1604    -0.0098     2.5024   191.3560     7.3226     7.6409     0.0897
  373.0000     8.1601    -0.0128     2.4979   193.4762     7.2211     7.5340     0.0891
  373.5000     8.1598    -0.0128     2.4963   198.0023     7.0716     7.4286     0.0903
  374.0000     8.1745    -0.0098     2.4918   201.0226     6.8769     7.2231     0.0915
  374.5000     8.1742    -0.0038     2.4872   198.8654     6.5950     6.8778     0.0936
  375.0000     8.1739     0.0023     2.4781   195.9405     6.2806     6.6258     0.0989
  375.5000     8.1886     0.0023     2.4464   192.3463     5.9396     6.3957     0.1066
  376.0000     8.1883     0.0053     2.4509   193.5642     5.8166     6.1486     0.1180
  376.5000     8.2042     0.0113     2.4660   194.1806     5.8166     6.0625     0.1148
  377.0000     8.2177     0.0083     2.4916   193.5940     5.8983     6.1044     0.1024
  377.5000     8.2174     0.0053     2.4976   193.0073     5.9396     6.1462     0.0943
  378.0000     8.2171     0.0023     2.5006   192.0643     5.8983     6.0600     0.0898
  378.5000     8.2168    -0.0009     2.4990   188.9223     5.8983     5.9752     0.0907
  379.0000     8.2014    -0.0040     2.4900   183.2666     5.8166     5.8099     0.0952
  379.5000     8.1862    -0.0035     2.4763   182.8413     5.5781     5.6492     0.1016
  380.0000     8.1559     0.0143     2.4552   184.3636     5.3494     5.4930     0.1100
  380.5000     8.1406     0.0234     2.4099   186.4838     5.1660     5.4540     0.1339
  381.0000     8.1253     0.0234     2.3692   187.4009     5.1300     5.4533     0.1690
  381.5000     8.1550     0.0204     2.3782   187.4158     5.2021     5.4909     0.1665
  382.0000     8.1547     0.0173     2.4144   188.6337     5.3122     5.6061     0.1533
  382.5000     8.1544     0.0143     2.4671   192.2576     5.4625     5.7639     0.1209
  383.0000     8.1541     0.0083     2.4912   192.5695     5.7360     5.9678     0.1069
  383.5000     8.1538     0.0023     2.4972   188.9790     6.1514     6.1358     0.0956
  384.0000     8.1535    -0.0008     2.5017   188.6895     6.4619     6.3973     0.0932
  384.5000     8.1532    -0.0008     2.5032   188.7080     6.7411     6.7165     0.0907
  385.0000     8.1529    -0.0008     2.5032   187.5199     7.0716     7.0027     0.0892
  385.5000     8.1526     0.0023     2.5046   185.4295     7.1709     7.1004     0.0896
  386.0000     8.1523     0.0143     2.5046   179.4294     6.9174     7.1491     0.0896
  386.5000     8.1520     0.0173     2.5076   172.5269     6.5776     7.0488     0.0883
  387.0000     8.1517     0.0143     2.5076   174.3463     6.1505     6.8062     0.0856
  387.5000     8.1514     0.0083     2.5045   176.4665     5.8166     6.3466     0.0850
  388.0000     8.1511    -0.0128     2.5028   178.8874     5.3494     5.8360     0.0890
  388.5000     8.1508    -0.0158     2.4730   180.7087     5.1300     5.4419     0.1077
  389.0000     8.1355    -0.0098     2.4316   182.5263     4.9197     5.4412     0.1328
  389.5000     8.1202     0.0023     2.4169   182.4873     4.9197     5.4785     0.1391
  390.0000     8.1049     0.0143     2.4460   177.3633     5.0944     5.5547     0.1331
  390.5000     8.0896     0.0143     2.4548   175.9542     5.3494     5.6320     0.1225
  391.0000     8.0893     0.0173     2.4672   180.7849     5.5008     5.7504     0.1120
  391.5000     8.0890     0.0053     2.4817   184.4088     5.8983     6.0796     0.1020
  392.0000     8.1037     0.0049     2.5012   180.5139     6.2806     6.4728     0.0920
  392.5000     8.1034     0.0143     2.5072   173.3107     6.6876     6.8434     0.0878
  393.0000     8.1481     0.0173     2.5072   171.2166     7.1211     7.2359     0.0866
  393.5000     8.1628     0.0143     2.5042   177.5510     7.4775     7.5980     0.0857
  394.0000     8.1779     0.0053     2.5177   183.2801     7.7430     7.8679     0.0845
  394.5000     8.2222    -0.0068     2.5267   186.5995     7.7972     8.0865     0.0770
  395.0000     8.2219    -0.0128     2.5388   180.6031     7.8518     8.2047     0.0706
  395.5000     8.2216    -0.0098     2.5493   178.2120     7.8518     8.2552     0.0640
  396.0000     8.2063    -0.0008     2.5508   184.2419     7.8518     8.3119     0.0610
  396.5000     8.1888     0.0023     2.5492   189.9711     8.0179     8.3106     0.0640
  397.0000     8.1431     0.0000     2.5386   192.3882     8.1875     8.3903     0.0680
  397.5000     8.1154     0.0000     2.5281   189.0986     8.4192     8.6031     0.0739
  398.0000     8.1151     0.0060     2.5144   187.6097     8.5375     8.7231     0.0815
  398.5000     8.1148     0.0090     2.5023   189.1283     8.5973     8.7829     0.0921
  399.0000     8.1445     0.0120     2.4857   194.8575     8.5375     8.5995     0.0961
  399.5000     8.1592     0.0151     2.4963   199.0829     8.4782     8.3035     0.0994
  400.0000     8.1601     0.0151     2.5038   196.3910     8.3607     8.1284     0.0940
  400.5000     8.1738     0.0151     2.5114   195.4887     8.3026     8.1010     0.0900
  401.0000     8.1736     0.0120     2.5143   194.2857     8.1306     8.0736     0.0846
  401.5000     8.1734     0.0060     2.5082   194.5865     8.1306     8.1222     0.0849
  402.0000     8.1733     0.0090     2.5037   197.5940     8.1875     8.2905     0.0871
  402.5000     8.1582     0.0181     2.5007   197.9347     8.2448     8.5222     0.0895
  403.0000     8.1580     0.0241     2.4961   191.8395     8.5343     8.7604     0.0917
  403.5000     8.1579     0.0301     2.4961   185.1063     8.7115     8.8804     0.0943
  404.0000     8.1727     0.0301     2.4961   179.4164     8.8314     8.9403     0.0953
  404.5000     8.1575     0.0241     2.4976   176.2406     8.5835     8.5701     0.0923
  405.0000     8.1574     0.0181     2.5006   172.0301     7.9452     8.1020     0.0911
  405.5000     8.1573     0.0120     2.5006   167.8195     7.0523     7.3455     0.0938
  406.0000     8.1721     0.0120     2.4976   171.1278     6.1729     6.3421     0.0980
  406.5000     8.1719     0.0241     2.4553   177.7444     4.8996     5.7902     0.1141
  407.0000     8.1718     0.0331     2.3784   185.5639     4.8975     5.7479     0.1515
  407.5000     8.1866     0.0422     2.3693   192.7820     4.9644     5.7862     0.1682
  408.0000     8.2015     0.0361     2.3927   193.9850     5.3979     6.0343     0.1576
  408.5000     8.1864     0.0151     2.4505   183.1579     5.7909     6.4322     0.1307
  409.0000     8.1862     0.0030     2.5201   174.4361     6.2191     7.0268     0.0893
