~VERSION INFORMATION
 VERS.                2.0:   CWLS LOG ASCII STANDARD - VERSION 2.0
 WRAP.                 NO:   ONE LINE PER DEPTH STEP
~WELL INFORMATION
#MNEM.UNIT      DATA TYPE    INFORMATION
#----------   ------------   ------------------------------
 STRT.F           30.0000:   START DEPTH
 STOP.F          515.0000:   STOP DEPTH
 STEP.F            0.5000:   STEP LENGTH
 NULL.          -999.2500:   NO VALUE
 COMP. FENIX & SCISSON INC:   COMPANY
 WELL.      FP SX-3 #63-3:   WELL
 FLD .              NPR 3:   FIELD
 LOC .       S3 T38N R78W:   LOCATION
 CNTY.            NATRONA:   COUNTY
 STAT.            WYOMING:   STATE
 CTRY. UNITED STATES OF AMERICA:   COUNTRY
 SRVC.              Welex:   SERVICE COMPANY
 DATE.        21-JUN-1980:   LOGDATE
 API .       490251082100:   API NUMBER
~CURVE INFORMATION
#MNEM.UNIT       API CODE    CURVE DESCRIPTION
#----------   ------------   ------------------------------
 DEPT.F                  :   
 SPR .MV     07 010 01 00:   SPONTANEOUS POTENTIAL
 SGRD.OHMM   07 220 05 00:   SHALLOW GUARD RESISTIVITY
 ILD .OHMM   07 120 46 00:   INDUCTION LOG DEEP RESISTIVITY
 ILM .OHMM   07 120 44 00:   INDUCTION LOG MEDIUM
 CALD.IN     45 280 60 00:   CALIPER
 GRD .GAPI   45 310 01 00:   GAMMA RAY FROM DENSITY LOG
 CORR.G/C3   45 356 01 00:   DENSITY CORRECTION
 RHOB.G/C3   45 350 01 00:   BULK DENSITY
 DPHI.DEC    45 890 12 00:   DENSITY POROSITY SANDSTONE
 NPHI.DEC    42 890 03 00:   NEUTRON POROSITY SANDSTONE
~PARAMETER INFORMATION
#MNEM.UNIT          VALUE    DESCRIPTION
#----------   ------------   ------------------------------
 PD  .                 GL:   PERMANENT DATUM
 EPD .F              5160:   ELEVATION PERMANENT DATUM
 LMF .                 KB:   LOG MEASURED FROM
 DAPD.F                 5:   FEET ABOVE PERMANENT DATUM
 DMF .                 KB:   DRILLING MEASURED FROM
 EKB .F              5165:   KELLING BUSHING
 EGL .F              5160:   GROUND LEVEL
 DATE.            6-21-80:   RUN DATE
 RUN .                  1:   RUN NUMBER
 DD  .F               508:   DEPTH DRILLER
 DL  .F               517:   DEPTH LOGGER
 BLI .F               515:   BOTTOM LOG INTERVAL
 TLI .F                35:   TOP LOG INTERVAL
 BS  .IN            9.875:   BIT SIZE
 BSD .F               508:   BIT SIZE AT DEPTH
 DFT .            KCL MUD:   DRILLING FLUID TYPE
 DFD .                9.2:   DRILLING FLUID DENSITY
 DFV .                 50:   DRILLING FLUID VISCOSITY
 DFPH.                8.5:   DRILLING FLUID PH
 DFL .                  8:   DRILLING FLUID LOSS
 MSS .           FLOWLINE:   MUD SAMPLE SOURCE
 RMS .OHMM            .42:   RESISTIVITY MUD SAMPLE
 MST .F                63:   MUD SAMPLE TEMPERATURE
 RMF .OHMM            .34:   RESISTIVITY MUD FILTRATE SAMPLE
 MFST.F                63:   MUD FILTRATE SAMPLE TEMPERATURE
 RMC .OHMM             .5:   RESISTIVITY MUD CAKE
 MCST.F                63:   MUD CAKE SAMPLE TEMPERATURE
 MFSS.           MEASURED:   MUD FILTRATE SAMPLE SOURCE
 MCSS.           MEASURED:   MUD CAKE SAMPLE SOURCE
 RMB .OHMM            .35:   RESISTIVITY MUD AT BHT
 BHT .F                75:   BOTTOM HOLE TEMPERATURE
 TCS .HRS             1.5:   TIME CURCULATED STOPPED
 MRT .F                75:   MAXIMUM RECORDED TEMPERATURE
 LUN .               9685:   LOGGING UNIT NUMBER
 LUL .             CASPER:   LOGGING UNIT LOCATION
 ENGI.            TOTHILL:   RECORDING ENGINEER
 WITN.           DINSMORE:   WITNESSED BY
 CLNT.            A2DTECH:   CLIENT CODE
 ORIG.           5" PRINT:   ORIGIN OF DATA
 UWI .       490251082100:   UNIQUE WELL ID
 DICO. A2D Technologies, Inc.:   DIGITIZING COMPANY
~OTHER INFORMATION
~A   DEPT      SPR       SGRD        ILD        ILM        CALD       GRD         CORR       RHOB       DPHI       NPHI 
# ...
  164.0000   -50.0273     5.2542     4.3045     4.7648    10.1369   102.3671     0.0728     2.4686     0.1128     0.3000
  164.5000   -49.9004     4.9677     4.2597     4.7203    10.1365   100.5298     0.0819     2.4746     0.1057     0.3002
  165.0000   -49.7724     4.8559     4.2611     4.7207    10.1361    99.3282     0.0948     2.4828     0.0999     0.2987
  165.5000   -49.6445     5.4344     4.2623     4.8658    10.1357    98.0881     0.1077     2.4909     0.0970     0.2945
  166.0000   -49.5167     5.8906     4.2889     4.9582    10.1353    96.8409     0.1206     2.4991     0.1032     0.2906
  166.5000   -49.3889     6.0721     4.3536     5.0524    10.1350    95.5993     0.1281     2.5067     0.1113     0.2878
  167.0000   -49.2611     5.9268     4.4192     5.0881    10.1346    94.5533     0.1225     2.5017     0.1185     0.2854
  167.5000   -49.1334     5.8500     4.4858     5.0880    10.1342    95.1850     0.1095     2.4894     0.1201     0.2853
  168.0000   -49.0055     6.0557     4.5494     5.0344    10.1338    96.8740     0.0965     2.4771     0.1189     0.2851
  168.5000   -48.8777     6.2441     4.5724     4.9981    10.1334    98.5333     0.0886     2.4702     0.1186     0.2868
  169.0000   -48.7497     6.1568     4.6354     4.9935    10.1331    99.6768     0.0893     2.4740     0.1199     0.2890
  169.5000   -48.6843     6.0158     4.6350     5.0538    10.1327    99.9771     0.0906     2.4782     0.1203     0.2896
  170.0000   -48.7149     6.0579     4.7131     5.1016    10.1323   100.2900     0.0918     2.4752     0.1193     0.2909
  170.5000   -48.8419     6.0721     4.7668     5.1498    10.1319   100.6001     0.0931     2.4719     0.1191     0.2936
  171.0000   -48.9638     5.9838     4.8211     5.1984    10.1315   100.9119     0.0942     2.4724     0.1176     0.2964
  171.5000   -49.0854     5.9172     4.8756     5.2476    10.1312   101.2199     0.0945     2.4749     0.1184     0.2994
  172.0000   -49.2071     5.8513     4.9013     5.2804    10.1308   101.6844     0.0948     2.4773     0.1209     0.3004
  172.5000   -49.3288     5.7958     4.9013     5.2569    10.1304   102.2202     0.0952     2.4771     0.1168     0.3018
  173.0000   -49.4507     5.7958     4.8204     5.2372    10.1300   102.7598     0.0956     2.4718     0.1149     0.3042
  173.5000   -49.5732     5.7958     4.7148     5.1023    10.1296   103.2996     0.0959     2.4774     0.1213     0.3042
  174.0000   -49.6922     5.7958     4.6116     4.9377    10.1292   103.8390     0.0963     2.4777     0.1178     0.3012
  174.5000   -49.6977     5.6840     4.4806     4.7782    10.1289   104.3794     0.0971     2.4702     0.1171     0.3006
  175.0000   -49.6494     5.5446     4.3074     4.6239    10.1285   104.9242     0.0978     2.4785     0.1205     0.3006
  175.5000   -49.5711     5.4074     4.1408     4.4747    10.1281   105.4769     0.0985     2.4791     0.1209     0.3036
  176.0000   -49.4926     5.2832     3.9806     4.3302    10.1277   105.3053     0.0992     2.4728     0.1229     0.3103
  176.5000   -49.4152     5.0745     3.8267     4.1905    10.1273   104.6078     0.0999     2.4695     0.1281     0.3169
  177.0000   -49.3349     4.2192     3.6787     4.0552    10.1270   103.9203     0.0995     2.4696     0.1390     0.3235
  177.5000   -49.1736     3.4072     3.5711     3.9555    10.1266   103.2236     0.0975     2.4563     0.1498     0.3266
  178.0000   -48.6108     3.1639     3.6073     3.9546    10.1262   102.7250     0.0903     2.4400     0.1583     0.3269
  178.5000   -48.0683     4.5973     3.7413     4.0968    10.1258   103.2617     0.0627     2.4197     0.1495     0.3225
  179.0000   -47.6547     5.7850     3.8116     4.2647    10.1254   103.8389     0.0543     2.4079     0.1422     0.3181
  179.5000   -48.1688     5.9600     3.8833     4.4266    10.1250   104.3273     0.0593     2.4199     0.1314     0.3137
  180.0000   -48.9083     5.6361     3.9933     4.4217    10.1247   104.3191     0.0664     2.4345     0.1197     0.3060
  180.5000   -49.0166     5.8256     4.1081     4.5502    10.1243   104.1948     0.0736     2.4544     0.1083     0.3036
  181.0000   -48.9217     6.1053     4.2209     4.6468    10.1239   104.0369     0.0807     2.4771     0.0990     0.3021
  181.5000   -48.8199     6.4786     4.3367     4.7869    10.1235   103.7884     0.0884     2.5001     0.0997     0.3025
  182.0000   -48.7198     6.2342     4.4558     4.9312    10.1231   102.7721     0.0952     2.5064     0.0966     0.3050
  182.5000   -48.6200     5.9048     4.5781     5.0873    10.1228   101.6055     0.1019     2.5111     0.1002     0.3014
  183.0000   -48.5202     6.2441     4.7037     5.1169    10.1224   100.4412     0.1013     2.5089     0.1016     0.3003
  183.5000   -48.4207     6.4811     4.8282     5.1564    10.1220    99.5059     0.0952     2.5032     0.1009     0.3004
  184.0000   -48.3206     6.3166     4.9325     5.1962    10.1216   100.5945     0.0901     2.5029     0.0989     0.3004
  184.5000   -48.2813     6.2441     5.0402     5.2364    10.1212   102.2088     0.0915     2.5076     0.0935     0.3005
  185.0000   -48.2733     6.6647     5.0419     5.2768    10.1209   103.8396     0.0990     2.5136     0.0922     0.3006
  185.5000   -48.1269     6.5265     5.0504     5.3176    10.1205   105.4715     0.1064     2.5200     0.1003     0.3048
  186.0000   -48.0729     6.3615     5.0588     5.3587    10.1201   107.0823     0.1103     2.5104     0.1104     0.3078
  186.5000   -48.0759     6.2441     5.0673     5.4001    10.1197   107.5112     0.0943     2.4922     0.1201     0.3037
  187.0000   -48.0770     6.1798     5.0758     5.4418    10.1193   106.4976     0.0788     2.4768     0.1214     0.3007
  187.5000   -48.0765     6.9191     5.0844     5.4839    10.1190   105.0842     0.0697     2.4709     0.1216     0.3002
  188.0000   -48.0798     6.9199     5.1091     5.5261    10.1186   103.6506     0.0694     2.4692     0.1231     0.2998
  188.5000   -47.9047     6.6029     5.1426     5.5578    10.1181   102.2154     0.0687     2.4669     0.1244     0.2972
  189.0000   -47.6522     6.8144     5.1763     5.5877    10.1171   100.7849     0.0683     2.4640     0.1211     0.2950
  189.5000   -47.3964     7.0654     5.2102     5.6178    10.1160    99.4029     0.0700     2.4693     0.1173     0.2962
  190.0000   -47.2675     7.2474     5.2443     5.6481    10.1150    98.6190     0.0737     2.4755     0.1173     0.2994
  190.5000   -47.2699     7.0102     5.2787     5.6786    10.1139    97.8019     0.0774     2.4780     0.1191     0.2999
  191.0000   -47.2616     6.8535     5.3133     5.7094    10.1129    96.9894     0.0761     2.4755     0.1211     0.3000
  191.5000   -46.7526     7.0185     5.3298     5.7421    10.1118    96.9454     0.0719     2.4702     0.1200     0.3002
  192.0000   -46.1751     7.3152     5.2770     5.7120    10.1108    96.9824     0.0681     2.4698     0.1171     0.3018
  192.5000   -46.2279     7.1302     5.2307     5.6798    10.1097    98.0888     0.0739     2.4753     0.1149     0.3026
  193.0000   -47.4633     6.8025     5.1826     5.6479    10.1087    99.2555     0.0814     2.4809     0.1150     0.3010
  193.5000   -48.6594     6.4909     5.1831     5.6161    10.1076   101.0359     0.0862     2.4816     0.1143     0.3004
  194.0000   -48.7654     6.3589     5.1710     5.5839    10.1066   103.2149     0.0842     2.4803     0.1133     0.3005
  194.5000   -48.8538     6.6619     5.1635     5.5687    10.1055   105.3996     0.0876     2.4818     0.1143     0.3052
  195.0000   -48.9478     6.2434     5.1559     5.5536    10.1045   107.2986     0.0932     2.4817     0.1221     0.3058
  195.5000   -49.0429     6.3617     5.1483     5.5377    10.1034   107.2552     0.0905     2.4677     0.1306     0.3026
  196.0000   -49.1380     6.4798     5.1408     5.4633    10.1024   105.8857     0.0699     2.4539     0.1393     0.2979
  196.5000   -49.2329     6.2981     5.1349     5.3515    10.1014   104.4910     0.0588     2.4402     0.1478     0.2958
  197.0000   -49.3267     6.1525     5.0202     5.2425    10.1003   103.0989     0.0562     2.4279     0.1523     0.2999
