~VERSION INFORMATION
 VERS.                2.0:   CWLS LOG ASCII STANDARD - VERSION 2.0
 WRAP.                 NO:   ONE LINE PER DEPTH STEP
~WELL INFORMATION
#MNEM.UNIT      DATA TYPE    INFORMATION
#----------   ------------   ------------------------------
 STRT.F           20.0000:   START DEPTH
 STOP.F          698.0000:   STOP DEPTH
 STEP.F            0.5000:   STEP LENGTH
 NULL.          -999.2500:   NO VALUE
 COMP. FENIX & SCISSON INC:   COMPANY
 WELL.    52 SX 34 #52-34:   WELL
 FLD .             TEAPOT:   FIELD
 LOC .      S34 T39N R78W:   LOCATION
 CNTY.            NATRONA:   COUNTY
 STAT.            WYOMING:   STATE
 CTRY. UNITED STATES OF AMERICA:   COUNTRY
 SRVC.            Unknown:   SERVICE COMPANY
 DATE.        26-JAN-1979:   LOGDATE
 API .       490251077100:   API NUMBER
~CURVE INFORMATION
#MNEM.UNIT       API CODE    CURVE DESCRIPTION
#----------   ------------   ------------------------------
 DEPT.F                  :   
 SPR .MV     05 010 01 00:   SPONTANEOUS POTENTIAL FROM RES.
 CALD.IN     45 280 60 00:   CALIPER
 GRD .GAPI   45 310 01 00:   GAMMA RAY FROM DENSITY LOG
 CORR.G/C3   45 356 01 00:   DENSITY CORRECTION
 RHOB.G/C3   45 350 01 00:   BULK DENSITY
 ILD .OHMM   05 120 46 00:   INDUCTION LOG DEEP
 SN  .OHMM   05 040 16 00:   SHORT NORMAL 16"
 DPHI.DEC    45 890 12 00:   DENSITY POROSITY SANDSTONE
~PARAMETER INFORMATION
#MNEM.UNIT          VALUE    DESCRIPTION
#----------   ------------   ------------------------------
 PD  .                 GL:   PERMANENT DATUM
 EPD .F              5072:   ELEVATION PERMANENT DATUM
 LMF .                 KB:   LOG MEASURED FROM
 DAPD.F                 4:   FEET ABOVE PERMANENT DATUM
 DMF .                 KB:   DRILLING MEASURED FROM
 EKB .F              5076:   KELLING BUSHING
 EGL .F              5072:   GROUND LEVEL
 DATE.            1-26-79:   RUN DATE
 RUN .                  1:   RUN NUMBER
 DD  .F               688:   DEPTH DRILLER
 DL  .F               698:   DEPTH LOGGER
 BLI .F               691:   BOTTOM LOG INTERVAL
 TLI .F                30:   TOP LOG INTERVAL
 CS  .IN            8.625:   CASING SIZE
 CBD .F                40:   CASING BOTTOM DRILLER
 CBL .F                20:   CASING BOTTOM LOGGER
 BS  .IN            7.875:   BIT SIZE
 BSD .F               688:   BIT SIZE AT DEPTH
 DFT .                KCL:   DRILLING FLUID TYPE
 DFD .                8.9:   DRILLING FLUID DENSITY
 DFV .                 39:   DRILLING FLUID VISCOSITY
 DFPH.                 10:   DRILLING FLUID PH
 DFL .                 10:   DRILLING FLUID LOSS
 MSS .           FLOWLINE:   MUD SAMPLE SOURCE
 RMS .OHMM             .3:   RESISTIVITY MUD SAMPLE
 MST .F                60:   MUD SAMPLE TEMPERATURE
 RMF .OHMM            .22:   RESISTIVITY MUD FILTRATE SAMPLE
 MFST.F                66:   MUD FILTRATE SAMPLE TEMPERATURE
 MFSS.           MEASURED:   MUD FILTRATE SAMPLE SOURCE
 MCSS.           MEASURED:   MUD CAKE SAMPLE SOURCE
 RMB .OHMM            .25:   RESISTIVITY MUD AT BHT
 BHT .F                70:   BOTTOM HOLE TEMPERATURE
 TCS .HRS               7:   TIME CURCULATED STOPPED
 MRT .F                70:   MAXIMUM RECORDED TEMPERATURE
 LUN .               3006:   LOGGING UNIT NUMBER
 LUL .             CASPER:   LOGGING UNIT LOCATION
 ENGI.            ROLLINS:   RECORDING ENGINEER
 WITN.              AMEND:   WITNESSED BY
 CLNT.            A2DTECH:   CLIENT CODE
 ORIG.       2", 5" PRINT:   ORIGIN OF DATA
 UWI .       490251077100:   UNIQUE WELL ID
 DICO. A2D Technologies, Inc.:   DIGITIZING COMPANY
~OTHER INFORMATION
~A   DEPT      SPR         CALD       GRD      CORR       RHOB        ILD         SN       DPHI   
# ...
  425.0000   -46.5899     8.1751   109.0647     0.0079     2.4467     2.4348     2.5134     0.1363
  425.5000   -46.5895     8.1824   104.9578     0.0082     2.4503     2.5720     2.5139     0.1356
  426.0000   -46.5894     8.1897   109.1441     0.0086     2.4516     2.7943     2.6135     0.1349
  426.5000   -46.5894     8.1970   112.5325     0.0089     2.4528     3.0408     2.8393     0.1343
  427.0000   -46.5894     8.2044   111.1192     0.0092     2.4521     3.4579     3.0830     0.1359
  427.5000   -46.5894     8.2113   108.0938     0.0095     2.4496     4.0402     3.5229     0.1375
  428.0000   -46.5894     8.2106   108.1858     0.0100     2.4472     4.5555     4.0235     0.1380
  428.5000   -46.5894     8.2096   108.4714     0.0104     2.4459     5.0393     4.5952     0.1332
  429.0000   -46.5894     8.2087   111.7651     0.0109     2.4535     5.5238     5.1213     0.1288
  429.5000   -46.5894     8.2078   110.7073     0.0113     2.4621     5.5838     5.5802     0.1255
  430.0000   -46.5894     8.2069   108.8875     0.0117     2.4691     5.6797     5.9227     0.1257
  430.5000   -46.5889     8.2059   107.2105     0.0121     2.4677     5.6625     5.9580     0.1272
  431.0000   -46.5887     8.2050   105.5180     0.0126     2.4658     5.6349     5.9692     0.1286
  431.5000   -46.5097     8.2041   105.4298     0.0131     2.4642     5.6082     5.9804     0.1303
  432.0000   -46.3615     8.2032   105.9464     0.0134     2.4573     5.5751     5.9917     0.1362
  432.5000   -46.2115     8.2023   107.4293     0.0099     2.4486     5.6316     6.0037     0.1425
  433.0000   -45.8642     8.2014   111.6996     0.0062     2.4371     5.7069     5.9917     0.1527
  433.5000   -45.4859     8.2004   113.4330     0.0035     2.4168     5.7832     5.9788     0.1630
  434.0000   -45.1110     8.1995   115.3100     0.0039     2.3972     5.8392     5.9661     0.1669
  434.5000   -44.7911     8.1986   115.9874     0.0042     2.3962     5.7650     5.9530     0.1641
  435.0000   -44.8010     8.1977   113.3290     0.0045     2.3994     5.6025     5.8847     0.1600
  435.5000   -44.8019     8.1968   108.9832     0.0049     2.4086     5.3126     5.7854     0.1538
  436.0000   -44.8014     8.1959   107.8090     0.0052     2.4211     5.0376     5.5726     0.1449
  436.5000   -44.8013     8.1949   109.3727     0.0055     2.4334     4.7634     5.3666     0.1394
  437.0000   -44.8013     8.1940   110.5222     0.0057     2.4442     4.7192     5.1683     0.1387
  437.5000   -44.8013     8.1931   108.1064     0.0059     2.4442     4.6442     4.9774     0.1385
  438.0000   -44.8013     8.1922   105.2735     0.0060     2.4444     4.3492     4.8066     0.1396
  438.5000   -44.8013     8.1897   102.5624     0.0062     2.4448     4.1476     4.8063     0.1378
  439.0000   -44.8013     8.1854   100.7697     0.0064     2.4479     4.2481     4.8063     0.1327
  439.5000   -44.8013     8.1812   100.4708     0.0066     2.4584     4.4242     4.9548     0.1236
  440.0000   -44.8015     8.1770   102.5707     0.0068     2.4852     4.5874     5.1018     0.1154
  440.5000   -44.8007     8.1727   105.8213     0.0069     2.4921     4.7276     5.2533     0.1127
  441.0000   -44.7501     8.1720   107.8411     0.0071     2.4915     4.9275     5.4320     0.1196
  441.5000   -44.6940     8.1719   107.8219     0.0073     2.4810     5.1552     5.6362     0.1263
  442.0000   -44.6379     8.1719   107.8238     0.0077     2.4669     5.3934     5.8480     0.1280
  442.5000   -44.5818     8.1719   107.2620     0.0139     2.4639     5.6426     6.0682     0.1295
  443.0000   -44.5258     8.1719   103.2694     0.0197     2.4605     5.8939     6.2966     0.1311
  443.5000   -44.4697     8.1719   102.4886     0.0195     2.4571     6.0542     6.5337     0.1311
  444.0000   -44.4137     8.1719   105.0127     0.0195     2.4557     6.2132     6.8344     0.1286
  444.5000   -44.3576     8.1719   111.5849     0.0195     2.4629     6.3482     6.8099     0.1267
  445.0000   -44.3012     8.1719   109.9626     0.0166     2.4645     6.3465     6.7763     0.1271
  445.5000   -44.2454     8.1719   112.0870     0.0133     2.4639     6.3465     6.7432     0.1248
  446.0000   -44.2099     8.1719   111.0430     0.0099     2.4740     6.3465     6.7103     0.1212
  446.5000   -43.9026     8.1719   107.9663     0.0117     2.4782     6.3465     6.6780     0.1207
  447.0000   -43.4549     8.1719   108.7684     0.0142     2.4716     6.2927     6.6472     0.1274
  447.5000   -43.0246     8.1719   109.8559     0.0169     2.4637     6.2120     6.5352     0.1344
  448.0000   -42.9943     8.1719   109.2793     0.0192     2.4459     6.1324     6.4298     0.1442
  448.5000   -42.9797     8.1719   108.6112     0.0112     2.4276     6.0537     6.3260     0.1546
  449.0000   -42.9637     8.1719   107.9373     0.0054     2.4093     5.9761     6.2240     0.1650
  449.5000   -42.9471     8.1719   107.4892     0.0055     2.3903     5.8935     6.1158     0.1725
  450.0000   -42.9306     8.1719   108.4632     0.0055     2.3873     5.5872     5.9610     0.1677
  450.5000   -42.9142     8.1719   113.4593     0.0055     2.4042     5.2722     5.7967     0.1512
  451.0000   -42.8977     8.1719   114.9784     0.0055     2.4278     4.9746     5.6371     0.1375
  451.5000   -42.8812     8.1719   112.4206     0.0055     2.4495     4.6746     5.4824     0.1359
  452.0000   -42.8647     8.1719   106.9075     0.0055     2.4511     4.6916     5.3313     0.1364
  452.5000   -42.8482     8.1719   107.5732     0.0074     2.4513     4.7314     5.2253     0.1376
  453.0000   -42.8316     8.1719   108.3977     0.0160     2.4486     4.7804     5.2253     0.1388
  453.5000   -42.8152     8.1719   112.4360     0.0181     2.4460     4.8742     5.2739     0.1392
  454.0000   -42.8145     8.1719   118.7013     0.0188     2.4434     4.9699     5.3725     0.1371
  454.5000   -42.8145     8.1719   118.3808     0.0195     2.4480     5.0879     5.5238     0.1292
  455.0000   -42.8146     8.1719   115.4635     0.0202     2.4642     5.2520     5.8056     0.1227
  455.5000   -42.8146     8.1719   111.5732     0.0209     2.4746     5.4916     6.2378     0.1230
  456.0000   -42.8146     8.1719   108.2742     0.0198     2.4746     5.9297     6.7023     0.1219
  456.5000   -42.8146     8.1719   111.1454     0.0087     2.4732     6.4028     6.8091     0.1146
  457.0000   -42.8146     8.1719   115.3045     0.0081     2.4845     6.5887     6.8521     0.1118
  457.5000   -42.8146     8.1719   114.7718     0.0162     2.4936     6.5952     6.8937     0.1118
  458.0000   -42.8146     8.1719   111.5273     0.0232     2.4926     6.6017     6.9355     0.1178
  458.5000   -42.8146     8.1719   110.3701     0.0213     2.4835     6.6083     6.9657     0.1199
  459.0000   -42.8146     8.1719   110.2415     0.0193     2.4788     6.6148     6.9752     0.1166
  459.5000   -42.8146     8.1719   110.1281     0.0173     2.4861     6.6213     6.9848     0.1119
  460.0000   -42.8146     8.1719   109.9809     0.0154     2.4951     6.6278     6.9944     0.1074
  460.5000   -42.8146     8.1719   109.8453     0.0135     2.5001     6.6344     7.0040     0.1112
  461.0000   -42.8146     8.1719   109.8211     0.0137     2.4946     6.6409     7.0137     0.1169
  461.5000   -42.8146     8.1719   111.9627     0.0140     2.4875     6.6475     7.0258     0.1183
  462.0000   -42.8146     8.1719   115.4873     0.0142     2.4810     6.6540     7.0221     0.1182
  462.5000   -42.8146     8.1719   118.7639     0.0144     2.4809     6.6606     7.0150     0.1180
  463.0000   -42.8146     8.1719   118.1580     0.0147     2.4809     6.6672     7.0078     0.1179
  463.5000   -42.8146     8.1719   116.2032     0.0149     2.4810     6.6737     7.0005     0.1174
  464.0000   -42.8146     8.1719   115.8249     0.0151     2.4836     6.6803     6.9933     0.1166
  464.5000   -42.8146     8.1719   114.7387     0.0154     2.4863     6.6869     6.9861     0.1162
  465.0000   -42.8146     8.1719   108.8709     0.0155     2.4850     6.6934     6.9789     0.1180
