~VERSION INFORMATION
 VERS.                2.0:   CWLS LOG ASCII STANDARD - VERSION 2.0
 WRAP.                 NO:   ONE LINE PER DEPTH STEP
~WELL INFORMATION
#MNEM.UNIT      DATA TYPE    INFORMATION
#----------   ------------   ------------------------------
 STRT.F           29.0000:   START DEPTH
 STOP.F          539.0000:   STOP DEPTH
 STEP.F            0.1000:   STEP LENGTH
 NULL.          -999.2500:   NO VALUE
 COMP. LAWRENCE/ALLISON INC:   COMPANY
 WELL. NPR 3 81-11 STX #10-10:   WELL
 FLD .             TEAPOT:   FIELD
 LOC .      S10 T38N R78W:   LOCATION
 CNTY.            NATRONA:   COUNTY
 STAT.            WYOMING:   STATE
 CTRY. UNITED STATES OF AMERICA:   COUNTRY
 SRVC.           Gearhart:   SERVICE COMPANY
 DATE.        01-JUN-1987:   LOGDATE
 API .       490251113000:   API NUMBER
~CURVE INFORMATION
#MNEM.UNIT       API CODE    CURVE DESCRIPTION
#----------   ------------   ------------------------------
 DEPT.F                  :   
 GRR .GAPI   07 310 01 00:   GAMMA RAY FROM RES. LOG.
 ILD .OHMM   07 120 46 00:   INDUCTION LOG DEEP RESISTIVITY
 RILM.OHMM   07 120 44 00:   INDUCTION LOG MEDIUM RESISTIVITY
~PARAMETER INFORMATION
#MNEM.UNIT          VALUE    DESCRIPTION
#----------   ------------   ------------------------------
 PD  .                 GL:   PERMANENT DATUM
 EPD .F              5156:   ELEVATION PERMANENT DATUM
 LMF .                 KB:   LOG MEASURED FROM
 DAPD.F                 8:   FEET ABOVE PERMANENT DATUM
 DMF .                 KB:   DRILLING MEASURED FROM
 EKB .F              5164:   KELLING BUSHING
 EDF .F              5162:   DRILLING FLOOR
 EGL .F              5156:   GROUND LEVEL
 DATE.             6-1-87:   RUN DATE
 RUN .                  1:   RUN NUMBER
 DD  .F               550:   DEPTH DRILLER
 DL  .F               546:   DEPTH LOGGER
 BLI .F               540:   BOTTOM LOG INTERVAL
 TLI .F                30:   TOP LOG INTERVAL
 CS  .IN            8.625:   CASING SIZE
 CBD .F                50:   CASING BOTTOM DRILLER
 CBL .F                49:   CASING BOTTOM LOGGER
 BS  .IN            7.875:   BIT SIZE
 BSD .F               550:   BIT SIZE AT DEPTH
 DFT .                AIR:   DRILLING FLUID TYPE
 TLAB.HRS            0634:   TIME LOGGER AT BOTTOM
 MRT .F                80:   MAXIMUM RECORDED TEMPERATURE
 LUN .               7597:   LOGGING UNIT NUMBER
 LUL .           GILLETTE:   LOGGING UNIT LOCATION
 ENGI. WEATHERMON/JOHNSTON:   RECORDING ENGINEER
 WITN.             STRONG:   WITNESSED BY
 CLNT.            A2DTECH:   CLIENT CODE
 ORIG.       2", 5" PRINT:   ORIGIN OF DATA
 UWI .       490251113000:   UNIQUE WELL ID
 DICO. A2D Technologies, Inc.:   DIGITIZING COMPANY
~OTHER INFORMATION
~A   DEPT       GRR       ILD       RILM   
# ...
   47.2000    85.9653  -999.2500  -999.2500
   47.3000    86.5015  -999.2500  -999.2500
   47.4000    87.0376  -999.2500  -999.2500
   47.5000    87.5738  -999.2500  -999.2500
   47.6000    88.0362  -999.2500  -999.2500
   47.7000    88.4986  -999.2500  -999.2500
   47.8000    88.9609  -999.2500  -999.2500
   47.9000    89.4233  -999.2500  -999.2500
   48.0000    89.8857  -999.2500  -999.2500
   48.1000    90.3465  -999.2500  -999.2500
   48.2000    90.8073  -999.2500  -999.2500
   48.3000    91.2681  -999.2500  -999.2500
   48.4000    91.7289  -999.2500  -999.2500
   48.5000    92.1897  -999.2500  -999.2500
   48.6000    92.3857  -999.2500  -999.2500
   48.7000    92.5816  -999.2500  -999.2500
   48.8000    92.7776  -999.2500  -999.2500
   48.9000    92.9736  -999.2500  -999.2500
   49.0000    93.1696     2.2649     4.7108
   49.1000    92.9913     2.2586     4.3781
   49.2000    92.8131     2.2523     4.0454
   49.3000    92.6349     2.2459     3.7127
   49.4000    92.4566     2.2396     3.3800
   49.5000    92.2784     2.2333     3.0472
   49.6000    91.9069     2.2890     2.9108
   49.7000    91.5355     2.3448     2.7743
   49.8000    91.1640     2.4006     2.6378
   49.9000    90.7926     2.4564     2.5014
   50.0000    90.4212     2.5121     2.3649
   50.1000    90.3804     2.5811     2.3354
   50.2000    90.3396     2.6501     2.3059
   50.3000    90.2988     2.7190     2.2764
   50.4000    90.2581     2.7880     2.2469
   50.5000    90.2173     2.8569     2.2174
   50.6000    90.2188     2.9383     2.1942
   50.7000    90.2202     3.0197     2.1709
   50.8000    90.2217     3.1011     2.1476
   50.9000    90.2232     3.1824     2.1243
   51.0000    90.2246     3.2638     2.1010
   51.1000    90.1291     3.2656     2.1168
   51.2000    90.0336     3.2673     2.1326
   51.3000    89.9381     3.2691     2.1483
   51.4000    89.8425     3.2708     2.1641
   51.5000    89.7470     3.2726     2.1799
   51.6000    89.5845     3.1913     2.1939
   51.7000    89.4221     3.1100     2.2078
   51.8000    89.2596     3.0287     2.2219
   51.9000    89.0972     2.9474     2.2359
   52.0000    88.9347     2.8661     2.2499
   52.1000    88.7803     2.8065     2.2571
   52.2000    88.6258     2.7469     2.2643
   52.3000    88.4714     2.6873     2.2716
   52.4000    88.3170     2.6276     2.2788
   52.5000    88.1625     2.5680     2.2861
   52.6000    88.4001     2.5117     2.2705
   52.7000    88.6376     2.4553     2.2548
   52.8000    88.8752     2.3990     2.2392
   52.9000    89.1128     2.3426     2.2236
   53.0000    89.3503     2.2863     2.2080
   53.1000    89.8538     2.2768     2.1977
   53.2000    90.3574     2.2674     2.1873
   53.3000    90.8609     2.2579     2.1770
   53.4000    91.3644     2.2484     2.1666
   53.5000    91.8680     2.2390     2.1562
   53.6000    92.4101     2.2316     2.1461
   53.7000    92.9523     2.2242     2.1361
   53.8000    93.4945     2.2168     2.1260
   53.9000    94.0367     2.2094     2.1159
   54.0000    94.5789     2.2020     2.1058
   54.1000    95.0299     2.2015     2.0959
   54.2000    95.4808     2.2009     2.0861
   54.3000    95.9317     2.2003     2.0762
   54.4000    96.3826     2.1997     2.0663
   54.5000    96.8335     2.1992     2.0564
   54.6000    96.5412     2.1979     2.0469
   54.7000    96.2490     2.1966     2.0374
   54.8000    95.9567     2.1953     2.0279
   54.9000    95.6644     2.1940     2.0184
   55.0000    95.3722     2.1927     2.0089
   55.1000    95.0342     2.1914     2.0042
   55.2000    94.6963     2.1901     1.9995
   55.3000    94.3584     2.1888     1.9948
   55.4000    94.0204     2.1875     1.9900
   55.5000    93.6825     2.1862     1.9853
   55.6000    93.6838     2.1849     1.9935
   55.7000    93.6852     2.1836     2.0018
   55.8000    93.6865     2.1823     2.0100
   55.9000    93.6879     2.1810     2.0182
   56.0000    93.6892     2.1797     2.0264
   56.1000    94.0669     2.1784     2.0335
   56.2000    94.4445     2.1771     2.0406
   56.3000    94.8221     2.1758     2.0477
   56.4000    95.1998     2.1745     2.0548
   56.5000    95.5774     2.1732     2.0619
   56.6000    95.8260     2.1720     2.0635
   56.7000    96.0746     2.1707     2.0651
   56.8000    96.3231     2.1694     2.0667
   56.9000    96.5717     2.1681     2.0683
   57.0000    96.8203     2.1669     2.0699
   57.1000    96.3326     2.1657     2.0715
   57.2000    95.8450     2.1645     2.0730
   57.3000    95.3573     2.1634     2.0745
   57.4000    94.8696     2.1622     2.0761
   57.5000    94.3820     2.1611     2.0776
   57.6000    93.9048     2.1682     2.0822
   57.7000    93.4276     2.1753     2.0868
   57.8000    92.9505     2.1824     2.0914
   57.9000    92.4733     2.1895     2.0960
   58.0000    91.9962     2.1966     2.1007
   58.1000    91.5655     2.2031     2.1082
   58.2000    91.1348     2.2097     2.1157
   58.3000    90.7041     2.2163     2.1233
   58.4000    90.2734     2.2228     2.1308
   58.5000    89.8427     2.2294     2.1383
   58.6000    89.8924     2.2360     2.1460
   58.7000    89.9422     2.2427     2.1536
   58.8000    89.9919     2.2493     2.1613
   58.9000    90.0416     2.2560     2.1690
   59.0000    90.0914     2.2627     2.1766
   59.1000    90.2078     2.2695     2.1844
   59.2000    90.3243     2.2764     2.1922
   59.3000    90.4408     2.2833     2.2000
   59.4000    90.5572     2.2902     2.2078
   59.5000    90.6737     2.2971     2.2156
   59.6000    90.8459     2.3085     2.2217
   59.7000    91.0181     2.3200     2.2278
   59.8000    91.1904     2.3314     2.2340
   59.9000    91.3626     2.3429     2.2401
   60.0000    91.5348     2.3543     2.2462
   60.1000    91.9281     2.3687     2.2479
   60.2000    92.3214     2.3831     2.2496
   60.3000    92.7147     2.3976     2.2513
   60.4000    93.1080     2.4120     2.2530
   60.5000    93.5013     2.4264     2.2547
   60.6000    93.8345     2.4411     2.2563
   60.7000    94.1677     2.4559     2.2579
   60.8000    94.5010     2.4706     2.2595
   60.9000    94.8342     2.4853     2.2611
   61.0000    95.1674     2.5001     2.2627
   61.1000    94.8750     2.5152     2.2770
   61.2000    94.5826     2.5304     2.2914
   61.3000    94.2901     2.5456     2.3058
   61.4000    93.9977     2.5608     2.3202
   61.5000    93.7053     2.5760     2.3346
   61.6000    93.2044     2.5916     2.3527
   61.7000    92.7035     2.6072     2.3708
   61.8000    92.2026     2.6228     2.3890
   61.9000    91.7017     2.6384     2.4071
   62.0000    91.2008     2.6540     2.4252
   62.1000    90.6137     2.6703     2.4426
   62.2000    90.0266     2.6866     2.4600
   62.3000    89.4395     2.7029     2.4774
   62.4000    88.8524     2.7192     2.4948
   62.5000    88.2653     2.7355     2.5122
   62.6000    88.2719     2.7556     2.5340
   62.7000    88.2785     2.7758     2.5558
   62.8000    88.2851     2.7960     2.5776
   62.9000    88.2917     2.8161     2.5994
   63.0000    88.2983     2.8363     2.6212
   63.1000    89.1556     2.8589     2.6421
   63.2000    90.0129     2.8815     2.6630
   63.3000    90.8701     2.9041     2.6839
   63.4000    91.7274     2.9267     2.7047
   63.5000    92.5846     2.9493     2.7256
   63.6000    94.2116     2.9728     2.7473
   63.7000    95.8386     2.9963     2.7690
   63.8000    97.4656     3.0198     2.7907
   63.9000    99.0926     3.0432     2.8125
   64.0000   100.7196     3.0667     2.8342
   64.1000   102.4269     3.0945     2.8567
   64.2000   104.1342     3.1223     2.8793
   64.3000   105.8415     3.1501     2.9019
   64.4000   107.5488     3.1779     2.9245
   64.5000   109.2561     3.2057     2.9471
   64.6000   110.4235     3.2355     2.9705
   64.7000   111.5910     3.2653     2.9940
   64.8000   112.7584     3.2951     3.0175
   64.9000   113.9258     3.3249     3.0410
   65.0000   115.0932     3.3546     3.0644
   65.1000   115.7624     3.3858     3.0925
   65.2000   116.4316     3.4170     3.1206
   65.3000   117.1008     3.4482     3.1486
