~VERSION INFORMATION
 VERS.                2.0:   CWLS LOG ASCII STANDARD - VERSION 2.0
 WRAP.                 NO:   ONE LINE PER DEPTH STEP
~WELL INFORMATION
#MNEM.UNIT      DATA TYPE    INFORMATION
#----------   ------------   ------------------------------
 STRT.F           41.0000:   START DEPTH
 STOP.F          468.0000:   STOP DEPTH
 STEP.F            0.1000:   STEP LENGTH
 NULL.          -999.2500:   NO VALUE
 COMP.       F D SERV INC:   COMPANY
 WELL. NAVAL PETROLEUM RESERVE 3 SX-1 #53-1-10:   WELL
 FLD .             TEAPOT:   FIELD
 LOC .      S10 T38N R78W:   LOCATION
 CNTY.            NATRONA:   COUNTY
 STAT.            WYOMING:   STATE
 CTRY. UNITED STATES OF AMERICA:   COUNTRY
 SRVC.     Atlas Wireline:   SERVICE COMPANY
 DATE.        22-DEC-1992:   LOGDATE
 API .       490252256900:   API NUMBER
~CURVE INFORMATION
#MNEM.UNIT       API CODE    CURVE DESCRIPTION
#----------   ------------   ------------------------------
 DEPT.F                  :   
 GRR .GAPI   07 310 01 00:   GAMMA RAY
 RILD.OHMM   07 120 46 00:   INDUCTION LOG DEEP RESISTIVITY
 RILM.OHMM   07 120 44 00:   RESITIVITY LONG MEDIUM
~PARAMETER INFORMATION
#MNEM.UNIT          VALUE    DESCRIPTION
#----------   ------------   ------------------------------
 PD  .                 GL:   PERMANENT DATUM
 EPD .F              5185:   ELEVATION PERMANENT DATUM
 LMF .                 KB:   LOG MEASURED FROM
 DAPD.F                10:   FEET ABOVE PERMANENT DATUM
 DMF .                 KB:   DRILLING MEASURED FROM
 EKB .F              5195:   KELLING BUSHING
 EDF .F              5194:   DRILLING FLOOR
 EGL .F              5185:   GROUND LEVEL
 DATE.        22-DEC-1992:   RUN DATE
 RUN .                  1:   RUN NUMBER
 DD  .F               475:   DEPTH DRILLER
 DL  .F               472:   DEPTH LOGGER
 BLI .F               470:   BOTTOM LOG INTERVAL
 CS  .IN            8.625:   CASING SIZE
 CBL .F                80:   CASING BOTTOM LOGGER
 BS  .IN            7.875:   BIT SIZE
 BSD .F               475:   BIT SIZE AT DEPTH
 DFT .        AIR DRILLED:   DRILLING FLUID TYPE
 LUN .            HL 6321:   LOGGING UNIT NUMBER
 LUL .       RCK, SPRINGS:   LOGGING UNIT LOCATION
 ENGI.      JOHN THOMPSON:   RECORDING ENGINEER
 WITN.          G. STRONG:   WITNESSED BY
 CLNT.            A2DTECH:   CLIENT CODE
 ORIG.           5" PRINT:   ORIGIN OF DATA
 UWI .       490252256900:   UNIQUE WELL ID
 DICO. A2D Technologies, Inc.:   DIGITIZING COMPANY
~OTHER INFORMATION
~A   DEPT      GRR       RILD       RILM   
# ...
  223.0000   158.2732     5.1479     5.2589
  223.1000   158.4832     5.0947     5.2842
  223.2000   158.7340     5.0644     5.2846
  223.3000   159.2758     5.0106     5.2849
  223.4000   160.4371     4.9744     5.3071
  223.5000   162.5305     4.9465     5.3226
  223.6000   164.6425     4.9186     5.3313
  223.7000   166.5175     4.8910     5.3605
  223.8000   167.8835     4.8587     5.3610
  223.9000   168.8091     4.8361     5.3613
  224.0000   169.5152     4.8255     5.3801
  224.1000   169.5187     4.8258     5.4112
  224.2000   169.5212     4.8260     5.4425
  224.3000   169.3734     4.8263     5.4760
  224.4000   169.1286     4.8266     5.5055
  224.5000   168.8838     4.8268     5.5598
  224.6000   168.6244     4.8271     5.6082
  224.7000   168.1613     4.8346     5.6491
  224.8000   167.4910     4.8614     5.7141
  224.9000   166.8731     4.8617     5.7921
  225.0000   166.4478     4.8619     5.8465
  225.1000   166.2150     4.8787     5.9139
  225.2000   167.1278     4.9276     5.9820
  225.3000   167.5398     5.0212     6.0508
  225.4000   168.1879     5.1777     6.1259
  225.5000   168.8401     5.2882     6.1585
  225.6000   169.3388     5.3673     6.2189
  225.7000   169.8699     5.4290     6.2905
  225.8000   170.1044     5.4994     6.3629
  225.9000   170.3552     5.5935     6.4361
  226.0000   170.4848     5.6705     6.5248
  226.1000   170.4879     5.7231     6.6157
  226.2000   170.4694     5.7889     6.7077
  226.3000   169.8884     5.8676     6.7989
  226.4000   169.6875     5.9597     6.9109
  226.5000   169.2946     5.9972     6.9976
  226.6000   168.8020     6.0601     7.0710
  226.7000   168.3472     6.1299     7.1245
  226.8000   168.0851     6.2004     7.1847
  226.9000   167.8576     6.2631     7.2573
  227.0000   167.4377     6.2998     7.2999
  227.1000   166.9451     6.3724     7.3841
  227.2000   166.3878     6.4458     7.4692
  227.3000   165.6569     6.5200     7.5552
  227.4000   165.0733     6.5950     7.6422
  227.5000   164.4697     6.6662     7.7247
  227.6000   163.8761     6.7085     7.7738
  227.7000   163.2919     6.7780     7.8544
  227.8000   162.5879     6.8296     7.9142
  227.9000   162.0578     6.8690     7.9806
  228.0000   161.6027     6.9086     8.0618
  228.1000   161.1101     6.9486     8.1084
  228.2000   160.6175     7.0286     8.1552
  228.3000   160.1249     7.0779     8.1659
  228.4000   159.6243     7.1415     8.1925
  228.5000   158.7430     7.2237     8.2241
  228.6000   158.3441     7.3021     8.2299
  228.7000   157.8515     7.3489     8.2828
  228.8000   157.4492     7.4241     8.2833
  228.9000   157.2044     7.4811     8.3153
  229.0000   156.9397     7.5054     8.3423
  229.1000   156.9424     7.5151     8.3429
  229.2000   157.2902     7.5587     8.3435
  229.3000   157.6717     7.5591     8.3441
  229.4000   157.8606     7.5595     8.3446
  229.5000   157.8636     7.5599     8.3452
  229.6000   157.8673     7.5604     8.3535
  229.7000   157.6703     7.5651     8.3779
  229.8000   157.5697     7.6141     8.4054
  229.9000   157.4838     7.6145     8.4059
  230.0000   157.2723     7.6433     8.4065
  230.1000   157.2760     7.6686     8.4070
  230.2000   157.2788     7.6690     8.4076
  230.3000   157.2818     7.6694     8.4082
  230.4000   157.2849     7.6699     8.4088
  230.5000   157.2879     7.6703     8.4094
  230.6000   157.2963     7.6707     8.4100
  230.7000   157.5471     7.6712     8.4106
  230.8000   158.3920     7.6716     8.4111
  230.9000   159.5290     7.6721     8.4118
  231.0000   160.5960     7.6724     8.4123
  231.1000   161.3425     7.6449     8.4129
  231.2000   162.1579     7.6200     8.3936
  231.3000   162.6105     7.6204     8.3556
  231.4000   163.1091     7.6209     8.3563
  231.5000   163.6077     7.6213     8.3109
  231.6000   164.0471     7.6217     8.2995
  231.7000   164.2939     7.6221     8.2754
  231.8000   164.0451     7.6226     8.2430
  231.9000   163.8003     7.6230     8.2436
  232.0000   163.4141     7.6235     8.2443
  232.1000   162.9216     7.6238     8.2447
  232.2000   162.3670     7.6243     8.2453
  232.3000   161.2821     7.6247     8.2650
  232.4000   160.6142     7.6331     8.3084
  232.5000   159.7054     7.6789     8.3327
  232.6000   158.9434     7.6793     8.3570
  232.7000   158.4508     7.6959     8.3638
  232.8000   157.9556     7.7182     8.3889
  232.9000   157.2151     7.7343     8.4234
  233.0000   156.6700     7.7376     8.4240
  233.1000   156.0373     7.7893     8.4247
  233.2000   155.4667     7.8271     8.4657
  233.3000   155.1922     7.8722     8.4847
  233.4000   154.6488     7.8998     8.4852
  233.5000   154.2071     7.9080     8.4858
  233.6000   154.0485     7.9560     8.4865
  233.7000   154.0515     7.9564     8.4870
  233.8000   154.1111     7.9568     8.4876
  233.9000   154.3633     7.9346     8.4882
  234.0000   154.8619     7.9025     8.4888
  234.1000   155.5545     7.9005     8.4894
  234.2000   156.1623     7.8485     8.4901
  234.3000   156.5774     7.8489     8.4506
  234.4000   156.8566     7.8223     8.4322
  234.5000   157.4094     7.7953     8.4145
  234.6000   157.6330     7.7886     8.3748
  234.7000   157.7182     7.7421     8.3755
  234.8000   157.7212     7.7425     8.3761
  234.9000   157.7794     7.7429     8.3428
  235.0000   158.0303     7.7218     8.3191
  235.1000   157.7855     7.6900     8.3072
  235.2000   157.7333     7.6904     8.2625
  235.3000   157.5990     7.6909     8.2632
  235.4000   157.3542     7.6913     8.2253
  235.5000   157.1360     7.6917     8.2070
  235.6000   157.1397     7.6921     8.2075
  235.7000   157.3620     7.6926     8.2081
  235.8000   157.6128     7.6930     8.2087
  235.9000   157.7545     7.6934     8.2092
  236.0000   157.8114     7.6938     8.2427
  236.1000   158.0637     7.7153     8.2677
  236.2000   158.3131     7.7485     8.2803
  236.3000   158.5639     7.7503     8.3281
  236.4000   158.6788     7.8036     8.3855
  236.5000   158.6010     7.8040     8.3860
  236.6000   158.3306     7.8044     8.4145
  236.7000   157.7791     7.8209     8.4458
  236.8000   156.6908     7.8660     8.4530
  236.9000   155.2919     7.9153     8.5060
  237.0000   154.0236     7.9570     8.5509
  237.1000   153.0878     7.9715     8.6003
  237.2000   152.3394     7.9932     8.6500
  237.3000   151.6070     8.0392     8.6999
  237.4000   151.0566     8.0856     8.7511
  237.5000   150.5640     8.1322     8.8520
  237.6000   150.1508     8.1791     8.9134
  237.7000   149.9300     8.1995     8.9649
  237.8000   150.2368     8.1999     9.0167
  237.9000   150.6730     8.2063     9.0687
  238.0000   151.3333     8.2582     9.1262
  238.1000   151.9734     8.2586     9.1268
  238.2000   152.4720     8.2591     9.1628
  238.3000   152.9788     8.2596     9.1919
  238.4000   153.4694     8.2600     9.1925
  238.5000   153.9680     8.2605     9.1931
  238.6000   154.4667     8.2610     9.1938
  238.7000   155.0435     8.2614     9.2356
  238.8000   155.7899     8.2619     9.2593
  238.9000   156.6337     8.2465     9.2422
  239.0000   157.0674     8.2054     9.1963
  239.1000   157.5660     8.2059     9.1971
  239.2000   158.0647     8.1649     9.1976
  239.3000   158.5633     8.0883     9.1635
  239.4000   159.0728     8.0173     9.1121
  239.5000   159.5606     7.9722     9.0610
  239.6000   160.0592     7.9272     9.0100
  239.7000   160.4259     7.8382     8.9597
  239.8000   160.6768     7.7161     8.8706
  239.9000   160.9276     7.5162     8.7437
  240.0000   161.2125     7.2638     8.5038
  240.1000   161.2152     7.0195     8.0870
  240.2000   161.2182     6.7558     7.7338
  240.3000   161.2212     6.6557     7.4332
  240.4000   161.0303     6.5676     7.1293
  240.5000   160.0152     6.4936     6.9008
  240.6000   159.2950     6.4129     6.7457
  240.7000   158.9263     6.3028     6.5918
  240.8000   158.8121     6.2329     6.4465
  240.9000   158.7397     6.1894     6.3292
  241.0000   158.5149     6.1359     6.2414
  241.1000   158.5186     6.0775     6.1932
