~VERSION INFORMATION
 VERS.                2.0:   CWLS LOG ASCII STANDARD - VERSION 2.0
 WRAP.                 NO:   ONE LINE PER DEPTH STEP
~WELL INFORMATION
#MNEM.UNIT      DATA TYPE    INFORMATION
#----------   ------------   ------------------------------
 STRT.F            4.0000:   START DEPTH
 STOP.F          508.0000:   STOP DEPTH
 STEP.F            0.5000:   STEP LENGTH
 NULL.          -999.2500:   NO VALUE
 COMP. LAWRENCE-ALLISON &AS:   COMPANY
 WELL. NPR ##3 58-65-SX-3-UPI:   WELL
 FLD .             TEAPOT:   FIELD
 LOC .       S3 T38N R78W:   LOCATION
 CNTY.            NATRONA:   COUNTY
 STAT.            WYOMING:   STATE
 CTRY. UNITED STATES OF AMERICA:   COUNTRY
 SRVC.      Dresser Atlas:   SERVICE COMPANY
 DATE.        07-DEC-1984:   LOGDATE
 API .       490251102500:   API NUMBER
~CURVE INFORMATION
#MNEM.UNIT       API CODE    CURVE DESCRIPTION
#----------   ------------   ------------------------------
 DEPT.F                  :   
 SPR .MV     07 010 01 00:   SPONTANEOUS POTENTIAL
 RILD.OHMM   07 120 46 00:   INDUCTION LOG DEEP RESISTIVITY
 RILM.OHMM   07 120 44 00:   INDUCTION LOG MEDIUM RESISTIVITY
 RFOC.OHMM   07 220 04 00:   RESISTIVITY FOCUSED LOG
 CALS.IN     60 280 50 00:   CALIPER FROM SONIC LOG
 GRS .GAPI   60 310 01 00:   GAMMA RAY FROM SONIC LOG
 AC  .US/F   60 520 00 00:   ACCOUSTIC SONIC
~PARAMETER INFORMATION
#MNEM.UNIT          VALUE    DESCRIPTION
#----------   ------------   ------------------------------
 PD  .                 GL:   PERMANENT DATUM
 EPD .F              5184:   ELEVATION PERMANENT DATUM
 LMF .                 GL:   LOG MEASURED FROM
 DMF .                 GL:   DRILLING MEASURED FROM
 EGL .F              5184:   GROUND LEVEL
 DATE.        07-DEC-1984:   RUN DATE
 RUN .                  1:   RUN NUMBER
 DD  .F               510:   DEPTH DRILLER
 DL  .F               510:   DEPTH LOGGER
 BLI .F               508:   BOTTOM LOG INTERVAL
 TLI .F                20:   TOP LOG INTERVAL
 CS  .IN            8.625:   CASING SIZE
 CBD .F                20:   CASING BOTTOM DRILLER
 CBL .F                20:   CASING BOTTOM LOGGER
 BS  .IN            7.875:   BIT SIZE
 BSD .F               510:   BIT SIZE AT DEPTH
 DFT .          KCL WATER:   DRILLING FLUID TYPE
 MSS .            MUD PIT:   MUD SAMPLE SOURCE
 RMS .OHMM            .14:   RESISTIVITY MUD SAMPLE
 MST .F                55:   MUD SAMPLE TEMPERATURE
 RMF .OHMM             .1:   RESISTIVITY MUD FILTRATE SAMPLE
 MFST.F                55:   MUD FILTRATE SAMPLE TEMPERATURE
 RMC .OHMM            .17:   RESISTIVITY MUD CAKE
 MCST.F                55:   MUD CAKE SAMPLE TEMPERATURE
 MFSS.               CALC:   MUD FILTRATE SAMPLE SOURCE
 MCSS.               CALC:   MUD CAKE SAMPLE SOURCE
 RMB .OHMM            .08:   RESISTIVITY MUD AT BHT
 BHT .F                86:   BOTTOM HOLE TEMPERATURE
 TCS .HRS               3:   TIME CURCULATED STOPPED
 MRT .F               100:   MAXIMUM RECORDED TEMPERATURE
 LUN .               6270:   LOGGING UNIT NUMBER
 LUL .                 FM:   LOGGING UNIT LOCATION
 ENGI.          E. GOVETT:   RECORDING ENGINEER
 WITN.      GROOMS, LUERS:   WITNESSED BY
 CLNT.            A2DTECH:   CLIENT CODE
 ORIG.           5" PRINT:   ORIGIN OF DATA
 UWI .       490251102500:   UNIQUE WELL ID
 DICO. A2D Technologies, Inc.:   DIGITIZING COMPANY
~OTHER INFORMATION
~A    DEPT     SPR       RILD       RILM       RFOC       CALS         GRS        AC   
# ...
  459.0000   -55.9160     6.9304     5.6626     9.9140     7.3851    98.8811    99.4696
  459.5000   -56.0507     6.7454     5.4122     9.7842     7.3860    99.6346   100.3066
  460.0000   -56.0350     6.6570     5.5735     7.2160     7.3869   103.6570   102.8654
  460.5000   -56.0200     6.6617     5.8521     6.5518     7.3878   104.2593   105.7258
  461.0000   -55.8560     6.7128     6.1022     6.8837     7.3887    99.9634   106.2484
  461.5000   -55.6919     6.8588     6.3213     8.0240     7.3896    95.9724   105.3381
  462.0000   -55.5279     7.1060     6.4586     9.2243     7.3905    95.2270   102.8440
  462.5000   -55.3639     7.5693     6.6448    10.0319     7.3914    95.9930   100.7271
  463.0000   -55.0508     8.1190     6.7891    10.5383     7.3923    96.8925    99.1380
  463.5000   -54.8868     8.6484     6.9366    10.6929     7.3932    98.6761    98.1523
  464.0000   -54.7227     9.2123     7.0383    10.8499     7.3941   101.0641    97.2420
  464.5000   -54.5587     9.6108     7.1415    11.0857     7.3950   101.2403    96.4825
  465.0000   -54.3947     9.8883     7.1465    11.1691     7.3959   100.7876    95.8738
  465.5000   -54.3797    10.0335     7.1515    11.2546     7.3968   100.3527    95.2652
  466.0000   -54.2156     9.9021     7.2564    11.2739     7.3977    99.4717    94.8839
  466.5000   -54.2006     9.8388     7.4140    11.3487     7.3986    96.2133    94.9636
  467.0000   -54.1856     9.7116     7.5751    11.3564     7.3995    96.2238    95.2505
  467.5000   -54.1706     9.6495     7.7396    11.2807     7.4004    96.5316    95.3960
  468.0000   -54.3047     9.5248     7.8531    11.1381     7.4013    96.6907    95.4660
  468.5000   -54.2896     9.4655     7.9683    11.1459     7.4022    96.9984    95.3853
  469.0000   -54.4274     9.4708     7.9738    11.1536     7.4032    97.1575    95.0783
  469.5000   -54.4087     9.4774     7.9794    11.1614     7.4039    97.3166    94.6959
  470.0000   -54.3937     9.4840     7.9850    11.1692     7.4047    97.3272    94.0118
  470.5000   -54.5315     9.4906     8.0461    11.1770     7.4056    97.0405    93.7802
  471.0000   -54.5127     9.5633     8.1078    11.1848     7.4065    95.2680    94.3028
  471.5000   -54.6505     9.6366     8.2267    11.1926     7.4074    93.8574    95.5795
  472.0000   -54.6355     9.7781     8.3473    11.2005     7.3935    92.5923    96.1788
  472.5000   -54.9185     9.8531     8.3531    11.2083     7.3944    92.3252    95.2671
  473.0000   -55.0681     9.8599     8.2439    11.1366     7.3953    92.7865    94.8847
  473.5000   -55.3473     9.8668     8.1913    11.0674     7.3962    93.9807    94.8794
  474.0000   -55.7677     9.7376     8.0856    10.8490     7.3971    96.2201    94.9508
  474.5000   -56.0547     9.6099     8.0232    10.6330     7.3980    98.6080    95.0949
  475.0000   -56.3338     9.3535     7.9200    10.3493     7.3989    99.6587    95.4667
  475.5000   -56.7659     9.1038     7.7640    10.1433     7.3847    99.2234    95.9138
  476.0000   -57.0492     8.8607     7.5586     9.8044     7.3858    96.7080    96.5118
  476.5000   -57.4814     8.5645     7.3077     9.5428     7.3867    95.8243    97.0647
  477.0000   -57.9136     8.2209     6.9657     9.2240     7.3876    96.1347    97.8065
  477.5000   -58.3453     7.7285     6.6432     8.9779     7.3885    97.3339    98.4729
  478.0000   -58.7773     6.9692     6.2041     8.6180     7.3894    98.6818    99.0638
  478.5000   -59.0611     6.0282     5.7927     8.3880     7.3903    99.5838    99.7309
  479.0000   -59.4925     5.1423     5.1884     8.1078     7.3912    99.0000   100.7043
  479.5000   -59.7756     4.0925     3.9623     7.7290     7.3921    98.1190   101.6794
  480.0000   -60.0586     3.5154     3.1985     6.9702     7.3928    98.5753   103.4086
  480.5000   -60.1964     3.1701     2.6916     5.7042     7.3937   105.4209   107.7773
  481.0000   -60.1776     3.0009     2.5306     4.3554     7.3946   111.3750   112.9756
  481.5000   -59.8646     2.9203     2.5145     3.5153     7.3955   111.1384   119.3051
  482.0000   -59.4025     2.9021     2.6418     3.0834     7.3964   104.4493   126.3887
  482.5000   -59.0894     2.9864     2.9332     3.0426     7.3973    96.5820   129.9279
  483.0000   -58.6273     3.1592     3.3023     3.9089     7.3982    91.4790   127.1322
  483.5000   -58.3142     3.4122     3.7696     5.0559     7.3991    90.1769   121.4707
  484.0000   -57.8521     3.8422     4.0711     6.1909     7.4000    90.3458   113.2452
  484.5000   -57.5391     4.4482     4.4272     7.9996     7.4009    90.0490   104.1146
  485.0000   -57.2260     5.2218     4.9843     8.1746     7.4018    91.8429   100.7911
  485.5000   -56.9130     5.9538     5.5342     8.0118     7.4027    94.9738   100.3346
  486.0000   -56.5999     6.6523     5.7333     8.0824     7.4037    94.3900   100.8571
  486.5000   -56.2868     7.2143     5.8578     8.4840     7.4046    93.3578   100.5488
  487.0000   -55.9738     7.5695     6.0686     8.7879     7.4055    93.6681   100.0155
  487.5000   -55.6607     7.7818     6.3307     9.0396     7.4064    94.2730    99.6091
  488.0000   -55.4967     7.8415     6.6500     9.1089     7.4073    93.9864    99.3275
  488.5000   -55.3326     7.8469     6.8417     9.1153     7.4082    93.1054    99.6238
  489.0000   -55.1686     7.8524     6.8941     9.1216     7.4091    92.8161    99.7693
  489.5000   -55.1536     7.8579     6.8040     9.1280     7.4100    92.6780    99.8393
  490.0000   -54.9925     7.8634     6.3970     9.1344     7.4109    92.5400    99.8340
  490.5000   -54.9518     7.8689     6.0983     9.1408     7.4118  -999.2500    99.8287
  491.0000   -54.8137     7.8744     6.1450     9.1471     7.4125  -999.2500   100.0496
  491.5000   -54.6498     7.8799     6.4174     9.1535     7.4134  -999.2500   100.7229
  492.0000   -54.6349     7.8854     6.6469     9.1599     7.3994  -999.2500   101.2455
  492.5000   -54.7692     7.8350     6.7373     9.1663     7.4003  -999.2500   101.2402
  493.0000   -54.7541     7.8418     6.4598     9.1093     7.4012  -999.2500   101.3857
  493.5000   -54.8908     7.7917     6.2491     9.0511     7.4021  -999.2500   101.8328
  494.0000   -54.8733     7.7432     6.1698     8.9948     7.4030  -999.2500   102.0537
  494.5000   -55.0075     7.6431     6.1741     9.0027     7.4039  -999.2500   102.1251
  495.0000   -55.1416     7.5956     6.1784     8.9451     7.4048  -999.2500   102.0430
  495.5000   -55.1263     7.5483     6.2257     8.8895     7.4057  -999.2500   101.8114
  496.0000   -55.2608     7.5000     6.3170     8.5940     7.4066  -999.2500   101.6553
  496.5000   -55.2454     7.5066     6.4542     8.1925     7.4075  -999.2500   101.8021
  497.0000   -55.3800     7.4586     6.6403     7.8641     7.3933  -999.2500   102.0971
  497.5000   -55.3644     7.4651     6.7845     8.2039     7.3944  -999.2500   102.3180
  498.0000   -55.5022     7.4703     6.8840     8.6181     7.3953  -999.2500   102.4032
  498.5000   -55.4834     7.5276     6.8412     8.8054     7.3962  -999.2500   102.4595
  499.0000   -55.6174     7.5854     6.7975     8.8729     7.3972  -999.2500   102.3715
  499.5000  -999.2500  -999.2500  -999.2500     8.8177     7.3981  -999.2500   101.9857
  500.0000  -999.2500  -999.2500  -999.2500     8.7629     7.3990  -999.2500   100.8597
  500.5000  -999.2500  -999.2500  -999.2500     8.7069     7.3999  -999.2500    98.0640
  501.0000  -999.2500  -999.2500  -999.2500     8.6527     7.4008  -999.2500    92.7797
  501.5000  -999.2500  -999.2500  -999.2500     8.6603  -999.2500  -999.2500  -999.2500
  502.0000  -999.2500  -999.2500  -999.2500     8.6663  -999.2500  -999.2500  -999.2500
  502.5000  -999.2500  -999.2500  -999.2500     8.6712  -999.2500  -999.2500  -999.2500
  503.0000  -999.2500  -999.2500  -999.2500     8.6170  -999.2500  -999.2500  -999.2500
  503.5000  -999.2500  -999.2500  -999.2500     8.6230  -999.2500  -999.2500  -999.2500
  504.0000  -999.2500  -999.2500  -999.2500     8.5101  -999.2500  -999.2500  -999.2500
