~VERSION INFORMATION
 VERS.                2.0:   CWLS LOG ASCII STANDARD - VERSION 2.0
 WRAP.                 NO:   ONE LINE PER DEPTH STEP
~WELL INFORMATION
#MNEM.UNIT      DATA TYPE    INFORMATION
#----------   ------------   ------------------------------
 STRT.F            4.0000:   START DEPTH
 STOP.F          584.0000:   STOP DEPTH
 STEP.F            0.1000:   STEP LENGTH
 NULL.          -999.2500:   NO VALUE
 COMP.       F D SERV INC:   COMPANY
 WELL. N P R 3 SX-3 #62-3:   WELL
 FLD .             TEAPOT:   FIELD
 LOC .       S3 T38N R78W:   LOCATION
 CNTY.            NATRONA:   COUNTY
 STAT.            WYOMING:   STATE
 CTRY. UNITED STATES OF AMERICA:   COUNTRY
 SRVC.     Atlas Wireline:   SERVICE COMPANY
 DATE.        17-APR-1992:   LOGDATE
 API .       490252251600:   API NUMBER
~CURVE INFORMATION
#MNEM.UNIT       API CODE    CURVE DESCRIPTION
#----------   ------------   ------------------------------
 DEPT.F                  :   
 GRR .GAPI   07 310 01 00:   GAMMA RAY
 RILD.OHMM   07 120 46 00:   INDUCTION LOG DEEP RESISTIVITY
 RILM.OHMM   07 120 44 00:   INDUCTION LOG MEDIUM RESISTIVITY
~PARAMETER INFORMATION
#MNEM.UNIT          VALUE    DESCRIPTION
#----------   ------------   ------------------------------
 PD  .                 GL:   PERMANENT DATUM
 EPD .F              5135:   ELEVATION PERMANENT DATUM
 LMF .                 KB:   LOG MEASURED FROM
 DAPD.F                 5:   FEET ABOVE PERMANENT DATUM
 DMF .                 KB:   DRILLING MEASURED FROM
 EKB .F              5140:   KELLING BUSHING
 EDF .F              5139:   DRILLING FLOOR
 EGL .F              5135:   GROUND LEVEL
 DATE.        17-APR-1992:   RUN DATE
 RUN .                  1:   RUN NUMBER
 DD  .F               589:   DEPTH DRILLER
 DL  .F               590:   DEPTH LOGGER
 BLI .F               584:   BOTTOM LOG INTERVAL
 TLI .F                48:   TOP LOG INTERVAL
 CS  .IN            8.625:   CASING SIZE
 CBD .F                48:   CASING BOTTOM DRILLER
 CBL .F                48:   CASING BOTTOM LOGGER
 BS  .IN            7.875:   BIT SIZE
 BSD .F               589:   BIT SIZE AT DEPTH
 DFT .                AIR:   DRILLING FLUID TYPE
 TCS .HRS               2:   TIME CURCULATED STOPPED
 MRT .F                85:   MAXIMUM RECORDED TEMPERATURE
 LUN .            HL-6274:   LOGGING UNIT NUMBER
 LUL .             CASPER:   LOGGING UNIT LOCATION
 ENGI.             RAUTIO:   RECORDING ENGINEER
 WITN.        GARY STRONG:   WITNESSED BY
 CLNT.            A2DTECH:   CLIENT CODE
 ORIG.           5" PRINT:   ORIGIN OF DATA
 UWI .       490252251600:   UNIQUE WELL ID
 DICO. A2D Technologies, Inc.:   DIGITIZING COMPANY
~OTHER INFORMATION
~A    DEPT      GRR      RILD       RILM   
# ...
  113.2000   120.7984     9.6059     9.4428
  113.3000   121.0836     9.7157     9.4975
  113.4000   121.7627     9.7907     9.6283
  113.5000   122.3605     9.7890     9.7175
  113.6000   122.8726     9.7873     9.7623
  113.7000   123.5625     9.7858     9.7615
  113.8000   124.8408     9.7842     9.7513
  113.9000   125.8659     9.7825     9.6918
  114.0000   127.0957     9.7520     9.6380
  114.1000   128.0812     9.6409     9.5411
  114.2000   128.8498     9.5745     9.3743
  114.3000   129.5821     9.5272     9.2093
  114.4000   130.1324     9.5049     9.1557
  114.5000   130.3688     9.5259     9.0964
  114.6000   130.6242     9.5686     9.1426
  114.7000   130.7538     9.5667     9.1588
  114.8000   130.5423     9.6198     9.1827
  114.9000   129.7996     9.6306     9.2349
  115.0000   129.4998     9.6605     9.2919
  115.1000   129.4988     9.6948     9.4811
  115.2000   129.3383     9.7012     9.6175
  115.3000   129.1837     9.7595     9.7497
  115.4000   129.2300     9.7580     9.7932
  115.5000   129.4937     9.7563     9.7467
  115.6000   129.4925     9.7547     9.7459
  115.7000   129.4913     9.7530     9.6361
  115.8000   130.0371     9.7514     9.5249
  115.9000   130.9004     9.7495     9.4749
  116.0000   131.4372     9.7481     9.4556
  116.1000   132.2986     9.7465     9.4004
  116.2000   132.5233     9.7702     9.3410
  116.3000   132.9487     9.8115     9.2912
  116.4000   133.3467     9.8099     9.2371
  116.5000   133.6603     9.8767     9.2091
  116.6000   134.1700     9.8754     9.2083
  116.7000   134.4254     9.8737     9.2042
  116.8000   134.6809     9.8721     9.1425
  116.9000   134.7887     9.8704     9.1419
  117.0000   134.8791     9.8687     9.1411
  117.1000   135.0989     9.8671     9.1180
  117.2000   135.0974     9.8226     9.0759
  117.3000   135.0963     9.7951     9.0751
  117.4000   135.0950     9.7747     9.0223
  117.5000   135.0938     9.7236     9.0105
  117.6000   135.0234     9.7218     8.9799
  117.7000   134.7787     9.7204     8.9462
  117.8000   134.7773     9.7187     8.9455
  117.9000   134.5621     9.6900     8.9447
  118.0000   134.1459     9.6175     8.9440
  118.1000   133.7337     9.5089     8.9433
  118.2000   133.4758     9.4443     8.9425
  118.3000   133.2087     9.4429     8.9418
  118.4000   132.7124     9.4413     8.9409
  118.5000   132.3896     9.4397     8.9401
  118.6000   132.1317     9.4382     8.9395
  118.7000   131.8737     9.4366     8.9387
  118.8000   131.6159     9.4350     8.9380
  118.9000   131.3261     9.4335     8.9372
  119.0000   131.1000     9.4003     8.9365
  119.1000   130.8421     9.3646     8.9356
  119.2000   130.6975     9.3631     8.8934
  119.3000   130.7537     9.3614     8.8721
  119.4000   131.0093     9.3599     8.8713
  119.5000   131.2646     9.3583     8.8706
  119.6000   131.7224     9.3286     8.8698
  119.7000   132.2345     9.2900     8.8691
  119.8000   132.7466     9.2831     8.8683
  119.9000   133.1889     9.2221     8.8676
  120.0000   133.1874     9.1736     8.8668
  120.1000   133.6578     9.1549     8.8604
  120.2000   133.9900     9.1534     8.8035
  120.3000   134.2454     9.1386     8.8028
  120.4000   134.4325     9.0866     8.7674
  120.5000   134.4312     9.0848     8.7400
  120.6000   134.4298     8.9971     8.7263
  120.7000   134.4288     8.9241     8.6778
  120.8000   134.1124     8.8713     8.6769
  120.9000   133.6995     8.8089     8.6763
  121.0000   133.4875     8.7047     8.6756
  121.1000   133.4862     8.6540     8.6749
  121.2000   133.2383     8.6412     8.6643
  121.3000   133.1713     8.6119     8.6130
  121.4000   133.3050     8.5610     8.4672
  121.5000   133.5603     8.5036     8.4329
  121.6000   133.8392     8.3973     8.3250
  121.7000   134.4161     8.3960     8.1827
  121.8000   134.4150     8.3946     8.1226
  121.9000   134.5821     8.3689     7.9717
  122.0000   134.8375     8.3194     7.9288
  122.1000   135.1496     8.2701     7.8826
  122.2000   135.6608     8.2147     7.8145
  122.3000   135.9163     8.1726     7.7494
  122.4000   136.1717     8.1550     7.7456
  122.5000   136.5730     8.1328     7.6940
  122.6000   136.9950     8.0739     7.6934
  122.7000   137.2845     7.9808     7.6643
  122.8000   137.8399     7.9246     7.6007
  122.9000   138.0738     7.9235     7.5320
  123.0000   138.3293     7.9222     7.5313
  123.1000   138.5847     7.9033     7.5307
  123.2000   138.9074     7.8644     7.5301
  123.3000   139.3963     7.8630     7.5294
  123.4000   139.3948     7.7750     7.5288
  123.5000   139.6062     7.7179     7.5282
  123.6000   139.8616     7.6961     7.5275
  123.7000   140.1171     7.6948     7.5270
  123.8000   140.3277     7.6935     7.5263
  123.9000   140.3262     7.6921     7.5257
  124.0000   140.3250     7.6909     7.5250
  124.1000   140.3238     7.6896     7.5244
  124.2000   140.3225     7.6883     7.5237
  124.3000   140.3212     7.6870     7.5231
  124.4000   140.3200     7.6857     7.5225
  124.5000   140.3186     7.6843     7.5418
  124.6000   140.3175     7.6832     7.5740
  124.7000   140.3162     7.6819     7.5748
  124.8000   140.3150     7.6806     7.6257
  124.9000   140.3137     7.6793     7.6613
  125.0000   140.3125     7.6780     7.6780
  125.1000   140.0545     7.6767     7.6948
  125.2000   139.9975     7.6754     7.7307
  125.3000   139.9963     7.6741     7.7299
  125.4000   139.9950     7.6891     7.7293
  125.5000   139.9604     7.7323     7.7286
  125.6000   139.6799     7.7782     7.7522
  125.7000   139.4446     7.8193     7.7964
  125.8000   139.0084     7.8632     7.8408
  125.9000   138.4937     7.8837     7.8896
  126.0000   137.8456     7.8964     7.9304
  126.1000   136.8181     7.9451     7.9437
  126.2000   135.6098     8.0466     7.9430
  126.3000   134.5505     8.0865     7.9546
  126.4000   133.5774     8.1956     8.0025
  126.5000   132.8060     8.2927     8.1092
  126.6000   132.0351     8.3635     8.1481
  126.7000   131.2287     8.5041     8.1648
  126.8000   130.2477     8.5602     8.2236
  126.9000   129.2199     8.6826     8.3462
  127.0000   128.1919     8.7699     8.3941
  127.1000   127.2413     8.8192     8.4900
  127.2000   126.4918     8.8687     8.5878
  127.3000   125.9086     8.9195     8.6582
  127.4000   125.2402     8.9180     8.7254
  127.5000   124.6354     8.9166     8.8184
  127.6000   124.1208     8.9150     8.8722
  127.7000   123.6063     8.9312     8.8715
  127.8000   123.0900     8.9747     8.8708
  127.9000   122.5772     8.9729     8.8959
  128.0000   122.2625     8.9715     8.9315
  128.1000   121.8604     8.9700     8.9307
  128.2000   121.4342     8.9685     8.9299
  128.3000   121.2087     8.9670     8.9293
  128.4000   121.2074     8.9655     8.9285
  128.5000   121.2063     8.9638     8.9278
  128.6000   121.3825     8.9625     8.9270
  128.7000   121.6378     8.9610     8.9263
  128.8000   121.9590     8.9595     8.9254
  128.9000   122.4713     8.9580     8.9247
  129.0000   123.0748     8.9565     8.9240
  129.1000   123.7062     8.9547     8.9039
  129.2000   124.3199     8.9535     8.8604
  129.3000   124.8320     8.9520     8.8596
  129.4000   125.3008     8.9505     8.8589
  129.5000   125.5687     8.9489     8.8582
  129.6000   125.8117     8.9474     8.8574
  129.7000   126.0671     8.8967     8.8406
  129.8000   126.1900     8.8822     8.7942
  129.9000   126.1120     8.8263     8.7934
  130.0000   125.8126     8.7560     8.7479
  130.1000   124.9361     8.7545     8.6632
  130.2000   124.7134     8.7529     8.6089
  130.3000   124.4554     8.7063     8.6082
  130.4000   124.0873     8.6892     8.6075
  130.5000   123.6812     8.6639     8.6066
  130.6000   123.6800     8.6258     8.6060
  130.7000   123.6788     8.6243     8.6053
  130.8000   123.6775     8.6226     8.6046
  130.9000   123.9628     8.5797     8.6039
  131.0000   124.6499     8.5600     8.6031
  131.1000   125.7066     8.5585     8.6024
  131.2000   127.1099     8.5469     8.6017
  131.3000   128.0385     8.4961     8.6010
