~VERSION INFORMATION
 VERS.                2.0:   CWLS LOG ASCII STANDARD - VERSION 2.0
 WRAP.                 NO:   ONE LINE PER DEPTH STEP
~WELL INFORMATION
#MNEM.UNIT      DATA TYPE    INFORMATION
#----------   ------------   ------------------------------
 STRT.F            0.0000:   START DEPTH
 STOP.F          550.0000:   STOP DEPTH
 STEP.F            0.1000:   STEP LENGTH
 NULL.          -999.2500:   NO VALUE
 COMP.       F D SERV INC:   COMPANY
 WELL. NAVAL PETROLEUM RESERVE 3 SX-3 #77-4-3:   WELL
 FLD .          N.P.R. #3:   FIELD
 LOC .       S3 T38N R78W:   LOCATION
 CNTY.            NATRONA:   COUNTY
 STAT.            WYOMING:   STATE
 CTRY. UNITED STATES OF AMERICA:   COUNTRY
 SRVC.      Western Atlas:   SERVICE COMPANY
 DATE.        28-OCT-1992:   LOGDATE
 API .       490252255100:   API NUMBER
~CURVE INFORMATION
#MNEM.UNIT       API CODE    CURVE DESCRIPTION
#----------   ------------   ------------------------------
 DEPT.F                  :   
 GRR .GAPI   07 310 01 00:   GAMMA RAY FROM RESISTIVITY
 RILD.OHMM   07 120 46 00:   DEEP INDUCTION RESISTIVITY
 RILM.OHMM   07 120 44 00:   INDUCTION LOG MEDIUM RESISTIVITY
~PARAMETER INFORMATION
#MNEM.UNIT          VALUE    DESCRIPTION
#----------   ------------   ------------------------------
 PD  .                 GL:   PERMANENT DATUM
 EPD .F              5160:   ELEVATION PERMANENT DATUM
 LMF .                 KB:   LOG MEASURED FROM
 DAPD.F                10:   FEET ABOVE PERMANENT DATUM
 DMF .                 KB:   DRILLING MEASURED FROM
 EKB .F              5170:   KELLING BUSHING
 EDF .F              5169:   DRILLING FLOOR
 EGL .F              5160:   GROUND LEVEL
 DATE.        28-OCT-1992:   RUN DATE
 RUN .                  1:   RUN NUMBER
 DD  .F               555:   DEPTH DRILLER
 DL  .F               558:   DEPTH LOGGER
 BLI .F               550:   BOTTOM LOG INTERVAL
 CS  .IN            8.625:   CASING SIZE
 CBD .F                54:   CASING BOTTOM DRILLER
 CBL .F                54:   CASING BOTTOM LOGGER
 BS  .IN            7.875:   BIT SIZE
 BSD .F               555:   BIT SIZE AT DEPTH
 DFT .           AIR FOAM:   DRILLING FLUID TYPE
 TCS .HRS               1:   TIME CURCULATED STOPPED
 MRT .F                65:   MAXIMUM RECORDED TEMPERATURE
 LUN .            HL-6274:   LOGGING UNIT NUMBER
 LUL .             CASPER:   LOGGING UNIT LOCATION
 ENGI.             RAUTIO:   RECORDING ENGINEER
 WITN.     BRUCE ANDERSON:   WITNESSED BY
 CLNT.            A2DTECH:   CLIENT CODE
 ORIG.           5" PRINT:   ORIGIN OF DATA
 UWI .       490252255100:   UNIQUE WELL ID
 DICO. A2D Technologies, Inc.:   DIGITIZING COMPANY
~OTHER INFORMATION
~A    DEPT      GRR      RILD       RILM   
# ...
  491.4000   119.3760    12.3165    12.1924
  491.5000   119.3798    12.3175    12.1919
  491.6000   119.6768    12.3185    12.1914
  491.7000   119.6759    12.2819    12.1909
  491.8000   119.6747    12.2350    12.1353
  491.9000   119.5793    12.2360    12.1052
  492.0000   119.3687    12.2372    12.1047
  492.1000   119.3675    12.2381    12.0945
  492.2000   118.8929    12.2391    12.0195
  492.3000   118.5750    12.2401    12.0191
  492.4000   118.3239    12.2246    12.0185
  492.5000   118.0728    12.1571    12.0180
  492.6000   117.8440    12.1583    12.0175
  492.7000   117.8426    12.1591    12.0135
  492.8000   117.6230    12.1602    11.9330
  492.9000   117.5369    12.1612    11.9325
  493.0000   117.5357    12.1622    11.8900
  493.1000   117.5344    12.1633    11.8487
  493.2000   117.5332    12.1642    11.8482
  493.3000   117.5318    12.1652    11.8476
  493.4000   117.3305    12.1663    11.8472
  493.5000   117.0794    12.1673    11.7962
  493.6000   116.7352    12.1633    11.7639
  493.7000   116.2343    12.0849    11.7634
  493.8000   115.7049    12.0858    11.7629
  493.9000   115.7038    12.0868    11.7623
  494.0000   115.5205    12.0587    11.7031
  494.1000   115.3979    11.9908    11.6797
  494.2000   115.3967    11.9224    11.6792
  494.3000   115.3954    11.9234    11.6638
  494.4000   115.3941    11.8718    11.5971
  494.5000   115.3930    11.8425    11.5966
  494.6000   115.3918    11.8206    11.5439
  494.7000   115.3906    11.7621    11.5151
  494.8000   115.4460    11.7633    11.5146
  494.9000   115.6917    11.7642    11.5051
  495.0000   115.6904    11.7189    11.4336
  495.1000   115.6892    11.6844    11.4331
  495.2000   115.8337    11.6683    11.3869
  495.3000   116.0824    11.6026    11.3528
  495.4000   116.2928    11.5257    11.3350
  495.5000   116.2913    11.5265    11.2698
  495.6000   116.7595    11.4875    11.1941
  495.7000   117.4391    11.4483    11.1937
  495.8000   118.1875    11.4379    11.1540
  495.9000   119.0836    11.3707    11.0899
  496.0000   120.3115    11.3716    11.0373
  496.1000   121.4432    11.3245    11.0368
  496.2000   122.0918    11.2945    10.9758
  496.3000   122.8400    11.2756    10.9127
  496.4000   123.5884    11.2178    10.8826
  496.5000   124.2813    11.2189    10.8822
  496.6000   124.7798    11.2198    10.8761
  496.7000   125.2782    11.1786    10.8056
  496.8000   125.7768    11.1437    10.7513
  496.9000   126.2754    11.1303    10.7297
  497.0000   126.7739    11.0676    10.7292
  497.1000   127.1978    11.0053    10.7153
  497.2000   127.1963    10.9930    10.6536
  497.3000   127.1951    10.9579    10.5923
  497.4000   127.3740    10.8961    10.5789
  497.5000   127.6227    10.8347    10.5784
  497.6000   127.7985    10.7692    10.5780
  497.7000   127.7973    10.7700    10.5695
  497.8000   127.7959    10.7273    10.5036
  497.9000   127.7948    10.6970    10.5032
  498.0000   127.7936    10.6810    10.5027
  498.1000   127.6842    10.6244    10.4735
  498.2000   127.4331    10.6254    10.4289
  498.3000   127.1810    10.5751    10.4257
  498.4000   126.6800    10.5532    10.3555
  498.5000   126.3763    10.5294    10.3062
  498.6000   126.1253    10.4815    10.2828
  498.7000   125.7841    10.4826    10.2593
  498.8000   125.2831    10.4250    10.2105
  498.9000   124.7477    10.4115    10.2100
  499.0000   124.7466    10.4123    10.1538
  499.1000   124.3872    10.3938    10.1382
  499.2000   124.1372    10.3352    10.1378
  499.3000   124.1360    10.2708    10.1197
  499.4000   124.1347    10.2716    10.0615
  499.5000   124.1334    10.2327     9.9961
  499.6000   124.1323    10.2019     9.9958
  499.7000   124.1311    10.1885     9.9953
  499.8000   124.1299    10.1327     9.9701
  499.9000   124.2359    10.1337     9.9127
  500.0000   124.7344    10.0875     9.8557
  500.1000   124.7332    10.0302     9.8553
  500.2000   124.9283     9.9728     9.8549
  500.3000   125.1769     9.9154     9.8545
  500.4000   125.3366     9.8580     9.8540
  500.5000   125.3707     9.8006     9.8536
  500.6000   125.6376     9.7872     9.8532
  500.7000   125.8681     9.7558     9.8015
  500.8000   126.1168     9.7192     9.7839
  500.9000   126.2410     9.7192     9.7835
  501.0000   126.3105     9.7192     9.7831
  501.1000   126.5421     9.7192     9.7827
  501.2000   126.5406     9.7192     9.7822
  501.3000   126.9664     9.7192     9.7819
  501.4000   127.3052     9.7192     9.7815
  501.5000   127.6601     9.7192     9.7811
  501.6000   128.1586     9.7192     9.7711
  501.7000   128.6592     9.7192     9.7123
  501.8000   129.4046     9.7192     9.7119
  501.9000   130.3481     9.7192     9.7115
  502.0000   131.3465     9.7192     9.7111
  502.1000   132.2568     9.7192     9.7275
  502.2000   133.0051     9.7192     9.7782
  502.3000   133.8111     9.7192     9.7777
  502.4000   134.5020     9.7192     9.7774
  502.5000   135.0734     9.7192     9.7770
  502.6000   135.5719     9.7192     9.7766
  502.7000   136.1401     9.7177     9.7762
  502.8000   136.8401     9.6517     9.7758
  502.9000   136.8387     9.6517     9.7753
  503.0000   137.2625     9.6517     9.7749
  503.1000   137.4434     9.6517     9.7745
  503.2000   137.2318     9.6517     9.7549
  503.3000   136.6792     9.6517     9.7058
  503.4000   135.9223     9.6517     9.7054
  503.5000   135.1776     9.6517     9.7050
  503.6000   134.0384     9.6199     9.7046
  503.7000   132.4860     9.5846     9.7042
  503.8000   130.6989     9.5846     9.7038
  503.9000   128.9119     9.5846     9.7034
  504.0000   127.1249     9.5846     9.7029
  504.1000   126.0587     9.5846     9.7026
  504.2000   125.6703     9.5846     9.7022
  504.3000   124.9280     9.5846     9.7017
  504.4000   124.3506     9.5846     9.7013
  504.5000   124.1325     9.5846     9.7009
  504.6000   124.0437     9.5846     9.7005
  504.7000   124.0419     9.5846     9.7001
  504.8000   124.0401     9.5846     9.6997
  504.9000   124.0382     9.5846     9.6993
  505.0000   124.0361     9.5846     9.6989
  505.1000   124.4578     9.5846     9.6984
  505.2000   124.9602     9.5846     9.6981
  505.3000   125.2449     9.5846     9.6619
  505.4000   125.3581     9.5846     9.6299
  505.5000   125.8543     9.5846     9.6179
  505.6000   126.1496     9.5846     9.5622
  505.7000   126.3549     9.5846     9.5618
  505.8000   126.4498     9.5846     9.5614
  505.9000   126.4480     9.5846     9.5610
  506.0000   126.4461     9.5846     9.5235
  506.1000   126.4443     9.5730     9.4278
  506.2000   126.4421     9.5180     9.4274
  506.3000   126.4407     9.5180     9.3783
  506.4000   126.2883     9.5180     9.3244
  506.5000   125.9352     9.5180     9.2957
  506.6000   125.3815     9.5180     9.2685
  506.7000   124.6124     9.5086     9.1643
  506.8000   124.1137     9.4519     9.1021
  506.9000   123.6077     9.3994     9.0593
  507.0000   123.1017     9.3454     9.0381
  507.1000   122.5956     9.2916     8.9984
  507.2000   122.0896     9.2562     8.9122
  507.3000   121.5666     9.2421     8.9118
  507.4000   121.5648     9.1281     8.8633
  507.5000   121.9474     9.0794     8.8123
  507.6000   122.7313     9.0646     8.7874
  507.7000   123.5592     9.0380     8.7870
  507.8000   124.1376     9.0017     8.7827
  507.9000   125.1975     8.9967     8.7252
  508.0000   125.9121     8.9391     8.6820
  508.1000   126.6666     8.8935     8.6639
  508.2000   127.2849     8.8423     8.6635
  508.3000   127.8718     8.8153     8.6529
  508.4000   128.5600     8.8019     8.6026
  508.5000   128.8284     8.7541     8.6022
  508.6000   129.2945     8.7541     8.5639
  508.7000   129.4319     8.7113     8.5417
  508.8000   129.5612     8.6612     8.5414
  508.9000   129.8115     8.6329     8.5410
  509.0000   130.0336     8.6217     8.5406
  509.1000   129.7279     8.5729     8.4963
  509.2000   129.4973     8.5729     8.4806
  509.3000   129.4209     8.5729     8.4576
  509.4000   129.4191     8.5432     8.4210
  509.5000   129.4173     8.5133     8.4252
