~VERSION INFORMATION
 VERS.                2.0:   CWLS LOG ASCII STANDARD - VERSION 2.0
 WRAP.                 NO:   ONE LINE PER DEPTH STEP
~WELL INFORMATION
#MNEM.UNIT      DATA TYPE    INFORMATION
#----------   ------------   ------------------------------
 STRT.F            0.0000:   START DEPTH
 STOP.F          652.0000:   STOP DEPTH
 STEP.F            0.5000:   STEP LENGTH
 NULL.          -999.2500:   NO VALUE
 COMP.   FLUOR DANIEL INC:   COMPANY
 WELL.   68-1 X 34 #68-34:   WELL
 FLD .             TEAPOT:   FIELD
 LOC .      S34 T39N R78W:   LOCATION
 CNTY.            NATRONA:   COUNTY
 STAT.            WYOMING:   STATE
 CTRY. UNITED STATES OF AMERICA:   COUNTRY
 SRVC.      Western Atlas:   SERVICE COMPANY
 DATE.        08-APR-1995:   LOGDATE
 API .       490252269900:   API NUMBER
~CURVE INFORMATION
#MNEM.UNIT       API CODE    CURVE DESCRIPTION
#----------   ------------   ------------------------------
 DEPT.F                  :   
 GRR .GAPI   07 310 01 00:   GAMMA RAY
 RILD.OHMM   07 120 46 00:   INDUCTION LOG DEEP RESISTIVITY
 RILM.OHMM   07 120 44 00:   RESITIVITY LONG MEDIUM
~PARAMETER INFORMATION
#MNEM.UNIT          VALUE    DESCRIPTION
#----------   ------------   ------------------------------
 PD  .                 GL:   PERMANENT DATUM
 EPD .F              5106:   ELEVATION PERMANENT DATUM
 LMF .                 KB:   LOG MEASURED FROM
 DAPD.F                10:   FEET ABOVE PERMANENT DATUM
 DMF .                 KB:   DRILLING MEASURED FROM
 EKB .F              5116:   KELLING BUSHING
 EDF .F              5115:   DRILLING FLOOR
 EGL .F              5106:   GROUND LEVEL
 DATE.        08-APR-1995:   RUN DATE
 RUN .                  1:   RUN NUMBER
 DD  .F               660:   DEPTH DRILLER
 DL  .F               660:   DEPTH LOGGER
 BLI .F               652:   BOTTOM LOG INTERVAL
 TLI .F                54:   TOP LOG INTERVAL
 CS  .IN            9.625:   CASING SIZE
 CBD .F                53:   CASING BOTTOM DRILLER
 CBL .F                54:   CASING BOTTOM LOGGER
 BS  .IN             8.75:   BIT SIZE
 BSD .F               660:   BIT SIZE AT DEPTH
 DFT .                AIR:   DRILLING FLUID TYPE
 MRT .F                90:   MAXIMUM RECORDED TEMPERATURE
 LUN .            HL 6530:   LOGGING UNIT NUMBER
 LUL .             CASPER:   LOGGING UNIT LOCATION
 ENGI.      PAT RASMUSSEN:   RECORDING ENGINEER
 WITN.        GARY STRONG:   WITNESSED BY
 CLNT.            A2DTECH:   CLIENT CODE
 ORIG.           5" PRINT:   ORIGIN OF DATA
 UWI .       490252269900:   UNIQUE WELL ID
 DICO. A2D Technologies, Inc.:   DIGITIZING COMPANY
~OTHER INFORMATION
~A    DEPT      GRR      RILD       RILM   
# ...
  546.0000    87.1019    19.0763    18.9354
  546.5000    85.3090    18.8207    18.6808
  547.0000    83.2159    18.8268    18.5577
  547.5000    83.2187    19.0940    18.4356
  548.0000    85.3453    19.1002    18.5713
  548.5000    86.8178    18.8426    18.5773
  549.0000    86.5212    18.7174    18.7127
  549.5000    85.9251    18.5932    18.7201
  550.0000    86.3177    18.4697    18.4685
  550.5000    88.1335    18.5999    18.3436
  551.0000    88.7463    18.4725    18.2213
  551.5000    89.0587    18.3463    18.2251
  552.0000    90.5763    18.2213    18.2294
  552.5000    94.4974    18.0968    18.2330
  553.0000    96.0125    18.0983    18.2365
  553.5000    96.6256    17.8507    18.1150
  554.0000    94.8350    17.7288    18.1185
  554.5000    93.3397    17.6076    18.1221
  555.0000    93.3539    17.6091    18.1256
  555.5000    93.0147    17.6102    18.1300
  556.0000    89.1688    17.7337    18.1336
  556.5000    87.9743    17.7351    18.1371
  557.0000    88.8907    17.8594    18.1406
  557.5000    93.4638    17.9846    18.2713
  558.0000    94.6305    18.1174    18.2748
  558.5000    93.4388    18.4921    18.4055
  559.0000    87.4351    18.6217    18.7976
  559.5000    80.1532    18.7522    19.4633
  560.0000    79.0366    18.8837    20.0143
  560.5000    80.5546    18.8852    20.1574
  561.0000    82.0696    18.1183    19.4676
  561.5000    83.0084    17.3826    18.5570
  562.0000    85.4034    16.6676    17.6817
  562.5000    90.5275    16.2225    16.8477
  563.0000    93.8471    16.0006    16.3903
  563.5000    90.8260    15.8913    16.0570
  564.0000    90.8650    15.7830    15.8390
  564.5000    92.3801    15.7843    15.6240
  565.0000    95.3990    15.7853    15.5192
  565.5000    98.4680    15.6775    15.5230
  566.0000    99.3342    15.3451    15.4188
  566.5000    99.3455    14.6314    15.2095
  567.0000    99.6576    14.1348    14.6951
  567.5000    99.6692    13.7498    14.2961
  568.0000    98.7808    13.2721    13.9080
  568.5000    96.9876    12.9213    13.5304
  569.0000    96.3946    12.6568    12.9825
  569.5000    97.0105    12.5703    12.7178
  570.0000    97.3252    12.3984    12.5446
  570.5000    97.3365    12.3137    12.4610
  571.0000    97.9493    12.2296    12.3773
  571.5000    98.5874    12.1462    12.2943
  572.0000   100.6816    12.1471    12.2973
  572.5000   100.0914    12.1480    12.2997
  573.0000    98.2982    12.1488    12.3027
  573.5000    94.9010    12.1496    12.3051
  574.0000    93.5088    12.2350    12.3075
  574.5000    93.5230    12.2358    12.3099
  575.0000    93.5343    12.2365    12.3129
  575.5000    94.2227    12.2373    12.3153
  576.0000    97.1688    12.1537    12.3177
  576.5000    97.4809    12.1547    12.3202
  577.0000    97.7930    12.1555    12.3231
  577.5000    99.9600    12.1563    12.3255
  578.0000   101.1267    12.1573    12.3279
  578.5000   100.8344    12.0741    12.3309
  579.0000   102.0516    12.0750    12.2475
  579.5000   102.6644    11.9925    12.2505
  580.0000   100.8741    11.9108    12.2529
  580.5000   102.0884    11.9116    12.1707
  581.0000   104.8065    11.8302    12.0890
  581.5000   104.2163    11.7494    12.0078
  582.0000   104.5312    11.5889    12.0108
  582.5000   105.7455    11.4301    12.0137
  583.0000   109.0651    11.3521    11.9325
  583.5000   111.3326    11.2747    11.7705
  584.0000   114.8049    11.2756    11.6921
  584.5000   113.0117    11.2763    11.6136
  585.0000   107.0080    11.2771    11.6164
  585.5000   107.0698    11.2778    11.5379
  586.0000   112.1462    11.2787    11.5407
  586.5000   112.1576    11.2795    11.6238
  587.0000   110.3644    11.3585    11.7069
  587.5000   108.2704    11.4381    11.8726
  588.0000   107.9810    11.5185    11.9576
  588.5000   106.7922    11.5992    11.9605
  589.0000   107.1042    11.6000    12.0460
  589.5000   110.2489    11.6007    12.1321
  590.0000   114.6485    11.4420    12.0397
  590.5000   114.3591    11.3639    11.8056
  591.0000   113.4653    11.2863    11.6448
  591.5000   113.7804    11.2851    11.4873
  592.0000   113.4908    11.2101    11.4102
  592.5000   112.3019    11.1335    11.3336
  593.0000   111.1074    11.0574    11.3364
  593.5000   110.4952    10.9790    11.3386
  594.0000   110.8350    10.7573    11.3414
  594.5000   111.7485    10.6101    11.2647
  595.0000   113.8651    10.4648    11.1891
  595.5000   113.5006    10.3897    11.1145
  596.0000   109.3793    10.2513    10.9637
  596.5000   108.1877    10.1813    10.7407
  597.0000   106.9960    10.1117    10.5218
  597.5000   107.0075    10.0428    10.4487
  598.0000   107.9237     9.9742    10.2386
  598.5000   109.1380     9.9061    10.0991
  599.0000   111.2546     9.7033     9.8933
  599.5000   112.4692     9.4994     9.6251
  600.0000   116.9944     9.1820     9.3638
  600.5000   120.0132     9.1202     9.1726
  601.0000   118.8133     8.8111     8.9853
  601.5000   116.7151     8.1664     8.5018
  602.0000   119.7296     7.0143     7.7166
  602.5000   123.1581     6.1936     7.1316
  603.0000   126.3619     5.5837     5.9730
  603.5000   128.4742     5.2792     5.1290
  604.0000   140.5113     5.2117     4.6554
  604.5000   148.9411     5.2488     4.9215
  605.0000   149.5479     5.2871     5.3862
  605.5000   146.5491     5.4729     6.0605
  606.0000   133.9263     5.7452     6.6017
  606.5000   120.0987     6.3744     7.3097
  607.0000   118.9009     7.4238     7.8897
  607.5000   118.6089     8.1801     8.5158
  608.0000   117.4147     8.7068     9.1284
  608.5000   113.8127     9.2039     9.3862
  609.0000   111.7144     9.4634     9.5846
  609.5000   113.5277     9.5966     9.7197
  610.0000   116.5422     9.7361     9.7212
  610.5000   119.8575    10.0063     9.8582
  611.0000   119.8395    10.1470    10.0666
  611.5000   119.5708    10.3612    10.2797
  612.0000   118.9763    10.5803    10.4970
  612.5000   117.7820    10.7291    10.6449
  613.0000   111.7740    10.8050    10.8791
  613.5000   111.7828    10.8817    11.1001
  614.0000   111.4890    11.0348    11.2565
  614.5000   110.5938    11.1129    11.4151
  615.0000   109.0988    11.1993    11.7378
  615.5000   108.2018    11.4281    11.9860
  616.0000   108.2105    11.5089    12.1548
  616.5000   108.5200    11.5903    12.2518
  617.0000   108.2245    11.6727    12.3281
  617.5000   107.9323    11.7552    12.4154
  618.0000   109.1443    11.8384    12.4170
  618.5000   111.8581    11.9225    12.4190
  619.0000   112.4666    12.0902    12.3345
  619.5000   111.5714    12.0918    12.2509
  620.0000   111.2776    12.0934    12.2529
  620.5000   111.8879    12.0953    12.2548
  621.0000   112.4964    12.0968    12.2564
  621.5000   114.0089    12.0984    12.2580
  622.0000   118.5272    12.1003    12.3452
  622.5000   118.8349    12.0180    12.3468
  623.0000   118.2156    11.8548    12.2631
  623.5000   117.6460    11.7749    12.2648
  624.0000   117.6547    11.7764    12.1816
  624.5000   116.1580    11.6161    12.1836
  625.0000   113.7590    11.5374    12.1010
  625.5000   114.0685    11.4597    11.8539
  626.0000   114.3745    11.4612    11.6923
  626.5000   113.4810    11.3776    11.4532
  627.0000   114.6927    11.1515    11.2193
  627.5000   115.9028    10.8485    10.9899
  628.0000   119.2180    10.5537    10.8397
  628.5000   120.4298    10.2672    10.6917
  629.0000   125.8504    10.0576    10.4739
  629.5000   126.4962     9.7843    10.3307
  630.0000   123.1594     9.5848    10.1901
  630.5000   122.5631     9.5196    10.0515
  631.0000   123.4741     9.3903     9.9834
  631.5000   122.8672     9.3267     9.9154
  632.0000   118.6779     9.2636     9.7796
  632.5000   117.4801     9.2009     9.6471
  633.0000   119.2934     9.1389     9.5158
  633.5000   121.1067     9.1404     9.4513
  634.0000   122.3167     9.0782     9.4529
  634.5000   122.6244     9.0797     9.5198
  635.0000   121.7041     9.0811     9.5211
  635.5000  -999.2500     9.0823     9.4565
  636.0000  -999.2500     9.0835     9.4581
  636.5000  -999.2500     9.0849     9.4593
