~VERSION INFORMATION
 VERS.                2.0:   CWLS LOG ASCII STANDARD - VERSION 2.0
 WRAP.                 NO:   ONE LINE PER DEPTH STEP
~WELL INFORMATION
#MNEM.UNIT      DATA TYPE    INFORMATION
#----------   ------------   ------------------------------
 STRT.F            4.0000:   START DEPTH
 STOP.F          468.5000:   STOP DEPTH
 STEP.F            0.1000:   STEP LENGTH
 NULL.          -999.2500:   NO VALUE
 COMP. BROWN JOHN E&C INC:   COMPANY
 WELL.  SX-10 #1-14-SX-10:   WELL
 FLD .        N.P.R. No.3:   FIELD
 LOC .      S10 T38N R78W:   LOCATION
 CNTY.            NATRONA:   COUNTY
 STAT.            WYOMING:   STATE
 CTRY. UNITED STATES OF AMERICA:   COUNTRY
 SRVC.     Atlas Wireline:   SERVICE COMPANY
 DATE.        21-SEP-1991:   LOGDATE
 API .       490251125800:   API NUMBER
~CURVE INFORMATION
#MNEM.UNIT       API CODE    CURVE DESCRIPTION
#----------   ------------   ------------------------------
 DEPT.F                  :   
 GRR .GAPI   07 310 01 00:   GAMMA RAY FROM RES. LOG.
 ILD .OHMM   07 120 46 00:   INDUCTION LOG DEEP
 RILM.OHMM   07 120 44 00:   INDUCTION LOG MEDIUM RESISTIVITY
~PARAMETER INFORMATION
#MNEM.UNIT          VALUE    DESCRIPTION
#----------   ------------   ------------------------------
 PD  .                 GL:   PERMANENT DATUM
 EPD .F              5183:   ELEVATION PERMANENT DATUM
 LMF .                 KB:   LOG MEASURED FROM
 DAPD.F                10:   FEET ABOVE PERMANENT DATUM
 DMF .                 KB:   DRILLING MEASURED FROM
 EKB .F              5193:   KELLING BUSHING
 EGL .F              5183:   GROUND LEVEL
 DATE.            9-21-91:   RUN DATE
 RUN .                  1:   RUN NUMBER
 DD  .F               480:   DEPTH DRILLER
 DL  .F               478:   DEPTH LOGGER
 BLI .F               470:   BOTTOM LOG INTERVAL
 CS  .IN                7:   CASING SIZE
 CBD .F                90:   CASING BOTTOM DRILLER
 CBL .F                90:   CASING BOTTOM LOGGER
 BS  .IN             6.25:   BIT SIZE
 BSD .F               480:   BIT SIZE AT DEPTH
 DFT .                AIR:   DRILLING FLUID TYPE
 TCS .HRS               1:   TIME CURCULATED STOPPED
 MRT .F                80:   MAXIMUM RECORDED TEMPERATURE
 LUN .            HL-6307:   LOGGING UNIT NUMBER
 LUL .             CASPER:   LOGGING UNIT LOCATION
 ENGI.             RAUTIO:   RECORDING ENGINEER
 WITN.             STRONG:   WITNESSED BY
 CLNT.            A2DTECH:   CLIENT CODE
 ORIG.        2" 5" PRINT:   ORIGIN OF DATA
 UWI .       490251125800:   UNIQUE WELL ID
 DICO. A2D Technologies, Inc.:   DIGITIZING COMPANY
~OTHER INFORMATION
~A    DEPT       GRR      ILD       RILM   
# ...
   95.0000   121.5511     8.5700     7.0109
   95.1000   121.5504     8.3245     7.0106
   95.2000   121.5498     8.0789     7.0103
   95.3000   121.5491     7.8334     7.0100
   95.4000   121.5484     7.5879     7.0097
   95.5000   121.5478     7.3423     7.0094
   95.6000   121.5504     7.1822     7.1120
   95.7000   121.5530     7.0221     7.2146
   95.8000   121.5556     6.8619     7.3172
   95.9000   121.5582     6.7018     7.4198
   96.0000   121.5609     6.5417     7.5224
   96.1000   121.3655     6.5609     7.5144
   96.2000   121.1701     6.5801     7.5064
   96.3000   120.9747     6.5994     7.4984
   96.4000   120.7793     6.6186     7.4904
   96.5000   120.5839     6.6378     7.4824
   96.6000   120.3444     6.6575     7.4765
   96.7000   120.1049     6.6773     7.4705
   96.8000   119.8653     6.6970     7.4646
   96.9000   119.6258     6.7167     7.4587
   97.0000   119.3862     6.7365     7.4527
   97.1000   119.5071     6.7565     7.8087
   97.2000   119.6280     6.7765     8.1648
   97.3000   119.7489     6.7965     8.5208
   97.4000   119.8697     6.8166     8.8768
   97.5000   119.9906     6.8366     9.2329
   97.6000   120.1683     7.0002     9.1783
   97.7000   120.3461     7.1637     9.1238
   97.8000   120.5238     7.3273     9.0692
   97.9000   120.7015     7.4909     9.0147
   98.0000   120.8792     7.6544     8.9601
   98.1000   121.0438     7.8698     8.8775
   98.2000   121.2083     8.0852     8.7948
   98.3000   121.3728     8.3006     8.7122
   98.4000   121.5373     8.5160     8.6295
   98.5000   121.7018     8.7314     8.5469
   98.6000   122.2883     9.0110     8.4657
   98.7000   122.8748     9.2907     8.3844
   98.8000   123.4613     9.5703     8.3032
   98.9000   124.0478     9.8500     8.2219
   99.0000   124.6343    10.1296     8.1407
   99.1000   125.1413     9.9604     8.1057
   99.2000   125.6483     9.7911     8.0707
   99.3000   126.1553     9.6219     8.0357
   99.4000   126.6623     9.4527     8.0007
   99.5000   127.1693     9.2834     7.9657
   99.6000   127.5075     9.1062     8.3800
   99.7000   127.8456     8.9289     8.7944
   99.8000   128.1838     8.7517     9.2087
   99.9000   128.5220     8.5744     9.6231
  100.0000   128.8602     8.3972    10.0374
  100.1000   129.1987     8.2369     9.7166
  100.2000   129.5373     8.0765     9.3957
  100.3000   129.8758     7.9162     9.0748
  100.4000   130.2143     7.7559     8.7540
  100.5000   130.5529     7.5956     8.4331
  100.6000   131.0165     7.5395     8.2095
  100.7000   131.4801     7.4834     7.9859
  100.8000   131.9438     7.4273     7.7623
  100.9000   132.4074     7.3713     7.5388
  101.0000   132.8710     7.3152     7.3152
  101.1000   133.2998     7.2882     7.3068
  101.2000   133.7286     7.2612     7.2984
  101.3000   134.1575     7.2342     7.2900
  101.4000   134.5863     7.2072     7.2816
  101.5000   135.0151     7.1802     7.2732
  101.6000   134.7697     7.1669     7.2618
  101.7000   134.5243     7.1536     7.2504
  101.8000   134.2789     7.1403     7.2390
  101.9000   134.0335     7.1269     7.2276
  102.0000   133.7881     7.1136     7.2162
  102.1000   133.4807     7.0882     7.2049
  102.2000   133.1732     7.0627     7.1935
  102.3000   132.8657     7.0373     7.1822
  102.4000   132.5582     7.0118     7.1709
  102.5000   132.2508     6.9864     7.1596
  102.6000   131.9412     6.9719     7.1504
  102.7000   131.6317     6.9575     7.1412
  102.8000   131.3221     6.9430     7.1320
  102.9000   131.0126     6.9286     7.1228
  103.0000   130.7030     6.9141     7.1136
  103.1000   130.3656     6.9144     7.1317
  103.2000   130.0282     6.9146     7.1497
  103.3000   129.6908     6.9149     7.1677
  103.4000   129.3534     6.9152     7.1858
  103.5000   129.0160     6.9155     7.2038
  103.6000   128.6778     6.9283     7.2192
  103.7000   128.3397     6.9412     7.2347
  103.8000   128.0016     6.9540     7.2501
  103.9000   127.6634     6.9669     7.2655
  104.0000   127.3253     6.9797     7.2809
  104.1000   127.6899     7.0058     7.2966
  104.2000   128.0545     7.0318     7.3122
  104.3000   128.4191     7.0579     7.3278
  104.4000   128.7837     7.0839     7.3435
  104.5000   129.1483     7.1100     7.3591
  104.6000   129.6022     7.1284     7.3749
  104.7000   130.0562     7.1468     7.3907
  104.8000   130.5100     7.1652     7.4065
  104.9000   130.9639     7.1837     7.4223
  105.0000   131.4178     7.2021     7.4380
  105.1000   131.6254     7.2208     7.4540
  105.2000   131.8330     7.2394     7.4700
  105.3000   132.0405     7.2581     7.4859
  105.4000   132.2481     7.2768     7.5019
  105.5000   132.4556     7.2955     7.5178
  105.6000   132.3908     7.3131     7.5328
  105.7000   132.3260     7.3307     7.5479
  105.8000   132.2611     7.3484     7.5629
  105.9000   132.1963     7.3660     7.5779
  106.0000   132.1314     7.3836     7.5929
  106.1000   132.0425     7.3688     7.5860
  106.2000   131.9537     7.3540     7.5791
  106.3000   131.8648     7.3392     7.5721
  106.4000   131.7759     7.3244     7.5652
  106.5000   131.6870     7.3096     7.5583
  106.6000   131.6078     7.2972     7.5504
  106.7000   131.5285     7.2847     7.5424
  106.8000   131.4493     7.2723     7.5345
  106.9000   131.3701     7.2598     7.5266
  107.0000   131.2909     7.2474     7.5187
  107.1000   131.2890     7.2581     7.5108
  107.2000   131.2871     7.2687     7.5030
  107.3000   131.2852     7.2794     7.4951
  107.4000   131.2833     7.2901     7.4872
  107.5000   131.2814     7.3008     7.4794
  107.6000   131.5676     7.3162     7.4740
  107.7000   131.8537     7.3316     7.4687
  107.8000   132.1399     7.3470     7.4634
  107.9000   132.4260     7.3624     7.4580
  108.0000   132.7122     7.3778     7.4527
  108.1000   133.2780     7.3934     7.4840
  108.2000   133.8439     7.4089     7.5153
  108.3000   134.4097     7.4245     7.5465
  108.4000   134.9755     7.4401     7.5778
  108.5000   135.5414     7.4556     7.6091
  108.6000   135.6662     7.4705     7.6332
  108.7000   135.7910     7.4853     7.6574
  108.8000   135.9159     7.5001     7.6815
  108.9000   136.0407     7.5149     7.7057
  109.0000   136.1656     7.5297     7.7298
  109.1000   135.7589     7.5394     7.7543
  109.2000   135.3521     7.5492     7.7788
  109.3000   134.9454     7.5589     7.8034
  109.4000   134.5387     7.5686     7.8279
  109.5000   134.1320     7.5783     7.8524
  109.6000   133.4140     7.5881     7.8602
  109.7000   132.6961     7.5979     7.8679
  109.8000   131.9781     7.6077     7.8757
  109.9000   131.2602     7.6175     7.8835
  110.0000   130.5422     7.6273     7.8912
  110.1000   129.9684     7.6371     7.8939
  110.2000   129.3946     7.6470     7.8965
  110.3000   128.8208     7.6568     7.8992
  110.4000   128.2469     7.6667     7.9019
  110.5000   127.6731     7.6765     7.9045
  110.6000   127.8857     7.6883     7.9072
  110.7000   128.0983     7.7001     7.9099
  110.8000   128.3108     7.7118     7.9125
  110.9000   128.5234     7.7236     7.9152
  111.0000   128.7360     7.7354     7.9179
  111.1000   129.2290     7.7290     7.9206
  111.2000   129.7221     7.7226     7.9232
  111.3000   130.2151     7.7162     7.9259
  111.4000   130.7081     7.7099     7.9286
  111.5000   131.2012     7.7035     7.9312
  111.6000   131.1223     7.6957     7.9339
  111.7000   131.0434     7.6879     7.9366
  111.8000   130.9645     7.6801     7.9392
  111.9000   130.8856     7.6723     7.9419
  112.0000   130.8067     7.6645     7.9446
  112.1000   130.7403     7.6567     7.9465
  112.2000   130.6738     7.6489     7.9484
  112.3000   130.6073     7.6410     7.9503
  112.4000   130.5409     7.6332     7.9522
  112.5000   130.4744     7.6254     7.9541
  112.6000   131.0386     7.6176     7.9452
  112.7000   131.6029     7.6099     7.9363
  112.8000   132.1671     7.6021     7.9274
  112.9000   132.7313     7.5943     7.9184
  113.0000   133.2955     7.5866     7.9095
  113.1000   134.3798     7.5788     7.9023
