~VERSION INFORMATION
 VERS.                2.0:   CWLS LOG ASCII STANDARD - VERSION 2.0
 WRAP.                 NO:   ONE LINE PER DEPTH STEP
~WELL INFORMATION
#MNEM.UNIT      DATA TYPE    INFORMATION
#----------   ------------   ------------------------------
 STRT.F           10.0000:   START DEPTH
 STOP.F          833.5000:   STOP DEPTH
 STEP.F            0.5000:   STEP LENGTH
 NULL.          -999.2500:   NO VALUE
 COMP. FENIX & SCISSON INC:   COMPANY
 WELL.       NPR 3 #46-11:   WELL
 FLD .             TEAPOT:   FIELD
 LOC .      S11 T38N R78W:   LOCATION
 CNTY.            NATRONA:   COUNTY
 STAT.            WYOMING:   STATE
 CTRY. UNITED STATES OF AMERICA:   COUNTRY
 SRVC.           BIRDWELL:   SERVICE COMPANY
 DATE.        17-DEC-1978:   LOGDATE
 API .       490251075600:   API NUMBER
~CURVE INFORMATION
#MNEM.UNIT       API CODE    CURVE DESCRIPTION
#----------   ------------   ------------------------------
 DEPT.F                  :   
 GRD .GAPI   45 310 01 00:   GAMMA RAY FROM DENSITY LOG
 CALD.IN     45 280 60 00:   CALIPER
 CORR.G/C3   45 356 01 00:   DENSITY CORRECTION
 DPHI.DEC    45 890 12 00:   DENSITY POROSITY SANDSTONE
 RHOB.G/C3   45 350 01 00:   BULK DENSITY
 SPR .MV     05 010 01 00:   SPONTANEOUS POTENTIAL FROM RES.
 SN  .OHMM   05 040 16 00:   SHORT NORMAL 16"
 IL  .OHMM   05 120 00 00:   INDUCTION LOG
~PARAMETER INFORMATION
#MNEM.UNIT          VALUE    DESCRIPTION
#----------   ------------   ------------------------------
 PD  .                 GL:   PERMANENT DATUM
 EPD .F              5193:   ELEVATION PERMANENT DATUM
 LMF .                 KB:   LOG MEASURED FROM
 DAPD.F                 4:   FEET ABOVE PERMANENT DATUM
 DMF .                 KB:   DRILLING MEASURED FROM
 EKB .F              5197:   KELLING BUSHING
 EGL .F              5193:   GROUND LEVEL
 DATE.           12-17-78:   RUN DATE
 RUN .                  1:   RUN NUMBER
 DD  .F               845:   DEPTH DRILLER
 DL  .F               834:   DEPTH LOGGER
 BLI .F               827:   BOTTOM LOG INTERVAL
 TLI .F                60:   TOP LOG INTERVAL
 CS  .IN            8.625:   CASING SIZE
 CBD .F                40:   CASING BOTTOM DRILLER
 CBL .F                42:   CASING BOTTOM LOGGER
 BS  .IN            7.875:   BIT SIZE
 BSD .F               845:   BIT SIZE AT DEPTH
 DFT .                KCL:   DRILLING FLUID TYPE
 DFD .                8.8:   DRILLING FLUID DENSITY
 DFV .                 36:   DRILLING FLUID VISCOSITY
 DFPH.               10.5:   DRILLING FLUID PH
 MSS .          FLOW LINE:   MUD SAMPLE SOURCE
 RMS .OHMM            .34:   RESISTIVITY MUD SAMPLE
 MST .F                62:   MUD SAMPLE TEMPERATURE
 RMF .OHMM            .26:   RESISTIVITY MUD FILTRATE SAMPLE
 MFST.F                66:   MUD FILTRATE SAMPLE TEMPERATURE
 RMC .OHMM            .42:   RESISTIVITY MUD CAKE
 MCST.F                68:   MUD CAKE SAMPLE TEMPERATURE
 MFSS.           MEASURED:   MUD FILTRATE SAMPLE SOURCE
 MCSS.           MEASURED:   MUD CAKE SAMPLE SOURCE
 RMB .OHMM           .288:   RESISTIVITY MUD AT BHT
 BHT .F                73:   BOTTOM HOLE TEMPERATURE
 TCS .HRS               4:   TIME CURCULATED STOPPED
 MRT .F                73:   MAXIMUM RECORDED TEMPERATURE
 LUN .               3006:   LOGGING UNIT NUMBER
 LUL .             CASPER:   LOGGING UNIT LOCATION
 ENGI.         B. ROLLINS:   RECORDING ENGINEER
 WITN.         RICHARDSON:   WITNESSED BY
 CLNT.            A2DTECH:   CLIENT CODE
 ORIG.           5" PRINT:   ORIGIN OF DATA
 UWI .       490251075600:   UNIQUE WELL ID
 DICO. A2D Technologies, Inc.:   DIGITIZING COMPANY
~OTHER INFORMATION
~A   DEPT      GRD       CALD       CORR       DPHI       RHOB        SPR         SN         IL   
# ...
  617.5000   121.0710     8.1730     0.0100     0.1020     2.5010   -24.4070     7.2300     6.5940
  618.0000   121.3410     8.1760     0.0180     0.1060     2.4990   -24.4000     7.2300     6.7100
  618.5000   121.4630     8.1790     0.0170     0.1160     2.4970   -24.3930     7.2300     6.5780
  619.0000   121.2310     8.1830     0.0160     0.1260     2.4820   -24.3850     7.2300     6.4330
  619.5000   120.8550     8.1860     0.0180     0.1350     2.4600   -24.3780     7.1210     6.2870
  620.0000   119.4340     8.1880     0.0260     0.1510     2.4380   -24.3710     6.9990     6.1420
  620.5000   118.0160     8.2080     0.0340     0.1470     2.4140   -24.3640     6.8770     5.9960
  621.0000   118.6090     8.1970     0.0350     0.1380     2.4220   -24.3560     6.7550     5.9080
  621.5000   123.7920     8.1870     0.0290     0.1300     2.4400   -24.3490     6.6330     5.9780
  622.0000   125.7840     8.1780     0.0230     0.1220     2.4590   -24.3420     6.5120     6.0480
  622.5000   124.0630     8.1640     0.0170     0.1130     2.4690   -24.3350     6.3460     6.1180
  623.0000   121.8210     8.1320     0.0160     0.1050     2.4700   -24.3270     6.4220     6.1880
  623.5000   119.5550     8.1010     0.0170     0.0980     2.4730   -24.3200     6.7480     6.3620
  624.0000   117.2830     8.0700     0.0190     0.0900     2.4830   -24.3120     7.0740     6.6730
  624.5000   115.0190     8.0500     0.0220     0.0870     2.5090   -24.3070     7.4000     6.9840
  625.0000   112.7730     8.0500     0.0250     0.0890     2.5210   -24.3000     7.7250     7.2960
  625.5000   109.2770     8.0500     0.0260     0.0900     2.5170   -24.3620     8.0510     7.6070
  626.0000   111.2880     8.0500     0.0250     0.0920     2.5120   -24.4460     8.3770     7.9180
  626.5000   116.7780     8.0500     0.0250     0.0920     2.5090   -24.5300     8.7110     8.2370
  627.0000   121.6460     8.0540     0.0240     0.0910     2.5100   -24.6120     8.7190     8.2530
  627.5000   114.5590     8.0600     0.0240     0.0910     2.5110   -24.6950     8.7260     8.2700
  628.0000   114.9390     8.0650     0.0130     0.0910     2.5130   -24.7780     8.7340     8.2860
  628.5000   115.7580     8.0710     0.0000     0.0920     2.5140   -24.8610     8.7420     8.3030
  629.0000   114.7090     8.0770    -0.0020     0.0910     2.5160   -24.9450     8.7500     8.3190
  629.5000   112.8260     8.0830    -0.0040     0.0890     2.5170   -25.0280     8.7580     8.3360
  630.0000   111.5930     8.0890    -0.0040     0.0860     2.5190   -25.1110     8.7650     8.3530
  630.5000   113.2640     8.0950    -0.0040     0.0880     2.5200   -25.1950     8.7730     8.3690
  631.0000   114.8810     8.1010    -0.0050     0.0900     2.5210   -25.2760     8.7810     8.3860
  631.5000   116.4840     8.1070    -0.0050     0.0910     2.5130   -25.3650     8.7890     8.4020
  632.0000   116.4840     8.1160    -0.0050     0.0930     2.5080   -25.4400     8.7970     8.4190
  632.5000   113.6350     8.1300    -0.0050     0.0920     2.5120   -25.4890     8.8050     8.4350
  633.0000   110.8160     8.1450    -0.0050     0.0900     2.5160   -25.0810     8.8120     8.4520
  633.5000   108.1540     8.1590    -0.0050     0.0880     2.5200   -24.6030     8.8200     8.4690
  634.0000   107.5790     8.1660    -0.0060     0.0860     2.5220   -24.1170     8.8280     8.4850
  634.5000   107.1150     8.1480    -0.0060     0.0850     2.5230   -23.6390     8.8360     8.5010
  635.0000   107.1020     8.1300    -0.0060     0.0850     2.5240   -23.1570     8.8450     8.5180
  635.5000   107.1080     8.1130    -0.0060     0.0860     2.5240   -22.6750     8.8540     8.5340
  636.0000   107.2890     8.0950     0.0060     0.0870     2.5230   -22.1940     8.8680     8.5500
  636.5000   108.1390     8.0770     0.0180     0.1030     2.5230   -21.7120     8.8640     8.1880
  637.0000   108.9760     8.0600     0.0230     0.1190     2.5160   -21.2340     8.8800     7.8330
  637.5000   109.1060     8.0420     0.0060     0.1360     2.4920   -20.7500     8.6090     7.4790
  638.0000   109.1110     8.0240    -0.0090     0.1520     2.4580   -20.2650     8.3540     7.1250
  638.5000   109.0510     8.0070    -0.0080     0.1680     2.4250   -19.8890     8.0940     6.8370
  639.0000   112.3090     7.9920    -0.0090     0.1780     2.3730   -19.8840     7.8350     6.8840
  639.5000   117.1460     8.0200    -0.0090     0.1460     2.3870   -19.8720     7.5760     6.9240
  640.0000   123.6660     8.0490    -0.0090     0.1150     2.4250   -19.8970     7.3160     6.9650
  640.5000   120.6090     8.0780    -0.0090     0.0890     2.4620   -19.7120     7.0960     7.3930
  641.0000   114.1400     8.1060    -0.0100     0.0820     2.5000   -19.3600     7.0960     7.9970
  641.5000   107.6410     8.1080    -0.0100     0.0790     2.5240   -19.0340     7.8360     8.6530
  642.0000   104.2210     8.1060    -0.0100     0.0810     2.5290   -18.6950     8.6200     9.3090
  642.5000   106.0710     8.1030    -0.0100     0.0820     2.5300   -18.3620     9.4030     9.9650
  643.0000   107.3300     8.1010    -0.0110     0.0830     2.5210   -17.3930    10.1870    10.6210
  643.5000   106.3850     8.0990    -0.0110     0.0840     2.5190   -16.2830    10.9710    11.2770
  644.0000   105.1210     8.0960    -0.0110     0.0850     2.5200   -15.9390    11.5530    11.7790
  644.5000   103.8620     8.0940    -0.0110     0.0870     2.5220   -15.6280    11.6630    11.9200
  645.0000   103.4840     8.0910    -0.0120     0.0890     2.5240   -15.3390    11.7720    12.0610
  645.5000   103.2310     8.0890    -0.0120     0.0910     2.5260   -15.0740    11.8820    12.2020
  646.0000   102.9790     8.0860    -0.0050     0.0920     2.5260   -15.1150    11.9920    12.3430
  646.5000   102.7280     8.0830     0.0030     0.0940     2.5200   -15.1560    12.1010    12.4840
  647.0000   102.5340     8.0800     0.0100     0.0970     2.5140   -15.2100    12.1830    12.6460
  647.5000   103.1210     8.0770     0.0220     0.1020     2.5080   -15.2580    12.1830    12.7290
  648.0000   103.6920     8.0740     0.0330     0.1120     2.5020   -15.3070    12.5980    12.8280
  648.5000   104.2740     8.0710     0.0440     0.1240     2.4890   -15.3560    12.9980    13.1780
  649.0000   104.8230     8.0670     0.0550     0.1360     2.4750   -15.4050    13.3970    13.8660
  649.5000    99.0660     8.0640     0.0660     0.1470     2.4510   -15.4540    13.7960    14.5550
  650.0000    91.0300     8.0600     0.0770     0.1590     2.4280   -15.5030    14.1950    15.2430
  650.5000    82.9320     8.0560     0.0800     0.1710     2.4050   -15.5520    14.5940    15.9310
  651.0000    74.9420     8.0530     0.0810     0.1830     2.3810   -15.6000    15.2370    16.6190
  651.5000    68.6260     8.0460     0.0820     0.1940     2.3580   -15.6490    15.2120    17.3600
  652.0000    68.5040     8.0310     0.0890     0.1850     2.3470   -15.6980    15.1470    17.3600
  652.5000    69.1440     8.0160     0.1150     0.1780     2.3570   -15.7460    15.0830    17.2450
  653.0000    70.0550     8.0010     0.1410     0.1700     2.3670   -15.7970    15.0180    17.0980
  653.5000    70.9600     7.9870     0.1530     0.1760     2.3790   -15.8440    14.9540    16.9510
  654.0000    70.2380     7.9720     0.1540     0.1860     2.3730   -15.8560    14.8890    16.8040
  654.5000    69.2540     7.9570     0.1470     0.1820     2.3620   -15.7400    14.8250    16.6580
  655.0000    68.2680     7.9420     0.1310     0.1740     2.3530   -15.6450    14.7600    16.5110
  655.5000    67.2810     7.9270     0.1160     0.1650     2.3680   -15.5420    14.6960    16.3640
  656.0000    66.6990     7.9120     0.1000     0.1530     2.3880   -15.4420    14.6310    16.2170
  656.5000    66.9710     7.9130     0.0860     0.1570     2.4070   -15.3420    14.5670    16.0700
  657.0000    68.0940     7.9170     0.0800     0.1630     2.4040   -15.2410    14.5020    15.9230
  657.5000    69.2570     7.9210     0.0730     0.1700     2.3970   -15.1410    14.4370    15.7760
