~VERSION INFORMATION
 VERS.                2.0:   CWLS LOG ASCII STANDARD - VERSION 2.0
 WRAP.                 NO:   ONE LINE PER DEPTH STEP
~WELL INFORMATION
#MNEM.UNIT      DATA TYPE    INFORMATION
#----------   ------------   ------------------------------
 STRT.F           22.0000:   START DEPTH
 STOP.F          654.0000:   STOP DEPTH
 STEP.F            0.5000:   STEP LENGTH
 NULL.          -999.2500:   NO VALUE
 COMP. FENIX & SCISSON INC:   COMPANY
 WELL.     54 S 34 #54-34:   WELL
 FLD .             TEAPOT:   FIELD
 LOC .      S34 T39N R78W:   LOCATION
 CNTY.            NATRONA:   COUNTY
 STAT.            WYOMING:   STATE
 CTRY. UNITED STATES OF AMERICA:   COUNTRY
 SRVC.           BIRDWELL:   SERVICE COMPANY
 DATE.        22-AUG-1978:   LOGDATE
 API .       490251070100:   API NUMBER
~CURVE INFORMATION
#MNEM.UNIT       API CODE    CURVE DESCRIPTION
#----------   ------------   ------------------------------
 DEPT.F                  :   
 SPR .MV     05 010 01 00:   SPONTANEOUS POTENTIAL FROM RES.
 SN  .OHMM   05 040 16 00:   SHORT NORMAL 16"
 ILD .OHMM   05 120 46 00:   INDUCTION LOG DEEP
 CALD.IN     45 280 60 00:   CALIPER
 GRD .GAPI   45 310 01 00:   GAMMA RAY FROM DENSITY LOG
 DPHI.DEC    45 890 12 00:   DENSITY POROSITY SANDSTONE
 RHOB.G/C3   45 350 01 00:   BULK DENSITY
 CORR.G/C3   45 356 01 00:   DENSITY CORRECTION
~PARAMETER INFORMATION
#MNEM.UNIT          VALUE    DESCRIPTION
#----------   ------------   ------------------------------
 PD  .                 GL:   PERMANENT DATUM
 EPD .F              5085:   ELEVATION PERMANENT DATUM
 LMF .                 KB:   LOG MEASURED FROM
 DAPD.F                 4:   FEET ABOVE PERMANENT DATUM
 DMF .                 KB:   DRILLING MEASURED FROM
 EKB .F              5089:   KELLING BUSHING
 EGL .F              5085:   GROUND LEVEL
 DATE.            8-22-78:   RUN DATE
 RUN .                  1:   RUN NUMBER
 DD  .F               685:   DEPTH DRILLER
 DL  .F               653:   DEPTH LOGGER
 BLI .F               646:   BOTTOM LOG INTERVAL
 TLI .F                30:   TOP LOG INTERVAL
 CS  .IN            8.625:   CASING SIZE
 CBD .F                46:   CASING BOTTOM DRILLER
 CBL .F                46:   CASING BOTTOM LOGGER
 BS  .IN            7.875:   BIT SIZE
 BSD .F               685:   BIT SIZE AT DEPTH
 DFT .                KCL:   DRILLING FLUID TYPE
 DFD .                8.7:   DRILLING FLUID DENSITY
 DFV .                 33:   DRILLING FLUID VISCOSITY
 DFPH.                  9:   DRILLING FLUID PH
 MSS .           FLOWLINE:   MUD SAMPLE SOURCE
 RMS .OHMM            .18:   RESISTIVITY MUD SAMPLE
 MST .F                86:   MUD SAMPLE TEMPERATURE
 RMF .OHMM            .16:   RESISTIVITY MUD FILTRATE SAMPLE
 MFST.F                86:   MUD FILTRATE SAMPLE TEMPERATURE
 RMC .OHMM            .52:   RESISTIVITY MUD CAKE
 MCST.F                86:   MUD CAKE SAMPLE TEMPERATURE
 MFSS.               MEAS:   MUD FILTRATE SAMPLE SOURCE
 MCSS.               MEAS:   MUD CAKE SAMPLE SOURCE
 BHT .F                70:   BOTTOM HOLE TEMPERATURE
 TCS .HRS               2:   TIME CURCULATED STOPPED
 MRT .F                70:   MAXIMUM RECORDED TEMPERATURE
 LUN .               2958:   LOGGING UNIT NUMBER
 LUL .               CASP:   LOGGING UNIT LOCATION
 ENGI.           REYNOLDS:   RECORDING ENGINEER
 WITN.              AMEND:   WITNESSED BY
 CLNT.            A2DTECH:   CLIENT CODE
 ORIG.           5" PRINT:   ORIGIN OF DATA
 UWI .       490251070100:   UNIQUE WELL ID
 DICO. A2D Technologies, Inc.:   DIGITIZING COMPANY
~OTHER INFORMATION
~A   DEPT      SPR         SN        ILD       CALD         GRD      DPHI       RHOB       CORR   
# ...
  346.0000   -38.7228     8.7707     9.5224     7.6900    93.1102     0.1320     2.4600     0.0144
  346.5000   -39.1916     8.7118     9.4440     7.6900    91.5204     0.1310     2.4661     0.0143
  347.0000   -39.6241     8.6533     9.3663     7.6900    89.8858     0.1239     2.4731     0.0142
  347.5000   -39.7701     8.5953     9.2892     7.6900    89.5286     0.1255     2.4760     0.0140
  348.0000   -39.9059     8.5376     9.2127     7.6900    91.3936     0.1285     2.4734     0.0139
  348.5000   -40.0421     8.4803     9.1369     7.6900    93.4744     0.1297     2.4699     0.0138
  349.0000   -40.1785     8.4234     9.0617     7.6900    94.8620     0.1308     2.4663     0.0137
  349.5000   -40.3150     8.3668     8.9871     7.6900    95.5892     0.1319     2.4628     0.0136
  350.0000   -40.4515     8.3106     8.9131     7.6900    96.3255     0.1330     2.4607     0.0135
  350.5000   -40.5881     8.2804     8.8327     7.6900    97.0700     0.1340     2.4592     0.0134
  351.0000   -40.7226     8.2755     8.8327     7.6900    96.8742     0.1341     2.4590     0.0132
  351.5000   -40.8098     8.2706     8.8326     7.6900    93.6761     0.1304     2.4635     0.0131
  352.0000   -40.7729     8.2657     8.8376     7.6900    89.2704     0.1254     2.4685     0.0130
  352.5000   -40.7386     8.2608     8.8811     7.6900    86.4433     0.1279     2.4714     0.0129
  353.0000   -40.7040     8.2559     8.9248     7.6900    85.1197     0.1312     2.4661     0.0128
  353.5000   -40.6694     8.2511     8.9687     7.6900    83.7950     0.1346     2.4608     0.0127
  354.0000   -40.6349     8.2462     9.0128     7.6900    82.6712     0.1379     2.4555     0.0126
  354.5000   -40.6003     8.2413     9.0571     7.6900    84.6143     0.1388     2.4510     0.0125
  355.0000   -40.5658     8.2364     9.1016     7.6900    86.2385     0.1364     2.4552     0.0138
  355.5000   -40.5312     8.2316     9.1464     7.6900    85.4858     0.1321     2.4662     0.0162
  356.0000   -40.4966     8.2267     9.1913     7.6900    86.0836     0.1276     2.4719     0.0187
  356.5000   -40.4619     8.2219     9.2365     7.6900    87.5394     0.1282     2.4707     0.0211
  357.0000   -40.4248     8.2170     9.2477     7.6900    89.0060     0.1292     2.4700     0.0235
  357.5000   -40.4927     8.2122     8.9937     7.6900    89.6949     0.1254     2.4727     0.0261
  358.0000   -40.5892     8.2069     8.7747     7.6900    89.1065     0.1214     2.4805     0.0244
  358.5000   -40.6864     8.1552     8.5610     7.6900    86.3699     0.1156     2.4884     0.0217
  359.0000   -40.7831     8.1016     8.3525     7.6900    84.4606     0.1197     2.4898     0.0189
  359.5000   -40.8798     8.0485     8.1491     7.6900    84.4825     0.1269     2.4796     0.0161
  360.0000   -40.9811     7.9956     7.9505     7.6900    84.5474     0.1341     2.4687     0.0133
  360.5000   -41.2284     7.9432     7.7567     7.6900    86.3690     0.1413     2.4578     0.0106
  361.0000   -41.7990     7.9113     7.5680     7.6900    90.6891     0.1444     2.4473     0.0105
  361.5000   -42.3609     7.9268     7.4186     7.6900    94.9241     0.1439     2.4459     0.0111
  362.0000   -42.8267     7.9383     7.4186     7.6900    96.1451     0.1390     2.4481     0.0118
  362.5000   -42.8125     7.9498     7.4186     7.6900    94.0051     0.1341     2.4597     0.0124
  363.0000   -42.7013     7.9613     7.4332     7.6900    91.2059     0.1304     2.4694     0.0130
  363.5000   -42.5868     7.9728     7.4696     7.6900    88.4248     0.1312     2.4649     0.0136
  364.0000   -42.4728     7.9843     7.5062     7.6900    88.4467     0.1351     2.4599     0.0143
  364.5000   -42.3589     7.9958     7.5430     7.6900    90.1376     0.1390     2.4549     0.0149
  365.0000   -42.2451     8.0073     7.5800     7.6900    88.8070     0.1404     2.4498     0.0155
  365.5000   -42.1311     8.0188     7.6172     7.6900    88.6412     0.1404     2.4479     0.0161
  366.0000   -42.0171     8.0304     7.6545     7.6900    90.8046     0.1383     2.4530     0.0165
  366.5000   -41.9036     8.0420     7.6920     7.6900    91.7457     0.1344     2.4609     0.0164
  367.0000   -41.8102     8.0535     7.7297     7.6900    91.8936     0.1305     2.4688     0.0163
  367.5000   -41.7914     8.0652     7.7676     7.6900    91.9590     0.1266     2.4752     0.0162
  368.0000   -41.7715     8.0768     7.8057     7.6900    93.2041     0.1244     2.4769     0.0161
  368.5000   -41.7515     8.0884     7.8439     7.6900    95.4013     0.1244     2.4769     0.0160
  369.0000   -41.7315     8.1001     7.8824     7.6900    96.1222     0.1244     2.4759     0.0159
  369.5000   -41.7115     8.1118     7.9111     7.6900    97.3208     0.1247     2.4748     0.0158
  370.0000   -41.6914     8.1235     7.9811     7.6900    99.7360     0.1255     2.4737     0.0157
  370.5000   -41.6714     8.1315     7.9821     7.6900    99.2533     0.1280     2.4726     0.0155
  371.0000   -41.6513     8.1180     7.9844     7.6900    98.8886     0.1280     2.4716     0.0154
  371.5000   -41.6313     8.1069     7.9837     7.6900    95.5321     0.1280     2.4737     0.0153
  372.0000   -41.6113     8.0958     7.9595     7.6900    92.9925     0.1226     2.4793     0.0152
  372.5000   -41.5912     8.0848     7.9366     7.6900    95.8700     0.1168     2.4850     0.0151
  373.0000   -41.5712     8.0737     7.9138     7.6900    98.8154     0.1164     2.4871     0.0150
  373.5000   -41.5511     8.0627     7.8910     7.6900    98.7132     0.1204     2.4855     0.0149
  374.0000   -41.5311     8.0516     7.8683     7.6900    98.2619     0.1206     2.4838     0.0148
  374.5000   -41.5111     8.0406     7.8457     7.6900   101.7171     0.1209     2.4822     0.0147
  375.0000   -41.4910     8.0296     7.8231     7.6900   102.2748     0.1212     2.4804     0.0146
  375.5000   -41.4710     8.0186     7.8006     7.6900   102.0319     0.1214     2.4797     0.0145
  376.0000   -41.4511     8.0077     7.7781     7.6900    99.9224     0.1217     2.4793     0.0161
  376.5000   -41.4307     7.9967     7.7558     7.6900    97.5933     0.1219     2.4779     0.0179
  377.0000   -41.3766     7.9858     7.7334     7.6900    97.2458     0.1261     2.4689     0.0197
  377.5000   -41.2416     7.9748     7.7112     7.6900    94.9251     0.1323     2.4619     0.0215
  378.0000   -41.1079     7.9639     7.6890     7.6900    89.0669     0.1273     2.4679     0.0233
  378.5000   -40.9742     7.9530     7.6669     7.6902    90.8232     0.1280     2.4709     0.0238
  379.0000   -40.8405     7.9421     7.6449     7.6731    95.0064     0.1288     2.4691     0.0213
  379.5000   -40.7086     7.9312     7.6197     7.6459    98.9331     0.1284     2.4698     0.0189
  380.0000   -40.6304     7.9204     7.5753     7.6186   101.5309     0.1250     2.4733     0.0165
  380.5000   -40.6726     7.9024     7.5309     7.5911   102.7110     0.1208     2.4793     0.0141
  381.0000   -40.7125     7.8420     7.4868     7.5673   101.4097     0.1224     2.4813     0.0125
  381.5000   -40.7528     7.7818     7.4430     7.5938   100.0679     0.1253     2.4766     0.0124
  382.0000   -40.7917     7.7226     7.3995     7.6127    98.7220     0.1282     2.4718     0.0121
  382.5000   -40.7732     7.6754     7.3562     7.6319    98.4635     0.1300     2.4671     0.0119
  383.0000   -40.6407     7.6382     7.3132     7.6497    98.4171     0.1296     2.4666     0.0116
  383.5000   -40.5100     7.6012     7.2704     7.6506    98.3756     0.1296     2.4663     0.0114
  384.0000   -40.3776     7.5644     7.2278     7.6199    98.3317     0.1296     2.4660     0.0111
  384.5000   -40.2322     7.4758     7.1856     7.5730    98.2856     0.1296     2.4679     0.0108
  385.0000   -40.7650     7.3731     7.0857     7.5266    98.6139     0.1296     2.4699     0.0106
  385.5000   -41.4641     7.2719     6.9171     7.4851    99.7737     0.1296     2.4683     0.0103
  386.0000   -42.1689     7.1720     6.7864     7.4686   101.7701     0.1296     2.4667     0.0100
