~VERSION INFORMATION
 VERS.                2.0:   CWLS LOG ASCII STANDARD - VERSION 2.0
 WRAP.                 NO:   ONE LINE PER DEPTH STEP
~WELL INFORMATION
#MNEM.UNIT      DATA TYPE    INFORMATION
#----------   ------------   ------------------------------
 STRT.F            3.0000:   START DEPTH
 STOP.F          515.0000:   STOP DEPTH
 STEP.F            0.5000:   STEP LENGTH
 NULL.          -999.2500:   NO VALUE
 COMP. LAWRENCE/ALLISON INC:   COMPANY
 WELL.      77-35 SX #3-3:   WELL
 FLD .             TEAPOT:   FIELD
 LOC .       S3 T38N R78W:   LOCATION
 CNTY.            NATRONA:   COUNTY
 STAT.            WYOMING:   STATE
 CTRY. UNITED STATES OF AMERICA:   COUNTRY
 SRVC.           Gearhart:   SERVICE COMPANY
 DATE.        24-JUN-1988:   LOGDATE
 API .       490251123200:   API NUMBER
~CURVE INFORMATION
#MNEM.UNIT       API CODE    CURVE DESCRIPTION
#----------   ------------   ------------------------------
 DEPT.F                  :   
 GRR .GAPI   07 310 01 00:   GAMMA RAY
 RILD.OHMM   07 120 46 00:   INDUCTION LOG DEEP RESISTIVITY
 RILM.OHMM   07 120 44 00:   INDUCTION LOG MEDIUM RESISTIVITY
~PARAMETER INFORMATION
#MNEM.UNIT          VALUE    DESCRIPTION
#----------   ------------   ------------------------------
 PD  .                 GL:   PERMANENT DATUM
 EPD .F              5154:   ELEVATION PERMANENT DATUM
 LMF .                 KB:   LOG MEASURED FROM
 DAPD.F                10:   FEET ABOVE PERMANENT DATUM
 DMF .                 KB:   DRILLING MEASURED FROM
 EKB .F              5164:   KELLING BUSHING
 EGL .F              5154:   GROUND LEVEL
 DATE.        24-JUN-1988:   RUN DATE
 RUN .                  1:   RUN NUMBER
 DD  .F               520:   DEPTH DRILLER
 DL  .F               523:   DEPTH LOGGER
 BLI .F             514.5:   BOTTOM LOG INTERVAL
 TLI .F                50:   TOP LOG INTERVAL
 CS  .IN            9.625:   CASING SIZE
 CBD .F                50:   CASING BOTTOM DRILLER
 CBL .F                50:   CASING BOTTOM LOGGER
 BS  .IN             8.75:   BIT SIZE
 BSD .F               520:   BIT SIZE AT DEPTH
 DFT .                AIR:   DRILLING FLUID TYPE
 TLAB.HRS            0645:   TIME LOGGER AT BOTTOM
 MRT .F                70:   MAXIMUM RECORDED TEMPERATURE
 LUN .               7597:   LOGGING UNIT NUMBER
 LUL .           GILLETTE:   LOGGING UNIT LOCATION
 ENGI.          HUCKFELDT:   RECORDING ENGINEER
 WITN.             STRONG:   WITNESSED BY
 CLNT.            A2DTECH:   CLIENT CODE
 ORIG.           5" PRINT:   ORIGIN OF DATA
 UWI .       490251123200:   UNIQUE WELL ID
 DICO. A2D Technologies, Inc.:   DIGITIZING COMPANY
~OTHER INFORMATION
~A    DEPT      GRR      RILD       RILM   
# ...
  185.0000   149.1159     6.7008     6.4596
  185.5000   149.7346     6.9371     6.6881
  186.0000   148.4431     7.1321     6.9733
  186.5000   145.4866     7.3840     7.2199
  187.0000   143.6663     7.5916     7.3715
  187.5000   142.7584     7.8050     7.4738
  188.0000   143.9892     7.9686     7.5247
  188.5000   149.1811     8.0794     7.5231
  189.0000   151.0193     8.1343     7.5216
  189.5000   148.5893     8.2470     7.6259
  190.0000   141.2812     8.3031     7.8403
  190.5000   141.2902     8.3596     7.9490
  191.0000   144.3480     8.3574     8.0598
  191.5000   147.1009     8.4143     8.2285
  192.0000   149.2441     8.4715     8.2850
  192.5000   148.6433     8.4697     8.3414
  193.0000   149.3029     8.5273     8.3982
  193.5000   152.0965     8.5255     8.4554
  194.0000   154.1603     8.5237     8.5130
  194.5000   151.4254     8.5289     8.5108
  195.0000   147.4710     8.5799     8.5091
  195.5000   145.0387     8.5777     8.5073
  196.0000   145.3549     8.5759     8.5056
  196.5000   146.2785     8.5741     8.5037
  197.0000   146.2875     8.5724     8.4424
  197.5000   145.0770     8.6306     8.2654
  198.0000   142.0372     8.8733     8.2061
  198.5000   143.8755     9.0592     8.1472
  199.0000   149.3723     8.9318     8.0888
  199.5000   153.6495     8.6839     8.0871
  200.0000   157.6219     8.4664     8.0291
  200.5000   154.9912     8.2464     8.0269
  201.0000   152.3605     8.0264     8.0248
  201.5000   150.0439     7.8064     8.0394
  202.0000   147.6237     7.4937     8.4813
  202.5000   147.3301     7.2356     8.0304
  203.0000   148.2636     6.8415     7.2678
  203.5000   150.1079     6.4689     6.6344
  204.0000   153.4766     5.9898     6.0561
  204.5000   152.5733     5.1721     5.4898
  205.0000   152.5921     4.4350     5.0465
  205.5000   153.2169     4.0214     4.5427
  206.0000   151.7076     3.5708     3.8667
  206.5000   148.6738     3.2605     3.4564
  207.0000   147.1645     3.0829     2.8609
  207.5000   149.0600     2.9767     2.6669
  208.0000   150.5483     2.9350     2.5388
  208.5000   143.2168     2.8939     2.4681
  209.0000   135.0334     2.8935     2.4674
  209.5000   132.9105     2.8931     2.5367
  210.0000   140.5513     3.0039     2.6262
  210.5000   150.6273     3.3961     2.9211
  211.0000   159.1790     3.9046     3.3387
  211.5000   160.1087     4.3655     3.8713
  212.0000   157.6847     4.7464     4.6220
  212.5000   154.9521     5.1246     5.1318
  213.0000   154.0525     5.5330     5.6581
  213.5000   152.8480     5.9324     5.9404
  214.0000   159.5742     6.1854     6.1072
  214.5000   159.5892     6.3154     6.2787
  215.0000   158.6897     6.4034     6.4101
  215.5000   156.5706     6.4025     6.4985
  216.0000   157.8051     6.2689     6.4065
  216.5000   161.7836     6.0530     6.2281
  217.0000   166.3719     5.6439     5.9289
  217.5000   166.3869     5.3740     5.5657
  218.0000   162.3168     5.1875     5.2247
  218.5000   159.4048     5.0067     4.8365
  219.0000   163.9968     4.8715     4.5086
  219.5000   168.2801     4.7696     4.3221
  220.0000   168.9012     4.7358     4.2908
  220.5000   164.3468     4.7352     4.4144
  221.0000   158.8741     4.8011     4.5735
  221.5000   153.0965     4.9020     4.7999
  222.0000   153.1115     5.0402     5.0337
  222.5000   157.3949     5.2551     5.2114
  223.0000   163.5075     5.5952     5.3953
  223.5000   168.4006     5.9991     5.6645
  224.0000   170.2449     6.3428     5.9888
  224.5000   164.1624     6.6597     6.2875
  225.0000   159.2994     6.9923     6.6474
  225.5000   155.6559     7.2398     6.9304
  226.0000   152.0125     7.4960     7.2761
  226.5000   156.6007     7.7614     7.4804
  227.0000   158.4553     7.7602     7.6905
  227.5000   160.0357     7.6453     7.8514
  228.0000   162.2156     7.5880     7.9049
  228.5000   164.3952     7.3867     7.8471
  229.0000   166.4358     7.2325     7.6285
  229.5000   166.4509     7.0324     7.3643
  230.0000   162.8074     6.9339     7.1093
  230.5000   159.4688     6.7892     6.9573
  231.0000   156.7399     6.6941     6.8086
  231.5000   155.8366     6.6466     6.6631
  232.0000   157.0749     6.5079     6.4839
  232.5000   161.3583     6.1966     6.2157
  233.0000   163.8123     5.6978     5.9171
  233.5000   164.1323     5.3500     5.5546
  234.0000   163.2290     5.1297     4.9652
  234.5000   163.8575     4.9878     4.3767
  235.0000   166.9214     4.9524     4.1374
  235.5000   169.9852     4.9872     4.2536
  236.0000   170.0202     5.1269     4.5605
  236.5000   168.7958     5.2815     4.9238
  237.0000   167.8862     5.5733     5.3910
  237.5000   167.3015     5.9756     5.9438
  238.0000   167.3171     6.4069     6.2841
  238.5000   167.6372     6.7269     6.5060
  239.0000   168.5700     7.0137     6.7829
  239.5000   169.4996     7.3128     7.0223
  240.0000   169.5147     7.5716     7.2195
  240.5000   171.6639     7.7850     7.4223
  241.0000   174.4229     7.7839     7.4723
  241.5000   175.6574     7.7829     7.5227
  242.0000   168.3554     7.7818     7.5201
  242.5000   166.8423     7.7807     7.5180
  243.0000   168.9953     7.7796     7.5159
  243.5000   172.6689     7.7786     7.5138
  244.0000   175.7327     7.7775     7.5118
  244.5000   173.3087     7.7764     7.5097
  245.0000   170.2750     7.7754     7.4553
  245.5000   169.6799     7.7743     7.4013
  246.0000   169.6954     7.7730     7.3993
  246.5000   169.7104     7.7719     7.3972
  247.0000   168.4858     7.7708     7.3952
  247.5000   165.3708     7.8242     7.3931
  248.0000   162.4385     7.8782     7.4435
  248.5000   165.6147     7.8768     7.4932
  249.0000   169.4846     7.8758     7.5436
  249.5000   172.2435     7.8747     7.5415
  250.0000   171.6451     7.7839     7.5395
  250.5000   167.9443     7.5701     7.4329
  251.0000   164.6743     7.3562     7.3223
  251.5000   167.1396     7.1374     7.1276
  252.0000   170.5142     6.9398     6.8343
  252.5000   176.0230     6.8874     6.4620
  253.0000   180.3123     6.7941     6.2833
  253.5000   183.3820     6.7457     6.2391
  254.0000   186.7567     6.6512     6.2386
  254.5000   181.8996     6.5124     6.2382
  255.0000   175.4877     6.2444     6.1511
  255.5000   171.7867     6.1141     6.0653
  256.0000   170.3771     5.9448     5.8976
  256.5000   174.3668     5.8616     5.6123
  257.0000   176.8268     5.8200     5.3095
  257.5000   178.6770     5.8600     5.2353
  258.0000   179.9175     5.9002     5.2350
  258.5000   176.5848     5.8994     5.3083
  259.0000   175.3863     5.8986     5.4205
  259.5000   173.8829     5.8976     5.5739
  260.0000   172.3794     6.1491     5.7719
  260.5000   169.6565     6.5015     6.0610
  261.0000   166.3238     6.7316     6.3203
  261.5000   164.8204     6.9216     6.5448
  262.0000   165.1503     7.0669     6.7772
  262.5000   165.4978     7.1157     6.8722
  263.0000   165.7980     7.0158     6.8239
  263.5000   165.5141     6.7741     6.5742
  264.0000   165.5403     6.5408     6.1005
  264.5000   163.7320     6.1846     5.6881
  265.0000   164.0578     5.6841     5.2666
  265.5000   169.2617     5.6463     4.9450
  266.0000   174.7705     5.7250     4.8420
  266.5000   176.0110     5.5663     4.8757
  267.0000   172.9832     5.6048     5.0136
  267.5000   167.8213     5.6828     5.2281
  268.0000   166.0130     5.9665     5.5285
  268.5000   165.4242     6.3526     5.9286
  269.0000   164.8354     6.7387     6.4058
  269.5000   163.3320     7.2328     6.8350
  270.0000   162.0935     7.6213     7.4139
  270.5000   160.3304     7.8906     7.8950
  271.0000   159.1266     8.1626     8.0619
  271.5000   158.5378     8.1612     8.2899
  272.0000   158.5641     8.1601     8.2894
  272.5000   159.4997     8.2161     8.2888
  273.0000   160.4353     8.5069     8.2305
  273.5000   160.7559     8.8079     8.0590
  274.0000   157.7333     8.8687     8.0023
  274.5000   156.8344     8.8672     8.0579
  275.0000   158.0801     8.7430     8.2282
  275.5000   158.7109     8.5010     8.4068
