~VERSION INFORMATION
 VERS.                2.0:   CWLS LOG ASCII STANDARD - VERSION 2.0
 WRAP.                 NO:   ONE LINE PER DEPTH STEP
~WELL INFORMATION
#MNEM.UNIT      DATA TYPE    INFORMATION
#----------   ------------   ------------------------------
 STRT.F           29.0000:   START DEPTH
 STOP.F          507.0000:   STOP DEPTH
 STEP.F            0.5000:   STEP LENGTH
 NULL.          -999.2500:   NO VALUE
 COMP.    FENIX & SCISSON:   COMPANY
 WELL.       NPR #64-SX-3:   WELL
 FLD .            WILDCAT:   FIELD
 LOC .       S3 T38N R78W:   LOCATION
 CNTY.            NATRONA:   COUNTY
 STAT.            WYOMING:   STATE
 CTRY. UNITED STATES OF AMERICA:   COUNTRY
 SRVC.           BIRDWELL:   SERVICE COMPANY
 DATE.        28-MAR-1977:   LOGDATE
 API .       490251032200:   API NUMBER
~CURVE INFORMATION
#MNEM.UNIT       API CODE    CURVE DESCRIPTION
#----------   ------------   ------------------------------
 DEPT.F                  :   
 SPR .MV     05 010 01 00:   SPONTANEOUS POTENTIAL FROM RES.
 ILD .OHMM   05 120 46 00:   INDUCTION LOG DEEP
 SN  .OHMM   05 040 16 00:   SHORT NORMAL 16"
 GRD .GAPI   45 310 01 00:   GAMMA RAY FROM DENSITY LOG
 CALD.IN     45 280 60 00:   CALIPER FROM DENSITY LOG
 CORR.G/C3   45 356 01 00:   DENSITY CORRECTION
 RHOB.G/C3   45 350 01 00:   BULK DENSITY
 DPHI.DEC    45 890 12 00:   DENSITY POROSITY SANDSTONE
~PARAMETER INFORMATION
#MNEM.UNIT          VALUE    DESCRIPTION
#----------   ------------   ------------------------------
 PD  .                 GL:   PERMANENT DATUM
 EPD .F              5145:   ELEVATION PERMANENT DATUM
 LMF .                 GL:   LOG MEASURED FROM
 DMF .                 GL:   DRILLING MEASURED FROM
 EKB .F              5150:   KELLING BUSHING
 EDF .F              5149:   DRILLING FLOOR
 EGL .F              5145:   GROUND LEVEL
 DATE.        28-MAR-1977:   RUN DATE
 RUN .                  1:   RUN NUMBER
 DD  .F               507:   DEPTH DRILLER
 DL  .F               507:   DEPTH LOGGER
 BLI .F               501:   BOTTOM LOG INTERVAL
 TLI .F                40:   TOP LOG INTERVAL
 CS  .IN            8.625:   CASING SIZE
 CBD .F                40:   CASING BOTTOM DRILLER
 CBL .F                43:   CASING BOTTOM LOGGER
 BS  .IN            7.875:   BIT SIZE
 BSD .F               507:   BIT SIZE AT DEPTH
 DFT .                KCL:   DRILLING FLUID TYPE
 DFD .                8.5:   DRILLING FLUID DENSITY
 DFV .                 31:   DRILLING FLUID VISCOSITY
 DFPH.                 10:   DRILLING FLUID PH
 DFL .                 78:   DRILLING FLUID LOSS
 MSS .                PIT:   MUD SAMPLE SOURCE
 RMS .OHMM            .54:   RESISTIVITY MUD SAMPLE
 MST .F                60:   MUD SAMPLE TEMPERATURE
 RMF .OHMM            .46:   RESISTIVITY MUD FILTRATE SAMPLE
 MFST.F                64:   MUD FILTRATE SAMPLE TEMPERATURE
 RMC .OHMM            .52:   RESISTIVITY MUD CAKE
 MCST.F                64:   MUD CAKE SAMPLE TEMPERATURE
 MFSS.               MEAS:   MUD FILTRATE SAMPLE SOURCE
 MCSS.               MEAS:   MUD CAKE SAMPLE SOURCE
 RMB .OHMM            .51:   RESISTIVITY MUD AT BHT
 BHT .F                63:   BOTTOM HOLE TEMPERATURE
 TCS .HRS            0300:   TIME CURCULATED STOPPED
 MRT .F                63:   MAXIMUM RECORDED TEMPERATURE
 LUN .               3026:   LOGGING UNIT NUMBER
 LUL .             CASPER:   LOGGING UNIT LOCATION
 ENGI.             RAWSON:   RECORDING ENGINEER
 WITN.         STUERINCER:   WITNESSED BY
 CLNT.            A2DTECH:   CLIENT CODE
 ORIG.           5" PRINT:   ORIGIN OF DATA
 UWI .       490251032200:   UNIQUE WELL ID
 DICO. A2D Technologies, Inc.:   DIGITIZING COMPANY
~OTHER INFORMATION
~A   DEPT      SPR        ILD         SN        GRD       CALD       CORR       RHOB       DPHI   
# ...
  191.0000   -33.9518     6.6556     7.7374    68.2528     7.4320    -0.0191     2.4343     0.1375
  191.5000   -33.5074     6.7946     8.1214    67.9623     7.4191    -0.0132     2.4343     0.1420
  192.0000   -33.3612     7.0334     8.5384    66.9580     7.4210    -0.0285     2.4197     0.1401
  192.5000   -33.5173     7.2303     8.8214    65.8814     7.4379    -0.0422     2.4172     0.1392
  193.0000   -33.6723     7.3813     8.8806    68.6621     7.4698    -0.0409     2.4195     0.1377
  193.5000   -33.9779     7.5879     9.0024    69.2698     7.4867    -0.0503     2.4205     0.1346
  194.0000   -34.1329     7.7464     9.1259    68.6048     7.5037    -0.0685     2.4292     0.1207
  194.5000   -34.2879     7.8541     9.3156    68.5060     7.5056    -0.0701     2.4400     0.1179
  195.0000   -34.1416     7.9622     9.3776    69.7458     7.4925    -0.0623     2.4508     0.1185
  195.5000   -34.1461     8.0165     9.3751    70.1290     7.4945    -0.0536     2.4479     0.1221
  196.0000   -33.9819     8.0712     9.3727    70.4374     7.4964    -0.0393     2.4450     0.1284
  196.5000   -33.7042     8.1828     9.4351    70.7457     7.4984    -0.0240     2.4436     0.1307
  197.0000   -33.7086     8.2960     9.4990    70.1566     7.4853    -0.0214     2.4339     0.1229
  197.5000   -33.8636     8.3526     9.6293    68.1454     7.4723    -0.0232     2.4362     0.1183
  198.0000   -34.1692     8.4096     9.7615    68.6783     7.4743    -0.0143     2.4476     0.1198
  198.5000   -34.6254     8.4082     9.8270    68.9844     7.4612    -0.0084     2.4500     0.1291
  199.0000   -34.6298     8.4656     9.8929    68.2448     7.4632    -0.0102     2.4470     0.1281
  199.5000   -34.6342     8.4644     9.9587    69.8279     7.4651    -0.0149     2.4373     0.1260
  200.0000   -34.6386     8.4632     9.9561    68.9364     7.4671    -0.0181     2.4366     0.1238
  200.5000   -34.1894     8.5809    10.0249    69.3932     7.4406    -0.0167     2.4443     0.1211
  201.0000   -34.3436     8.5802     9.9548    69.9231     7.4425    -0.0123     2.4459     0.1183
  201.5000   -34.9490     8.5796     9.9541    70.2285     7.5033    -0.0128     2.4460     0.1165
  202.0000   -34.8013     8.5791     9.8844    69.6547     7.5046    -0.0339     2.4468     0.1171
  202.5000   -34.3399     8.5192     9.8837    69.5657     7.4598    -0.0323     2.4567     0.1204
  203.0000   -34.0540     8.4596     9.8831    69.0180     7.4324    -0.0203     2.4591     0.1239
  203.5000   -34.0577     8.4006     9.8824    68.3052     7.4187    -0.0132     2.4546     0.1275
  204.0000   -34.2112     8.3420     9.8134    68.9202     7.4201    -0.0179     2.4457     0.1278
  204.5000   -34.2141     8.2837     9.8128    67.8690     7.4064    -0.0226     2.4412     0.1251
  205.0000   -34.2170     8.1691     9.7352    66.2283     7.4077    -0.0182     2.4429     0.1241
  205.5000   -34.0693     8.0560     9.6091    65.9349     7.3941    -0.0184     2.4460     0.1268
  206.0000   -33.9216     7.9444     9.5420    65.2672     7.3658    -0.0231     2.4468     0.1186
  206.5000   -33.7739     7.8344     9.4754    65.9463     7.1572    -0.0398     2.4461     0.1144
  207.0000   -33.7775     7.6726     9.4092    66.6259     6.9337    -0.0551     2.4462     0.1186
  207.5000   -33.9310     7.5141     9.3435    66.7067     6.9197    -0.0477     2.4493     0.1152
  208.0000   -34.0845     7.3589     9.2141    67.2366     6.9214    -0.0629     2.4555     0.1122
  208.5000   -34.2380     7.2069     9.0864    69.2640     6.9527    -0.0616     2.4608     0.1143
  209.0000   -34.3966     7.0092     8.9604    66.8743     6.9990    -0.0557     2.4639     0.1230
  209.5000   -34.5458     6.8169     8.7145    68.5260     7.2852    -0.0363     2.4625     0.1359
  210.0000   -34.5487     6.6299     8.3007    69.4316     7.4362    -0.0199     2.4501     0.1458
  210.5000   -34.5516     6.4481     7.9616    69.8104     7.0630    -0.0155     2.4283     0.1558
  211.0000   -34.4039     6.1848     7.7430    66.5244     7.1244    -0.0232     2.4144     0.1597
  211.5000   -34.2562     5.8914     7.4743    67.6531     7.3356    -0.0264     2.3997     0.1590
  212.0000   -34.2591     5.5335     7.0739    66.8357     7.4415    -0.0250     2.3894     0.1641
  212.5000   -34.2621     5.0747     6.7380    66.0183     7.3383    -0.0237     2.3787     0.1828
  213.0000   -34.2656     4.4942     6.3736    65.5737     7.3396    -0.0224     2.3634     0.2093
  213.5000   -34.2685     3.8580     5.7831    67.0767     7.3560    -0.0210     2.3306     0.2283
  214.0000   -34.2714     3.1330     5.0682    65.2877     7.3573    -0.0212     2.3004     0.2506
  214.5000   -34.5755     2.7652     4.4110    64.9943     7.3736    -0.0334     2.2723     0.2524
  215.0000   -35.1808     2.5797     3.9092    64.9875     7.3900    -0.0637     2.2439     0.2511
  215.5000   -35.3343     2.5440     3.3181    65.3805     7.4063    -0.0473     2.2290     0.2795
  216.0000   -35.3373     2.5438     3.1387    66.2098     7.4226    -0.0294     2.2234     0.2903
  216.5000   -35.4915     2.5792     3.1167    66.6648     7.4090    -0.0461     2.1975     0.2854
  217.0000   -35.3438     2.6515     3.1601    65.5486     7.3804    -0.0644     2.1708     0.2773
  217.5000   -34.8949     2.8221     3.3636    64.5815     7.3364    -0.0796     2.1706     0.2377
  218.0000   -34.2954     3.0882     3.7584    65.0365     7.3531    -0.1009     2.1933     0.2096
  218.5000   -34.4489     3.4037     3.8422    66.9137     7.3994    -0.1086     2.2482     0.1749
  219.0000   -35.0592     3.9083     4.2875    68.2670     7.4307    -0.1178     2.3128     0.1435
  219.5000   -35.3590     4.8461     5.1351    69.3957     7.4770    -0.1270     2.3697     0.1245
  220.0000   -34.9101     5.3399     5.8586    71.2730     7.4934    -0.1015     2.4057     0.1232
  220.5000   -34.6111     5.8029     6.5463    71.8777     7.4794    -0.0776     2.4352     0.1244
  221.0000   -34.3128     6.0912     7.0652    70.6112     7.4811    -0.0657     2.4420     0.1274
  221.5000   -34.6176     6.2621     7.4681    69.5678     7.4974    -0.0463     2.4466     0.1310
  222.0000   -35.2229     6.3053     7.7981    69.6501     7.4987    -0.0344     2.4413     0.1322
  222.5000   -35.3765     6.3488     8.0037    68.6825     7.5001    -0.0255     2.4354     0.1318
  223.0000   -35.3801     6.3043     8.0589    70.1407     7.4861    -0.0287     2.4325     0.1339
  223.5000   -35.3830     6.2604     8.0583    70.4898     7.4578    -0.0213     2.4326     0.1369
  224.0000   -35.5365     6.1737     8.0577    70.0477     7.4288    -0.0154     2.4327     0.1317
  224.5000   -35.6900     6.0883     8.0572    71.8952     7.4305    -0.0262     2.4328     0.1290
  225.0000   -35.8435     5.9625     8.0566    72.6796     7.4318    -0.0279     2.4329     0.1293
  225.5000   -35.9970     5.7928     8.0561    71.2522     7.4332    -0.0250     2.4337     0.1322
  226.0000   -36.0000     5.6008     8.0554    72.9912     7.4195    -0.0131     2.4338     0.1413
  226.5000   -36.0035     5.4472     7.9439    74.1204     7.4059    -0.0088     2.4294     0.1515
  227.0000   -36.0064     5.2978     7.5666    73.3779     7.3922    -0.0089     2.4068     0.1620
  227.5000   -36.0093     5.1526     7.1079    73.0830     7.3936    -0.0151     2.4009     0.1668
  228.0000   -36.0122     5.0461     6.8176    72.8659     7.3949    -0.0334     2.3844     0.1589
  228.5000   -35.8645     4.9737     6.5378    72.6473     7.3963    -0.0531     2.3762     0.1541
  229.0000   -35.8675     4.9415     6.3595    72.0549     7.4126    -0.0262     2.3899     0.1550
  229.5000   -35.8711     5.0102     6.2714    70.9381     7.4589    -0.0038     2.3915     0.1477
  230.0000   -35.7226     5.1508     6.4475    70.8678     7.5502    -0.0190     2.3953     0.1398
  230.5000   -35.7263     5.3321     6.8152    70.8752     7.5516    -0.0282     2.4007     0.1322
  231.0000   -35.5786     5.5583     6.9582    71.9291     7.5079    -0.0072     2.4166     0.1325
