~VERSION INFORMATION
 VERS.                2.0:   CWLS LOG ASCII STANDARD - VERSION 2.0
 WRAP.                 NO:   ONE LINE PER DEPTH STEP
~WELL INFORMATION
#MNEM.UNIT      DATA TYPE    INFORMATION
#----------   ------------   ------------------------------
 STRT.F            0.0000:   START DEPTH
 STOP.F          546.0000:   STOP DEPTH
 STEP.F            0.5000:   STEP LENGTH
 NULL.          -999.2500:   NO VALUE
 COMP. LAWRENCE/ALLISON INC:   COMPANY
 WELL.   NPR 3 #76-21SX10:   WELL
 FLD .             TEAPOT:   FIELD
 LOC .      S10 T38N R78W:   LOCATION
 CNTY.            NATRONA:   COUNTY
 STAT.            WYOMING:   STATE
 CTRY. UNITED STATES OF AMERICA:   COUNTRY
 SRVC.      Dresser Atlas:   SERVICE COMPANY
 DATE.        22-JUL-1984:   LOGDATE
 API .       490251097000:   API NUMBER
~CURVE INFORMATION
#MNEM.UNIT       API CODE    CURVE DESCRIPTION
#----------   ------------   ------------------------------
 DEPT.F                  :   
 CALD.IN     45 280 60 00:   CALIPER FROM DENSITY LOG
 DEN .G/C3   45 350 01 00:   COMPENSATED BULK DENSTIY
 CORR.G/C3   45 356 01 00:   DENSITY CORRECTION
 DPHI.DEC    45 890 12 00:   POROSITY DENSITY SANDSTONE
 CNC .DEC    42 890 03 00:   NEUTRON POROSITY SANDSTONE
 GRR .GAPI   07 310 01 00:   GAMMA RAY
 SPR .MV     07 010 01 00:   SPONTANEOUS POTENTIAL
 RILD.OHMM   07 120 46 00:   INDUCTION LOG DEEP RESISTIVITY
 RILM.OHMM   07 120 44 00:   INDUCTION LOG MEDIUM RESISTIVITY
 RFOC.OHMM   07 220 04 00:   RESISTIVITY FOCUSED LOG
 AC  .US/F   60 520 00 00:   ACCOUSTIC
~PARAMETER INFORMATION
#MNEM.UNIT          VALUE    DESCRIPTION
#----------   ------------   ------------------------------
 PD  .                 GL:   PERMANENT DATUM
 EPD .F              5167:   ELEVATION PERMANENT DATUM
 LMF .                 GL:   LOG MEASURED FROM
 DMF .                 GL:   DRILLING MEASURED FROM
 EGL .F              5167:   GROUND LEVEL
 DATE.        22-JUL-1984:   RUN DATE
 RUN .                  1:   RUN NUMBER
 DD  .F               551:   DEPTH DRILLER
 DL  .F               547:   DEPTH LOGGER
 BLI .F               544:   BOTTOM LOG INTERVAL
 CS  .IN            9.625:   CASING SIZE
 CBD .F                40:   CASING BOTTOM DRILLER
 CBL .F                42:   CASING BOTTOM LOGGER
 BS  .IN            7.875:   BIT SIZE
 BSD .F               551:   BIT SIZE AT DEPTH
 DFT .        KCL POLYMER:   DRILLING FLUID TYPE
 MSS .           FLOWLINE:   MUD SAMPLE SOURCE
 RMS .OHMM           .193:   RESISTIVITY MUD SAMPLE
 MST .F                75:   MUD SAMPLE TEMPERATURE
 RMF .OHMM           .144:   RESISTIVITY MUD FILTRATE SAMPLE
 MFST.F                75:   MUD FILTRATE SAMPLE TEMPERATURE
 RMC .OHMM            .24:   RESISTIVITY MUD CAKE
 MCST.F                74:   MUD CAKE SAMPLE TEMPERATURE
 MFSS.               CALC:   MUD FILTRATE SAMPLE SOURCE
 MCSS.               CALC:   MUD CAKE SAMPLE SOURCE
 TCS .HRS               5:   TIME CURCULATED STOPPED
 MRT .F                90:   MAXIMUM RECORDED TEMPERATURE
 LUN .               6274:   LOGGING UNIT NUMBER
 LUL .               GLTE:   LOGGING UNIT LOCATION
 ENGI.             RAUTIO:   RECORDING ENGINEER
 WITN.              FIVAS:   WITNESSED BY
 CLNT.            A2DTECH:   CLIENT CODE
 ORIG.       2", 5" PRINT:   ORIGIN OF DATA
 UWI .       490251097000:   UNIQUE WELL ID
 DICO. A2D Technologies, Inc.:   DIGITIZING COMPANY
~OTHER INFORMATION
~A    DEPT    CALD        DEN       CORR       DPHI        CNC         GRR       SPR       RILD       RILM       RFOC         AC   
# ...
  518.5000     7.9350     2.5200     0.0570     0.0800     0.2790   112.3790   -25.2500     9.0870     7.8530    10.6130    97.8610
  519.0000     7.9360     2.5150     0.0550     0.0820     0.2730   110.8740   -25.7520     9.0110     7.8530    10.5300    97.8340
  519.5000     7.9370     2.5120     0.0510     0.0820     0.2630   111.1930   -26.3120     9.0610     7.8750    10.5300    97.6200
  520.0000     7.9380     2.5180     0.0470     0.0790     0.2590  -999.2500   -26.6730     9.1210     7.9100    10.4340    97.2700
  520.5000     7.9400     2.5230     0.0430     0.0760     0.2650  -999.2500   -27.0020     9.1820     7.9440    10.4340    96.7430
  521.0000     7.9410     2.5230     0.0390     0.0770     0.2710  -999.2500   -27.2530     9.2420     7.9790    10.6220    96.2240
  521.5000     7.9420     2.5180     0.0360     0.0800     0.2730  -999.2500   -25.4330     9.2620     8.0140    10.8410    95.8420
  522.0000     7.9430     2.5120     0.0330     0.0840     0.2680  -999.2500   -22.7470     9.2620     8.0480    11.0600    95.6540
  522.5000     7.9440     2.5070     0.0310     0.0850     0.2640  -999.2500   -19.7660     9.3430     8.0840    11.1250    95.5720
  523.0000     7.9450     2.5130     0.0350     0.0830     0.2720  -999.2500   -18.9010     9.5020     8.1220    11.1250    95.5550
  523.5000     7.9470     2.5230     0.0570     0.0780     0.2770  -999.2500   -18.1290     9.6080     8.1600    11.1250    95.4550
  524.0000     7.9480     2.5270     0.0730     0.0740     0.2750  -999.2500   -17.4290     9.6080     8.1980    11.1250    95.3880
  524.5000     7.9490     2.5310     0.0710     0.0710     0.2730  -999.2500   -17.2520     9.6080     8.2170    11.1250    95.4720
  525.0000     7.9500     2.5350     0.0650     0.0690     0.2760  -999.2500   -17.0460     9.6080     8.1700    11.1250    95.5550
  525.5000     7.9580     2.5330     0.0520     0.0710     0.2790  -999.2500   -16.8390     9.6080     8.1320    11.0530    95.6380
  526.0000     7.9690     2.5230     0.0330     0.0770     0.2830  -999.2500   -16.7150     9.6420     8.0720    10.8690    95.4710
  526.5000     7.9800     2.5110     0.0260     0.0830     0.2870  -999.2500   -16.9940     9.6760     8.0870    10.7250    95.1370
  527.0000     7.9890     2.5060     0.0320     0.0870     0.2860  -999.2500   -17.2770     9.6970     8.1210    10.7980    94.8760
  527.5000     7.9780     2.5030     0.0380     0.0890     0.2820  -999.2500   -17.8640     9.6960     8.1470    11.0220    94.9600
  528.0000     7.9670     2.5060     0.0380     0.0880     0.2820  -999.2500   -18.4510     9.6960     8.0720    11.4350    95.1470
  528.5000     7.9560     2.5080     0.0380     0.0870     0.2850  -999.2500   -19.0370     9.6960     8.1000    11.3580    95.3560
  529.0000     7.9510     2.5090     0.0580     0.0860     0.2810  -999.2500   -19.6220     9.6960     8.1590    11.2420    95.5170
  529.5000     7.9540     2.5070     0.0670     0.0870     0.2730  -999.2500   -20.2070     9.6970     8.2180    11.1260    95.5720
  530.0000     7.9560     2.5030     0.0560     0.0880     0.2660  -999.2500   -20.6810     9.6970     8.2760    11.0240    95.5720
  530.5000     7.9580     2.5000     0.0460     0.0910     0.2630  -999.2500   -20.9020     9.6960     8.3350    11.0240    95.2560
  531.0000     7.9610     2.4980     0.0390     0.0930  -999.2500  -999.2500   -21.1260     9.8270     8.3740    11.0680    94.9560
  531.5000     7.9630     2.4970     0.0350     0.0930  -999.2500  -999.2500   -21.3550     9.9120     8.3740    11.1980    94.6770
  532.0000     7.9660     2.4960     0.0390     0.0940  -999.2500  -999.2500   -21.2150     9.9760     8.3740    11.3310    90.0030
  532.5000     7.9680     2.4950     0.0420     0.0940  -999.2500  -999.2500   -20.9820    10.0320     8.3980    11.3760    85.2240
  533.0000     7.9700     2.4930     0.0400     0.0950  -999.2500  -999.2500   -20.7470    10.0890     8.5300    11.4350    87.4500
  533.5000     7.9690     2.4920     0.0320     0.0960  -999.2500  -999.2500   -20.1780    10.1450     8.6620    11.4890    90.7020
  534.0000     7.9670     2.4920     0.0310     0.0970  -999.2500  -999.2500   -19.0930    10.2010  -999.2500    11.5570    92.9850
  534.5000     7.9660     2.4950     0.0330     0.0950  -999.2500  -999.2500   -18.0190    10.2440  -999.2500    11.6240  -999.2500
  535.0000     7.9640     2.4970     0.0260     0.0940  -999.2500  -999.2500  -999.2500    10.2440  -999.2500    11.6910  -999.2500
  535.5000     7.9630     2.4970     0.0180     0.0930  -999.2500  -999.2500  -999.2500    10.2440  -999.2500    11.7540  -999.2500
  536.0000     7.9610     2.4970     0.0130     0.0940  -999.2500  -999.2500  -999.2500    10.2440  -999.2500    11.5000  -999.2500
  536.5000     7.9600     2.4940     0.0200     0.0950  -999.2500  -999.2500  -999.2500    10.2440  -999.2500    11.3310  -999.2500
  537.0000     7.9580     2.4930     0.0300     0.0960  -999.2500  -999.2500  -999.2500    10.2440  -999.2500    11.5020  -999.2500
  537.5000     7.9570     2.4950     0.0390     0.0940  -999.2500  -999.2500  -999.2500    10.2780  -999.2500    11.5710  -999.2500
  538.0000     7.9550     2.5050     0.0480     0.0880  -999.2500  -999.2500  -999.2500    10.3270  -999.2500    11.6470  -999.2500
  538.5000     7.9540     2.5200     0.0470     0.0810  -999.2500  -999.2500  -999.2500  -999.2500  -999.2500    11.6070  -999.2500
  539.0000     7.9520     2.5270     0.0440     0.0760  -999.2500  -999.2500  -999.2500  -999.2500  -999.2500    11.5400  -999.2500
  539.5000     7.9510     2.5340     0.0520     0.0730  -999.2500  -999.2500  -999.2500  -999.2500  -999.2500    11.6760  -999.2500
  540.0000     7.9380     2.5460     0.0600     0.0650  -999.2500  -999.2500  -999.2500  -999.2500  -999.2500    11.8520  -999.2500
  540.5000     7.9210     2.5650     0.0880     0.0530  -999.2500  -999.2500  -999.2500  -999.2500  -999.2500    12.0280  -999.2500
  541.0000     7.9050     2.5750     0.1010     0.0440  -999.2500  -999.2500  -999.2500  -999.2500  -999.2500    12.3050  -999.2500
  541.5000     7.8910     2.5620     0.0840     0.0470  -999.2500  -999.2500  -999.2500  -999.2500  -999.2500    12.2570  -999.2500
  542.0000     7.8910     2.5330     0.0420     0.0690  -999.2500  -999.2500  -999.2500  -999.2500  -999.2500    12.1440  -999.2500
  542.5000     7.8910     2.5220     0.0550     0.0780  -999.2500  -999.2500  -999.2500  -999.2500  -999.2500    12.0320  -999.2500
  543.0000     7.8910     2.5280     0.0660     0.0750  -999.2500  -999.2500  -999.2500  -999.2500  -999.2500    11.9200  -999.2500
  543.5000     7.8910     2.5380     0.0540     0.0700  -999.2500  -999.2500  -999.2500  -999.2500  -999.2500    11.8100  -999.2500
  544.0000     7.8910     2.5470     0.0530     0.0620  -999.2500  -999.2500  -999.2500  -999.2500  -999.2500    11.5940  -999.2500
  544.5000     7.8910     2.5560     0.0760     0.0570  -999.2500  -999.2500  -999.2500  -999.2500  -999.2500  -999.2500  -999.2500
  545.0000     7.8910     2.5560     0.1020     0.0560  -999.2500  -999.2500  -999.2500  -999.2500  -999.2500  -999.2500  -999.2500
  545.5000     7.8910     2.5500     0.1110     0.0550  -999.2500  -999.2500  -999.2500  -999.2500  -999.2500  -999.2500  -999.2500
  546.0000     7.8910     2.5440     0.1110     0.0550  -999.2500  -999.2500  -999.2500  -999.2500  -999.2500  -999.2500  -999.2500
