~VERSION INFORMATION
 VERS.                2.0:   CWLS LOG ASCII STANDARD - VERSION 2.0
 WRAP.                 NO:   ONE LINE PER DEPTH STEP
~WELL INFORMATION
#MNEM.UNIT      DATA TYPE    INFORMATION
#----------   ------------   ------------------------------
 STRT.F            2.0000:   START DEPTH
 STOP.F          548.0000:   STOP DEPTH
 STEP.F            0.1000:   STEP LENGTH
 NULL.          -999.2500:   NO VALUE
 COMP.       F D SERV INC:   COMPANY
 WELL. NAVAL PETROLEUM RESERVE 3 SX-3 #88-10-3:   WELL
 FLD .             TEAPOT:   FIELD
 LOC .       S3 T38N R78W:   LOCATION
 CNTY.            NATRONA:   COUNTY
 STAT.            WYOMING:   STATE
 CTRY. UNITED STATES OF AMERICA:   COUNTRY
 SRVC.     Atlas Wireline:   SERVICE COMPANY
 DATE.        19-OCT-1992:   LOGDATE
 API .       490252254600:   API NUMBER
~CURVE INFORMATION
#MNEM.UNIT       API CODE    CURVE DESCRIPTION
#----------   ------------   ------------------------------
 DEPT.F                  :   
 GRR .GAPI   07 310 01 00:   GAMMA RAY
 ILD .OHMM   07 120 46 00:   INDUCTION LOG DEEP
 ILM .OHMM   07 120 44 00:   INDUCTION LOG MEDIUM
~PARAMETER INFORMATION
#MNEM.UNIT          VALUE    DESCRIPTION
#----------   ------------   ------------------------------
 PD  .                 GL:   PERMANENT DATUM
 EPD .F              5126:   ELEVATION PERMANENT DATUM
 LMF .                 KB:   LOG MEASURED FROM
 DAPD.F                10:   FEET ABOVE PERMANENT DATUM
 DMF .                 KB:   DRILLING MEASURED FROM
 EKB .F              5136:   KELLING BUSHING
 EDF .F              5135:   DRILLING FLOOR
 EGL .F              5126:   GROUND LEVEL
 DATE.        19-OCT-1992:   RUN DATE
 RUN .                  1:   RUN NUMBER
 DD  .F               566:   DEPTH DRILLER
 DL  .F               558:   DEPTH LOGGER
 BLI .F               550:   BOTTOM LOG INTERVAL
 TLI .F                98:   TOP LOG INTERVAL
 CS  .IN            8.625:   CASING SIZE
 CBD .F                85:   CASING BOTTOM DRILLER
 CBL .F                98:   CASING BOTTOM LOGGER
 BS  .IN            7.875:   BIT SIZE
 BSD .F               566:   BIT SIZE AT DEPTH
 DFT .           AIR FOAM:   DRILLING FLUID TYPE
 TCS .HRS               2:   TIME CURCULATED STOPPED
 MRT .F                73:   MAXIMUM RECORDED TEMPERATURE
 LUN .            HL-6274:   LOGGING UNIT NUMBER
 LUL .             CASPER:   LOGGING UNIT LOCATION
 ENGI.             RAUTIO:   RECORDING ENGINEER
 WITN.        GARY STRONG:   WITNESSED BY
 CLNT.            A2DTECH:   CLIENT CODE
 ORIG.           5" PRINT:   ORIGIN OF DATA
 UWI .       490252254600:   UNIQUE WELL ID
 DICO. A2D Technologies, Inc.:   DIGITIZING COMPANY
~OTHER INFORMATION
~A    DEPT     GRR        ILD        ILM   
# ...
  493.4000   119.4296    12.9735    12.8171
  493.5000   119.9755    13.0292    12.8890
  493.6000   120.1872    13.0291    12.9615
  493.7000   120.2735    13.1024    13.0341
  493.8000   120.2711    13.1763    13.1072
  493.9000   120.2687    13.2506    13.1422
  494.0000   120.2661    13.3253    13.1416
  494.1000   120.2638    13.3972    13.1411
  494.2000   120.2614    13.3970    13.1404
  494.3000   120.2590    13.4577    13.1400
  494.4000   120.2566    13.5336    13.1394
  494.5000   120.2541    13.6099    13.1389
  494.6000   120.0178    13.6866    13.1383
  494.7000   119.9467    13.7755    13.1377
  494.8000   119.9443    13.7753    13.1372
  494.9000   119.9419    13.8227    13.1367
  495.0000   119.9395    13.8714    13.1361
  495.1000   119.9371    13.8817    13.1356
  495.2000   119.9346    13.9682    13.1350
  495.3000   119.9322    13.8979    13.1345
  495.4000   119.9298    13.8707    13.1339
  495.5000   119.9374    13.8705    13.1334
  495.6000   120.2271    13.8703    13.1328
  495.7000   120.4208    13.8701    13.1322
  495.8000   120.7996    13.8699    13.1317
  495.9000   121.1280    13.8697    13.1312
  496.0000   121.1256    13.8695    13.1306
  496.1000   121.1228    13.8693    13.1301
  496.2000   120.5035    13.8691    13.1295
  496.3000   119.9162    13.8689    13.1290
  496.4000   119.3368    13.8687    13.1839
  496.5000   118.6323    13.8685    13.2199
  496.6000   118.0850    13.8683    13.2193
  496.7000   117.6512    13.8682    13.2188
  496.8000   117.1606    13.8680    13.2182
  496.9000   116.7689    13.8678    13.2177
  497.0000   116.5224    13.8676    13.2171
  497.1000   116.2576    13.8674    13.2165
  497.2000   116.2554    13.8672    13.2160
  497.3000   116.2530    13.8670    13.2153
  497.4000   116.3594    13.8668    13.2149
  497.5000   116.5507    13.8666    13.2143
  497.6000   116.5482    13.8664    13.2138
  497.7000   116.7819    13.8662    13.2132
  497.8000   116.8460    13.8660    13.2126
  497.9000   116.8436    13.8658    13.2781
  498.0000   116.7807    13.8656    13.3041
  498.1000   116.5279    13.8654    13.3036
  498.2000   115.5494    13.8783    13.3030
  498.3000   114.5707    13.9622    13.3024
  498.4000   113.4630    13.9620    13.3717
  498.5000   112.2402    13.9618    13.3946
  498.6000   111.0414    13.9263    13.3940
  498.7000   110.1672    13.8477    13.3934
  498.8000   109.3745    13.7676    13.3929
  498.9000   108.2565    13.7674    13.3923
  499.0000   107.1143    13.7104    13.3918
  499.1000   106.1801    13.6331    13.4288
  499.2000   105.6166    13.5563    13.4845
  499.3000   105.6145    13.4798    13.4839
  499.4000   105.6121    13.4039    13.4833
  499.5000   105.6097    13.3284    13.4828
  499.6000   105.6073    13.2533    13.4822
  499.7000   105.6046    13.1786    13.4587
  499.8000   106.2561    13.1043    13.3873
  499.9000   107.7828    13.0176    13.3866
  500.0000   108.9259    13.1282    13.2930
  500.1000   109.4212    13.2621    13.2648
  500.2000   110.1140    13.1745    13.1075
  500.3000   111.0046    13.0652    13.0356
  500.4000   111.9073    12.9901    12.9609
  500.5000   112.5323    12.9077    12.8867
  500.6000   112.5262    12.7432    12.8128
  500.7000   112.5214    12.6786    12.7394
  500.8000   112.5164    12.6532    12.6545
  500.9000   112.3782    12.6212    12.5939
  501.0000   112.2037    12.5638    12.5655
  501.1000   112.1987    12.5630    12.5650
  501.2000   112.1932    12.5624    12.5645
  501.3000   112.1886    12.5616    12.5639
  501.4000   112.1836    12.5609    12.5634
  501.5000   112.1785    12.5602    12.5119
  501.6000   112.1049    12.5595    12.4749
  501.7000   111.8659    12.5588    12.4744
  501.8000   111.8601    12.6208    12.4768
  501.9000   112.0696    12.6454    12.5607
  502.0000   112.1533    12.6447    12.5602
  502.1000   112.2572    12.6440    12.5597
  502.2000   112.6152    12.6433    12.5592
  502.3000   113.3729    12.6426    12.5587
  502.4000   115.1579    12.6419    12.5581
  502.5000   116.1624    12.6412    12.5576
  502.6000   116.9602    12.6405    12.5571
  502.7000   117.5522    12.6458    12.5566
  502.8000   118.1653    12.7275    12.5560
  502.9000   118.1592    12.7269    12.5570
  503.0000   118.3964    12.7262    12.6283
  503.1000   118.2623    12.7255    12.6424
  503.2000   118.1442    12.7248    12.6419
  503.3000   117.9698    12.7241    12.6414
  503.4000   117.4967    12.7234    12.6408
  503.5000   117.2210    12.7227    12.6403
  503.6000   116.9864    12.7220    12.6398
  503.7000   116.5537    12.7212    12.6393
  503.8000   116.1735    12.7205    12.6387
  503.9000   115.8457    12.7197    12.6382
  504.0000   115.3001    12.6577    12.6377
  504.1000   114.1648    12.6299    12.6371
  504.2000   113.7247    12.6292    12.6366
  504.3000   113.2194    12.6285    12.6361
  504.4000   112.9400    12.6278    12.6121
  504.5000   112.9955    12.5585    12.5471
  504.6000   113.2326    12.5385    12.5465
  504.7000   113.2265    12.4657    12.5460
  504.8000   113.4281    12.3632    12.4990
  504.9000   113.5199    12.3583    12.4274
  505.0000   113.6157    12.2757    12.3561
  505.1000   113.9092    12.2167    12.2839
  505.2000   114.4124    12.1891    12.2150
  505.3000   114.6535    12.1614    12.1974
  505.4000   114.8986    12.0914    12.1601
  505.5000   115.0025    12.0180    12.1115
  505.6000   114.9087    11.9529    12.1054
  505.7000   114.6536    11.9330    12.0262
  505.8000   114.3819    11.9324    11.9671
  505.9000   113.9093    11.9132    11.8986
  506.0000   113.5855    11.8480    11.8579
  506.1000   113.3303    11.8472    11.8451
  506.2000   112.9985    11.7911    11.7744
  506.3000   112.5174    11.7233    11.7098
  506.4000   112.2334    11.6559    11.6427
  506.5000   112.2289    11.5992    11.5760
  506.6000   112.0544    11.5985    11.5284
  506.7000   111.9163    11.5364    11.5239
  506.8000   111.9758    11.5165    11.4472
  506.9000   112.2209    11.4841    11.3923
  507.0000   112.5055    11.4181    11.3271
  507.1000   113.1306    11.3525    11.2871
  507.2000   113.7186    11.2751    11.2761
  507.3000   114.2138    11.2746    11.2076
  507.4000   114.7615    11.2361    11.1473
  507.5000   115.5068    11.1716    11.1287
  507.6000   115.7519    11.1073    11.0665
  507.7000   116.5901    11.0384    10.9734
  507.8000   117.2950    10.9801    10.9704
  507.9000   117.7902    10.9604    10.8961
  508.0000   118.3258    10.9303    10.8957
  508.1000   119.1072    10.8675    10.8952
  508.2000   119.5784    10.8050    10.8720
  508.3000   120.2592    10.7307    10.8185
  508.4000   121.0046    10.7302    10.8180
  508.5000   121.5885    10.6942    10.7611
  508.6000   121.8900    10.6543    10.6995
  508.7000   122.7075    10.6457    10.6667
  508.8000   122.9289    10.5789    10.6514
  508.9000   123.3474    10.5784    10.5916
  509.0000   123.8426    10.5778    10.5911
  509.1000   124.4065    10.5495    10.5907
  509.2000   125.1680    10.5030    10.5558
  509.3000   126.3079    10.5016    10.5161
  509.4000   126.7312    10.4413    10.5083
  509.5000   127.3878    10.4282    10.4420
  509.6000   128.1331    10.4276    10.3883
  509.7000   128.7655    10.4066    10.3685
  509.8000   129.0106    10.3539    10.3681
  509.9000   129.3031    10.3533    10.3677
  510.0000   129.0973    10.3528    10.3672
  510.1000   128.8421    10.3522    10.3668
  510.2000   128.4901    10.3251    10.3207
  510.3000   128.0293    10.2790    10.2938
  510.4000   127.7658    10.2784    10.2934
  510.5000   127.2769    10.2778    10.2929
  510.6000   126.7716    10.1864    10.2924
  510.7000   125.8628    10.1342    10.2407
  510.8000   125.3249    10.1144    10.1821
  510.9000   124.6183    10.0625    10.1237
  511.0000   124.0443    10.0619    10.0657
  511.1000   123.4100    10.0614    10.0069
  511.2000   122.8079    10.0229    10.0065
  511.3000   122.5042     9.9903     9.9631
  511.4000   121.6636     9.9653     9.9360
  511.5000   121.6591     9.8506     9.9011
