~VERSION INFORMATION
 VERS.                2.0:   CWLS LOG ASCII STANDARD - VERSION 2.0
 WRAP.                 NO:   ONE LINE PER DEPTH STEP
~WELL INFORMATION
#MNEM.UNIT      DATA TYPE    INFORMATION
#----------   ------------   ------------------------------
 STRT.F           30.0000:   START DEPTH
 STOP.F          510.0000:   STOP DEPTH
 STEP.F            0.5000:   STEP LENGTH
 NULL.          -999.2500:   NO VALUE
 COMP. FENIX & SCISSON INC:   COMPANY
 WELL.    66-SX 3FP #54-3:   WELL
 FLD .             TEAPOT:   FIELD
 LOC .       S3 T38N R78W:   LOCATION
 CNTY.            NATRONA:   COUNTY
 STAT.            WYOMING:   STATE
 CTRY. UNITED STATES OF AMERICA:   COUNTRY
 SRVC.              Welex:   SERVICE COMPANY
 DATE.        25-JUN-1980:   LOGDATE
 API .       490251081400:   API NUMBER
~CURVE INFORMATION
#MNEM.UNIT       API CODE    CURVE DESCRIPTION
#----------   ------------   ------------------------------
 DEPT.F                  :   
 SGRD.OHMM   07 220 05 00:   SHALLOW GUARD RESISTIVITY
 ILD .OHMM   07 120 46 00:   INDUCTION LOG DEEP RESISTIVITY
 ILM .OHMM   07 120 44 00:   INDUCTION LOG MEDIUM
 CALD.IN     45 280 60 00:   CALIPER
 GRD .GAPI   45 310 01 00:   GAMMA RAY FROM DENSITY LOG
 CORR.G/C3   45 356 01 00:   DENSITY CORRECTION
 NPHI.DEC    42 890 03 00:   NEUTRON POROSITY SANDSTONE
 DPHI.DEC    45 890 12 00:   DENSITY POROSITY SANDSTONE
 SPR .MV     07 010 01 00:   SPONTANEOUS POTENTIAL
 RHOB.G/C3   45 350 01 00:   BULK DENSITY
~PARAMETER INFORMATION
#MNEM.UNIT          VALUE    DESCRIPTION
#----------   ------------   ------------------------------
 PD  .                 GL:   PERMANENT DATUM
 EPD .F              5158:   ELEVATION PERMANENT DATUM
 LMF .                 KB:   LOG MEASURED FROM
 DAPD.F                 5:   FEET ABOVE PERMANENT DATUM
 DMF .                 KB:   DRILLING MEASURED FROM
 EKB .F              5163:   KELLING BUSHING
 EGL .F              5158:   GROUND LEVEL
 DATE.            6-25-80:   RUN DATE
 RUN .                  1:   RUN NUMBER
 DD  .F               516:   DEPTH DRILLER
 DL  .F               512:   DEPTH LOGGER
 BLI .F               510:   BOTTOM LOG INTERVAL
 TLI .F                30:   TOP LOG INTERVAL
 BS  .IN            9.875:   BIT SIZE
 BSD .F               516:   BIT SIZE AT DEPTH
 DFT .            KCL MUD:   DRILLING FLUID TYPE
 DFD .                9.2:   DRILLING FLUID DENSITY
 DFV .                 52:   DRILLING FLUID VISCOSITY
 DFPH.                 12:   DRILLING FLUID PH
 DFL .                  6:   DRILLING FLUID LOSS
 MSS .           FLOWLINE:   MUD SAMPLE SOURCE
 RMB .OHMM            .35:   RESISTIVITY MUD AT BHT
 BHT .F                75:   BOTTOM HOLE TEMPERATURE
 TCS .HRS               1:   TIME CURCULATED STOPPED
 MRT .F                75:   MAXIMUM RECORDED TEMPERATURE
 LUN .               1892:   LOGGING UNIT NUMBER
 LUL .             CASPER:   LOGGING UNIT LOCATION
 ENGI.            TOTHILL:   RECORDING ENGINEER
 WITN.              AMEND:   WITNESSED BY
 CLNT.            A2DTECH:   CLIENT CODE
 ORIG.           5" PRINT:   ORIGIN OF DATA
 UWI .       490251081400:   UNIQUE WELL ID
 DICO. A2D Technologies, Inc.:   DIGITIZING COMPANY
~OTHER INFORMATION
~A   DEPT       SGRD        ILD        ILM     CALD        GRD       CORR       NPHI       DPHI        SPR       RHOB   
# ...
   63.5000     7.9030     5.1015     5.5757    10.3833   102.2444     0.1012     0.2832     0.0990   -50.7166     2.5126
   64.0000     7.7545     5.0638     5.5993    10.3913   102.8681     0.1142     0.2834     0.1022   -50.7790     2.5181
   64.5000     7.6024     5.0265     5.3988    10.3833   102.9001     0.1072     0.2811     0.1074   -50.7488     2.5126
   65.0000     7.4532     5.0143     5.2024    10.3657   103.2574     0.1005     0.2810     0.1092   -50.7059     2.5063
   65.5000     7.3595     5.0141     5.2173    10.3482   104.7360     0.0946     0.2843     0.1081   -50.6633     2.5001
   66.0000     7.3228     5.0412     5.2465    10.3409   106.1567     0.0966     0.2877     0.1077   -50.6190     2.5003
   66.5000     7.2863     5.0802     5.2436    10.3544   106.8436     0.1005     0.2954     0.1090   -50.5220     2.5084
   67.0000     7.2499     5.1210     5.5485    10.3675   105.2044     0.1044     0.2913     0.1010   -50.2471     2.5167
   67.5000     7.2138     5.1656     5.8121    10.3810   103.4608     0.1063     0.2859     0.1037   -49.9884     2.5120
   68.0000     7.1778     5.2105     5.7276    10.3928   103.0906     0.0951     0.2806     0.1082   -49.8995     2.5051
   68.5000     7.1420     5.2504     5.6113    10.3412   104.6850     0.0780     0.2774     0.1130   -50.2367     2.5018
   69.0000     7.1038     5.1902     5.4990    10.2833   106.2911     0.0686     0.2855     0.1154   -50.5661     2.4979
   69.5000     7.0473     5.1372     5.4470    10.2148   107.9133     0.0648     0.2859     0.1164   -50.8956     2.4903
   70.0000     6.9914     5.0609     5.4470    10.1435   106.1436     0.0674     0.2861     0.1158   -51.2165     2.4900
   70.5000     6.9359     5.0626     5.4470    10.1044   104.5878     0.0699     0.2913     0.1179   -51.4272     2.4900
   71.0000     6.8808     5.0657     5.4470    10.1266   104.8352     0.0702     0.2954     0.1182   -51.5734     2.4900
   71.5000     6.8262     5.0689     5.4470    10.1584   106.1514     0.0703     0.2986     0.1141   -51.5667     2.4900
   72.0000     6.7690     5.0721     5.4470    10.1838   107.4398     0.0739     0.3009     0.1097   -51.7722     2.4911
   72.5000     6.7065     5.0752     5.4464    10.1731   108.7530     0.0940     0.3034     0.1019   -52.0349     2.5029
   73.0000     6.6448     5.0784     5.4585    10.1462   109.0345     0.1056     0.3050     0.0960   -52.3018     2.5234
   73.5000     6.5837     5.0816     5.4904    10.1195   107.4788     0.1051     0.3062     0.0922   -52.5506     2.5304
   74.0000     6.5231     5.0848     5.5223    10.0913   105.3952     0.0971     0.3067     0.0990   -52.7523     2.5184
   74.5000     6.4630     5.0879     5.5543    10.0991   103.6004     0.0891     0.3045     0.1087   -52.6200     2.5083
   75.0000     6.4032     5.0911     5.5865    10.1180   104.9291     0.0811     0.3023     0.1172   -52.4852     2.4982
   75.5000     6.3651     5.0943     5.5993    10.1249   106.3421     0.0733     0.3022     0.1200   -52.3515     2.4881
   76.0000     6.3567     5.0975     5.5880    10.1251   105.5357     0.0694     0.3054     0.1229   -52.2179     2.4783
   76.5000     6.3486     5.1007     5.5799    10.1350   105.1500     0.0766     0.3026     0.1211   -52.0843     2.4837
   77.0000     6.3405     5.1039     5.5719    10.1427   106.3737     0.0798     0.3018     0.1174   -51.9510     2.4920
   77.5000     6.3323     5.1074     5.5638    10.1316   107.6656     0.0723     0.3017     0.1149   -51.8151     2.4930
   78.0000     6.3241     5.0945     5.5559    10.1208   108.9585     0.0652     0.3016     0.1133   -51.8355     2.4957
   78.5000     6.3165     5.0788     5.5486    10.1100   110.2501     0.0760     0.3015     0.1037   -51.9377     2.5046
   79.0000     6.3099     5.0632     5.5667    10.0992   111.5478     0.0904     0.3014     0.0943   -52.0403     2.5171
   79.5000     6.4945     5.0476     5.5843    10.0878   112.8324     0.0942     0.3023     0.0878   -52.1341     2.5296
   80.0000     6.6464     5.0321     5.6022    10.1059   113.4850     0.0933     0.3028     0.0891   -52.6078     2.5392
   80.5000     6.7915     5.0146     5.6201    10.1295   111.8617     0.0924     0.3014     0.0914   -53.1303     2.5317
   81.0000     6.8623     5.0650     5.6380    10.1535   110.3185     0.0899     0.3010     0.0894   -53.6546     2.5247
   81.5000     6.9295     5.1239     5.6557    10.1633   109.9260     0.0857     0.3010     0.0861   -53.9663     2.5277
   82.0000     6.9973     5.1835     5.6733    10.1584   111.2456     0.0840     0.3030     0.0884   -54.0414     2.5505
   82.5000     7.0459     5.2688     5.6908    10.1324   112.7225     0.0824     0.3041     0.0926   -54.1176     2.5308
   83.0000     7.0459     5.3672     5.7084    10.1072   114.2464     0.0808     0.3055     0.0917   -54.1931     2.5157
   83.5000     7.0459     5.4671     5.7260    10.0859   114.4828     0.0818     0.3070     0.0873   -54.2694     2.5342
   84.0000     7.0459     5.5987     5.7437    10.0862   111.8983     0.0870     0.3065     0.0850   -54.4036     2.5517
   84.5000     7.0459     5.5811     5.7614    10.0879   108.9953     0.0926     0.3047     0.0953   -54.6804     2.5382
   85.0000     7.0459     5.5565     5.7793    10.1191   108.8009     0.0914     0.3033     0.0963   -54.9556     2.5208
   85.5000     7.0459     5.5314     5.7974    10.1499   108.7889     0.0882     0.3030     0.0936   -55.2414     2.5117
   86.0000     7.0459     5.5064     5.8090    10.1805   109.0647     0.0918     0.3016     0.0866   -55.2524     2.5404
   86.5000     7.0459     5.4816     5.7508    10.2115   109.5468     0.0956     0.2994     0.0901   -55.1832     2.5436
   87.0000     7.0460     5.4570     5.7073    10.2189   110.3899     0.0935     0.2973     0.0955   -55.1146     2.5315
   87.5000     7.0458     5.4324     5.6642    10.2158   111.2131     0.0800     0.2925     0.1009   -54.9599     2.5229
   88.0000     7.0463     5.4079     5.6215    10.2125   111.7305     0.0670     0.2885     0.1034   -54.7634     2.5144
   88.5000     6.9711     5.3783     5.5790    10.2092   110.7107     0.0555     0.2845     0.1079   -54.5654     2.5101
   89.0000     6.9070     5.3447     5.5369    10.2060   109.6536     0.0512     0.2803     0.1130   -54.3648     2.5034
   89.5000     6.8433     5.3113     5.4951    10.2028   106.9569     0.0463     0.2774     0.1159   -54.2132     2.4922
   90.0000     6.7717     5.2781     5.4536    10.1995   104.3226     0.0415     0.2788     0.1187   -54.0695     2.4811
   90.5000     6.6606     5.2451     5.4124    10.1963   101.7179     0.0357     0.2803     0.1202   -53.9401     2.4706
   91.0000     6.5515     5.2123     5.3716    10.1930    99.7569     0.0323     0.2849     0.1212   -54.1724     2.4752
   91.5000     6.4429     5.1798     5.3310    10.1898   100.3356     0.0278     0.2903     0.1247   -54.5473     2.4807
   92.0000     6.3341     5.1474     5.2985    10.1865   103.2560     0.0249     0.2958     0.1306   -55.1270     2.4718
   92.5000     6.2271     5.1152     5.2776    10.1833   106.9062     0.0222     0.2984     0.1318   -55.7031     2.4615
   93.0000     6.0823     5.0833     5.2563    10.1800   109.0174     0.0224     0.2990     0.1271   -56.2797     2.4608
   93.5000     6.1040     5.0515     5.2353    10.1768   108.9977     0.0239     0.2991     0.1220   -56.8588     2.4715
   94.0000     6.1394     5.0199     5.2143    10.1735   108.6358     0.0336     0.2992     0.1152   -57.2565     2.4840
   94.5000     6.1750     5.0146     5.2024    10.1703   107.4722     0.0441     0.2993     0.1084   -57.5600     2.4965
   95.0000     6.2108     5.0392     5.2394    10.1670   106.3224     0.0546     0.2994     0.1029   -57.4733     2.5088
   95.5000     6.2468     5.0565     5.2654    10.1637   105.1912     0.0650     0.2967     0.1008   -57.1866     2.5203
   96.0000     6.3113     5.0738     5.2915    10.1678   104.4913     0.0701     0.2937     0.1041   -56.8967     2.5206
   96.5000     6.3818     5.0912     5.3178    10.1728   104.8662     0.0489     0.2914     0.1081   -56.6749     2.5089
