~VERSION INFORMATION
 VERS.                2.0:   CWLS LOG ASCII STANDARD - VERSION 2.0
 WRAP.                 NO:   ONE LINE PER DEPTH STEP
~WELL INFORMATION
#MNEM.UNIT      DATA TYPE    INFORMATION
#----------   ------------   ------------------------------
 STRT.F            0.0000:   START DEPTH
 STOP.F          664.0000:   STOP DEPTH
 STEP.F            0.5000:   STEP LENGTH
 NULL.          -999.2500:   NO VALUE
 COMP. Fluor Daniel (NPOSR) Inc:   COMPANY
 WELL.      71-3-X-3 #3-3:   WELL
 FLD .             N.P.R.:   FIELD
 LOC .       S3 T38N R78W:   LOCATION
 CNTY.            NATRONA:   COUNTY
 STAT.            WYOMING:   STATE
 CTRY. UNITED STATES OF AMERICA:   COUNTRY
 SRVC.      Western Atlas:   SERVICE COMPANY
 DATE.        12-APR-1996:   LOGDATE
 API .       490252277200:   API NUMBER
~CURVE INFORMATION
#MNEM.UNIT       API CODE    CURVE DESCRIPTION
#----------   ------------   ------------------------------
 DEPT.F                  :   
 GRR .GAPI   07 310 01 00:   GAMMA RAY FROM RES. LOG.
 RILD.OHMM   07 120 46 00:   INDUCTION LOG DEEP RESISTIVITY
 RILM.OHMM   07 120 44 00:   INDUCTION LOG MEDIUM RESISTIVITY
~PARAMETER INFORMATION
#MNEM.UNIT          VALUE    DESCRIPTION
#----------   ------------   ------------------------------
 PD  .                 GL:   PERMANENT DATUM
 EPD .F              5118:   ELEVATION PERMANENT DATUM
 LMF .                 KB:   LOG MEASURED FROM
 DAPD.F                10:   FEET ABOVE PERMANENT DATUM
 DMF .                 KB:   DRILLING MEASURED FROM
 EKB .F              5128:   KELLING BUSHING
 EDF .F              5127:   DRILLING FLOOR
 EGL .F              5118:   GROUND LEVEL
 DATE.        12-APR-1996:   RUN DATE
 RUN .                  1:   RUN NUMBER
 DD  .F               670:   DEPTH DRILLER
 DL  .F               672:   DEPTH LOGGER
 BLI .F               664:   BOTTOM LOG INTERVAL
 CS  .IN            9.625:   CASING SIZE
 CBD .F                56:   CASING BOTTOM DRILLER
 CBL .F                57:   CASING BOTTOM LOGGER
 BS  .IN             8.75:   BIT SIZE
 BSD .F               670:   BIT SIZE AT DEPTH
 DFT .                AIR:   DRILLING FLUID TYPE
 MRT .F                84:   MAXIMUM RECORDED TEMPERATURE
 LUN .             HL6530:   LOGGING UNIT NUMBER
 LUL .             CASPER:   LOGGING UNIT LOCATION
 ENGI.             RAUTIO:   RECORDING ENGINEER
 WITN.              HARDY:   WITNESSED BY
 CLNT.            A2DTECH:   CLIENT CODE
 ORIG.       2", 5" PRINT:   ORIGIN OF DATA
 UWI .       490252277200:   UNIQUE WELL ID
 DICO. A2D Technologies, Inc.:   DIGITIZING COMPANY
~OTHER INFORMATION
~A    DEPT      GRR      RILD       RILM   
# ...
  182.0000   128.3268     8.5651     8.4733
  182.5000   128.4140     8.7320     8.6124
  183.0000   130.1570     8.9178     8.7537
  183.5000   131.4172     9.1461     8.8973
  184.0000   128.8740     9.3532     9.0434
  184.5000   124.3275     9.2423     9.1918
  185.0000   122.2056     9.1425     9.3547
  185.5000   121.7367     9.0431     9.2720
  186.0000   123.4032     8.9451     9.1829
  186.5000   128.4544     8.8481     9.0947
  187.0000   131.5880     8.7522     9.0076
  187.5000   133.6658     8.6802     8.9236
  188.0000   133.9523     8.6515     8.8608
  188.5000   133.5716     8.6229     8.7979
  189.0000   130.4798     8.6105     8.7636
  189.5000   127.6125     8.6105     8.7511
  190.0000   126.4126     8.6105     8.7386
  190.5000   125.3868     8.6107     8.7262
  191.0000   124.3891     8.6025     8.7137
  191.5000   124.5539     8.5923     8.7013
  192.0000   125.1777     8.5821     8.6889
  192.5000   127.8778     8.5719     8.6765
  193.0000   130.1110     8.5617     8.6642
  193.5000   129.8730     8.5516     8.6518
  194.0000   128.6631     8.5416     8.6395
  194.5000   126.3876     8.5303     8.6272
  195.0000   125.5620     8.4908     8.6149
  195.5000   125.7666     8.4516     8.5768
  196.0000   126.9060     8.4125     8.5245
  196.5000   128.0274     8.3736     8.4725
  197.0000   130.5601     8.3349     8.4208
  197.5000   133.1038     8.2964     8.3694
  198.0000   134.3834     8.2581     8.3183
  198.5000   133.4299     8.2230     8.2676
  199.0000   131.1583     8.2230     8.2171
  199.5000   131.4740     8.2230     8.1668
  200.0000   132.9904     8.2230     8.1173
  200.5000   134.2841     8.1763     8.0716
  201.0000   133.5782     8.1249     8.0695
  201.5000   134.6898     8.0737     8.1464
  202.0000   138.1723     7.9989     8.1770
  202.5000   140.9829     8.0206     8.1943
  203.0000   140.0429     8.0620     8.2116
  203.5000   137.8840     8.1036     8.2230
  204.0000   135.7438     8.1476     8.3763
  204.5000   133.2575     8.3025     8.5421
  205.0000   128.9574     8.4690     8.7112
  205.5000   124.6112     8.6252     8.8836
  206.0000   120.8817     8.7144     9.0998
  206.5000   117.6851     8.8046     9.0780
  207.0000   119.4195     8.8957     9.0501
  207.5000   125.6117     8.9337     9.0222
  208.0000   132.2610     8.8543     8.9943
  208.5000   136.1982     8.7975     8.9666
  209.0000   134.8047     8.7410     8.9389
  209.5000   132.4859     8.6850     8.8563
  210.0000   132.6618     8.6293     8.7617
  210.5000   133.7927     8.5739     8.6681
  211.0000   134.9628     8.5316     8.5755
  211.5000   134.6406     8.4211     8.4838
  212.0000   133.9349     8.3154     8.3932
  212.5000   132.6942     8.2109     8.3035
  213.0000   133.2970     8.1079     8.2148
  213.5000   135.6860     8.0061     8.1270
  214.0000   137.5560     7.9056     8.0402
  214.5000   136.9345     7.8063     7.9542
  215.0000   134.9937     7.7083     7.8692
  215.5000   133.8842     7.6188     7.7850
  216.0000   132.4113     7.5543     7.7096
  216.5000   130.8109     7.4995     7.7096
  217.0000   129.8143     7.5689     7.7168
  217.5000   129.0581     7.5689     7.7871
  218.0000   128.2986     7.6469     7.8582
  218.5000   128.3239     7.7339     7.9300
  219.0000   130.5079     7.8219     8.0024
  219.5000   133.1772     7.9108     8.0754
  220.0000   132.0381     8.0007     8.1491
  220.5000   130.0183     8.0916     8.2234
  221.0000   128.8632     8.1836     8.2985
  221.5000   127.7349     8.2766     8.3742
  222.0000   126.5651     8.3245     8.4534
  222.5000   126.4007     8.3700     8.4705
  223.0000   129.0386     8.4157     8.4884
  223.5000   133.0236     8.4534     8.5063
  224.0000   133.5296     8.4303     8.5311
  224.5000   130.6857     8.4108     8.5097
  225.0000   129.5144     8.3913     8.4720
  225.5000   131.4376     8.3570     8.4347
  226.0000   133.8333     8.2653     8.3977
  226.5000   134.4012     8.1746     8.3489
  227.0000   132.5629     8.0850     8.2848
  227.5000   129.2725     7.9977     8.2211
  228.0000   127.2242     7.9910     8.1579
  228.5000   128.9075     7.9933     8.0951
  229.0000   133.5749     7.9593     8.0729
  229.5000   138.1269     7.9399     8.1068
  230.0000   137.4612     7.9256     8.1303
  230.5000   131.9941     8.0305     8.1476
  231.0000   131.1041     8.0987     8.2633
  231.5000   132.3045     8.1945     8.4195
  232.0000   133.4007     8.3748     8.6050
  232.5000   132.0351     8.5564     8.7930
  233.0000   129.3692     8.7425     8.9852
  233.5000   125.6505     8.9326     9.1810
  234.0000   121.2033     9.1268     9.3841
  234.5000   120.1627     9.3120     9.5481
  235.0000   120.7101     9.4956     9.7006
  235.5000   123.1286     9.6833     9.8556
  236.0000   123.7175     9.8850    10.0130
  236.5000   121.2031     9.9944    10.1730
  237.0000   117.5773    10.1098    10.3355
  237.5000   115.0041    10.2281    10.5006
  238.0000   113.9926    10.3770    10.6660
  238.5000   113.9764    10.5385    10.8141
  239.0000   113.1004    10.7024    10.9657
  239.5000   112.6603    10.8690    11.1192
  240.0000   114.4944    11.0382    11.2748
  240.5000   116.0280    11.2099    11.4326
  241.0000   115.1727    11.3509    11.5619
  241.5000   115.4661    11.3509    11.5415
  242.0000   116.3952    11.3509    11.5210
  242.5000   115.0996    11.3509    11.5005
  243.0000   114.0984    11.3004    11.4802
  243.5000   117.3307    11.2507    11.4609
  244.0000   120.7840    11.2014    11.3516
  244.5000   120.0590    11.1518    11.2261
  245.0000   116.6157    11.0176    11.1019
  245.5000   112.4073    10.8685    10.9792
  246.0000   111.6110    10.7214    10.8578
  246.5000   112.3231    10.6422    10.7353
  247.0000   113.2098    10.6874    10.7146
  247.5000   114.0979    10.6256    10.6939
  248.0000   114.9897    10.5643    10.6733
  248.5000   115.8988    10.5446    10.6529
  249.0000   114.8220    10.5816    10.6414
  249.5000   113.5129    10.6070    10.7038
  250.0000   112.1878    10.6323    10.7521
  250.5000   110.8475    10.6576    10.8006
  251.0000   111.0282    10.6831    10.8493
  251.5000   112.0444    10.7085    10.8979
  252.0000   113.4471    10.7407    10.9403
  252.5000   113.8405    10.7037    10.8579
  253.0000   113.1466    10.6548    10.7859
  253.5000   111.2760    10.4710    10.6596
  254.0000   109.5219    10.2507    10.4415
  254.5000   110.0807    10.0351    10.2279
  255.0000   111.5526     9.8240    10.0186
  255.5000   112.4221     9.6173     9.8136
  256.0000   113.2468     9.4150     9.6165
  256.5000   115.1723     9.2169     9.4659
  257.0000   117.5380     9.1234     9.3203
  257.5000   117.9253     9.0512     9.2208
  258.0000   116.7570     8.9797     9.1465
  258.5000   114.9693     8.9087     9.0728
  259.0000   114.4794     8.8383     8.9997
  259.5000   115.5924     8.7684     8.9337
  260.0000   116.0985     8.6990     8.8358
  260.5000   114.9164     8.6302     8.7469
  261.0000   113.7936     8.5569     8.6589
  261.5000   112.6339     8.4537     8.5718
  262.0000   112.1882     8.3518     8.4990
  262.5000   112.0503     8.2510     8.4384
  263.0000   113.1958     8.1480     8.3783
  263.5000   115.2464     8.1004     8.3185
  264.0000   115.3571     8.0523     8.2592
  264.5000   115.5022     8.0041     8.1970
  265.0000   116.0409     7.9562     8.1300
  265.5000   116.8258     7.9086     8.0635
  266.0000   117.6182     7.8613     7.9989
  266.5000   118.4168     7.8404     7.9752
  267.0000   119.0733     7.8252     7.9521
  267.5000   117.6239     7.8101     7.9288
  268.0000   117.9435     7.7949     7.9203
  268.5000   118.3275     7.7811     7.9120
  269.0000   117.9652     7.7808     7.9039
  269.5000   117.4900     7.7809     7.8957
  270.0000   116.7096     7.7809     7.8875
  270.5000   114.8685     7.7810     7.8794
  271.0000   114.9187     7.7811     7.8713
  271.5000   116.4866     7.7611     7.8632
  272.0000   117.3963     7.7013     7.8550
  272.5000   117.7593     7.6417     7.7950
