~VERSION INFORMATION
 VERS.                2.0:   CWLS LOG ASCII STANDARD - VERSION 2.0
 WRAP.                 NO:   ONE LINE PER DEPTH STEP
~WELL INFORMATION
#MNEM.UNIT      DATA TYPE    INFORMATION
#----------   ------------   ------------------------------
 STRT.F            5.0000:   START DEPTH
 STOP.F          640.0000:   STOP DEPTH
 STEP.F            0.5000:   STEP LENGTH
 NULL.          -999.2500:   NO VALUE
 COMP. BROWN JOHN E&C INC:   COMPANY
 WELL.     85-1 X 3 #85-3:   WELL
 FLD .             TEAPOT:   FIELD
 LOC .       S3 T38N R78W:   LOCATION
 CNTY.            NATRONA:   COUNTY
 STAT.            WYOMING:   STATE
 CTRY. UNITED STATES OF AMERICA:   COUNTRY
 SRVC.     Atlas Wireline:   SERVICE COMPANY
 DATE.        30-DEC-1991:   LOGDATE
 API .       490252249400:   API NUMBER
~CURVE INFORMATION
#MNEM.UNIT       API CODE    CURVE DESCRIPTION
#----------   ------------   ------------------------------
 DEPT.F                  :   
 GRR .GAPI   06 310 01 00:   GAMMA RAY FROM RESISTIVITY
 RFOC.OHMM   06 220 04 00:   RESISTIVITY FOCUSED LOG RES.
 RILD.OHMM   06 120 46 00:   DEEP INDUCTION RESISTIVITY
 RILM.OHMM   06 120 44 00:   INDUCTION LOG MEDIUM RESISTIVITY
 SPR .MV     06 010 01 00:   SPONTANEOUS POTENTIAL FROM RES.
 CALD.IN     45 280 60 00:   CALIPER FROM DENSITY LOG
 CORR.G/C3   45 356 01 00:   DENSITY CORRECTION
 DEN .G/C3   45 350 01 00:   COMPENSATED BULK DENSTIY
 PORD.DEC    45 890 12 00:   POROSITY DENSITY SANDSTONE
 CNC .DEC    42 890 03 00:   NEUTRON POROSITY SANDSTONE
~PARAMETER INFORMATION
#MNEM.UNIT          VALUE    DESCRIPTION
#----------   ------------   ------------------------------
 PD  .                 GL:   PERMANENT DATUM
 EPD .F              5156:   ELEVATION PERMANENT DATUM
 LMF .                 KB:   LOG MEASURED FROM
 DAPD.F                10:   FEET ABOVE PERMANENT DATUM
 DMF .                 KB:   DRILLING MEASURED FROM
 EKB .F              5166:   KELLING BUSHING
 EGL .F              5156:   GROUND LEVEL
 DATE.        30-DEC-1991:   RUN DATE
 RUN .                  1:   RUN NUMBER
 DD  .F               641:   DEPTH DRILLER
 DL  .F               642:   DEPTH LOGGER
 BLI .F               261:   BOTTOM LOG INTERVAL
 TLI .F               172:   TOP LOG INTERVAL
 CS  .IN            8.625:   CASING SIZE
 CBD .F               163:   CASING BOTTOM DRILLER
 CBL .F               172:   CASING BOTTOM LOGGER
 BS  .IN            7.875:   BIT SIZE
 BSD .F               641:   BIT SIZE AT DEPTH
 DFT .               CHEM:   DRILLING FLUID TYPE
 DFD .               17.1:   DRILLING FLUID DENSITY
 DFV .                 47:   DRILLING FLUID VISCOSITY
 DFPH.                9.0:   DRILLING FLUID PH
 DFL .                6.8:   DRILLING FLUID LOSS
 MSS .                PIT:   MUD SAMPLE SOURCE
 RMS .OHMM           1.40:   RESISTIVITY MUD SAMPLE
 MST .F               100:   MUD SAMPLE TEMPERATURE
 RMF .OHMM           1.12:   RESISTIVITY MUD FILTRATE SAMPLE
 MFST.F               100:   MUD FILTRATE SAMPLE TEMPERATURE
 RMC .OHMM           1.75:   RESISTIVITY MUD CAKE
 MCST.F               100:   MUD CAKE SAMPLE TEMPERATURE
 MFSS.               MEAS:   MUD FILTRATE SAMPLE SOURCE
 MCSS.               CALC:   MUD CAKE SAMPLE SOURCE
 RMB .OHMM           .536:   RESISTIVITY MUD AT BHT
 BHT .F               261:   BOTTOM HOLE TEMPERATURE
 TCS .HRS               4:   TIME CURCULATED STOPPED
 MRT .F               261:   MAXIMUM RECORDED TEMPERATURE
 LUN .            HL-6387:   LOGGING UNIT NUMBER
 LUL .          CASPER/WT:   LOGGING UNIT LOCATION
 ENGI.             ZIEGER:   RECORDING ENGINEER
 WITN.         LOFRENIERI:   WITNESSED BY
 CLNT.            A2DTECH:   CLIENT CODE
 ORIG.           5" PRINT:   ORIGIN OF DATA
 UWI .       490252249400:   UNIQUE WELL ID
 DICO. A2D Technologies, Inc.:   DIGITIZING COMPANY
~OTHER INFORMATION
~A    DEPT      GRR      RFOC       RILD       RILM        SPR       CALD       CORR        DEN       PORD        CNC   
# ...
  407.0000    82.6447     8.7018     6.4260     7.1088   -53.9073     9.1406    -0.0005     2.5152     0.1002     0.2736
  407.5000    81.4120     8.4042     7.1360     7.6227   -54.0785     9.1410     0.0025     2.5167     0.0999     0.2730
  408.0000    82.6707     8.5229     7.7246     8.0045   -54.3566     9.1413     0.0040     2.5190     0.0984     0.2769
  408.5000    84.4696     8.8259     8.6180     8.1174   -54.2037     9.1416     0.0101     2.5205     0.0966     0.2790
  409.0000    85.6828     8.8881     8.7403     8.0057   -54.0512     9.1418     0.0146     2.5220     0.0954     0.2793
  409.5000    88.1062     8.8269     8.6804     7.8952   -53.8987     9.1421     0.0176     2.5168     0.0963     0.2787
  410.0000    90.5297     8.7662     8.6818     7.8409   -53.8972     9.1424     0.0176     2.5077     0.0990     0.2772
  410.5000    92.0455     8.7060     8.6830     7.8415   -54.0484     9.1276     0.0192     2.4964     0.1045     0.2741
  411.0000    93.2587     8.7066     8.6842     7.9522   -54.3475     9.1261     0.0282     2.4857     0.1120     0.2705
  411.5000    93.2617     8.5868     8.8219     8.3545   -54.1946     9.0979     0.0388     2.4679     0.1240     0.2611
  412.0000    91.7524     8.5873     9.5116     9.6008   -54.4956     9.0830     0.0403     2.4443     0.1346     0.2309
  412.5000    86.9142     8.7085    10.4161    10.8097   -54.7959     9.0530     0.0268     2.4269     0.1482     0.2164
  413.0000    78.4451    10.0123    11.3273    12.0022   -56.0029     9.0381     0.0117     2.4043     0.1615     0.2170
  413.5000    69.0683    12.4288    12.4914    13.2338   -57.6631     9.0537    -0.0006     2.3741     0.1717     0.2239
  414.0000    60.9018    19.0182    13.3027    14.3896   -59.6315     9.0843    -0.0124     2.3242     0.2000     0.2315
  414.5000    52.1149    20.9696    14.0733    15.4297   -60.5303     9.1300    -0.0139     2.2970     0.2255     0.2357
  415.0000    52.2340    18.4979    15.2463    16.6764   -60.6799     9.1303    -0.0063     2.2689     0.2415     0.2318
  415.5000    55.4649    18.2427    17.1089    17.7412   -60.9802     9.1155    -0.0018     2.2568     0.2488     0.2243
  416.0000    56.3756    19.9751    18.9992    18.6298   -61.1301     9.1007    -0.0063     2.2450     0.2548     0.2181
  416.5000    55.4708    23.9467    20.6613    19.4270   -61.2797     9.0857    -0.0138     2.2321     0.2596     0.2169
  417.0000    53.3557    26.2204    21.8503    20.2583   -61.5801     9.0709    -0.0168     2.2185     0.2675     0.2145
  417.5000    50.6355    27.1524    22.7876    21.1252   -62.1853     9.0864    -0.0060     2.2117     0.2758     0.2066
  418.0000    48.5003    28.7363    23.4467    21.9048   -63.1360     9.1170     0.0013     2.2087     0.2804     0.2012
  418.5000    46.7086    32.1031    23.7690    22.4967   -64.1432     9.1173    -0.0017     2.2208     0.2813     0.2015
  419.0000    45.8038    34.4236    23.6061    22.4982   -64.2932     9.1176    -0.0138     2.2444     0.2677     0.2070
  419.5000    45.5034    36.6554    23.6101    21.7288   -64.2914     9.1028    -0.0243     2.2814     0.2351     0.2132
  420.0000    45.8096    36.9143    23.7786    20.6952   -64.1389     9.0878    -0.0288     2.3054     0.2248     0.2135
  420.5000    46.7203    35.4043    24.1160    20.1273   -64.1374     9.0578    -0.0243     2.2790     0.2303     0.2084
  421.0000    48.5386    30.3717    24.6294    20.7213   -63.9849     9.0430    -0.0182     2.1982     0.2571     0.1987
  421.5000    50.0898    27.5452    25.1539    22.8221   -63.9834     9.0585    -0.0135     2.1695     0.2916     0.1924
  422.0000    50.9657    27.1694    25.3342    24.6430   -64.1330     9.0739    -0.0076     2.1627     0.3019     0.1899
  422.5000    48.8507    33.7275    25.3376    25.6970   -64.2826     9.0899    -0.0046     2.2209     0.2967     0.1936
  423.0000    47.0381    43.6566    25.3410    24.1361   -64.4322     9.1048    -0.0031     2.2633     0.2743     0.2086
  423.5000    46.7378    57.7032    25.5219    22.8282   -64.8836     9.0749    -0.0031     2.3269     0.2435     0.2098
  424.0000    47.6491    61.0173    26.0653    22.5136   -65.6374     9.0297    -0.0046     2.3410     0.2145     0.2071
  424.5000    49.7700    45.8494    26.8066    22.6730   -66.2437     9.0300    -0.0030     2.3244     0.2003     0.2032
  425.0000    50.7312    35.4264    26.8104    23.1538   -66.6919     9.0303    -0.0045     2.3085     0.2100     0.2035
  425.5000    50.3817    33.0427    26.2593    23.1554   -67.2943     9.0609    -0.0154     2.3244     0.2201     0.2089
  426.0000    48.8718    38.7933    25.3623    22.8363   -67.5953     9.0764    -0.0226     2.3524     0.2081     0.2074
  426.5000    48.5714    39.8931    24.3257    22.3651   -67.5935     9.0615    -0.0120     2.3682     0.1921     0.2004
  427.0000    49.4828    38.5289    23.9910    21.7514   -67.4410     9.0618    -0.0045     2.3660     0.1855     0.1992
  427.5000    50.9985    36.4412    23.9951    21.1350   -66.9864     9.0470    -0.0014     2.3579     0.1876     0.1995
  428.0000    51.3040    35.6892    23.6657    20.4315   -66.0745     9.0473    -0.0014     2.3244     0.1939     0.2016
  428.5000    51.9128    34.2294    23.5043    20.0099   -65.6239     9.0476    -0.0029     2.2988     0.2071     0.2067
  429.0000    53.7312    32.1229    23.0213    19.8719   -65.4711     9.0479    -0.0059     2.2874     0.2335     0.2140
  429.5000    56.4572    31.4863    22.5475    19.8736   -65.6210     9.0330    -0.0076     2.2912     0.2362     0.2220
  430.0000    58.2756    32.1545    21.9298    19.7368   -65.7706     9.0333    -0.0089     2.3071     0.2341     0.2285
  430.5000    59.1862    31.2722    21.6281    19.7382   -66.2220     9.0336     0.0017     2.3320     0.2277     0.2275
  431.0000    58.2814    28.9654    21.4813    19.7398   -66.6737     9.0340     0.0017     2.3630     0.2138     0.2200
  431.5000    57.6439    27.5876    21.4843    19.6036   -66.9743     9.0343    -0.0013     2.3713     0.1924     0.2151
  432.0000    57.9854    27.3977    21.4878    19.4687   -66.9725     9.0346    -0.0058     2.3570     0.1842     0.2172
  432.5000    59.8038    27.0202    21.0455    19.2007   -67.1225     9.0197    -0.0118     2.3268     0.1927     0.2221
  433.0000    62.5298    26.2792    20.9013    19.0686   -67.4231     9.0049    -0.0148     2.3003     0.2147     0.2278
  433.5000    65.2559    25.5582    20.9048    18.8058   -67.8745     9.0052    -0.0118     2.2807     0.2325     0.2245
  434.0000    65.8639    24.6842    20.6179    18.6764   -68.1755     9.0055    -0.0073     2.2762     0.2416     0.2275
  434.5000    64.9440    23.8401    20.1912    18.5479   -68.4758     9.0058    -0.0042     2.3215     0.2337     0.2296
  435.0000    60.8270    23.8417    19.7778    18.0393   -68.3233     9.0061    -0.0027     2.3570     0.2120     0.2362
  435.5000    57.0988    23.6776    19.2367    17.5443   -67.8683     9.0216    -0.0042     2.3816     0.1911     0.2414
  436.0000    54.6812    22.5263    18.7098    17.0629   -67.2626     9.0370    -0.0072     2.3948     0.1796     0.2407
  436.5000    59.8278    21.4789    17.9450    16.3619   -66.5059     9.0676    -0.0012     2.3941     0.1730     0.2374
  437.0000    62.5539    20.3150    17.3321    15.2641   -65.7491     9.0831    -0.0028     2.3903     0.1699     0.2356
  437.5000    63.7671    18.9481    16.8573    14.5380   -65.1434     9.0833    -0.0132     2.3865     0.1730     0.2356
  438.0000    64.6979    18.0468    16.2740    13.9433   -64.3867     9.0988    -0.0162     2.3790     0.1763     0.2371
  438.5000    64.9839    17.3083    15.5080    13.8471   -63.9320     9.0991    -0.0101     2.3699     0.1823     0.2368
  439.0000    64.9868    17.3097    15.2947    14.3395   -63.6281     9.0842    -0.0011     2.3767     0.1841     0.2355
  439.5000    64.3839    17.5540    14.9803    14.8492   -63.6266     9.0694    -0.0056     2.3860     0.1796     0.2331
  440.0000    64.6901    17.4335    14.8777    14.7334   -63.4741     9.0697    -0.0161     2.3934     0.1735     0.2335
