~VERSION INFORMATION
 VERS.                2.0:   CWLS LOG ASCII STANDARD - VERSION 2.0
 WRAP.                 NO:   ONE LINE PER DEPTH STEP
~WELL INFORMATION
#MNEM.UNIT      DATA TYPE    INFORMATION
#----------   ------------   ------------------------------
 STRT.M            0.0000:   START DEPTH
 STOP.M          642.0000:   STOP DEPTH
 STEP.M            0.1000:   STEP LENGTH
 NULL.          -999.2500:   NO VALUE
 COMP.   FLUOR DANIEL INC:   COMPANY
 WELL.     71-1 X 3 #71-3:   WELL
 FLD .             TEAPOT:   FIELD
 LOC .       S3 T38N R78W:   LOCATION
 CNTY.            NATRONA:   COUNTY
 STAT.            WYOMING:   STATE
 CTRY. UNITED STATES OF AMERICA:   COUNTRY
 SRVC.      Western Atlas:   SERVICE COMPANY
 DATE.        04-JAN-1995:   LOGDATE
 API .       490252267900:   API NUMBER
~CURVE INFORMATION
#MNEM.UNIT       API CODE    CURVE DESCRIPTION
#----------   ------------   ------------------------------
 DEPT.M                  :   
 RILD.OHMM   07 120 46 00:   INDUCTION LOG DEEP RESISTIVITY
 RILM.OHMM   07 120 44 00:   INDUCTION LOG MEDIUM RESISTIVITY
 GRR .GAPI   07 310 01 00:   GAMMA RAY
~PARAMETER INFORMATION
#MNEM.UNIT          VALUE    DESCRIPTION
#----------   ------------   ------------------------------
 PD  .                 GL:   PERMANENT DATUM
 EPD .F              5123:   ELEVATION PERMANENT DATUM
 LMF .                 KB:   LOG MEASURED FROM
 DAPD.F                10:   FEET ABOVE PERMANENT DATUM
 DMF .                 KB:   DRILLING MEASURED FROM
 EKB .F              5133:   KELLING BUSHING
 EDF .F              5132:   DRILLING FLOOR
 EGL .F              5123:   GROUND LEVEL
 DATE.        04-JAN-1995:   RUN DATE
 RUN .                  1:   RUN NUMBER
 DD  .F               647:   DEPTH DRILLER
 DL  .F               650:   DEPTH LOGGER
 BLI .F               642:   BOTTOM LOG INTERVAL
 TLI .F                96:   TOP LOG INTERVAL
 CS  .IN            9.625:   CASING SIZE
 CBD .F                96:   CASING BOTTOM DRILLER
 CBL .F                96:   CASING BOTTOM LOGGER
 BS  .IN             8.75:   BIT SIZE
 BSD .F               647:   BIT SIZE AT DEPTH
 DFT .                AIR:   DRILLING FLUID TYPE
 MRT .F                91:   MAXIMUM RECORDED TEMPERATURE
 LUN .            HL 6530:   LOGGING UNIT NUMBER
 LUL .             CASPER:   LOGGING UNIT LOCATION
 ENGI.        VERN RAUTIO:   RECORDING ENGINEER
 WITN.        GARY STRONG:   WITNESSED BY
 CLNT.            A2DTECH:   CLIENT CODE
 ORIG.           5" PRINT:   ORIGIN OF DATA
 UWI .       490252267900:   UNIQUE WELL ID
 DICO. A2D Technologies, Inc.:   DIGITIZING COMPANY
~OTHER INFORMATION
~A    DEPT    RILD       RILM        GRR   
# ...
  345.8000     7.6968     7.6916   122.1745
  345.9000     7.6969     7.7225   122.7258
  346.0000     7.7356     7.7225   123.4683
  346.1000     7.7507     7.7225   124.2108
  346.2000     7.7697     7.7225   124.5708
  346.3000     7.8049     7.7494   124.8199
  346.4000     7.8050     7.7934   124.9080
  346.5000     7.8484     7.8305   124.6886
  346.6000     7.8596     7.8305   124.6915
  346.7000     7.8831     7.8305   124.4771
  346.8000     7.9145     7.8305   124.3940
  346.9000     7.9146     7.8519   124.3964
  347.0000     7.9148     7.8851   124.3988
  347.1000     7.9528     7.8851   124.4013
  347.2000     7.9701     7.8851   124.4036
  347.3000     7.9702     7.8851   124.5924
  347.4000     7.9778     7.9108   124.8415
  347.5000     8.0260     7.9401   125.0151
  347.6000     8.0261     7.9401   125.0579
  347.7000     8.0262     7.9401   125.6245
  347.8000     8.0263     7.9401   125.6266
  347.9000     8.0264     7.9401   125.7850
  348.0000     8.0280     7.9600   125.9335
  348.1000     8.0825     7.9954   125.9360
  348.2000     8.0826     7.9954   125.9385
  348.3000     8.1094     8.0403   125.9408
  348.4000     8.1392     8.0511   125.7619
  348.5000     8.1393     8.0511   125.5176
  348.6000     8.1394     8.0511   125.2733
  348.7000     8.1395     8.0511   125.0290
  348.8000     8.1396     8.0511   124.7448
  348.9000     8.1397     8.0511   124.5404
  349.0000     8.1398     8.0511   124.1450
  349.1000     8.1399     8.0511   123.8453
  349.2000     8.1860     8.0511   123.8075
  349.3000     8.1969     8.0511   123.5482
  349.4000     8.1970     8.0511   123.3188
  349.5000     8.1971     8.0511   123.0745
  349.6000     8.1972     8.0739   122.8302
  349.7000     8.1973     8.1072   122.6514
  349.8000     8.2376     8.1077   122.6538
  349.9000     8.2546     8.1188   122.6566
  350.0000     8.2590     8.1299   122.5300
  350.1000     8.2694     8.1410   122.3748
  350.2000     8.2799     8.1521   122.2196
  350.3000     8.2903     8.1632   122.0644
  350.4000     8.3008     8.1744   121.9093
  350.5000     8.3112     8.1855   121.7541
  350.6000     8.3217     8.1966   121.5989
  350.7000     8.3321     8.2077   121.4585
  350.8000     8.3426     8.2188   121.4600
  350.9000     8.3530     8.2299   121.4610
  351.0000     8.3635     8.2410   121.6254
  351.1000     8.3739     8.2521   121.7656
  351.2000     8.3844     8.2632   121.8215
  351.3000     8.3948     8.2743   122.0701
  351.4000     8.4053     8.2854   122.0713
  351.5000     8.4157     8.2965   122.0725
  351.6000     8.4262     8.3076   122.0737
  351.7000     8.4366     8.3187   122.0749
  351.8000     8.4471     8.3298   122.1079
  351.9000     8.4575     8.3409   122.3796
  352.0000     8.4680     8.3520   122.3807
  352.1000     8.4797     8.3631   122.3819
  352.2000     8.4794     8.3742   122.5003
  352.3000     8.4790     8.3853   122.6864
  352.4000     8.4787     8.3964   122.6876
  352.5000     8.4783     8.4075   122.6890
  352.6000     8.4780     8.4186   122.8927
  352.7000     8.4776     8.4297   123.1418
  352.8000     8.4773     8.4408   123.2967
  352.9000     8.4769     8.4519   123.2979
  353.0000     8.4766     8.4558   123.2992
  353.1000     8.4762     8.4770   123.3003
  353.2000     8.4758     8.5150   123.3015
  353.3000     8.4316     8.5151   123.3027
  353.4000     8.4165     8.5152   123.3039
  353.5000     8.4162     8.5153   123.3051
  353.6000     8.4158     8.5154   123.3065
  353.7000     8.4137     8.5155   123.3076
  353.8000     8.3568     8.5182   123.3088
  353.9000     8.3566     8.5426   123.3100
  354.0000     8.3562     8.5669   123.3595
  354.1000     8.3741     8.5754   123.6145
  354.2000     8.4138     8.5755   123.6157
  354.3000     8.4133     8.5653   123.8049
  354.4000     8.4130     8.5164   124.1877
  354.5000     8.4127     8.5165   124.6847
  354.6000     8.4123     8.5166   125.1818
  354.7000     8.4120     8.5167   125.7367
  354.8000     8.4151     8.5168   126.1761
  354.9000     8.4698     8.5170   126.6731
  355.0000     8.4695     8.5171   127.2810
  355.1000     8.4691     8.4960   128.0262
  355.2000     8.4688     8.4720   128.7711
  355.3000     8.4684     8.4585   129.5159
  355.4000     8.4681     8.4586   130.4570
  355.5000     8.4677     8.4587   131.3081
  355.6000     8.4858     8.4431   132.1410
  355.7000     8.5096     8.4272   133.0667
  355.8000     8.5256     8.4114   133.6049
  355.9000     8.5253     8.3930   134.2882
  356.0000     8.5249     8.3693   134.5136
  356.1000     8.5246     8.3427   134.2767
  356.2000     8.5242     8.3428   133.7173
  356.3000     8.5239     8.3429   132.9641
  356.4000     8.5235     8.3329   131.7996
  356.5000     8.5232     8.3094   131.1873
  356.6000     8.5228     8.2855   130.2945
  356.7000     8.5224     8.2857   129.3040
  356.8000     8.4943     8.2858   128.3134
  356.9000     8.4628     8.2605   127.2738
  357.0000     8.4624     8.2287   126.3322
  357.1000     8.4621     8.2288   125.5233
  357.2000     8.4617     8.2289   124.9080
  357.3000     8.4614     8.2290   124.4133
  357.4000     8.4379     8.2291   123.9376
  357.5000     8.4022     8.2292   123.6558
  357.6000     8.4018     8.2198   123.4441
  357.7000     8.4014     8.1725   123.5144
  357.8000     8.3617     8.1271   123.9723
  357.9000     8.3427     8.1161   124.6671
  358.0000     8.3238     8.1163   125.1722
  358.1000     8.2762     8.1019   126.1490
  358.2000     8.2266     8.0603   126.9523
  358.3000     8.2263     8.0604   127.6973
  358.4000     8.1916     8.0208   128.6049
  358.5000     8.1687     8.0048   129.8186
  358.6000     8.1546     8.0050   130.9198
  358.7000     8.1115     7.9867   131.5838
  358.8000     8.1111     7.8947   132.4954
  358.9000     8.0319     7.8948   133.3757
  359.0000     7.9987     7.8611   134.1208
  359.1000     7.9601     7.8166   134.8658
  359.2000     7.8786     7.7863   135.6108
  359.3000     7.8329     7.7784   135.9599
  359.4000     7.7887     7.6791   136.3529
  359.5000     7.7105     7.6039   136.6707
  359.6000     7.6466     7.5182   136.7074
  359.7000     7.5887     7.4333   136.9753
  359.8000     7.5071     7.3494   136.5180
  359.9000     7.4595     7.2645   136.0234
  360.0000     7.3839     7.1844   135.4079
  360.1000     7.2999     7.0732   134.7320
  360.2000     7.1984     6.9537   134.2124
  360.3000     7.0855     6.8481   133.0552
  360.4000     7.0041     6.7674   132.2311
  360.5000     6.8617     6.6378   131.3927
  360.6000     6.7993     6.5410   130.5522
  360.7000     6.6999     6.4306   129.6055
  360.8000     6.5861     6.3220   128.8315
  360.9000     6.4794     6.2151   128.3578
  361.0000     6.4003     6.1074   127.6798
  361.1000     6.2667     6.0070   126.9372
  361.2000     6.1746     5.9056   126.2694
  361.3000     6.0709     5.8059   125.7748
  361.4000     5.9428     5.6786   125.2135
  361.5000     5.8382     5.4929   124.9999
  361.6000     5.6472     5.3528   124.7532
  361.7000     5.4893     5.1986   124.4004
  361.8000     5.3048     5.0607   124.0097
  361.9000     5.1262     4.9127   124.0109
  362.0000     4.9485     4.7309   124.2578
  362.1000     4.7466     4.5945   124.5070
  362.2000     4.5691     4.4210   124.6187
  362.3000     4.3906     4.2491   124.6199
  362.4000     4.2189     4.0954   124.6502
  362.5000     4.0535     3.9715   124.9246
  362.6000     3.8944     3.8785   124.9257
  362.7000     3.7220     3.7306   124.9269
  362.8000     3.5962     3.6235   124.9281
  362.9000     3.4308     3.5273   124.9895
  363.0000     3.2746     3.4480   125.2326
  363.1000     3.1425     3.3633   124.9320
  363.2000     3.0008     3.2470   124.9329
  363.3000     2.8686     3.1764   124.7885
  363.4000     2.7529     3.1051   124.6332
  363.5000     2.6534     3.0354   124.5972
  363.6000     2.5786     2.9722   124.3336
  363.7000     2.5347     2.9219   124.1037
  363.8000     2.4874     2.8656   123.8570
  363.9000     2.4494     2.8105   123.6103
