~VERSION INFORMATION
 VERS.                2.0:   CWLS LOG ASCII STANDARD - VERSION 2.0
 WRAP.                 NO:   ONE LINE PER DEPTH STEP
~WELL INFORMATION
#MNEM.UNIT      DATA TYPE    INFORMATION
#----------   ------------   ------------------------------
 STRT.M            0.0000:   START DEPTH
 STOP.M          642.0000:   STOP DEPTH
 STEP.M            0.1000:   STEP LENGTH
 NULL.          -999.2500:   NO VALUE
 COMP.   FLUOR DANIEL INC:   COMPANY
 WELL.     71-1 X 3 #71-3:   WELL
 FLD .             TEAPOT:   FIELD
 LOC .       S3 T38N R78W:   LOCATION
 CNTY.            NATRONA:   COUNTY
 STAT.            WYOMING:   STATE
 CTRY. UNITED STATES OF AMERICA:   COUNTRY
 SRVC.      Western Atlas:   SERVICE COMPANY
 DATE.        04-JAN-1995:   LOGDATE
 API .       490252267900:   API NUMBER
~CURVE INFORMATION
#MNEM.UNIT       API CODE    CURVE DESCRIPTION
#----------   ------------   ------------------------------
 DEPT.M                  :   
 RILD.OHMM   07 120 46 00:   INDUCTION LOG DEEP RESISTIVITY
 RILM.OHMM   07 120 44 00:   INDUCTION LOG MEDIUM RESISTIVITY
 GRR .GAPI   07 310 01 00:   GAMMA RAY
~PARAMETER INFORMATION
#MNEM.UNIT          VALUE    DESCRIPTION
#----------   ------------   ------------------------------
 PD  .                 GL:   PERMANENT DATUM
 EPD .F              5123:   ELEVATION PERMANENT DATUM
 LMF .                 KB:   LOG MEASURED FROM
 DAPD.F                10:   FEET ABOVE PERMANENT DATUM
 DMF .                 KB:   DRILLING MEASURED FROM
 EKB .F              5133:   KELLING BUSHING
 EDF .F              5132:   DRILLING FLOOR
 EGL .F              5123:   GROUND LEVEL
 DATE.        04-JAN-1995:   RUN DATE
 RUN .                  1:   RUN NUMBER
 DD  .F               647:   DEPTH DRILLER
 DL  .F               650:   DEPTH LOGGER
 BLI .F               642:   BOTTOM LOG INTERVAL
 TLI .F                96:   TOP LOG INTERVAL
 CS  .IN            9.625:   CASING SIZE
 CBD .F                96:   CASING BOTTOM DRILLER
 CBL .F                96:   CASING BOTTOM LOGGER
 BS  .IN             8.75:   BIT SIZE
 BSD .F               647:   BIT SIZE AT DEPTH
 DFT .                AIR:   DRILLING FLUID TYPE
 MRT .F                91:   MAXIMUM RECORDED TEMPERATURE
 LUN .            HL 6530:   LOGGING UNIT NUMBER
 LUL .             CASPER:   LOGGING UNIT LOCATION
 ENGI.        VERN RAUTIO:   RECORDING ENGINEER
 WITN.        GARY STRONG:   WITNESSED BY
 CLNT.            A2DTECH:   CLIENT CODE
 ORIG.           5" PRINT:   ORIGIN OF DATA
 UWI .       490252267900:   UNIQUE WELL ID
 DICO. A2D Technologies, Inc.:   DIGITIZING COMPANY
~OTHER INFORMATION
~A    DEPT    RILD       RILM        GRR   
# ...
   91.0000  -999.2500  -999.2500    81.1603
   91.1000  -999.2500  -999.2500    80.9539
   91.2000  -999.2500  -999.2500    80.7074
   91.3000  -999.2500  -999.2500    80.3621
   91.4000  -999.2500  -999.2500    79.9122
   91.5000  -999.2500  -999.2500    79.6556
   91.6000  -999.2500  -999.2500    79.4191
   91.7000  -999.2500  -999.2500    79.1726
   91.8000  -999.2500  -999.2500    78.9261
   91.9000  -999.2500  -999.2500    78.7541
   92.0000  -999.2500  -999.2500    78.7553
   92.1000  -999.2500  -999.2500    78.7567
   92.2000  -999.2500  -999.2500    78.7577
   92.3000  -999.2500  -999.2500    78.9180
   92.4000  -999.2500  -999.2500    79.1670
   92.5000  -999.2500  -999.2500    79.4663
   92.6000  -999.2500  -999.2500    79.9710
   92.7000  -999.2500  -999.2500    80.4596
   92.8000  -999.2500  -999.2500    80.5776
   92.9000  -999.2500  -999.2500    80.7138
   93.0000  -999.2500  -999.2500    80.8822
   93.1000  -999.2500  -999.2500    80.9096
   93.2000  -999.2500  -999.2500    81.1868
   93.3000  -999.2500  -999.2500    80.9684
   93.4000  -999.2500  -999.2500    80.7219
   93.5000  -999.2500  -999.2500    80.4753
   93.6000  -999.2500  -999.2500    80.2288
   93.7000  -999.2500  -999.2500    79.9802
   93.8000  -999.2500  -999.2500    79.4860
   93.9000  -999.2500  -999.2500    78.9917
   94.0000  -999.2500  -999.2500    78.4975
   94.1000  -999.2500  -999.2500    78.0032
   94.2000  -999.2500  -999.2500    77.5090
   94.3000  -999.2500  -999.2500    76.9705
   94.4000  -999.2500  -999.2500    76.5205
   94.5000  -999.2500  -999.2500    76.3686
   94.6000  -999.2500  -999.2500    76.3698
   94.7000  -999.2500  -999.2500    76.3710
   94.8000  -999.2500  -999.2500    76.3883
   94.9000  -999.2500  -999.2500    76.9779
   95.0000  -999.2500  -999.2500    77.5831
   95.1000  -999.2500  -999.2500    78.4745
   95.2000  -999.2500  -999.2500    79.4667
   95.3000  -999.2500  -999.2500    80.5737
   95.4000  -999.2500  -999.2500    82.4218
   95.5000  -999.2500  -999.2500    84.9708
   95.6000  -999.2500  -999.2500    87.6971
   95.7000  -999.2500  -999.2500    91.0376
   95.8000  -999.2500  -999.2500    94.7286
   95.9000  -999.2500  -999.2500    97.7309
   96.0000  -999.2500 10000.0000   101.7645
   96.1000    13.7308  1653.2512   104.2550
   96.2000    13.4569   405.3430   107.3822
   96.3000    12.8663   147.4677   110.2091
   96.4000    11.6239    94.8787   112.3070
   96.5000     8.9376    43.0415   113.8550
   96.6000     6.3262    11.9279   114.8069
   96.7000     4.9401     3.3737   115.7990
   96.8000     3.9881     3.1452   116.5333
   96.9000     3.5133     3.0756   117.0300
   97.0000     3.2640     3.0461   117.5267
   97.1000     3.1582     3.0677   118.0920
   97.2000     3.1179     3.1523   118.0930
   97.3000     3.1181     3.3122   118.4125
   97.4000     3.1183     3.5905   118.6997
   97.5000     3.1367     3.9282   118.8016
   97.6000     3.1849     4.2600   119.3064
   97.7000     3.2640     4.6294   119.7950
   97.8000     3.3901     5.0798   120.1023
   97.9000     3.6544     5.5844   120.4862
   98.0000     4.4132     6.0475   120.9829
   98.1000   172.2190     6.4422   121.4534
   98.2000   492.8574     6.9669   121.7306
   98.3000   813.4957     7.5662   122.3903
   98.4000  1154.5653     8.2406   122.9696
   98.5000  1713.5447     8.9881   123.4662
   98.6000  2343.8997     9.7850   123.9630
   98.7000  5972.7202    10.5229   124.4576
   98.8000  9999.8037    11.3466   124.7065
   98.9000 10000.4648    12.1907   125.1508
   99.0000 10001.1592    12.9248   125.3656
   99.1000 10001.8535    13.9283   125.1936
   99.2000 10002.5479    14.4474   124.6993
   99.3000 10003.2422    15.0395   124.1608
   99.4000 10003.9365    15.6109   122.8084
   99.5000 10004.6309    16.1061   121.1520
   99.6000 10005.3252    16.4791   119.3023
   99.7000 10006.0195    16.9257   117.3216
   99.8000    55.2425    16.5299   115.3329
   99.9000    24.0389    15.8447   112.6878
  100.0000    20.9362    15.1436   110.9677
  100.1000    18.1192    14.6096   108.8518
  100.2000    14.2732    14.0755   106.7360
  100.3000     8.3320    13.5415   104.6202
  100.4000     8.0283    13.0074   102.5043
  100.5000     7.9463    12.4734   100.3885
  100.6000     7.8569    11.9393    99.6943
  100.7000     7.7882    11.4053    99.6937
  100.8000     7.7442    10.8712    99.7454
  100.9000     7.7003    10.3424    99.9946
  101.0000     7.6138     9.8269   100.4774
  101.1000     7.5939     9.3140   101.1535
  101.2000     7.5706     9.0189   102.0190
  101.3000     7.5412     8.8608   103.2912
  101.4000     7.5373     8.8102   105.2403
  101.5000     7.4888     8.8101   107.2416
  101.6000     7.4887     8.8121   108.0628
  101.7000     7.4886     8.8713   109.3432
  101.8000     7.4714     8.9952   110.8170
  101.9000     7.4291     9.1185   112.2181
  102.0000     7.3851     9.2221   113.2809
  102.1000     7.3850     9.3268   114.1827
  102.2000     7.3849     9.4429   115.5033
  102.3000     7.3641     9.6389   116.6387
  102.4000     7.3336     9.7836   117.3752
  102.5000     7.3335     9.9204   118.1118
  102.6000     7.3334    10.0770   119.0940
  102.7000     7.2997    10.1920   120.0764
  102.8000     7.2825    10.1346   120.9257
  102.9000     7.2972     9.9906   121.6622
  103.0000     7.3439     9.7928   122.3786
  103.1000     7.4354     9.5733   122.9419
  103.2000     7.5504     9.3540   123.7792
  103.3000     7.6500     9.0560   124.3023
  103.4000     7.7568     8.8400   124.5474
  103.5000     7.8792     8.5934   124.7925
  103.6000     7.9692     8.3534   125.0537
  103.7000     8.0140     8.1198   125.2828
  103.8000     8.0594     7.8809   125.1815
  103.9000     8.0803     7.6732   124.9351
  104.0000     8.0660     7.5196   124.6284
  104.1000     8.0242     7.4134   124.1323
  104.2000     8.0240     7.3407   123.3946
  104.3000     7.9468     7.3007   122.6568
  104.4000     7.8852     7.3006   121.9190
  104.5000     7.8230     7.2672   121.1007
  104.6000     7.7348     7.2499   120.1414
  104.7000     7.6430     7.2498   119.3069
  104.8000     7.5617     7.2497   118.8794
  104.9000     7.5069     7.2496   118.3873
  105.0000     7.4439     7.2865   117.9960
  105.1000     7.3709     7.2999   117.7497
  105.2000     7.3292     7.3182   117.4912
  105.3000     7.2799     7.3506   117.4906
  105.4000     7.2137     7.3505   117.4900
  105.5000     7.1325     7.3917   117.4894
  105.6000     7.0522     7.4336   117.5533
  105.7000     6.9776     7.4530   117.7984
  105.8000     6.9342     7.4529   118.0917
  105.9000     6.8990     7.4562   118.4860
  106.0000     6.8861     7.5046   118.6949
  106.1000     6.8860     7.5045   118.8634
  106.2000     6.8859     7.5044   119.3543
  106.3000     6.8858     7.5043   119.9014
  106.4000     6.8857     7.5042   120.3360
  106.5000     6.8856     7.5041   120.8268
  106.6000     6.9063     7.5040   121.3176
  106.7000     6.9454     7.4736   121.8085
  106.8000     6.9878     7.4518   122.3154
  106.9000     7.0790     7.4517   123.0278
  107.0000     7.1131     7.4516   123.7644
  107.1000     7.1534     7.4515   124.3760
  107.2000     7.1938     7.4514   124.9353
  107.3000     7.2345     7.4513   125.6719
  107.4000     7.2778     7.4512   126.5413
  107.5000     7.3166     7.4563   127.1450
  107.6000     7.3580     7.5029   127.5915
  107.7000     7.4201     7.5028   127.8367
  107.8000     7.4823     7.5312   128.0818
  107.9000     7.4848     7.5549   128.3510
  108.0000     7.5866     7.5731   128.1289
  108.1000     7.5865     7.6604   127.7174
  108.2000     7.6362     7.6603   127.0079
  108.3000     7.6924     7.6932   125.9720
  108.4000     7.6976     7.7135   124.7226
  108.5000     7.7457     7.7266   123.2719
  108.6000     7.7849     7.7670   121.9822
  108.7000     7.7995     7.7669   120.8820
  108.8000     7.8188     7.8042   119.9710
  108.9000     7.8536     7.8484   119.2494
  109.0000     7.8535     7.8752   118.6766
  109.1000     7.8972     7.8751   118.2653
