~VERSION INFORMATION
 VERS.                2.0:   CWLS LOG ASCII STANDARD - VERSION 2.0
 WRAP.                 NO:   ONE LINE PER DEPTH STEP
~WELL INFORMATION
#MNEM.UNIT      DATA TYPE    INFORMATION
#----------   ------------   ------------------------------
 STRT.F            4.0000:   START DEPTH
 STOP.F          584.0000:   STOP DEPTH
 STEP.F            0.1000:   STEP LENGTH
 NULL.          -999.2500:   NO VALUE
 COMP.       F D SERV INC:   COMPANY
 WELL. N P R 3 SX-3 #62-3:   WELL
 FLD .             TEAPOT:   FIELD
 LOC .       S3 T38N R78W:   LOCATION
 CNTY.            NATRONA:   COUNTY
 STAT.            WYOMING:   STATE
 CTRY. UNITED STATES OF AMERICA:   COUNTRY
 SRVC.     Atlas Wireline:   SERVICE COMPANY
 DATE.        17-APR-1992:   LOGDATE
 API .       490252251600:   API NUMBER
~CURVE INFORMATION
#MNEM.UNIT       API CODE    CURVE DESCRIPTION
#----------   ------------   ------------------------------
 DEPT.F                  :   
 GRR .GAPI   07 310 01 00:   GAMMA RAY
 RILD.OHMM   07 120 46 00:   INDUCTION LOG DEEP RESISTIVITY
 RILM.OHMM   07 120 44 00:   INDUCTION LOG MEDIUM RESISTIVITY
~PARAMETER INFORMATION
#MNEM.UNIT          VALUE    DESCRIPTION
#----------   ------------   ------------------------------
 PD  .                 GL:   PERMANENT DATUM
 EPD .F              5135:   ELEVATION PERMANENT DATUM
 LMF .                 KB:   LOG MEASURED FROM
 DAPD.F                 5:   FEET ABOVE PERMANENT DATUM
 DMF .                 KB:   DRILLING MEASURED FROM
 EKB .F              5140:   KELLING BUSHING
 EDF .F              5139:   DRILLING FLOOR
 EGL .F              5135:   GROUND LEVEL
 DATE.        17-APR-1992:   RUN DATE
 RUN .                  1:   RUN NUMBER
 DD  .F               589:   DEPTH DRILLER
 DL  .F               590:   DEPTH LOGGER
 BLI .F               584:   BOTTOM LOG INTERVAL
 TLI .F                48:   TOP LOG INTERVAL
 CS  .IN            8.625:   CASING SIZE
 CBD .F                48:   CASING BOTTOM DRILLER
 CBL .F                48:   CASING BOTTOM LOGGER
 BS  .IN            7.875:   BIT SIZE
 BSD .F               589:   BIT SIZE AT DEPTH
 DFT .                AIR:   DRILLING FLUID TYPE
 TCS .HRS               2:   TIME CURCULATED STOPPED
 MRT .F                85:   MAXIMUM RECORDED TEMPERATURE
 LUN .            HL-6274:   LOGGING UNIT NUMBER
 LUL .             CASPER:   LOGGING UNIT LOCATION
 ENGI.             RAUTIO:   RECORDING ENGINEER
 WITN.        GARY STRONG:   WITNESSED BY
 CLNT.            A2DTECH:   CLIENT CODE
 ORIG.           5" PRINT:   ORIGIN OF DATA
 UWI .       490252251600:   UNIQUE WELL ID
 DICO. A2D Technologies, Inc.:   DIGITIZING COMPANY
~OTHER INFORMATION
~A    DEPT      GRR      RILD       RILM   
# ...
  204.2000   110.4673    10.8318    10.8535
  204.3000   110.9534    10.8043    10.8529
  204.4000   111.4600    10.7536    10.8523
  204.5000   111.8365    10.7523    10.8517
  204.6000   112.1610    10.6901    10.7900
  204.7000   112.6674    10.6747    10.7748
  204.8000   113.2569    10.6734    10.7414
  204.9000   113.6808    10.6720    10.6797
  205.0000   114.1875    10.6706    10.6233
  205.1000   114.5952    10.6692    10.6226
  205.2000   114.8882    10.6680    10.6221
  205.3000   115.4260    10.6246    10.5837
  205.4000   115.4225    10.5911    10.5468
  205.5000   115.6010    10.5743    10.5462
  205.6000   115.8525    10.5100    10.5456
  205.7000   116.1716    10.3672    10.5451
  205.8000   116.6577    10.3173    10.5444
  205.9000   116.6531    10.2570    10.5438
  206.0000   116.6500    10.1969    10.5276
  206.1000   116.4953    10.1371    10.4692
  206.2000   116.2363    10.0752    10.4685
  206.3000   115.9773    10.0740    10.4200
  206.4000   115.6972    10.0728    10.3602
  206.5000   115.6937    10.0715    10.3213
  206.6000   115.6900    10.0702    10.3207
  206.7000   115.6862    10.0690    10.3201
  206.8000   115.6825    10.0675    10.2670
  206.9000   115.6788    10.0664    10.2470
  207.0000   115.9354    10.0651    10.2464
  207.1000   116.1868    10.0639    10.2459
  207.2000   116.5841    10.0626    10.2453
  207.3000   117.0908    10.0614    10.1873
  207.4000   117.5662    10.0601    10.1728
  207.5000   117.8434    10.0588    10.1414
  207.6000   117.8400    10.0576    10.1006
  207.7000   117.8363    10.0563    10.1001
  207.8000   117.8325    10.0550    10.0994
  207.9000   117.8288    10.0537    10.0502
  208.0000   117.8250    10.0525    10.0279
  208.1000   117.5661    10.0512    10.0274
  208.2000   117.3071    10.0500    10.0268
  208.3000   117.0482    10.0487    10.0262
  208.4000   116.7893    10.0474    10.0257
  208.5000   116.5562    10.0460    10.0252
  208.6000   116.5520    10.0449    10.0246
  208.7000   116.5487    10.0436    10.0241
  208.8000   116.3783    10.0424    10.0235
  208.9000   116.1194    10.0411    10.0228
  209.0000   115.8605    10.0398    10.0223
  209.1000   115.5962    10.0386    10.0218
  209.2000   115.3425    10.0374    10.0212
  209.3000   115.2763    10.0361    10.0206
  209.4000   115.1370    10.0348    10.0200
  209.5000   114.8781    10.0336    10.0195
  209.6000   114.6191    10.0322    10.0190
  209.7000   114.3232    10.0310    10.0185
  209.8000   114.1012    10.0298    10.0179
  209.9000   114.0037    10.0285    10.0173
  210.0000   114.0000    10.0273    10.0167
  210.1000   113.9962    10.0260    10.0162
  210.2000   113.9923    10.0245    10.0156
  210.3000   114.2336    10.0235    10.0150
  210.4000   114.4850    10.0222    10.0145
  210.5000   114.8667    10.0209    10.0138
  210.6000   115.3735    10.0197    10.0134
  210.7000   115.8800    10.0184    10.0128
  210.8000   116.4694     9.9631    10.0123
  210.9000   116.6798     9.9461    10.0117
  211.0000   116.9312     9.9158    10.0111
  211.1000   117.0837     9.8413    10.0106
  211.2000   117.1216     9.7361    10.0100
  211.3000   117.3885     9.7347    10.0095
  211.4000   117.6245     9.6857    10.0089
  211.5000   117.6937     9.6647    10.0083
  211.6000   117.5649     9.6398    10.0077
  211.7000   117.3061     9.5950    10.0072
  211.8000   117.0575     9.5938    10.0067
  211.9000   117.0531     9.5379    10.0061
  212.0000   116.8417     9.5245    10.0055
  212.1000   116.5828     9.5234    10.0049
  212.2000   116.3238     9.5222    10.0044
  212.3000   116.0283     9.5139     9.9664
  212.4000   115.4722     9.4534     9.9336
  212.5000   114.7656     9.4523     9.9330
  212.6000   114.1734     9.4511     9.9324
  212.7000   113.3001     9.4499     9.9318
  212.8000   112.0199     9.4487     9.9313
  212.9000   110.7457     9.4475     9.9307
  213.0000   109.7208     9.4461     9.9302
  213.1000   109.1026     9.4903     9.9297
  213.2000   108.4426     9.5102     9.9290
  213.3000   107.8501     9.5090     9.9285
  213.4000   107.5911     9.5078     9.9280
  213.5000   107.3059     9.5066     9.9274
  213.6000   107.0735     9.5054     9.9268
  213.7000   106.9863     9.5042     9.9262
  213.8000   107.2118     9.5321     9.9257
  213.9000   107.6038     9.5684     9.9252
  214.0000   107.6000     9.5673     9.9246
  214.1000   108.1065     9.5659     9.9101
  214.2000   108.6132     9.5648     9.8543
  214.3000   108.9794     9.6002     9.8537
  214.4000   109.1475     9.6295     9.8532
  214.5000   109.1177     9.6283     9.8527
  214.6000   108.8270     9.6271     9.8521
  214.7000   108.8237     9.6258     9.8454
  214.8000   108.8200     9.6246     9.7822
  214.9000   108.8163     9.6234     9.7817
  215.0000   108.8125     9.6222     9.7812
  215.1000   108.8087     9.6210     9.7807
  215.2000   109.0550     9.6197     9.7690
  215.3000   109.1138     9.6186     9.7113
  215.4000   109.2455     9.6570     9.7108
  215.5000   109.6531     9.6836     9.7103
  215.6000   110.4153     9.6824     9.7097
  215.7000   111.2857     9.6812     9.7092
  215.8000   111.5013     9.6798     9.7087
  215.9000   111.9142     9.6788     9.7080
  216.0000   112.4208     9.6775     9.7075
  216.1000   112.8806     9.6763     9.7070
  216.2000   113.1423     9.6751     9.7065
  216.3000   113.1388     9.6739     9.7059
  216.4000   113.3225     9.6727     9.7053
  216.5000   113.5740     9.6715     9.7048
  216.6000   113.7525     9.6398     9.7043
  216.7000   113.7488     9.6017     9.7037
  216.8000   113.7444     9.6005     9.6898
  216.9000   113.9548     9.5991     9.6350
  217.0000   114.0500     9.5981     9.6344
  217.1000   114.0462     9.5969     9.6339
  217.2000   114.0425     9.5700     9.6334
  217.3000   114.0385     9.5276     9.6328
  217.4000   114.2745     9.5265     9.6265
  217.5000   114.5260     9.5250     9.5645
  217.6000   114.6525     9.4794     9.5640
  217.7000   114.6487     9.4565     9.4931
  217.8000   114.6450     9.4345     9.4301
  217.9000   114.6406     9.3883     9.4295
  218.0000   114.4292     9.3871     9.4290
  218.1000   114.1703     9.3859     9.3767
  218.2000   114.0050     9.3848     9.3622
  218.3000   113.9648     9.3836     9.3344
  218.4000   113.6847     9.3662     9.2808
  218.5000   113.6813     9.3159     9.2275
  218.6000   113.8545     9.3146     9.1655
  218.7000   114.2257     9.3135     9.1651
  218.8000   114.7325     9.2776     9.1332
  218.9000   115.2390     9.2233     9.1001
  219.0000   115.7458     9.1693     9.0920
  219.1000   116.2523     9.1157     9.0356
  219.2000   116.7590     9.1145     8.9880
  219.3000   117.1772     9.1135     8.9364
  219.4000   117.4287     9.0239     8.9086
  219.5000   117.7059     8.9041     8.8961
  219.6000   117.7025     8.8520     8.8455
  219.7000   117.6988     8.7960     8.8449
  219.8000   117.6950     8.7487     8.7661
  219.9000   117.6913     8.6626     8.6935
  220.0000   117.6875     8.5864     8.6436
  220.1000   117.4286     8.5361     8.5940
  220.2000   117.1696     8.4835     8.5383
  220.3000   116.7701     8.3697     8.4536
  220.4000   116.1728     8.3688     8.3880
  220.5000   115.3771     8.3085     8.3596
  220.6000   114.2270     8.2126     8.3411
  220.7000   113.5518     8.1091     8.2425
  220.8000   112.7824     7.9652     8.1969
  220.9000   112.0130     7.9200     8.1499
  221.0000   111.4000     7.8737     8.1031
  221.1000   111.3962     7.8036     8.0438
  221.2000   111.3925     7.7276     7.9544
  221.3000   111.5815     7.6869     7.9008
  221.4000   111.9684     7.6858     7.9004
  221.5000   112.3969     7.6850     7.8732
  221.6000   112.6903     7.6840     7.8116
  221.7000   113.5607     7.6831     7.7349
  221.8000   114.4327     7.6821     7.7345
  221.9000   115.1267     7.6811     7.6939
  222.0000   115.7375     7.6800     7.6797
  222.1000   116.4526     7.6792     7.6793
  222.2000   116.9799     7.6782     7.6789
  222.3000   117.2211     7.6772     7.6784
