~VERSION INFORMATION
 VERS.                2.0:   CWLS LOG ASCII STANDARD - VERSION 2.0
 WRAP.                 NO:   ONE LINE PER DEPTH STEP
~WELL INFORMATION
#MNEM.UNIT      DATA TYPE    INFORMATION
#----------   ------------   ------------------------------
 STRT.F           28.0000:   START DEPTH
 STOP.F          563.0000:   STOP DEPTH
 STEP.F            0.1000:   STEP LENGTH
 NULL.          -999.2500:   NO VALUE
 COMP.       F D SERV INC:   COMPANY
 WELL.    SX-3 62-4 #62-3:   WELL
 FLD .          N.P.R. #3:   FIELD
 LOC .       S3 T38N R78W:   LOCATION
 CNTY.            NATRONA:   COUNTY
 STAT.            WYOMING:   STATE
 CTRY. UNITED STATES OF AMERICA:   COUNTRY
 SRVC.     Atlas Wireline:   SERVICE COMPANY
 DATE.        03-MAY-1992:   LOGDATE
 API .       490252252100:   API NUMBER
~CURVE INFORMATION
#MNEM.UNIT       API CODE    CURVE DESCRIPTION
#----------   ------------   ------------------------------
 DEPT.F                  :   
 RILD.OHMM   07 120 46 00:   INDUCTION LOG DEEP RESISTIVITY
 RILM.OHMM   07 120 44 00:   INDUCTION LOG MEDIUM RESISTIVITY
 CALD.IN     45 280 60 00:   CALIPER FROM DENSITY LOG
 CORR.G/C3   45 356 01 00:   DENSITY CORRECTION
 DEN .G/C3   45 350 01 00:   COMPENSATED BULK DENSTIY
 GRD .GAPI   45 310 01 00:   GAMMA RAY FROM DENSITY LOG
 PORD.DEC    45 890 12 00:   POROSITY DENSITY SANDSTONE
~PARAMETER INFORMATION
#MNEM.UNIT          VALUE    DESCRIPTION
#----------   ------------   ------------------------------
 PD  .                 GL:   PERMANENT DATUM
 EPD .F              5156:   ELEVATION PERMANENT DATUM
 LMF .                 KB:   LOG MEASURED FROM
 DAPD.F                 5:   FEET ABOVE PERMANENT DATUM
 DMF .                 KB:   DRILLING MEASURED FROM
 EKB .F              5161:   KELLING BUSHING
 EGL .F              5156:   GROUND LEVEL
 DATE.        03-MAY-1992:   RUN DATE
 RUN .                  1:   RUN NUMBER
 DD  .F               565:   DEPTH DRILLER
 DL  .F               566:   DEPTH LOGGER
 BLI .F               564:   BOTTOM LOG INTERVAL
 TLI .F                50:   TOP LOG INTERVAL
 CS  .IN            8.625:   CASING SIZE
 CBD .F                49:   CASING BOTTOM DRILLER
 CBL .F                50:   CASING BOTTOM LOGGER
 BS  .IN            7.875:   BIT SIZE
 BSD .F               565:   BIT SIZE AT DEPTH
 DFT .        AIR DRILLED:   DRILLING FLUID TYPE
 LUN .             HL 632:   LOGGING UNIT NUMBER
 LUL .           RK. SPGS:   LOGGING UNIT LOCATION
 ENGI.               RALL:   RECORDING ENGINEER
 WITN.             STRONG:   WITNESSED BY
 CLNT.            A2DTECH:   CLIENT CODE
 ORIG.           5" PRINT:   ORIGIN OF DATA
 UWI .       490252252100:   UNIQUE WELL ID
 DICO. A2D Technologies, Inc.:   DIGITIZING COMPANY
~OTHER INFORMATION
~A   DEPT     RILD       RILM       CALD       CORR        DEN        GRD       PORD   
# ...
  182.7000     7.5303     7.8220     8.2568     0.0030     2.5207   181.1932     0.0788
  182.8000     7.5180     7.8217     8.2566     0.0035     2.5207   181.4477     0.0788
  182.9000     7.5057     7.7825     8.2564     0.0043     2.5207   181.6897     0.0791
  183.0000     7.4934     7.7670     8.2562     0.0065     2.5207   181.7413     0.0791
  183.1000     7.4882     7.7667     8.2561     0.0095     2.5207   181.7377     0.0791
  183.2000     7.4878     7.7664     8.2559     0.0095     2.5207   181.6355     0.0791
  183.3000     7.4874     7.7661     8.2557     0.0095     2.5207   181.3801     0.0790
  183.4000     7.4870     7.7657     8.2555     0.0105     2.5207   181.1246     0.0788
  183.5000     7.5386     7.7654     8.2553     0.0118     2.5212   180.8204     0.0788
  183.6000     7.5035     7.7651     8.2552     0.0125     2.5215   180.6137     0.0786
  183.7000     7.4857     7.7648     8.2550     0.0128     2.5215   180.2035     0.0783
  183.8000     7.4853     7.7644     8.2548     0.0141     2.5216   179.9080     0.0781
  183.9000     7.4849     7.7641     8.2546     0.0155     2.5222   179.8474     0.0778
  184.0000     7.4845     7.7638     8.2566     0.0155     2.5222   179.5920     0.0776
  184.1000     7.4323     7.7635     8.2693     0.0155     2.5227   179.2951     0.0773
  184.2000     7.4319     7.7632     8.2691     0.0150     2.5230   179.2920     0.0768
  184.3000     7.4315     7.7842     8.2689     0.0140     2.5230   179.2884     0.0765
  184.4000     7.4311     7.8165     8.2688     0.0140     2.5231   179.3979     0.0763
  184.5000     7.4307     7.8162     8.2686     0.0140     2.5237   179.5820     0.0759
  184.6000     7.4303     7.8158     8.2684     0.0129     2.5237   179.5784     0.0755
  184.7000     7.4299     7.8155     8.2682     0.0117     2.5237   179.5743     0.0755
  184.8000     7.4639     7.8152     8.2680     0.0104     2.5241   179.5711     0.0755
  184.9000     7.4808     7.8149     8.2678     0.0091     2.5245   179.3983     0.0755
  185.0000     7.4631     7.8145     8.2677     0.0078     2.5245   179.0225     0.0755
  185.1000     7.4369     7.8179     8.2675     0.0050     2.5245   178.5153     0.0756
  185.2000     7.4795     7.8682     8.2673     0.0038     2.5245   178.0305     0.0758
  185.3000     7.4790     7.8679     8.2671     0.0035     2.5245   177.7482     0.0758
  185.4000     7.4787     7.8676     8.2669     0.0035     2.5245   177.2943     0.0761
  185.5000     7.4783     7.8673     8.2668     0.0034     2.5245   176.9634     0.0763
  185.6000     7.4779     7.8669     8.2666     0.0034     2.5242   176.5805     0.0766
  185.7000     7.4774     7.8666     8.2664     0.0034     2.5230   176.1518     0.0769
  185.8000     7.4770     7.8662     8.2662     0.0034     2.5222   175.8963     0.0774
  185.9000     7.4765     7.8659     8.2660     0.0034     2.5217   175.6214     0.0779
  186.0000     7.4762     7.8656     8.2658     0.0041     2.5211   175.1529     0.0782
  186.1000     7.5018     7.8653     8.2657     0.0049     2.5204   174.4620     0.0787
  186.2000     7.5449     7.8650     8.2655     0.0051     2.5200   173.9723     0.0791
  186.3000     7.5794     7.8688     8.2653     0.0064     2.5199   173.6310     0.0794
  186.4000     7.5789     7.9190     8.2651     0.0076     2.5192   173.1607     0.0799
  186.5000     7.6667     7.9596     8.2650     0.0079     2.5192   172.8931     0.0801
  186.6000     7.6839     7.9734     8.2648     0.0079     2.5192   172.6498     0.0801
  186.7000     7.6835     7.9959     8.2646     0.0079     2.5195   172.3944     0.0801
  186.8000     7.6831     8.0282     8.2644     0.0077     2.5200   172.1389     0.0801
  186.9000     7.6827     8.0323     8.2642     0.0064     2.5200   171.9765     0.0800
  187.0000     7.6822     8.0833     8.2641     0.0052     2.5207   171.9729     0.0797
  187.1000     7.7352     8.0830     8.2639     0.0039     2.5213   171.9693     0.0795
  187.2000     7.7348     8.0827     8.2637     0.0034     2.5219   171.9657     0.0792
  187.3000     7.7344     8.1057     8.2635     0.0029     2.5225   171.9621     0.0785
  187.4000     7.7340     8.1382     8.2633     0.0016     2.5232   171.9585     0.0780
  187.5000     7.7336     8.1426     8.2632     0.0004     2.5237   171.9549     0.0773
  187.6000     7.7331     8.1941     8.2630    -0.0011     2.5237   171.9513     0.0765
  187.7000     7.7775     8.1938     8.2628    -0.0011     2.5243   171.9477     0.0755
  187.8000     7.7861     8.2268     8.2626    -0.0011     2.5245   171.9434     0.0756
  187.9000     7.7857     8.2741     8.2624    -0.0006     2.5245   172.1458     0.0756
  188.0000     7.7852     8.3071     8.2623     0.0004     2.5245   172.2376     0.0756
  188.1000     7.7938     8.3118     8.2621     0.0004     2.5246   172.3415     0.0756
  188.2000     7.8385     8.3642     8.2619     0.0019     2.5252   172.5311     0.0756
  188.3000     7.8926     8.4078     8.2617     0.0029     2.5252   172.5372     0.0756
  188.4000     7.8922     8.4216     8.2615     0.0034     2.5252   172.8241     0.0756
  188.5000     7.8918     8.4461     8.2613     0.0034     2.5252   173.0336     0.0756
  188.6000     7.9096     8.4795     8.2612     0.0037     2.5252   173.2818     0.0756
  188.7000     7.9458     8.4792     8.2610     0.0049     2.5252   173.5300     0.0756
  188.8000     7.9454     8.4788     8.2608     0.0064     2.5252   173.7782     0.0756
  188.9000     7.9448     8.4340     8.2606     0.0074     2.5252   174.0264     0.0756
  189.0000     7.9445     8.4195     8.2605     0.0087     2.5252   174.3063     0.0756
  189.1000     7.9441     8.4192     8.2603     0.0094     2.5252   174.7426     0.0756
  189.2000     7.9436     8.4188     8.2601     0.0097     2.5252   175.0719     0.0756
  189.3000     7.9432     8.4185     8.2599     0.0110     2.5254   175.3201     0.0755
  189.4000     7.9427     8.4181     8.2597     0.0124     2.5260   175.4223     0.0753
  189.5000     7.9423     8.4178     8.2595     0.0124     2.5260   175.1910     0.0752
  189.6000     7.9418     8.4174     8.2594     0.0124     2.5260   175.1870     0.0747
  189.7000     7.9414     8.4171     8.2592     0.0117     2.5260   174.9568     0.0747
  189.8000     7.9594     8.4167     8.2590     0.0108     2.5260   174.7014     0.0747
  189.9000     7.9958     8.4164     8.2588     0.0107     2.5260   174.4459     0.0746
  190.0000     7.9953     8.4160     8.2586     0.0093     2.5260   173.9499     0.0744
  190.1000     7.9948     8.4606     8.2585     0.0093     2.5260   172.9702     0.0744
  190.2000     7.9945     8.4387     8.2583     0.0093     2.5260   172.1579     0.0744
  190.3000     7.9664     8.4150     8.2581     0.0093     2.5260   171.4520     0.0744
  190.4000     7.9567     8.4146     8.2579     0.0093     2.5260   170.6929     0.0744
  190.5000     7.9931     8.4143     8.2577     0.0093     2.5260   170.0701     0.0746
  190.6000     7.9927     8.4139     8.2576     0.0093     2.5260   169.6503     0.0747
  190.7000     7.9922     8.4136     8.2574     0.0081     2.5260   169.4334     0.0747
  190.8000     7.9918     8.4132     8.2572     0.0059     2.5255   169.4296     0.0747
  190.9000     7.9637     8.4129     8.2570     0.0041     2.5248   169.4262     0.0747
  191.0000     7.9357     8.4125     8.2568     0.0033     2.5242   169.6150     0.0751
  191.1000     7.9352     8.4122     8.2567     0.0031     2.5236   169.8632     0.0756
  191.2000     7.9348     8.4118     8.2565     0.0018     2.5229   170.1115     0.0762
  191.3000     7.9343     8.4115     8.2563     0.0005     2.5215   170.4054     0.0771
  191.4000     7.9339     8.4112     8.2561    -0.0007     2.5204   170.9118     0.0781
  191.5000     7.9335     8.3851     8.2559    -0.0012     2.5191   171.6541     0.0798
  191.6000     7.9330     8.3524     8.2557    -0.0013     2.5179   172.4060     0.0807
  191.7000     7.9326     8.3520     8.2556    -0.0013     2.5166   173.4595     0.0817
