~VERSION INFORMATION
 VERS.                2.0:   CWLS LOG ASCII STANDARD - VERSION 2.0
 WRAP.                 NO:   ONE LINE PER DEPTH STEP
~WELL INFORMATION
#MNEM.UNIT      DATA TYPE    INFORMATION
#----------   ------------   ------------------------------
 STRT.F           46.0000:   START DEPTH
 STOP.F          522.0000:   STOP DEPTH
 STEP.F            0.5000:   STEP LENGTH
 NULL.          -999.2500:   NO VALUE
 COMP.       F D SERV INC:   COMPANY
 WELL.  82-4 SX 10 #82-10:   WELL
 FLD .             TEAPOT:   FIELD
 LOC .      S10 T38N R78W:   LOCATION
 CNTY.            NATRONA:   COUNTY
 STAT.            WYOMING:   STATE
 CTRY. UNITED STATES OF AMERICA:   COUNTRY
 SRVC.     Atlas Wireline:   SERVICE COMPANY
 DATE.        04-FEB-1993:   LOGDATE
 API .       490252257900:   API NUMBER
~CURVE INFORMATION
#MNEM.UNIT       API CODE    CURVE DESCRIPTION
#----------   ------------   ------------------------------
 DEPT.F                  :   
 C13 .IN     45 280 13 00:   CALIPER FROM DENSITY LOG
 GRD .GAPI   45 310 01 00:   GAMMA RAY FROM DENSITY LOG
 PORS.DEC    42 890 03 00:   NEUTRON POROSITY SANDSTONE
 PORZ.DEC    45 890 12 00:   DENSITY POROSITY SANDSTONE
 ZCOR.G/C3   45 356 01 00:   DENSITY CORRECTION
 ZDEN.G/C3   45 350 01 00:   BULK DENSITY
 RILD.OHMM   07 120 46 00:   INDUCTION LOG DEEP RESISTIVITY
 RILM.OHMM   07 120 44 00:   INDUCTION LOG MEDIUM RESISTIVITY
~PARAMETER INFORMATION
#MNEM.UNIT          VALUE    DESCRIPTION
#----------   ------------   ------------------------------
 PD  .                 GL:   PERMANENT DATUM
 EPD .F              5145:   ELEVATION PERMANENT DATUM
 LMF .                 KB:   LOG MEASURED FROM
 DAPD.F                10:   FEET ABOVE PERMANENT DATUM
 DMF .                 KB:   DRILLING MEASURED FROM
 EKB .F              5155:   KELLING BUSHING
 EDF .F              5154:   DRILLING FLOOR
 EGL .F              5145:   GROUND LEVEL
 DATE.        04-FEB-1993:   RUN DATE
 RUN .                  1:   RUN NUMBER
 DD  .F               525:   DEPTH DRILLER
 DL  .F               525:   DEPTH LOGGER
 BLI .F               517:   BOTTOM LOG INTERVAL
 TLI .F                81:   TOP LOG INTERVAL
 CS  .IN            8.625:   CASING SIZE
 CBD .F                45:   CASING BOTTOM DRILLER
 CBL .F                81:   CASING BOTTOM LOGGER
 BS  .IN            7.875:   BIT SIZE
 BSD .F               525:   BIT SIZE AT DEPTH
 DFT .                AIR:   DRILLING FLUID TYPE
 MRT .F                58:   MAXIMUM RECORDED TEMPERATURE
 LUN .            HL 6274:   LOGGING UNIT NUMBER
 LUL .             CASPER:   LOGGING UNIT LOCATION
 ENGI.          V. RAUTIO:   RECORDING ENGINEER
 WITN.          G. STRONG:   WITNESSED BY
 CLNT.            A2DTECH:   CLIENT CODE
 ORIG.           5" PRINT:   ORIGIN OF DATA
 UWI .       490252257900:   UNIQUE WELL ID
 DICO. A2D Technologies, Inc.:   DIGITIZING COMPANY
~OTHER INFORMATION
~A   DEPT      C13         GRD      PORS       PORZ       ZCOR       ZDEN       RILD       RILM   
# ...
  329.5000     8.4211   141.2107     0.2475     0.1640     0.0260     2.3795    19.7496    20.4192
  330.0000     8.4361   142.1887     0.2466     0.1597     0.0184     2.3818    19.6168    20.4192
  330.5000     8.4361   143.9088     0.2473     0.1588     0.0124     2.3863    19.7555    20.4192
  331.0000     8.4361   144.8067     0.2500     0.1640     0.0094     2.3886    19.9025    20.4192
  331.5000     8.4361   144.1987     0.2509     0.1676     0.0064     2.3773    20.0365    20.4192
  332.0000     8.4361   140.5772     0.2503     0.1703     0.0093     2.3690    20.0391    20.2785
  332.5000     8.4361   139.3667     0.2506     0.1718     0.0108     2.3675    19.9030    20.1388
  333.0000     8.4211   138.1562     0.2518     0.1649     0.0123     2.3735    19.6328    20.0000
  333.5000     8.4211   139.3554     0.2542     0.1625     0.0152     2.3795    19.3663    19.8622
  334.0000     8.4211   140.5546     0.2554     0.1628     0.0167     2.3810    19.1029    19.7253
  334.5000     8.4211   140.8501     0.2554     0.1618     0.0182     2.3825    18.9731    19.7253
  335.0000     8.4211   140.5418     0.2554     0.1567     0.0151     2.3901    19.2407    19.8622
  335.5000     8.4211   140.0708     0.2551     0.1489     0.0121     2.4006    19.7828    20.0189
  336.0000     8.3759   136.9147     0.2542     0.1435     0.0151     2.4074    20.3403    20.4192
  336.5000     8.3308   134.4994     0.2512     0.1379     0.0165     2.4164    21.6499    21.5806
  337.0000     8.3008   131.1805     0.2416     0.1236     0.0195     2.4337    23.0430    24.1052
  337.5000     8.3008   128.4388     0.2169     0.1011     0.0240     2.4819    24.3568    27.7780
  338.0000     8.3008   124.8425     0.1959     0.0598     0.0270     2.5297    25.3919    30.9186
  338.5000     8.3008   119.4151     0.1676     0.0333     0.0284     2.5892    25.7490    31.1331
  339.0000     8.3008   115.7950     0.1447     0.0140     0.0104     2.6265    25.5748    29.4577
  339.5000     8.3008   114.2831     0.1435     0.0105    -0.0110     2.6288    25.0538    26.9032
  340.0000     8.3008   115.4811     0.1517     0.0126    -0.0241     2.6265    24.3735    24.1052
  340.5000     8.3158   120.5959     0.1658     0.0321    -0.0272     2.6054    23.0565    22.8080
  341.0000     8.3308   124.5059     0.1845     0.0601    -0.0212     2.5659    20.0892    20.7036
  341.5000     8.3308   129.6193     0.2248     0.0875    -0.0092     2.5223    18.3646    19.1872
  342.0000     8.3459   135.9390     0.2477     0.1164    -0.0033     2.4788    17.4985    17.6594
  342.5000     8.3459   138.9454     0.2621     0.1305     0.0042     2.4330    16.7902    17.0593
  343.0000     8.3459   139.2469     0.2639     0.1378     0.0117     2.4202    16.5617    16.5939
  343.5000     8.3459   138.9327     0.2615     0.1414     0.0206     2.4187    16.3364    16.3660
  344.0000     8.3459   138.9270     0.2591     0.1390     0.0236     2.4240    16.1142    16.1412
  344.5000     8.3459   139.2240     0.2573     0.1363     0.0236     2.4270    15.8949    16.1412
  345.0000     8.3459   138.3032     0.2561     0.1348     0.0123     2.4202    15.7808    16.0300
  345.5000     8.3609   136.8002     0.2582     0.1387     0.0031     2.4149    15.5737    15.8099
  346.0000     8.3609   136.1922     0.2600     0.1414    -0.0005     2.4164    15.4679    15.4853
  346.5000     8.3459   136.7889     0.2597     0.1402     0.0129     2.4179    15.2574    15.2726
  347.0000     8.3609   136.7831     0.2596     0.1399     0.0174     2.4187    14.8437    15.0628
  347.5000     8.3459   136.4750     0.2591     0.1399     0.0174     2.4194    14.5413    14.8560
  348.0000     8.3459   134.6621     0.2585     0.1378     0.0039     2.4255    14.4425    14.6519
  348.5000     8.3459   134.3552     0.2597     0.1327    -0.0037     2.4307    14.2460    14.4507
  349.0000     8.3308   134.9940     0.2616     0.1302    -0.0052     2.4337    14.2483    14.3511
  349.5000     8.3459   137.9570     0.2627     0.1336    -0.0007     2.4322    14.0545    14.2522
  350.0000     8.3459   140.3624     0.2624     0.1351     0.0023     2.4300    14.0568    14.2522
  350.5000     8.3423   139.7690     0.2624     0.1351     0.0127     2.4300    14.0586    14.0565
  351.0000     8.3384   143.9944     0.2645     0.1321     0.0172     2.4337    14.0605    13.8634
  351.5000     8.3345   145.2078     0.2669     0.1240     0.0202     2.4398    13.8692    13.8634
  352.0000     8.3308   144.6138     0.2687     0.1158     0.0142     2.4503    13.6805    13.8634
  352.5000     8.3308   147.0341     0.2699     0.1130     0.0082     2.4601    13.6827    13.8634
  353.0000     8.3459   149.7534     0.2699     0.1115     0.0022     2.4639    13.6845    13.8634
  353.5000     8.3609   151.2681     0.2690     0.1106    -0.0007     2.4654    13.8769    13.8634
  354.0000     8.3609   150.9774     0.2675     0.1181     0.0007     2.4669    13.8929    13.9596
  354.5000     8.3609   148.2751     0.2660     0.1217     0.0037     2.4625    14.0743    14.1668
  355.0000     8.3609   144.6692     0.2648     0.1238     0.0082     2.4504    14.2721    14.4507
  355.5000     8.3609   140.4578     0.2612     0.1199     0.0127     2.4489    14.4728    14.6519
  356.0000     8.3459   138.9655     0.2591     0.1178     0.0157     2.4519    14.4747    14.6519
  356.5000     8.3459   138.3694     0.2591     0.1184     0.0166     2.4549    14.6786    14.7536
  357.0000     8.3459   140.4885     0.2640     0.1217     0.0127     2.4542    14.6806    14.7536
  357.5000     8.3308   139.2922     0.2667     0.1256     0.0082     2.4474    14.6825    14.8560
  358.0000     8.3158   138.0959     0.2670     0.1328     0.0052     2.4406    14.6844    14.6519
  358.5000     8.3158   136.9017     0.2673     0.1352     0.0037     2.4331    14.4846    14.6496
  359.0000     8.3158   136.6069     0.2682     0.1358     0.0067     2.4271    14.0918    14.3511
  359.5000     8.3158   139.0272     0.2691     0.1342     0.0067     2.4279    13.8996    14.1540
  360.0000     8.3158   139.6988     0.2688     0.1240     0.0052     2.4301    13.6165    13.8634
  360.5000     8.3158   138.1406     0.2685     0.1168     0.0052     2.4369    13.3301    13.4852
  361.0000     8.3158   137.2455     0.2688     0.1125     0.0037     2.4475    12.9765    13.0270
  361.5000     8.3158   138.7622     0.2703     0.1131     0.0054     2.4603    12.8000    12.7595
  362.0000     8.3308   140.2789     0.2727     0.1146     0.0082     2.4640    12.6258    12.5843
  362.5000     8.3158   140.5886     0.2751     0.1140     0.0112     2.4625    12.6279    12.4976
  363.0000     8.3158   141.5007     0.2763     0.1122     0.0142     2.4625    12.5425    12.4210
  363.5000     8.3158   142.1117     0.2745     0.1125     0.0142     2.4633    12.5349    12.4580
  364.0000     8.3008   141.1286     0.2727     0.1152     0.0097     2.4626    12.5251    12.4596
  364.5000     8.3008   138.2152     0.2715     0.1167    -0.0037     2.4581    12.5227    12.4616
  365.0000     8.3008   136.4164     0.2712     0.1160    -0.0052     2.4588    12.6106    12.4633
  365.5000     8.3008   135.2199     0.2706     0.1142    -0.0037     2.4618    12.6989    12.8145
  366.0000     8.3008   134.6263     0.2709     0.1130    -0.0037     2.4641    12.9659    13.1755
  366.5000     8.3008   134.9381     0.2730     0.1148    -0.0127     2.4607    13.5198    13.9272
  367.0000     8.3008   133.4406     0.2809     0.1280    -0.0232     2.4415    14.8911    15.1341
  367.5000     8.3158   128.6298     0.2833     0.1780    -0.0233     2.3775    16.1805    16.6746
  368.0000     8.3308   126.5020     0.2794     0.2048    -0.0052     2.2970    18.0745    18.7569
  368.5000     8.3308   125.3357     0.2745     0.2357     0.0172     2.2563    20.8226    21.8423
  369.0000     8.3459   122.9346     0.2655     0.2448     0.0232     2.2458    24.5054    24.2326
  369.5000     8.3459   119.9311     0.2568     0.2463     0.0337     2.2473    27.7552    27.2589
