~VERSION INFORMATION
 VERS.                2.0:   CWLS LOG ASCII STANDARD - VERSION 2.0
 WRAP.                 NO:   ONE LINE PER DEPTH STEP
~WELL INFORMATION
#MNEM.UNIT      DATA TYPE    INFORMATION
#----------   ------------   ------------------------------
 STRT.F         1700.0000:   START DEPTH
 STOP.F         2172.0000:   STOP DEPTH
 STEP.F            0.5000:   STEP LENGTH
 NULL.          -999.2500:   NO VALUE
 COMP.   FENIX & SCISSONS:   COMPANY
 WELL. NPR ##3 57-22-SX-3:   WELL
 FLD .             TEAPOT:   FIELD
 LOC .       S3 T38N R78W:   LOCATION
 CNTY.            NATRONA:   COUNTY
 STAT.            WYOMING:   STATE
 CTRY. UNITED STATES OF AMERICA:   COUNTRY
 SRVC.      NL McCullough:   SERVICE COMPANY
 DATE.        08-AUG-1988:   LOGDATE
 API .       490251123900:   API NUMBER
~CURVE INFORMATION
#MNEM.UNIT       API CODE    CURVE DESCRIPTION
#----------   ------------   ------------------------------
 DEPT.F                  :   
 ROP .FT/HR  91 810 01 00:   RAT OF DRILLING PENETRATION
 TGAS.TC/CC  91 830 01 00:   TOTAL GAS UNIT
~PARAMETER INFORMATION
#MNEM.UNIT          VALUE    DESCRIPTION
#----------   ------------   ------------------------------
 PD  .                 GL:   PERMANENT DATUM
 EPD .F              5184:   ELEVATION PERMANENT DATUM
 LMF .                 KB:   LOG MEASURED FROM
 DAPD.F                10:   FEET ABOVE PERMANENT DATUM
 DMF .                 KB:   DRILLING MEASURED FROM
 EKB .F              5194:   KELLING BUSHING
 EGL .F              5184:   GROUND LEVEL
 DATE.             8-8-88:   RUN DATE
 RUN .                  1:   RUN NUMBER
 DD  .F               454:   DEPTH DRILLER
 DL  .F               454:   DEPTH LOGGER
 BLI .F               450:   BOTTOM LOG INTERVAL
 CS  .IN            9.625:   CASING SIZE
 BS  .IN             8.75:   BIT SIZE
 BSD .F               454:   BIT SIZE AT DEPTH
 DFT .              WATER:   DRILLING FLUID TYPE
 TCS .HRS               1:   TIME CURCULATED STOPPED
 LUN .              84026:   LOGGING UNIT NUMBER
 ENGI.            SCHULTZ:   RECORDING ENGINEER
 WITN.              SLACK:   WITNESSED BY
 CLNT.            A2DTECH:   CLIENT CODE
 ORIG.           5" PRINT:   ORIGIN OF DATA
 UWI .       490251123900:   UNIQUE WELL ID
 DICO. A2D Technologies, Inc.:   DIGITIZING COMPANY
~OTHER INFORMATION
~A  DEPT         ROP       TGAS 
# ...
 1821.5000     0.6658    30.9547
 1822.0000     0.6372    28.1930
 1822.5000     0.6087    25.4314
 1823.0000     0.5990    23.5995
 1823.5000     0.5987    21.7606
 1824.0000     0.6079    19.9356
 1824.5000     0.6358    18.1037
 1825.0000     0.6450    17.2004
 1825.5000     0.6635    16.2985
 1826.0000     0.6727    16.3270
 1826.5000     0.6819    14.4951
 1827.0000     0.6721    14.5227
 1827.5000     0.6624    13.6205
 1828.0000     0.6245    14.5785
 1828.5000     0.5771    14.6064
 1829.0000     0.5768    14.6343
 1829.5000     0.5765    14.6675
 1830.0000     0.6233    14.6885
 1830.5000     0.6890    14.6932
 1831.0000     0.6981    14.6979
 1831.5000     0.6978    14.7026
 1832.0000     0.6881    14.7073
 1832.5000     0.6879    14.7119
 1833.0000     0.6876    14.7166
 1833.5000     0.6779    14.7213
 1834.0000     0.6776    14.7260
 1834.5000     0.6584    14.7307
 1835.0000     0.6299    14.7354
 1835.5000     0.6202    14.7401
 1836.0000     0.6199    14.7448
 1836.5000     0.6291    14.7494
 1837.0000     0.6383    14.7541
 1837.5000     0.6473    14.7588
 1838.0000     0.6565    14.7635
 1838.5000     0.6844    14.7682
 1839.0000     0.7218    14.7729
 1839.5000     0.7592    14.7776
 1840.0000     0.7777    14.7823
 1840.5000     0.7775    14.7869
 1841.0000     0.7584    14.7916
 1841.5000     0.7204    14.7963
 1842.0000     0.7013    14.8010
 1842.5000     0.7010    14.8057
 1843.0000     0.7007    14.8104
 1843.5000     0.7005    14.8151
 1844.0000     0.7002    14.8198
 1844.5000     0.6999    14.8244
 1845.0000     0.6902    14.8291
 1845.5000     0.6805    14.8338
 1846.0000     0.6614    14.8385
 1846.5000     0.6234    14.8432
 1847.0000     0.6231    14.8479
 1847.5000     0.6229    14.8526
 1848.0000     0.6320    14.8573
 1848.5000     0.6317    14.8619
 1849.0000     0.6314    14.8666
 1849.5000     0.6406    14.8713
 1850.0000     0.6780    14.8760
 1850.5000     0.6968    14.9411
 1851.0000     0.7151    15.0062
 1851.5000     0.7148    15.0712
 1852.0000     0.7145    15.1363
 1852.5000     0.7142    15.2014
 1853.0000     0.7139    15.2665
 1853.5000     0.7136    15.3316
 1854.0000     0.7133    15.3967
 1854.5000     0.7130    15.4617
 1855.0000     0.7033    15.5268
 1855.5000     0.6936    15.5919
 1856.0000     0.6840    15.6570
 1856.5000     0.6837    15.7221
 1857.0000     0.6928    15.7872
 1857.5000     0.7208    15.8522
 1858.0000     0.7676    15.9173
 1858.5000     0.8050    15.9824
 1859.0000     0.8423    16.0475
 1859.5000     0.8610    16.1126
 1860.0000     0.8701    16.1777
 1860.5000     0.8227    16.2427
 1861.0000     0.7753    16.3078
 1861.5000     0.7280    16.3729
 1862.0000     0.6900    16.4380
 1862.5000     0.6615    16.5031
 1863.0000     0.6612    16.5682
 1863.5000     0.6609    16.6332
 1864.0000     0.6603    16.7046
 1864.5000     0.6121    15.8236
 1865.0000     0.5462    15.9047
 1865.5000     0.4984    15.9696
 1866.0000     0.4602    17.8941
 1866.5000     0.4332    19.8185
 1867.0000     0.4329    21.7429
 1867.5000     0.4421    23.6673
 1868.0000     0.4418    25.5918
 1868.5000     0.4415    28.4459
 1869.0000     0.4412    30.3704
 1869.5000     0.4315    32.2948
 1870.0000     0.4312    33.2894
 1870.5000     0.4309    34.2841
 1871.0000     0.4307    36.2086
 1871.5000     0.4398    38.1330
 1872.0000     0.5243    39.1276
 1872.5000     0.5523    41.0521
 1873.0000     0.5425    41.1170
 1873.5000     0.5140    42.1117
 1874.0000     0.4384    42.1766
 1874.5000     0.4117    41.3118
 1875.0000     0.4155    40.4469
 1875.5000     0.4193    39.5821
 1876.0000     0.4231    39.6470
 1876.5000     0.4269    38.7800
 1877.0000     0.4306    36.9856
 1877.5000     0.4344    36.1209
 1878.0000     0.4362    35.2562
 1878.5000     0.4359    33.4633
 1879.0000     0.4356    32.5971
 1879.5000     0.4368    29.8742
 1880.0000     0.4633    27.1498
 1880.5000     0.4347    25.3544
 1881.0000     0.4156    23.5599
 1881.5000     0.3871    22.6952
 1882.0000     0.3679    21.8306
 1882.5000     0.3394    20.9662
 1883.0000     0.3109    20.1013
 1883.5000     0.3012    17.3743
 1884.0000     0.3009    14.6402
 1884.5000     0.3006    11.9283
 1885.0000     0.3475    11.9938
 1885.5000     0.4413    11.1284
 1886.0000     0.4975    11.1943
 1886.5000     0.5444    11.2593
 1887.0000     0.5539    11.3244
 1887.5000     0.5634    10.4584
 1888.0000     0.5729    10.5248
 1888.5000     0.6230     9.6584
 1889.0000     0.7500     9.7252
 1889.5000     0.8722     8.8585
 1890.0000     0.9379     8.9257
 1890.5000     0.8810     8.9907
 1891.0000     0.8242     9.0558
 1891.5000     0.7392     9.1208
 1892.0000     0.6730     9.1859
 1892.5000     0.6727     9.2205
 1893.0000     0.6725     9.2295
 1893.5000     0.6817     9.2385
 1894.0000     0.7002     9.2475
 1894.5000     0.7094     9.2565
 1895.0000     0.6996     9.2655
 1895.5000     0.6805     9.2745
 1896.0000     0.6425     9.2836
 1896.5000     0.6140     9.2926
 1897.0000     0.6043     9.3016
 1897.5000     0.5946     9.3106
 1898.0000     0.5943     9.3196
 1898.5000     0.6317     9.3286
 1899.0000     0.6785     9.3376
 1899.5000     0.7159     9.3466
 1900.0000     0.7250     9.3556
 1900.5000     0.7381     9.3646
 1901.0000     0.7435     9.3736
 1901.5000     0.7433     9.3826
 1902.0000     0.7431     9.3916
 1902.5000     0.7429     9.4007
 1903.0000     0.7898     9.4097
 1903.5000     0.8649     9.4187
 1904.0000     0.8930     9.4277
 1904.5000     0.9117     9.4367
 1905.0000     0.9398     9.4457
 1905.5000     0.9490     9.4547
 1906.0000     0.9299     9.4637
 1906.5000     0.8638     9.4727
 1907.0000     0.7789     9.4817
 1907.5000     0.7034     9.4907
 1908.0000     0.6373     9.4997
 1908.5000     0.5806     9.5087
 1909.0000     0.5333     9.5178
 1909.5000     0.4860     9.5268
 1910.0000     0.4671     9.5358
 1910.5000     0.5233     9.5448
 1911.0000     0.5796     9.5538
 1911.5000     0.6265     9.5628
 1912.0000     0.6546     9.5718
 1912.5000     0.6733     9.5808
 1913.0000     0.6825     9.5898
 1913.5000     0.6917     9.5988
 1914.0000     0.7010     9.6078
 1914.5000     0.7007     9.6168
 1915.0000     0.6346     9.6258
 1915.5000     0.5309     9.6349
 1916.0000     0.4836     9.6439
 1916.5000     0.4457     9.6529
 1917.0000     0.4455     9.6619
 1917.5000     0.4548     9.6709
 1918.0000     0.4828     9.6799
 1918.5000     0.5109     9.6889
 1919.0000     0.5484     9.6979
 1919.5000     0.5953     9.7069
 1920.0000     0.6045     9.7159
 1920.5000     0.6137     9.7249
 1921.0000     0.6135     9.7339
 1921.5000     0.6133     9.7429
 1922.0000     0.5849     9.7519
 1922.5000     0.5565     9.7610
 1923.0000     0.5186     9.7700
 1923.5000     0.4902     9.7790
 1924.0000     0.4523     9.7880
 1924.5000     0.5651     9.7970
 1925.0000     0.6685     9.8060
 1925.5000     0.7625     9.8150
 1926.0000     0.7906     9.8240
 1926.5000     0.7527     9.8330
 1927.0000     0.6960     9.8420
 1927.5000     0.5828     9.8510
 1928.0000     0.5262     9.8600
 1928.5000     0.6201     9.8690
 1929.0000     0.7047     9.8781
 1929.5000     0.7704     9.8871
 1930.0000     0.7326     9.8961
 1930.5000     0.6759     9.9051
 1931.0000     0.6004     9.9141
 1931.5000     0.5625     9.9231
 1932.0000     0.6094     9.9321
 1932.5000     0.6187     9.9411
 1933.0000     0.6184     9.9501
 1933.5000     0.6088     9.9591
 1934.0000     0.5898     9.9681
 1934.5000     0.6179     9.9771
 1935.0000     0.7024     9.9861
 1935.5000     0.7776     9.9952
 1936.0000     0.7680    10.0042
 1936.5000     0.7489    10.0132
 1937.0000     0.6923    10.0222
 1937.5000     0.6356    10.0312
 1938.0000     0.6166    10.0402
 1938.5000     0.6069    10.0492
 1939.0000     0.6068    10.0582
 1939.5000     0.6066    10.0672
 1940.0000     0.6252    10.0762
 1940.5000     0.7004    10.0852
 1941.0000     0.8226    10.0942
 1941.5000     0.8789    10.1032
 1942.0000     0.8599    10.1123
 1942.5000     0.8220    10.1213
