~VERSION INFORMATION
 VERS.                2.0:   CWLS LOG ASCII STANDARD - VERSION 2.0
 WRAP.                 NO:   ONE LINE PER DEPTH STEP
~WELL INFORMATION
#MNEM.UNIT      DATA TYPE    INFORMATION
#----------   ------------   ------------------------------
 STRT.F            0.0000:   START DEPTH
 STOP.F          774.0000:   STOP DEPTH
 STEP.F            0.5000:   STEP LENGTH
 NULL.          -999.2500:   NO VALUE
 COMP. LAWRENCE/ALLISON INC:   COMPANY
 WELL. SX 11 WP #37-53-11:   WELL
 FLD .             TEAPOT:   FIELD
 LOC .      S11 T38N R78W:   LOCATION
 CNTY.            NATRONA:   COUNTY
 STAT.            WYOMING:   STATE
 CTRY. UNITED STATES OF AMERICA:   COUNTRY
 SRVC.            Unknown:   SERVICE COMPANY
 DATE.        19-SEP-1984:   LOGDATE
 API .       490251098900:   API NUMBER
~CURVE INFORMATION
#MNEM.UNIT       API CODE    CURVE DESCRIPTION
#----------   ------------   ------------------------------
 DEPT.F                  :   
 GRR .GAPI   07 310 01 00:   GAMMA RAY FROM RES. LOG.
 SPR .MV     07 010 01 00:   SPONTANEOUS POTENTIAL
 RFOC.OHMM   07 220 04 00:   RESISTIVITY FOCUSED LOG
 ILD .OHMM   07 120 46 00:   INDUCTION LOG DEEP RESISTIVITY
 RILM.OHMM   07 120 44 00:   INDUCTION LOG MEDIUM RESISTIVITY
 CALD.IN     45 280 60 00:   CALIPER
 DEN .G/C3   45 350 01 00:   COMPENSATED BULK DENSTIY
 CORR.G/C3   45 356 01 00:   DENSITY CORRECTION
 PORD.DEC    45 890 12 00:   POROSITY DENSITY SANDSTONE
 AC  .US/F   60 520 00 00:   ACOUSTIC SONIC
 CNC .DEC    42 890 03 00:   NEUTRON POROSITY SANDSTONE
~PARAMETER INFORMATION
#MNEM.UNIT          VALUE    DESCRIPTION
#----------   ------------   ------------------------------
 PD  .                 GL:   PERMANENT DATUM
 EPD .F              5153:   ELEVATION PERMANENT DATUM
 LMF .                 GL:   LOG MEASURED FROM
 DMF .                 GL:   DRILLING MEASURED FROM
 EGL .F              5153:   GROUND LEVEL
 DATE.       19-SEPT-1984:   RUN DATE
 RUN .                  1:   RUN NUMBER
 DD  .F               785:   DEPTH DRILLER
 DL  .F               774:   DEPTH LOGGER
 BLI .F               772:   BOTTOM LOG INTERVAL
 CS  .IN            8.625:   CASING SIZE
 CBD .F                42:   CASING BOTTOM DRILLER
 CBL .F                41:   CASING BOTTOM LOGGER
 BS  .IN            7.875:   BIT SIZE
 BSD .F               785:   BIT SIZE AT DEPTH
 DFT .          KCL WATER:   DRILLING FLUID TYPE
 MSS .           FLOWLINE:   MUD SAMPLE SOURCE
 RMS .OHMM            .27:   RESISTIVITY MUD SAMPLE
 MST .F                82:   MUD SAMPLE TEMPERATURE
 TCS .HRS               2:   TIME CURCULATED STOPPED
 MRT .F               100:   MAXIMUM RECORDED TEMPERATURE
 LUN .               6274:   LOGGING UNIT NUMBER
 LUL .               GLTE:   LOGGING UNIT LOCATION
 ENGI.         HINDS/MACK:   RECORDING ENGINEER
 WITN.             STRONG:   WITNESSED BY
 CLNT.            A2DTECH:   CLIENT CODE
 ORIG.   1", 2", 5" PRINT:   ORIGIN OF DATA
 UWI .       490251098900:   UNIQUE WELL ID
 DICO. A2D Technologies, Inc.:   DIGITIZING COMPANY
~OTHER INFORMATION
~A    DEPT      GRR       SPR       RFOC        ILD       RILM       CALD        DEN       CORR       PORD         AC        CNC   
# ...
   91.5000    91.3586     8.4777     6.4750     6.2285     6.3437     8.2539     2.3889    -0.0385     0.1758   116.9271     0.2818
   92.0000    90.6401     8.0049     6.3776     6.0090     6.1956     8.2539     2.3828    -0.0302     0.1764   118.0096     0.2764
   92.5000    89.4109     7.5014     6.2817     5.4006     5.9540     8.2539     2.3863    -0.0148     0.1738   120.2811     0.2731
   93.0000    88.1157     7.0743     6.1884     4.6691     5.1574     8.2539     2.3905     0.0008     0.1711   124.7849     0.2740
   93.5000    87.6345     6.3308     6.0477     3.8105     4.3656     8.2539     2.3947     0.0165     0.1693   133.9953     0.2859
   94.0000    88.8561     5.5978     5.9112     3.1097     3.6374     8.2539     2.3982     0.0223     0.1675   148.4770     0.2998
   94.5000    92.4046     4.8606     5.3936     2.5379     2.9593     8.2539     2.3962     0.0106     0.1678   162.3724     0.3209
   95.0000    97.9773     4.0676     4.2014     2.2223     2.4077     8.2539     2.3915    -0.0012     0.1922   175.4374     0.3438
   95.5000   103.9816     3.0171     3.2638     2.0111     2.1550     8.2539     2.3565    -0.0138     0.2360   183.9868     0.3667
   96.0000   110.0216     1.9694     2.5284     1.9437     1.9844     8.2539     2.2829    -0.0004     0.2798   185.0795     0.3896
   96.5000   116.0084     1.0692     2.3156     1.9148     1.9863     8.2539     2.1940     0.0267     0.3164   161.3837     0.4125
   97.0000   114.9801     1.4199     2.2750     1.9600     2.0642     8.2539     2.0992     0.0266     0.3462   142.8373     0.4198
   97.5000   110.5311     2.4167     2.4286     2.0408     2.1842     8.2539     2.0667     0.0272     0.3635   129.5640     0.4127
   98.0000   105.0675     3.4063     3.1654     2.2964     2.5463     8.2539     2.0582     0.0314     0.3692   121.6512     0.3846
   98.5000    99.6221     4.4088     4.1975     2.7609     3.1380     8.2539     2.0650     0.0621     0.3608   113.7384     0.3506
   99.0000    94.1772     4.4613     5.5641     3.3286     4.0638     8.2539     2.1154     0.0569     0.3354   106.5507     0.3167
   99.5000    88.7991     4.2661     7.5708     4.0873     5.2628     8.2539     2.2002     0.0316     0.2911   104.1921     0.2798
  100.0000    84.3048     4.0545     8.0173     5.1817     6.6355     8.2539     2.2908     0.0058     0.2217   102.0208     0.2625
  100.5000    85.1501     3.8446     8.5401     7.0090     7.8655     8.2539     2.3636    -0.0205     0.1840    99.8876     0.2580
  101.0000    85.5312     3.6356     9.0970     8.4729     9.3235     8.2539     2.3720    -0.0214     0.1834    98.2084     0.2648
  101.5000    82.9273     3.4272     9.6911     8.9865    10.3902     8.2539     2.3715    -0.0203     0.1826    97.0961     0.2718
  102.0000    80.1054     3.2129    10.1996     9.5355    10.8784     8.2539     2.3792    -0.0118     0.1793    96.3444     0.2752
  102.5000    77.3129     2.7111    10.5328    10.0583    11.1305     8.2539     2.3887    -0.0043     0.1722    97.3183     0.2654
  103.0000    76.6624     1.4447    10.4355     9.9140    10.0967     8.2539     2.3894    -0.0057     0.1726    98.7150     0.2566
  103.5000    77.6928     0.8239    10.0732     9.1385     8.6981     8.2535     2.3902    -0.0069     0.1727   101.5371     0.2544
  104.0000    80.6955     0.2758     9.5273     7.9624     7.4932     8.2522     2.3910    -0.0077     0.1718   106.1653     0.2615
  104.5000    85.4196    -0.3735     8.7303     6.9395     6.4552     8.2509     2.3868    -0.0056     0.1733   114.7145     0.2823
  105.0000    91.2325    -1.3110     7.9112     6.0999     5.5609     8.2496     2.3773    -0.0035     0.1793   123.9463     0.2899
  105.5000    97.4062    -2.2473     6.4342     5.7887     4.9642     8.2483     2.3677    -0.0014     0.1853   127.8087     0.3014
  106.0000   101.9972    -3.1688     5.0008     5.4933     5.0915     8.2470     2.3575     0.0008     0.1889   129.9105     0.3164
  106.5000   103.2334    -3.0613     4.0006     5.2473     5.3553     8.2457     2.3364     0.0071     0.2149   123.4672     0.3314
  107.0000    96.7360    -2.8269     4.2391     5.2473     5.7202     8.2444     2.2851     0.0214     0.2430   116.4950     0.3445
  107.5000    90.3042    -2.5918     5.4385     5.3234     6.2036     8.2431     2.2335     0.0179     0.2655   110.1431     0.3357
  108.0000    84.2204    -2.4901     6.9799     5.6898     6.7276     8.2418     2.2333     0.0106     0.2715   107.8797     0.3146
  108.5000    81.4444    -2.5203     9.1833     6.2222     7.1264     8.2405     2.2833     0.0082     0.2251   107.4207     0.2962
  109.0000    81.9466    -2.5501     9.0746     6.8046     7.6230     8.2392     2.3338     0.0213     0.2056   107.7435     0.2767
  109.5000    83.8741    -2.5803     8.9211     7.4414     8.1657     8.2379     2.3632     0.0334     0.1888   107.7435     0.2684
  110.0000    86.2951    -2.6106     8.7737     8.1467     8.7184     8.2366     2.3712     0.0289     0.1828   107.3940     0.2594
  110.5000    88.7230    -2.6424     8.6287     8.7627     9.0379     8.2353     2.3754     0.0163     0.1810   106.2525     0.2553
  111.0000    90.8740    -2.6683     8.5415     9.0223     9.3686     8.2346     2.3749     0.0172     0.1810   105.8812     0.2580
  111.5000    90.3317    -2.2790     9.1195     9.3186     9.7121     8.2367     2.3703     0.0173     0.1843   105.4559     0.2637
  112.0000    88.3156    -1.8288     9.6025     9.9055    10.0681     8.2388     2.3638     0.0065     0.1882   105.4549     0.2729
  112.5000    86.5166    -1.2998    10.0643    10.5299    10.4372     8.2408     2.3572    -0.0041     0.1921   105.9766     0.2777
  113.0000    86.2509    -0.7705    10.1137    10.8565    10.6466     8.2428     2.3506    -0.0101     0.1960   106.5507     0.2787
  113.5000    84.0462    -0.2980    10.1629    11.1251    10.6862     8.2448     2.3468    -0.0049     0.1965   107.6887     0.2827
  114.0000    81.3809    -0.2951    10.2125    11.4003    10.7261     8.2468     2.3535     0.0008     0.1930   108.8884     0.2891
  114.5000    79.0222    -0.3824    10.2628    11.5405    10.7659     8.2489     2.3601     0.0001     0.1901   110.1260     0.2819
  115.0000    79.5250    -1.1733    10.3133    11.5405    10.8060     8.2509     2.3506    -0.0081     0.1954   110.6109     0.2690
  115.5000    80.5924    -2.1377    10.3683    11.5405    10.8462     8.2529     2.3501    -0.0126     0.1993   110.7851     0.2557
  116.0000    81.6505    -3.1043    10.4677    11.5405    10.8866     8.2535     2.3619    -0.0066     0.1998   110.4241     0.2545
  116.5000    83.3015    -4.0712    10.5681    11.5346    10.9356     8.2527     2.3480    -0.0009     0.1989   108.5814     0.2583
  117.0000    85.5148    -5.0377    10.6695    11.4760    11.0616     8.2519     2.3379     0.0019     0.2036   106.7185     0.2607
  117.5000    86.0605    -6.0047    10.7718    11.4352    11.1890     8.2511     2.3317     0.0020     0.2077   104.7835     0.2618
  118.0000    85.3247    -6.9724    10.8717    11.5432    11.3179     8.2503     2.3325    -0.0015     0.2073   102.1025     0.2632
  118.5000    85.6425    -7.9355    10.9690    11.6422    11.4483     8.2495     2.3376    -0.0054     0.2029   100.2883     0.2718
  119.0000    88.4958    -8.6289    11.0672    11.7421    11.5802     8.2487     2.3466    -0.0093     0.1983   100.7694     0.2769
  119.5000    89.0864    -8.5575    11.1662    11.8428    11.7524     8.2479     2.3564    -0.0120     0.1930   101.8136     0.2792
  120.0000    87.7735    -8.0157    11.2662    11.9445    11.7432     8.2471     2.3686    -0.0119     0.1842   103.4862     0.2738
  120.5000    86.4209    -7.4671    11.3670    12.0469    11.7278     8.2463     2.3799    -0.0119     0.1786   105.1527     0.2596
  121.0000    88.9671    -6.9201    11.4687    12.1503    11.7125     8.2455     2.3744    -0.0119     0.1815   106.2883     0.2453
  121.5000    88.8037    -6.3732    11.5802    12.2545    11.6972     8.2446     2.3607    -0.0119     0.1886   107.0110     0.2445
