~VERSION INFORMATION
 VERS.                2.0:   CWLS LOG ASCII STANDARD - VERSION 2.0
 WRAP.                 NO:   ONE LINE PER DEPTH STEP
~WELL INFORMATION
#MNEM.UNIT      DATA TYPE    INFORMATION
#----------   ------------   ------------------------------
 STRT.F            3.5000:   START DEPTH
 STOP.F          523.0000:   STOP DEPTH
 STEP.F            0.5000:   STEP LENGTH
 NULL.          -999.2500:   NO VALUE
 COMP.       F D SERV INC:   COMPANY
 WELL.    88-8 SX 3 #88-3:   WELL
 FLD .             TEAPOT:   FIELD
 LOC .       S3 T38N R78W:   LOCATION
 CNTY.            NATRONA:   COUNTY
 STAT.            WYOMING:   STATE
 CTRY. UNITED STATES OF AMERICA:   COUNTRY
 SRVC.      Western Atlas:   SERVICE COMPANY
 DATE.        28-NOV-1992:   LOGDATE
 API .       490252256200:   API NUMBER
~CURVE INFORMATION
#MNEM.UNIT       API CODE    CURVE DESCRIPTION
#----------   ------------   ------------------------------
 DEPT.F                  :   
 GRR .GAPI   07 310 01 00:   GAMMA RAY
 RILD.OHMM   07 120 46 00:   INDUCTION LOG DEEP RESISTIVITY
 RILM.OHMM   07 120 44 00:   RESITIVITY LONG MEDIUM
 C13 .IN     45 280 13 00:   CALIPER X
 PORZ.DEC    45 890 12 00:   DENSITY POROSITY SANDSTONE
 NPHI.DEC    42 890 03 00:   NEUTRON POROSITY SANDSTONE
 ZCOR.G/C3   45 356 01 00:   DENSITY CORRECTION
 ZDEN.G/C3   45 350 01 00:   BULK DENSITY
~PARAMETER INFORMATION
#MNEM.UNIT          VALUE    DESCRIPTION
#----------   ------------   ------------------------------
 PD  .                 GL:   PERMANENT DATUM
 EPD .F              5126:   ELEVATION PERMANENT DATUM
 LMF .                 KB:   LOG MEASURED FROM
 DAPD.F                10:   FEET ABOVE PERMANENT DATUM
 DMF .                 KB:   DRILLING MEASURED FROM
 EKB .F              5136:   KELLING BUSHING
 EDF .F              5135:   DRILLING FLOOR
 EGL .F              5126:   GROUND LEVEL
 DATE.        28-NOV-1992:   RUN DATE
 RUN .                  1:   RUN NUMBER
 DD  .F               525:   DEPTH DRILLER
 DL  .F               525:   DEPTH LOGGER
 BLI .F               516:   BOTTOM LOG INTERVAL
 TLI .F                76:   TOP LOG INTERVAL
 CS  .IN            8.625:   CASING SIZE
 CBD .F                95:   CASING BOTTOM DRILLER
 CBL .F                76:   CASING BOTTOM LOGGER
 BS  .IN            7.875:   BIT SIZE
 BSD .F               525:   BIT SIZE AT DEPTH
 DFT .           AIR FOAM:   DRILLING FLUID TYPE
 MRT .F                70:   MAXIMUM RECORDED TEMPERATURE
 LUN .            HL-6274:   LOGGING UNIT NUMBER
 LUL .             CASPER:   LOGGING UNIT LOCATION
 ENGI.             RAUTIO:   RECORDING ENGINEER
 WITN.           ED REISH:   WITNESSED BY
 CLNT.            A2DTECH:   CLIENT CODE
 ORIG.           5" PRINT:   ORIGIN OF DATA
 UWI .       490252256200:   UNIQUE WELL ID
 DICO. A2D Technologies, Inc.:   DIGITIZING COMPANY
~OTHER INFORMATION
~A    DEPT     GRR       RILD       RILM        C13       PORZ       NPHI       ZCOR       ZDEN   
# ...
  287.0000   156.2473     7.6701     7.7446     8.2180     0.0915     0.3300     0.0455     2.4974
  287.5000   157.4549     7.6701     7.7446     8.2205     0.0923     0.3330     0.0352     2.4966
  288.0000   158.6626     7.6701     7.7446     8.2230     0.0935     0.3327     0.0277     2.4951
  288.5000   154.1481     7.6701     7.6817     8.2255     0.0950     0.3343     0.0262     2.4921
  289.0000   151.1389     7.6172     7.6381     8.2280     0.0980     0.3382     0.0262     2.4891
  289.5000   152.3465     7.6172     7.5854     8.2305     0.0998     0.3415     0.0262     2.4853
  290.0000   156.2651     7.6172     7.5749     8.2329     0.0986     0.3439     0.0247     2.4846
  290.5000   159.5819     7.5647     7.5330     8.2354     0.0968     0.3451     0.0262     2.4884
  291.0000   161.3919     7.5647     7.5330     8.2379     0.0965     0.3445     0.0232     2.4906
  291.5000   162.5996     7.4607     7.5330     8.2404     0.0974     0.3418     0.0202     2.4899
  292.0000   160.7952     7.3582     7.5330     8.2429     0.0998     0.3379     0.0217     2.4846
  292.5000   163.2084     7.1079     7.2767     8.2454     0.1002     0.3349     0.0232     2.4808
  293.0000   164.7173     6.9107     6.9805     8.2461     0.0986     0.3346     0.0247     2.4869
  293.5000   162.3105     6.4964     6.6955     8.2158     0.0980     0.3370     0.0232     2.4876
  294.0000   159.0001     6.1893     6.2053     8.2006     0.1017     0.3430     0.0157     2.4823
  294.5000   158.0693     5.9788     5.9116     8.1854     0.1185     0.3596     0.0127     2.4320
  295.0000   157.8010     5.8966     5.5544     8.1852     0.1334     0.3713     0.0347     2.4200
  295.5000   158.4069     5.8156     5.5517     8.1851     0.1390     0.3692     0.0562     2.4177
  296.0000   164.1327     5.8156     5.7104     8.2000     0.1296     0.3584     0.0607     2.4576
  296.5000   168.6837     5.8156     5.7901     8.2300     0.1143     0.3484     0.0412     2.4733
  297.0000   171.6692     5.7755     5.8708     8.2298     0.1047     0.3421     0.0292     2.4816
  297.5000   168.6600     5.7356     5.9527     8.2297     0.1002     0.3382     0.0337     2.4853
  298.0000   167.1561     5.6568     6.0357     8.2295     0.1002     0.3373     0.0337     2.4838
  298.5000   167.1597     5.6568     5.7901     8.2294     0.1047     0.3397     0.0262     2.4688
  299.0000   170.4765     5.6568     5.5544     8.2292     0.1161     0.3518     0.0097     2.4395
  299.5000   175.9010     5.6178     5.3654     8.2441     0.1350     0.3579     0.0157     2.4140
  300.0000   179.2164     5.6568     5.4027     8.2440     0.1459     0.3557     0.0367     2.4072
  300.5000   169.8826     5.6568     5.5161     8.2438     0.1396     0.3349     0.0517     2.4222
  301.0000   158.9217     5.7356     5.5544     8.2437     0.1215     0.3253     0.0442     2.4530
  301.5000   157.2377     5.9403     5.6710     8.2430     0.1077     0.3232     0.0472     2.4786
  302.0000   159.9521     6.3630     5.9116     8.2417     0.0998     0.3217     0.0547     2.4831
  302.5000   163.8706     6.5870     6.1327     8.2404     0.1023     0.3211     0.0577     2.4823
  303.0000   168.9940     6.8189     6.5587     8.2392     0.1041     0.3211     0.0547     2.4771
  303.5000   165.6842     6.9619     6.8845     8.2379     0.1029     0.3208     0.0577     2.4778
  304.0000   161.7714     7.1079     7.0290     8.2366     0.0989     0.3187     0.0577     2.4839
  304.5000   157.8579     7.1079     6.8812     8.2354     0.0986     0.3181     0.0592     2.4846
  305.0000   159.3675     7.0589     6.8229     8.2341     0.0977     0.3191     0.0607     2.4861
  305.5000   160.2746     6.7718     6.6502     8.2328     0.0950     0.3263     0.0592     2.4891
  306.0000   159.6744     6.3075     6.3795     8.2315     0.0941     0.3350     0.0532     2.4944
  306.5000   158.4731     5.8156     6.0357     8.2303     0.1209     0.3537     0.0442     2.4891
  307.0000   156.6687     5.5024     5.5161     8.2290     0.1354     0.3629     0.0335     2.4643
  307.5000   154.8643     5.3521     5.1470     8.2277     0.1447     0.3588     0.0395     2.4290
  308.0000   155.7715     5.3128     5.1470     8.2265     0.1348     0.3495     0.0535     2.4146
  308.5000   164.5093     5.3152     5.1115     8.2252     0.1168     0.3434     0.0755     2.4269
  309.0000   169.9338     5.3152     5.1828     8.2239     0.0999     0.3403     0.0530     2.4494
  309.5000   169.0030     5.3521     5.2551     8.2236     0.0877     0.3314     0.0379     2.4735
  310.0000   166.6270     5.3893     5.3284     8.2239     0.0773     0.3278     0.0364     2.4944
  310.5000   163.3166     5.4862     5.6319     8.2242     0.0746     0.3248     0.0484     2.5148
  311.0000   160.3074     5.7978     6.2105     8.2246     0.0740     0.3227     0.0544     2.5223
  311.5000   156.0532     6.5207     6.8845     8.2249     0.0759     0.3224     0.0529     2.5253
  312.0000   150.3740     7.0844     7.1270     8.2253     0.0789     0.3209     0.0484     2.5223
  312.5000   150.0749     7.5384     7.4294     8.2256     0.0789     0.3182     0.0409     2.5201
  313.0000   151.1747     7.7492     7.5854     8.2260     0.0777     0.3152     0.0378     2.5178
  313.5000   154.7375     7.9104     7.7446     8.2263     0.0765     0.3140     0.0348     2.5216
  314.0000   155.9402     7.9643     7.8883     8.2267     0.0762     0.3128     0.0333     2.5239
  314.5000   153.2258     8.1301     7.9621     8.2270     0.0780     0.3104     0.0333     2.5216
  315.0000   152.6205     8.1290     8.0175     8.2273     0.0819     0.3058     0.0333     2.5164
  315.5000   152.9189     8.1844     8.0732     8.2277     0.0861     0.3026     0.0378     2.5089
  316.0000   153.8190     8.1269     8.1293     8.2280     0.0879     0.3026     0.0424     2.5044
  316.5000   156.5270     8.1849     8.1528     8.2284     0.0840     0.3017     0.0452     2.5062
  317.0000   159.8695     8.2949     8.2999     8.2287     0.0795     0.3008     0.0497     2.5187
  317.5000   161.9430     8.3253     8.3576     8.2291     0.0765     0.2994     0.0557     2.5247
  318.0000   157.7226     8.4084     8.3576     8.2294     0.0741     0.2963     0.0587     2.5270
  318.5000   151.3944     8.3492     8.3576     8.2297     0.0756     0.2948     0.0587     2.5285
  319.0000   150.1868     8.3479     8.3576     8.2301     0.0783     0.2945     0.0557     2.5240
  319.5000   151.0876     8.3468     8.3576     8.2304     0.0801     0.2951     0.0556     2.5195
  320.0000   151.6864     8.2882     8.2427     8.2308     0.0804     0.2960     0.0586     2.5165
  320.5000   152.2867     8.2871     8.2999     8.2311     0.0795     0.2975     0.0616     2.5157
  321.0000   151.6647     8.3433     8.4157     8.2163     0.0765     0.2954     0.0706     2.5217
  321.5000   146.8579     8.5172     8.5924     8.2009     0.0714     0.2915     0.0766     2.5323
  322.0000   144.4454     8.8159     8.7727     8.2006     0.0666     0.2840     0.0781     2.5398
  322.5000   149.2619     8.8759     8.9569     8.2154     0.0651     0.2816     0.0735     2.5413
  323.0000   151.3675     8.7525     9.0191     8.2301     0.0654     0.2813     0.0630     2.5405
  323.5000   145.3398     8.3955     8.8951     8.2147     0.0678     0.2849     0.0540     2.5338
  324.0000   142.0237     7.6722     8.2999     8.2144     0.0732     0.3003     0.0360     2.5225
  324.5000   140.5149     6.3488     6.6502     8.1990     0.0985     0.3342     0.0270     2.4689
  325.0000   140.8132     6.0202     5.6710     8.1837     0.1442     0.3659     0.0345     2.3933
  325.5000   147.1350     5.9779     5.1828     8.2135     0.1749     0.3713     0.0794     2.3543
  326.0000   160.3852     5.9359     5.0762     8.2283     0.1783     0.3322     0.1019     2.3655
  326.5000   175.7438     5.9351     5.4402     8.2280     0.1520     0.2976     0.0929     2.4241
  327.0000   176.0462     5.9341     5.9527     8.2578     0.0976     0.2886     0.0544     2.4925
