~VERSION INFORMATION
 VERS.                2.0:   CWLS LOG ASCII STANDARD - VERSION 2.0
 WRAP.                 NO:   ONE LINE PER DEPTH STEP
~WELL INFORMATION
#MNEM.UNIT      DATA TYPE    INFORMATION
#----------   ------------   ------------------------------
 STRT.F            0.0000:   START DEPTH
 STOP.F         4535.0000:   STOP DEPTH
 STEP.F            0.5000:   STEP LENGTH
 NULL.          -999.2500:   NO VALUE
 COMP.   FLUOR DANIEL INC:   COMPANY
 WELL.     56 X 15 #56-15:   WELL
 FLD .             TEAPOT:   FIELD
 LOC .      S15 T38N R78W:   LOCATION
 CNTY.            NATRONA:   COUNTY
 STAT.            WYOMING:   STATE
 CTRY. UNITED STATES OF AMERICA:   COUNTRY
 SRVC.      Dresser Atlas:   SERVICE COMPANY
 DATE.        03-MAY-1984:   LOGDATE
 API .       490252268500:   API NUMBER
~CURVE INFORMATION
#MNEM.UNIT       API CODE    CURVE DESCRIPTION
#----------   ------------   ------------------------------
 DEPT.F                  :   
 CNC .DEC    42 890 03 00:   NEUTRON POROSITY SANDSTONE
 PORD.DEC    45 890 12 00:   POROSITY DENSITY SANDSTONE
 RHOB.G/C3   45 350 01 00:   BULK DENSITY
 CORR.G/C3   45 356 01 00:   DENSITY CORRECTION
 DT  .US/F   60 520 00 00:   INTERVAL TRANSIT TIME
 RILD.OHMM   07 120 46 00:   INDUCTION LOG DEEP RESISTIVITY
 RILM.OHMM   07 120 44 00:   INDUCTION LOG MEDIUM RESISTIVITY
 CALR.IN     07 280 01 00:   CALIPER FROM RESISTIVITY
 GRR .GAPI   07 310 01 00:   GAMMA RAY FROM RESISTIVITY LOG
 SPR .MV     07 010 01 00:   SPONTANEOUS POTENTIAL
 RFOC.OHMM   07 220 04 00:   RESISTIVITY FOCUSED LOG
~PARAMETER INFORMATION
#MNEM.UNIT          VALUE    DESCRIPTION
#----------   ------------   ------------------------------
 PD  .                 GL:   PERMANENT DATUM
 EPD .F              5326:   ELEVATION PERMANENT DATUM
 LMF .                 KB:   LOG MEASURED FROM
 DAPD.F                12:   FEET ABOVE PERMANENT DATUM
 DMF .                 KB:   DRILLING MEASURED FROM
 EKB .F              5338:   KELLING BUSHING
 EDF .F              5337:   DRILLING FLOOR
 EGL .F              5326:   GROUND LEVEL
 DATE.        03-MAY-1984:   RUN DATE
 RUN .                  1:   RUN NUMBER
 DD  .F              4547:   DEPTH DRILLER
 DL  .F              4539:   DEPTH LOGGER
 BLI .F              4536:   BOTTOM LOG INTERVAL
 TLI .F              1021:   TOP LOG INTERVAL
 CS  .IN            8.625:   CASING SIZE
 CBD .F              1027:   CASING BOTTOM DRILLER
 CBL .F              1021:   CASING BOTTOM LOGGER
 BS  .IN            7.875:   BIT SIZE
 BSD .F              4547:   BIT SIZE AT DEPTH
 DFT .            KCL GEL:   DRILLING FLUID TYPE
 DFD .                9.1:   DRILLING FLUID DENSITY
 DFV .                 44:   DRILLING FLUID VISCOSITY
 DFPH.                  8:   DRILLING FLUID PH
 DFL .               14.5:   DRILLING FLUID LOSS
 MSS .            MUDTANK:   MUD SAMPLE SOURCE
 RMS .OHMM           0.56:   RESISTIVITY MUD SAMPLE
 MST .F                73:   MUD SAMPLE TEMPERATURE
 RMF .OHMM           0.42:   RESISTIVITY MUD FILTRATE SAMPLE
 MFST.F                73:   MUD FILTRATE SAMPLE TEMPERATURE
 RMC .OHMM           0.71:   RESISTIVITY MUD CAKE
 MCST.F                73:   MUD CAKE SAMPLE TEMPERATURE
 MFSS.               MEAS:   MUD FILTRATE SAMPLE SOURCE
 MCSS.               CALC:   MUD CAKE SAMPLE SOURCE
 RMB .OHMM           0.29:   RESISTIVITY MUD AT BHT
 BHT .F               141:   BOTTOM HOLE TEMPERATURE
 TCS .HRS             3.5:   TIME CURCULATED STOPPED
 MRT .F               125:   MAXIMUM RECORDED TEMPERATURE
 LUN .               6302:   LOGGING UNIT NUMBER
 LUL .               CODY:   LOGGING UNIT LOCATION
 ENGI.              GETTY:   RECORDING ENGINEER
 WITN.           JENNINGS:   WITNESSED BY
 CLNT.            A2DTECH:   CLIENT CODE
 ORIG.           5" PRINT:   ORIGIN OF DATA
 UWI .       490252268500:   UNIQUE WELL ID
 DICO. A2D Technologies, Inc.:   DIGITIZING COMPANY
~OTHER INFORMATION
~A    DEPT     CNC       PORD       RHOB       CORR         DT       RILD       RILM       CALR         GRR       SPR       RFOC   
# ...
 1494.5000  -999.2500  -999.2500  -999.2500  -999.2500  -999.2500    10.1433     9.5666     9.2351    81.9129   -17.8741     9.0138
 1495.0000  -999.2500  -999.2500  -999.2500  -999.2500  -999.2500    10.1426     9.4367     9.2504    81.2913   -18.1708     8.9533
 1495.5000  -999.2500  -999.2500  -999.2500  -999.2500  -999.2500    10.1419     9.2448     9.2657    81.3285   -18.3178     8.8932
 1496.0000  -999.2500  -999.2500  -999.2500  -999.2500  -999.2500    10.1412     9.1193     9.2660    81.9350   -18.6147     8.8330
 1496.5000  -999.2500  -999.2500  -999.2500  -999.2500  -999.2500    10.1405     9.1846     9.2663    82.2412   -18.9116     8.7130
 1497.0000  -999.2500  -999.2500  -999.2500  -999.2500  -999.2500    10.2104     9.3148     9.2816    82.5459   -19.0586     8.5951
 1497.5000  -999.2500  -999.2500  -999.2500  -999.2500  -999.2500    10.2095     9.4468     9.2819    82.8535   -19.2056     8.6567
 1498.0000  -999.2500  -999.2500  -999.2500  -999.2500  -999.2500    10.2801     9.5807     9.2822    83.4600   -19.2019     8.7188
 1498.5000  -999.2500  -999.2500  -999.2500  -999.2500  -999.2500    10.3509     9.7165     9.2675    84.6671   -19.0491     8.8425
 1499.0000  -999.2500  -999.2500  -999.2500  -999.2500  -999.2500    10.4222     9.7185     9.2528    84.0723   -18.8962     8.9060
 1499.5000  -999.2500  -999.2500  -999.2500  -999.2500  -999.2500    10.4941     9.7205     9.2231    82.2764   -18.8933     8.9702
 1500.0000  -999.2500  -999.2500  -999.2500  -999.2500  -999.2500    10.5355     9.7225     9.2084    81.0811   -19.0708     9.1227
 1500.5000  -999.2500  -999.2500  -999.2500  -999.2500  -999.2500    10.7884     9.7922     9.1471    80.7866   -19.1877     9.2885
 1501.0000  -999.2500  -999.2500  -999.2500  -999.2500  -999.2500    10.7884     9.7946     9.1199    80.4921   -19.1841     9.3532
 1501.5000  -999.2500  -999.2500  -999.2500  -999.2500  -999.2500    10.7884     9.7966     9.1056    81.1000   -19.1812     9.3532
 1502.0000  -999.2500  -999.2500  -999.2500  -999.2500  -999.2500    10.7884     9.7985     9.0914    84.1088   -19.1783     9.3532
 1502.5000  -999.2500  -999.2500  -999.2500  -999.2500  -999.2500    10.7846     9.8005     9.0923    87.4180   -18.8756     9.2885
 1503.0000  -999.2500  -999.2500  -999.2500  -999.2500  -999.2500    10.6398     9.8707     9.0930    90.7271   -18.5727     9.2243
 1503.5000  -999.2500  -999.2500  -999.2500  -999.2500  -999.2500    10.4932     9.8727     9.0937    89.5317   -18.2693     9.1605
 1504.0000  -999.2500  -999.2500  -999.2500  -999.2500  -999.2500    10.3487     9.8747     9.0945    88.3364   -18.2664     9.0971
 1504.5000  -999.2500  -999.2500  -999.2500  -999.2500  -999.2500    10.2061     9.8084     9.0802    89.0088   -18.2635     9.0342
 1505.0000  -999.2500  -999.2500  -999.2500  -999.2500  -999.2500    10.0655     9.6088     9.0811    91.9531   -18.2606     8.9097
 1505.5000  -999.2500  -999.2500  -999.2500  -999.2500  -999.2500     9.9960     9.4129     9.0666    92.8598   -18.2577     8.8481
 1506.0000  -999.2500  -999.2500  -999.2500  -999.2500  -999.2500     9.9269     9.2846     9.0675    91.6644   -18.2548     8.7869
 1506.5000  -999.2500  -999.2500  -999.2500  -999.2500  -999.2500     9.8583     9.2870     9.0683    88.9675   -18.2519     8.6657
 1507.0000  -999.2500  -999.2500  -999.2500  -999.2500  -999.2500     9.8583     9.4186     9.0690    87.7707   -18.2483     8.6058
 1507.5000  -999.2500  -999.2500  -999.2500  -999.2500  -999.2500     9.9269     9.5520     9.0697    87.1772   -18.2454     8.6058
 1508.0000  -999.2500  -999.2500  -999.2500  -999.2500  -999.2500    10.0655     9.6205     9.0554    85.3814   -18.2425     8.7869
 1508.5000  -999.2500  -999.2500  -999.2500  -999.2500  -999.2500    10.1356     9.6899     9.0563    80.5635   -18.2396     8.9717
 1509.0000  -999.2500  -999.2500  -999.2500  -999.2500  -999.2500    10.2772     9.8272     9.0419    73.6814   -18.2367     9.0342
 1509.5000  -999.2500  -999.2500  -999.2500  -999.2500  -999.2500    10.3528     9.8292     9.0578    79.9949   -18.2338     9.0342
 1510.0000  -999.2500  -999.2500  -999.2500  -999.2500  -999.2500    10.4932     9.8311     9.0735    83.0038   -18.2309     9.0971
 1510.5000  -999.2500  -999.2500  -999.2500  -999.2500  -999.2500    10.5663     9.7652     9.0742    84.8114   -18.2279     9.0971
 1511.0000  -999.2500  -999.2500  -999.2500  -999.2500  -999.2500    10.5663     9.6996     9.1049    83.3157   -18.2244     9.0971
 1511.5000  -999.2500  -999.2500  -999.2500  -999.2500  -999.2500    10.5663     9.5679     9.1207    79.4177   -18.2215     9.0971
 1512.0000  -999.2500  -999.2500  -999.2500  -999.2500  -999.2500    10.4932     9.4380     9.1516    79.0989   -18.2186     9.0342
 1512.5000  -999.2500  -999.2500  -999.2500  -999.2500  -999.2500    10.3487     9.2460     9.1523    83.5089   -18.2157     8.9717
 1513.0000  -999.2500  -999.2500  -999.2500  -999.2500  -999.2500    10.2061     9.0570     9.1378    90.8480   -18.0628     8.9717
 1513.5000  -999.2500  -999.2500  -999.2500  -999.2500  -999.2500    10.0655     8.9340     9.1237    92.9559   -17.9100     8.9717
 1514.0000  -999.2500  -999.2500  -999.2500  -999.2500  -999.2500     9.9269     8.8127     9.1093    92.9618   -17.7471     8.9717
 1514.5000  -999.2500  -999.2500  -999.2500  -999.2500  -999.2500     9.8583     8.8149     9.1102    90.8655   -17.3038     8.8481
 1515.0000  -999.2500  -999.2500  -999.2500  -999.2500  -999.2500     9.7901     8.8167     9.1109    87.2677   -17.1509     8.6058
 1515.5000  -999.2500  -999.2500  -999.2500  -999.2500  -999.2500     9.7901     8.8186     9.1118    84.2705   -16.8482     8.4221
 1516.0000  -999.2500  -999.2500  -999.2500  -999.2500  -999.2500     9.7225     8.8821     9.1126    83.6597   -16.6954     8.2548
 1516.5000  -999.2500  -999.2500  -999.2500  -999.2500  -999.2500     9.5885     8.8220     9.0981    86.4056   -16.6925     8.1977
 1517.0000  -999.2500  -999.2500  -999.2500  -999.2500  -999.2500     9.4565     8.7628     9.0840    87.2925   -16.6896     8.1977
 1517.5000  -999.2500  -999.2500  -999.2500  -999.2500  -999.2500     9.3904     8.7040     9.0847    82.4935   -16.6867     8.1410
 1518.0000  -999.2500  -999.2500  -999.2500  -999.2500  -999.2500     9.2617     8.6456     9.0855    80.0955   -16.6837     8.1410
 1518.5000  -999.2500  -999.2500  -999.2500  -999.2500  -999.2500     9.2617     8.5880     9.1012    82.2034   -16.6801     8.0287
 1519.0000  -999.2500  -999.2500  -999.2500  -999.2500  -999.2500     9.1977     8.5898     9.1021    80.1086   -16.6772     8.0287
 1519.5000  -999.2500  -999.2500  -999.2500  -999.2500  -999.2500     9.1977     8.5321     9.1028    81.6159   -16.6743     8.0847
 1520.0000  -999.2500  -999.2500  -999.2500  -999.2500  -999.2500     9.1342     8.5342     9.1035    86.1262   -16.9713     8.1410
 1520.5000  -999.2500  -999.2500  -999.2500  -999.2500  -999.2500     9.1342     8.5360     9.0891    86.7327   -17.1183     8.1410
 1521.0000  -999.2500  -999.2500  -999.2500  -999.2500  -999.2500     9.1342     8.5377     9.0900    85.2384   -17.2654     8.1977
 1521.5000  -999.2500  -999.2500  -999.2500  -999.2500  -999.2500     9.1342     8.5394     9.0907    84.9425   -17.4123     8.1977
 1522.0000  -999.2500  -999.2500  -999.2500  -999.2500  -999.2500     9.1342     8.4820     9.0765    84.9498   -17.2588     8.1977
 1522.5000  -999.2500  -999.2500  -999.2500  -999.2500  -999.2500     9.1977     8.4838     9.0772    85.5562   -17.2559     8.1977
 1523.0000  -999.2500  -999.2500  -999.2500  -999.2500  -999.2500     9.2617     8.4856     9.0931    87.0635   -17.2530     8.2548
 1523.5000  -999.2500  -999.2500  -999.2500  -999.2500  -999.2500     9.3262     8.5467     9.0938    91.5739   -17.4000     8.1977
 1524.0000  -999.2500  -999.2500  -999.2500  -999.2500  -999.2500     9.3262     8.6079     9.0794    91.2794   -17.5478     8.1977
 1524.5000  -999.2500  -999.2500  -999.2500  -999.2500  -999.2500     9.3262     8.6097     9.0803    88.5825   -17.5441     8.2548
