~VERSION INFORMATION
 VERS.                2.0:   CWLS LOG ASCII STANDARD - VERSION 2.0
 WRAP.                 NO:   ONE LINE PER DEPTH STEP
~WELL INFORMATION
#MNEM.UNIT      DATA TYPE    INFORMATION
#----------   ------------   ------------------------------
 STRT.F            0.0000:   START DEPTH
 STOP.F          550.0000:   STOP DEPTH
 STEP.F            0.1000:   STEP LENGTH
 NULL.          -999.2500:   NO VALUE
 COMP.       F D SERV INC:   COMPANY
 WELL. NAVAL PETROLEUM RESERVE 3 SX-3 #77-4-3:   WELL
 FLD .          N.P.R. #3:   FIELD
 LOC .       S3 T38N R78W:   LOCATION
 CNTY.            NATRONA:   COUNTY
 STAT.            WYOMING:   STATE
 CTRY. UNITED STATES OF AMERICA:   COUNTRY
 SRVC.      Western Atlas:   SERVICE COMPANY
 DATE.        28-OCT-1992:   LOGDATE
 API .       490252255100:   API NUMBER
~CURVE INFORMATION
#MNEM.UNIT       API CODE    CURVE DESCRIPTION
#----------   ------------   ------------------------------
 DEPT.F                  :   
 GRR .GAPI   07 310 01 00:   GAMMA RAY FROM RESISTIVITY
 RILD.OHMM   07 120 46 00:   DEEP INDUCTION RESISTIVITY
 RILM.OHMM   07 120 44 00:   INDUCTION LOG MEDIUM RESISTIVITY
~PARAMETER INFORMATION
#MNEM.UNIT          VALUE    DESCRIPTION
#----------   ------------   ------------------------------
 PD  .                 GL:   PERMANENT DATUM
 EPD .F              5160:   ELEVATION PERMANENT DATUM
 LMF .                 KB:   LOG MEASURED FROM
 DAPD.F                10:   FEET ABOVE PERMANENT DATUM
 DMF .                 KB:   DRILLING MEASURED FROM
 EKB .F              5170:   KELLING BUSHING
 EDF .F              5169:   DRILLING FLOOR
 EGL .F              5160:   GROUND LEVEL
 DATE.        28-OCT-1992:   RUN DATE
 RUN .                  1:   RUN NUMBER
 DD  .F               555:   DEPTH DRILLER
 DL  .F               558:   DEPTH LOGGER
 BLI .F               550:   BOTTOM LOG INTERVAL
 CS  .IN            8.625:   CASING SIZE
 CBD .F                54:   CASING BOTTOM DRILLER
 CBL .F                54:   CASING BOTTOM LOGGER
 BS  .IN            7.875:   BIT SIZE
 BSD .F               555:   BIT SIZE AT DEPTH
 DFT .           AIR FOAM:   DRILLING FLUID TYPE
 TCS .HRS               1:   TIME CURCULATED STOPPED
 MRT .F                65:   MAXIMUM RECORDED TEMPERATURE
 LUN .            HL-6274:   LOGGING UNIT NUMBER
 LUL .             CASPER:   LOGGING UNIT LOCATION
 ENGI.             RAUTIO:   RECORDING ENGINEER
 WITN.     BRUCE ANDERSON:   WITNESSED BY
 CLNT.            A2DTECH:   CLIENT CODE
 ORIG.           5" PRINT:   ORIGIN OF DATA
 UWI .       490252255100:   UNIQUE WELL ID
 DICO. A2D Technologies, Inc.:   DIGITIZING COMPANY
~OTHER INFORMATION
~A    DEPT      GRR      RILD       RILM   
# ...
  527.8000   123.5427     9.9246     9.8862
  527.9000   123.2888     9.9246     9.8861
  528.0000   123.0104     9.9598     9.8356
  528.1000   123.0088     9.9941     9.8171
  528.2000   123.0070     9.9941     9.8170
  528.3000   123.1301     9.9941     9.8017
  528.4000   123.5278     9.9941     9.7449
  528.5000   124.2601     9.9492     9.6806
  528.6000   124.8204     9.9246     9.6805
  528.7000   125.7107     9.9038     9.6804
  528.8000   126.8887     9.8468     9.6552
  528.9000   128.0274     9.7872     9.5993
  529.0000   128.9655     9.7337     9.5459
  529.1000   129.7371     9.6777     9.5458
  529.2000   130.8793     9.6220     9.4997
  529.3000   132.1863     9.5666     9.4447
  529.4000   133.8636     9.5115     9.3901
  529.5000   135.6263     9.4519     9.3358
  529.6000   137.1978     9.4023     9.2826
  529.7000   138.3752     9.3482     9.2825
  529.8000   140.0206     9.2944     9.1958
  529.9000   140.0206     9.2409     9.1537
  530.0000   140.0206     9.1834     9.1536
  530.1000   140.0206     9.0646     9.1430
  530.2000   140.0206     9.0191     9.0897
  530.3000   140.0206     8.9330     9.0376
  530.4000   140.0206     8.8537     8.9446
  530.5000   140.0206     8.7901     8.8416
  530.6000   140.0206     8.6891     8.7397
  530.7000   140.0206     8.5729     8.6390
  530.8000   140.0206     8.4909     8.5361
  530.9000   140.0206     8.3934     8.4411
  531.0000   140.0206     8.3170     8.3439
  531.1000   140.0206     8.2592     8.2743
  531.2000   140.0206     8.1642     8.2264
  531.3000   140.0206     8.0706     8.1719
  531.4000   140.0206     7.9780     8.0724
  531.5000   140.0206     7.9131     7.9847
  531.6000   140.0206     7.8676     7.9264
  531.7000   140.0206     7.8222     7.8564
  531.8000   140.0206     7.7756     7.7806
  531.9000   140.0206     7.7325     7.7300
  532.0000   140.0206     7.6546     7.6338
  532.1000  -999.2500     7.5906     7.5530
  532.2000  -999.2500     7.5321     7.4354
  532.3000  -999.2500     7.4456     7.3073
  532.4000  -999.2500     7.3538     7.1814
  532.5000  -999.2500     7.2757     7.0575
  532.6000  -999.2500     7.1922     6.9233
  532.7000  -999.2500     7.1097     6.7817
  532.8000  -999.2500     7.0280     6.6793
  532.9000  -999.2500     6.9398     6.5657
  533.0000  -999.2500     6.7635     6.4152
  533.1000  -999.2500     6.6607     6.2707
  533.2000  -999.2500     6.4460     6.1489
  533.3000  -999.2500     6.2570     6.0568
  533.4000  -999.2500     6.1403     5.9754
  533.5000  -999.2500     6.0018     5.8601
  533.6000  -999.2500     5.8832     5.6284
  533.7000  -999.2500     5.7416     5.2237
  533.8000  -999.2500     5.6399     4.9189
  533.9000  -999.2500     5.5477     4.7311
  534.0000  -999.2500     5.4209     4.5669
  534.1000  -999.2500     5.2958     4.4476
  534.2000  -999.2500     5.0819     4.3343
  534.3000  -999.2500     4.8970     4.1858
  534.4000  -999.2500     4.7080     4.0181
  534.5000  -999.2500     4.5476     3.9055
  534.6000  -999.2500     4.3982     3.7723
  534.7000  -999.2500     4.2793     3.6605
  534.8000  -999.2500     4.1603     3.5766
  534.9000  -999.2500     4.0374     3.4947
  535.0000  -999.2500     4.0150     3.4545
  535.1000  -999.2500     3.9572     3.3835
  535.2000  -999.2500     3.8771     3.3060
  535.3000  -999.2500     3.7812     3.2447
  535.4000  -999.2500     3.6624     3.2006
  535.5000  -999.2500     3.4633     3.1257
  535.6000  -999.2500     3.3543     3.0557
  535.7000  -999.2500     3.2669     2.9595
  535.8000  -999.2500     3.2111     2.8959
  535.9000  -999.2500     3.1687     2.8507
  536.0000  -999.2500     3.1142     2.7955
  536.1000  -999.2500     3.0548     2.7955
  536.2000  -999.2500     3.0237     2.7955
  536.3000  -999.2500     2.9890     2.7954
  536.4000  -999.2500     2.9627     2.7954
  536.5000  -999.2500     2.9456     2.8065
  536.6000  -999.2500     2.9296     2.8391
  536.7000  -999.2500     2.9296     2.8743
  536.8000  -999.2500     2.9153     2.8898
  536.9000  -999.2500     2.9093     2.9066
  537.0000  -999.2500     2.9093     2.9323
  537.1000  -999.2500     2.9093     2.9664
  537.2000  -999.2500     2.9096     3.0008
  537.3000  -999.2500     2.9296     3.0389
  537.4000  -999.2500     2.9434     3.0710
  537.5000  -999.2500     2.9605     3.1068
  537.6000  -999.2500     2.9708     3.1613
  537.7000  -999.2500     2.9740     3.2352
  537.8000  -999.2500     2.9916     3.3108
  537.9000  -999.2500     3.0257     3.3973
  538.0000  -999.2500     3.0472     3.5036
  538.1000  -999.2500     3.0648     3.6276
  538.2000  -999.2500     3.0825     3.7347
  538.3000  -999.2500     3.1058     3.8220
  538.4000  -999.2500     3.1632     3.9128
  538.5000  -999.2500     3.2153     4.0439
  538.6000  -999.2500     3.2715     4.1461
  538.7000  -999.2500     3.3390     4.2516
  538.8000  -999.2500     3.4105     4.3511
  538.9000  -999.2500     3.4745     4.4528
  539.0000  -999.2500     3.5861     4.5589
  539.1000  -999.2500     3.7203     4.7468
  539.2000  -999.2500     3.8113     4.8874
  539.3000  -999.2500     3.8779     5.0601
  539.4000  -999.2500     3.9456     5.2387
  539.5000  -999.2500     4.0179     5.4092
  539.6000  -999.2500     4.1516     5.5355
  539.7000  -999.2500     4.3221     5.6898
  539.8000  -999.2500     4.5800     5.7707
  539.9000  -999.2500     4.8022     5.8717
  540.0000  -999.2500     4.9356     5.9604
  540.1000  -999.2500     5.0537     6.0437
  540.2000  -999.2500     5.2990     6.1859
  540.3000  -999.2500     5.4276     6.3299
  540.4000  -999.2500     5.6482     6.4782
  540.5000  -999.2500     5.8575     6.5849
  540.6000  -999.2500     6.0086     6.6910
  540.7000  -999.2500     6.2207     6.8334
  540.8000  -999.2500     6.3657     6.9154
  540.9000  -999.2500     6.4848     7.0327
  541.0000  -999.2500     6.6205     7.1559
  541.1000  -999.2500     6.7603     7.2574
  541.2000  -999.2500     6.8849     7.3418
  541.3000  -999.2500     7.0525     7.4271
  541.4000  -999.2500     7.1309     7.5182
  541.5000  -999.2500     7.2138     7.6009
  541.6000  -999.2500     7.2976     7.6892
  541.7000  -999.2500     7.3823     7.7545
  541.8000  -999.2500     7.4680     7.7994
  541.9000  -999.2500     7.5618     7.8502
  542.0000  -999.2500     7.6425     7.9488
  542.1000  -999.2500     7.6995     7.9487
  542.2000  -999.2500     7.7667     8.0149
  542.3000  -999.2500     7.8434     8.0601
  542.4000  -999.2500     7.8848     8.0743
  542.5000  -999.2500     7.8848     8.1163
  542.6000  -999.2500     7.9250     8.1162
  542.7000  -999.2500     7.9400     8.1161
  542.8000  -999.2500     7.9400     8.1159
  542.9000  -999.2500     7.9517     8.1158
  543.0000  -999.2500     7.9955     8.1026
  543.1000  -999.2500     7.9955     8.0592
  543.2000  -999.2500     8.0345     8.0591
  543.3000  -999.2500     8.0515     8.0590
  543.4000  -999.2500     8.0515     8.0589
  543.5000  -999.2500     8.0515     8.0588
  543.6000  -999.2500     8.0515     8.0587
  543.7000  -999.2500     8.0515     8.0585
  543.8000  -999.2500     8.0515     8.0584
  543.9000  -999.2500     8.0515     8.0583
  544.0000  -999.2500     8.0515     8.0582
  544.1000  -999.2500     8.0515     8.0581
  544.2000  -999.2500     8.0515     8.0580
  544.3000  -999.2500     8.0968     8.0579
  544.4000  -999.2500     8.0722     8.0577
  544.5000  -999.2500     8.0515     8.0576
  544.6000  -999.2500     8.0515     8.0575
  544.7000  -999.2500     8.0515     8.0574
  544.8000  -999.2500     8.0515     8.0573
  544.9000  -999.2500     8.0515     8.0572
  545.0000  -999.2500     8.0515     8.0571
  545.1000  -999.2500  -999.2500     8.0570
  545.2000  -999.2500  -999.2500     8.0569
  545.3000  -999.2500  -999.2500     8.0567
  545.4000  -999.2500  -999.2500     8.0566
  545.5000  -999.2500  -999.2500     8.0565
  545.6000  -999.2500  -999.2500     8.0564
  545.7000  -999.2500  -999.2500     8.0563
  545.8000  -999.2500  -999.2500     8.0562
  545.9000  -999.2500  -999.2500     8.0561
