~VERSION INFORMATION
 VERS.                2.0:   CWLS LOG ASCII STANDARD - VERSION 2.0
 WRAP.                 NO:   ONE LINE PER DEPTH STEP
~WELL INFORMATION
#MNEM.UNIT      DATA TYPE    INFORMATION
#----------   ------------   ------------------------------
 STRT.F           10.0000:   START DEPTH
 STOP.F          485.0000:   STOP DEPTH
 STEP.F            0.5000:   STEP LENGTH
 NULL.          -999.2500:   NO VALUE
 COMP. FENIX & SCISSON INC:   COMPANY
 WELL.    56 S 3 SX #56-3:   WELL
 FLD .             TEAPOT:   FIELD
 LOC .       S3 T38N R78W:   LOCATION
 CNTY.            NATRONA:   COUNTY
 STAT.            WYOMING:   STATE
 CTRY. UNITED STATES OF AMERICA:   COUNTRY
 SRVC.            Unknown:   SERVICE COMPANY
 DATE.        09-OCT-1978:   LOGDATE
 API .       490251071900:   API NUMBER
~CURVE INFORMATION
#MNEM.UNIT       API CODE    CURVE DESCRIPTION
#----------   ------------   ------------------------------
 DEPT.F                  :   
 SPR .MV     05 010 01 00:   SPONTANEOUS POTENTIAL FROM RES.
 SN  .OHMM   05 040 16 00:   SHORT NORMAL 16"
 ILD .OHMM   05 120 46 00:   INDUCTION LOG DEEP
 CALD.IN     45 280 60 00:   CALIPER
 GRD .GAPI   45 310 01 00:   GAMMA RAY FROM DENSITY LOG
 CORR.G/C3   45 356 01 00:   DENSITY CORRECTION
 RHOB.G/C3   45 350 01 00:   BULK DENSITY
 DPHI.DEC    45 890 12 00:   DENSITY POROSITY SANDSTONE
~PARAMETER INFORMATION
#MNEM.UNIT          VALUE    DESCRIPTION
#----------   ------------   ------------------------------
 PD  .                 GL:   PERMANENT DATUM
 EPD .F              5188:   ELEVATION PERMANENT DATUM
 LMF .                 KB:   LOG MEASURED FROM
 DAPD.F                 4:   FEET ABOVE PERMANENT DATUM
 DMF .                 KB:   DRILLING MEASURED FROM
 EKB .F              5192:   KELLING BUSHING
 EGL .F              5188:   GROUND LEVEL
 DATE.            10-9-78:   RUN DATE
 RUN .                  1:   RUN NUMBER
 DD  .F               485:   DEPTH DRILLER
 DL  .F               485:   DEPTH LOGGER
 BLI .F               479:   BOTTOM LOG INTERVAL
 TLI .F                32:   TOP LOG INTERVAL
 CS  .IN            8.625:   CASING SIZE
 BS  .IN            7.875:   BIT SIZE
 BSD .F               485:   BIT SIZE AT DEPTH
 DFT .                KCL:   DRILLING FLUID TYPE
 DFD .                8.8:   DRILLING FLUID DENSITY
 DFV .                 41:   DRILLING FLUID VISCOSITY
 DFPH.                  9:   DRILLING FLUID PH
 DFL .                7.6:   DRILLING FLUID LOSS
 MSS .          FLOW LINE:   MUD SAMPLE SOURCE
 RMS .OHMM            .18:   RESISTIVITY MUD SAMPLE
 MST .F                60:   MUD SAMPLE TEMPERATURE
 RMF .OHMM            .16:   RESISTIVITY MUD FILTRATE SAMPLE
 MFST.F                70:   MUD FILTRATE SAMPLE TEMPERATURE
 RMC .OHMM            .26:   RESISTIVITY MUD CAKE
 MCST.F                70:   MUD CAKE SAMPLE TEMPERATURE
 MFSS.               MEAS:   MUD FILTRATE SAMPLE SOURCE
 MCSS.               MEAS:   MUD CAKE SAMPLE SOURCE
 TCS .HRS             1.5:   TIME CURCULATED STOPPED
 LUN .               2958:   LOGGING UNIT NUMBER
 LUL .               CASP:   LOGGING UNIT LOCATION
 ENGI.             MILLER:   RECORDING ENGINEER
 WITN.              AMEND:   WITNESSED BY
 CLNT.            A2DTECH:   CLIENT CODE
 ORIG.           5" PRINT:   ORIGIN OF DATA
 UWI .       490251071900:   UNIQUE WELL ID
 DICO. A2D Technologies, Inc.:   DIGITIZING COMPANY
~OTHER INFORMATION
~A   DEPT      SPR         SN        ILD       CALD         GRD      CORR       RHOB       DPHI   
# ...
   50.5000   -56.0516    10.2018     8.9758     8.1832   103.9111     0.0265     2.5152     0.0992
   51.0000   -56.0516     9.8457     8.9959     8.1836   104.4483     0.0273     2.5067     0.1029
   51.5000   -56.0516     9.6179     9.0155     8.1836   105.2411     0.0280     2.4973     0.1089
   52.0000   -56.0516     9.4158     8.9086     8.1836   109.6383     0.0300     2.4957     0.1159
   52.5000   -56.0516     9.2179     8.7925     8.1836   110.3627     0.0359     2.4978     0.1145
   53.0000   -56.0516     9.0155     8.6778     8.1836   110.7597     0.0414     2.4994     0.1111
   53.5000   -56.0516     8.9005     8.5647     8.1836   110.6193     0.0463     2.4960     0.1080
   54.0000   -56.0516     8.7816     8.4531     8.1836   110.1176     0.0494     2.4769     0.1176
   54.5000   -56.0516     8.6642     8.3428     8.1836   109.6560     0.0492     2.4610     0.1323
   55.0000   -56.0514     8.5485     8.2341     8.1836   109.0836     0.0843     2.4492     0.1422
   55.5000   -56.0517     8.4343     8.1267     8.1836   108.1782     0.1405     2.4432     0.1369
   56.0000   -56.0543     8.3216     8.0208     8.1836   107.2068     0.2153     2.4975     0.1260
   56.5000   -55.9835     8.3000     8.0005     8.1836   106.1628     0.2019     2.5416     0.1196
   57.0000   -55.8961     8.3000     8.0005     8.1836   106.3433     0.1551     2.5308     0.1180
   57.5000   -55.6637     8.3000     8.0005     8.1836   106.9116     0.1125     2.5056     0.1172
   58.0000   -54.6726     8.3000     8.0061     8.1836   111.2157     0.0701     2.4929     0.1165
   58.5000   -53.4576     8.3000     8.0167     8.1836   110.3112     0.0323     2.4880     0.1158
   59.0000   -52.4063     8.3000     8.0273     8.1836   107.9417     0.0249     2.4940     0.1141
   59.5000   -52.2461     8.3000     8.0379     8.1836   106.7362     0.0268     2.4989     0.1127
   60.0000   -52.0659     8.3000     8.0485     8.1836   106.0959     0.0284     2.5036     0.1100
   60.5000   -51.8514     8.3000     8.0591     8.1838   106.1628     0.0296     2.5087     0.1077
   61.0000   -50.9101     8.3000     8.0697     8.1835   106.4614     0.0317     2.5068     0.1064
   61.5000   -50.4324     8.3000     8.0743     8.1833   110.0944     0.0340     2.5023     0.1066
   62.0000   -50.1765     8.3000     8.0743     8.1713   110.1331     0.0529     2.4998     0.1069
   62.5000   -49.9101     8.3000     8.0746     8.1572   109.6611     0.0679     2.5001     0.1072
   63.0000   -49.8267     8.3000     8.0744     8.1429   108.9820     0.0837     2.5000     0.1075
   63.5000   -49.7512     8.3000     7.9958     8.1289   108.3591     0.0823     2.5000     0.1078
   64.0000   -49.6750     8.3000     7.9066     8.1147   107.8261     0.0734     2.5000     0.1080
   64.5000   -49.5983     8.3000     7.8185     8.1006   107.0969     0.0548     2.4998     0.1074
   65.0000   -49.5219     8.3000     7.7313     8.0866   107.1411     0.0370     2.4960     0.1124
   65.5000   -49.4456     8.3048     7.7118     8.0719   108.4643     0.0180     2.4904     0.1175
   66.0000   -49.3676     8.3347     7.8418     8.0659   114.1544     0.0081     2.4883     0.1183
   66.5000   -49.2099     8.3646     7.9557     8.0664   114.1369     0.0091     2.4861     0.1175
   67.0000   -48.6632     8.3947     8.0711     8.0665   113.6043     0.0089     2.4841     0.1175
   67.5000   -48.1149     8.4248     8.1883     8.0655   110.5666     0.0088     2.4820     0.1192
   68.0000   -47.5359     8.4551     8.3072     8.0634   108.3495     0.0088     2.4801     0.1247
   68.5000   -46.6357     8.4855     8.3766     8.0613   109.0215     0.0090     2.4851     0.1193
   69.0000   -45.6711     8.5160     8.3544     8.0592   109.9200     0.0093     2.4954     0.1138
   69.5000   -45.5342     8.5466     8.3361     8.0571   109.5231     0.0157     2.5057     0.1083
   70.0000   -45.3451     8.5773     8.3179     8.0550   107.5955     0.0215     2.5161     0.1028
   70.5000   -44.9063     8.6108     8.2997     8.0529   105.9595     0.0276     2.5264     0.0973
   71.0000   -44.5000     8.5730     8.2816     8.0508   106.3254     0.0328     2.5367     0.0918
   71.5000   -44.3287     8.5319     8.2636     8.0487   106.9439     0.0327     2.5473     0.0864
   72.0000   -44.1450     8.4910     8.2458     8.0466   106.5281     0.0325     2.5553     0.0817
   72.5000   -43.9574     8.4504     8.2281     8.0445   105.6601     0.0273     2.5546     0.0832
   73.0000   -43.7781     8.4099     8.1627     8.0423   104.8324     0.0228     2.5364     0.0849
   73.5000   -42.8908     8.3662     8.0870     8.0403   104.7769     0.0181     2.5200     0.0955
   74.0000   -42.6553     8.3072     8.0121     8.0380   107.0784     0.0133     2.5032     0.1046
   74.5000   -42.5511     8.2486     7.9381     8.0362   108.4021     0.0086     2.4867     0.1137
   75.0000   -42.5316     8.1904     7.8648     8.0341   108.3883     0.0060     2.4694     0.1228
   75.5000   -42.5094     8.1489     7.7830     8.0307   108.6527     0.0105     2.4576     0.1318
   76.0000   -42.4867     8.1489     7.8298     8.0318   108.7650     0.0150     2.4585     0.1334
   76.5000   -42.4641     8.1489     7.9003     8.0288   108.1389     0.0192     2.4588     0.1335
   77.0000   -42.4416     8.1489     7.9715     8.1009   107.0768     0.0243     2.4697     0.1307
   77.5000   -42.4191     8.1489     8.0744     8.1038   106.7260     0.0245     2.4794     0.1254
   78.0000   -42.3960     8.1489     8.0641     8.1069   107.5934     0.0243     2.4801     0.1191
   78.5000   -42.3728     8.1489     8.0460     8.1052   108.6214     0.0252     2.4804     0.1207
   79.0000   -42.2510     8.1489     8.0280     8.1054   109.1334     0.0248     2.4614     0.1344
   79.5000   -41.9946     8.1489     8.0100     8.1058   109.1184     0.0320     2.4344     0.1475
   80.0000   -41.7390     8.1489     7.9921     8.1059   108.7547     0.0760     2.4163     0.1616
   80.5000   -41.4828     8.1489     7.9742     8.1044   108.0242     0.2044     2.4086     0.1692
   81.0000   -41.1792     8.1491     7.9563     8.1061   107.3058     0.3351     2.4923     0.1692
   81.5000   -40.8382     8.1474     7.9385     8.0700   107.0385     0.4002     2.5634     0.1040
   82.0000   -40.4976     8.1797     7.8802     8.0671   106.9236     0.3215     2.6282     0.0332
   82.5000   -40.1728     8.2317     7.7550     8.0656   106.8268     0.2135     2.6025     0.0366
   83.0000   -39.9057     8.3000     7.6318     8.0667   106.6928     0.1267     2.5611     0.0510
   83.5000   -39.6491     8.2966     7.5607     8.0663   106.6020     0.0607     2.5234     0.0813
   84.0000   -39.3958     8.2918     7.5396     8.0664   106.5347     0.0234     2.4851     0.1116
   84.5000   -39.1796     8.2870     7.5185     8.0661   106.2514     0.0178     2.4463     0.1374
   85.0000   -39.1863     8.2821     7.5022     8.0665   106.8236     0.0166     2.4249     0.1466
   85.5000   -39.1869     8.2773     7.7361     8.0668   107.5932     0.0175     2.4228     0.1533
   86.0000   -39.1867     8.2725     7.9324     8.0641   111.8613     0.0180     2.4253     0.1533
   86.5000   -39.1867     8.2677     8.1336     8.0882   110.4563     0.0185     2.4293     0.1533
   87.0000   -39.1844     8.2629     8.3400     8.1075   107.7522     0.0190     2.4413     0.1465
   87.5000   -39.1806     8.2580     8.5516     8.1072   105.2351     0.0195     2.4571     0.1379
   88.0000   -38.8383     8.2532     8.7686     8.1078   105.1825     0.0198     2.4787     0.1292
   88.5000   -38.1581     8.2484     8.9331     8.1093   105.2359     0.0203     2.4869     0.1206
   89.0000   -38.1027     8.2436     8.9019     8.1100   106.2875     0.0224     2.4842     0.1156
   89.5000   -38.0295     8.2388     8.8724     8.1111   107.0140     0.0256     2.4741     0.1244
   90.0000   -37.8634     8.2340     8.8430     8.1121   106.1700     0.0377     2.4531     0.1387
   90.5000   -37.6280     8.2292     8.8137     8.1130   105.1675     0.0618     2.4280     0.1501
