~VERSION INFORMATION
 VERS.                2.0:   CWLS LOG ASCII STANDARD - VERSION 2.0
 WRAP.                 NO:   ONE LINE PER DEPTH STEP
~WELL INFORMATION
#MNEM.UNIT      DATA TYPE    INFORMATION
#----------   ------------   ------------------------------
 STRT.F           30.0000:   START DEPTH
 STOP.F          733.0000:   STOP DEPTH
 STEP.F            0.5000:   STEP LENGTH
 NULL.          -999.2500:   NO VALUE
 COMP. FENIX & SCISSON INC:   COMPANY
 WELL.    NPR-3 #51 S -34:   WELL
 FLD .             TEAPOT:   FIELD
 LOC .      S34 T39N R78W:   LOCATION
 CNTY.            NATRONA:   COUNTY
 STAT.            WYOMING:   STATE
 CTRY. UNITED STATES OF AMERICA:   COUNTRY
 SRVC.      Dresser Atlas:   SERVICE COMPANY
 DATE.        20-MAR-1977:   LOGDATE
 API .       490251031600:   API NUMBER
~CURVE INFORMATION
#MNEM.UNIT       API CODE    CURVE DESCRIPTION
#----------   ------------   ------------------------------
 DEPT.F                  :   
 CALD.IN     45 280 60 00:   CALIPER FROM DENSITY LOG
 GRD .GAPI   45 310 01 00:   GAMMA RAY FROM DENSITY LOG
 CORR.G/C3   45 356 01 00:   DENSITY CORRECTION
 DPHI.DEC    45 890 12 00:   DENSITY POROSITY SANDSTONE
 RHOB.G/C3   45 350 01 00:   BULK DENSITY
 SPR .MV     07 010 01 00:   SPONTANEOUS POTENTIAL
 ILD .OHMM   07 120 46 00:   INDUCTION LOG DEEP
 ILM .OHMM   07 120 44 00:   INDUCTION LOG MEDIUM
 SFL .OHMM   07 220 01 00:   SHALLOW FOCUSED LOG RESISTIVITY
~PARAMETER INFORMATION
#MNEM.UNIT          VALUE    DESCRIPTION
#----------   ------------   ------------------------------
 PD  .                 GL:   PERMANENT DATUM
 EPD .F              5065:   ELEVATION PERMANENT DATUM
 LMF .                 KB:   LOG MEASURED FROM
 DAPD.F                 4:   FEET ABOVE PERMANENT DATUM
 DMF .                 KB:   DRILLING MEASURED FROM
 EKB .F              5069:   KELLING BUSHING
 EGL .F              5065:   GROUND LEVEL
 DATE.        20-MAR-1977:   RUN DATE
 RUN .                  1:   RUN NUMBER
 DD  .F               735:   DEPTH DRILLER
 DL  .F               731:   DEPTH LOGGER
 BLI .F               729:   BOTTOM LOG INTERVAL
 TLI .F                42:   TOP LOG INTERVAL
 CS  .IN            8.625:   CASING SIZE
 CBD .F                40:   CASING BOTTOM DRILLER
 CBL .F                42:   CASING BOTTOM LOGGER
 BS  .IN            7.875:   BIT SIZE
 BSD .F               735:   BIT SIZE AT DEPTH
 DFT .           CHEM GEL:   DRILLING FLUID TYPE
 DFD .                9.0:   DRILLING FLUID DENSITY
 DFV .                 38:   DRILLING FLUID VISCOSITY
 DFPH.                8.5:   DRILLING FLUID PH
 DFL .                 72:   DRILLING FLUID LOSS
 MSS .           FLOWLINE:   MUD SAMPLE SOURCE
 RMS .OHMM             .4:   RESISTIVITY MUD SAMPLE
 MST .F                51:   MUD SAMPLE TEMPERATURE
 RMF .OHMM            .72:   RESISTIVITY MUD FILTRATE SAMPLE
 MFST.F                48:   MUD FILTRATE SAMPLE TEMPERATURE
 RMC .OHMM           1.16:   RESISTIVITY MUD CAKE
 MCST.F                48:   MUD CAKE SAMPLE TEMPERATURE
 MFSS.               MEAS:   MUD FILTRATE SAMPLE SOURCE
 MCSS.               MEAS:   MUD CAKE SAMPLE SOURCE
 RMB .OHMM            .31:   RESISTIVITY MUD AT BHT
 BHT .F                66:   BOTTOM HOLE TEMPERATURE
 TCS .HRS            0300:   TIME CURCULATED STOPPED
 MRT .F                66:   MAXIMUM RECORDED TEMPERATURE
 LUN .               6145:   LOGGING UNIT NUMBER
 LUL .              GLTTE:   LOGGING UNIT LOCATION
 ENGI.              RANCK:   RECORDING ENGINEER
 WITN.              BURKE:   WITNESSED BY
 CLNT.            A2DTECH:   CLIENT CODE
 ORIG.           5" PRINT:   ORIGIN OF DATA
 UWI .       490251031600:   UNIQUE WELL ID
 DICO. A2D Technologies, Inc.:   DIGITIZING COMPANY
~OTHER INFORMATION
~A   DEPT     CALD        GRD       CORR       DPHI       RHOB        SPR        ILD        ILM        SFL   
# ...
  103.0000     8.1465    98.6262     0.0249     0.1629     2.3847   -40.1892     3.9573     4.1438     4.5319
  103.5000     8.1480    99.5412     0.0205     0.1629     2.3803   -40.1712     4.0420     4.2362     4.5967
  104.0000     8.1495   101.5010     0.0176     0.1625     2.3757   -40.1532     4.1001     4.3835     4.6968
  104.5000     8.1511   100.7743     0.0118     0.1619     2.3782   -40.1353     4.2169     4.5398     4.8626
  105.0000     8.1526    99.8983     0.0104     0.1565     2.3843   -40.1173     4.3371     4.7017     5.0342
  105.5000     8.1391    99.7637     0.0136     0.1493     2.3935   -40.0993     4.4606     4.9032     5.2493
  106.0000     8.1406   100.8328     0.0242     0.1418     2.4105   -40.2351     4.5561     5.0092     5.4358
  106.5000     8.1421   101.2952     0.0319     0.1319     2.4266   -40.2127     4.6860     5.0124     5.6290
  107.0000     8.1436    99.5286     0.0335     0.1277     2.4354   -40.3484     4.7205     5.0155     5.7490
  107.5000     8.1451    97.9063     0.0321     0.1253     2.4375   -40.3260     4.6894     5.0186     5.8311
  108.0000     8.1466    99.5676     0.0338     0.1249     2.4383   -40.4617     4.5954     5.0567     5.9144
  108.5000     8.1481    99.1394     0.0355     0.1213     2.4480   -40.4393     4.5652     5.0950     5.9988
  109.0000     8.1496    98.1092     0.0371     0.1219     2.4481   -40.8691     4.5356     5.1337     6.0426
  109.5000     8.1511    99.0292     0.0387     0.1267     2.4376   -41.1496     4.5376     5.2447     5.9616
  110.0000     8.1526    98.8657     0.0419     0.1285     2.4361   -41.5839     4.5752     5.3954     5.7214
  110.5000     8.1541    98.4408     0.0435     0.1285     2.4317   -42.0137     4.6688     5.5890     5.4908
  111.0000     8.1556    98.9801     0.0421     0.1297     2.4264   -42.2897     4.6707     5.7896     5.3794
  111.5000     8.1572   100.0179     0.0423     0.1275     2.4317   -42.5747     4.6727     5.9973     5.2350
  112.0000     8.1587   100.3323     0.0439     0.1236     2.4445   -42.5523     4.6746     6.0428     5.1649
  112.5000     8.1602   100.7836     0.0471     0.1203     2.4610   -42.6881     4.6765     6.0466     5.1667
  113.0000     8.1617   101.2597     0.0472     0.1160     2.4633   -42.6656     4.7110     5.9662     5.2043
  113.5000     8.1632   101.8670     0.0458     0.1148     2.4596   -42.8014     4.7130     5.9288     5.2787
  114.0000     8.1647   100.6866     0.0415     0.1187     2.4469   -42.7789     4.7149     5.9334     5.3540
  114.5000     8.1662    98.3239     0.0386     0.1253     2.4319   -42.7609     4.7169     5.9784     5.4305
  115.0000     8.1527    97.2985     0.0342     0.1292     2.4267   -42.8967     4.7189     5.9822     5.4701
  115.5000     8.1542    96.8704     0.0328     0.1298     2.4275   -42.8743     4.7208     5.9859     5.5099
  116.0000     8.1557    95.8452     0.0345     0.1295     2.4297   -43.0100     4.8219     5.9897     5.6274
  116.5000     8.1572    94.6707     0.0346     0.1292     2.4335   -42.8383     4.8574     6.0770     5.7077
  117.0000     8.1587    93.9439     0.0363     0.1286     2.4343   -42.6711     4.9614     6.1657     5.7490
  117.5000     8.1449    93.9634     0.0394     0.1268     2.4343   -42.6567     5.0326     6.2556     5.8378
  118.0000     8.1465    94.1322     0.0425     0.1253     2.4374   -42.4896     5.1403     6.3030     5.9143
  118.5000     8.1480    94.3010     0.0472     0.1250     2.4426   -42.4716     5.2503     6.3508     5.9163
  119.0000     8.1346    94.3205     0.0519     0.1235     2.4464   -42.3045     5.3257     6.4426     5.9184
  119.5000     8.1360    93.2952     0.0535     0.1211     2.4517   -42.1154     5.4022     6.4019     5.9629
  120.0000     8.1375    91.6729     0.0566     0.1178     2.4555   -41.9701     5.4420     6.3560     6.1308
  120.5000     8.1391    90.7969     0.0598     0.1166     2.4600   -42.1020     5.4443     6.2305     6.3487
  121.0000     8.1405    89.6224     0.0629     0.1157     2.4676   -42.0841     5.4084     6.0235     6.5290
  121.5000     8.1420    88.0001     0.0706     0.1139     2.4714   -42.2289     5.1554     5.7415     6.8079
  122.0000     8.1435    87.4178     0.0828     0.1112     2.4753   -42.3582     4.7795     5.3249     7.0013
  122.5000     8.1450    87.1437     0.0905     0.1097     2.4753   -42.7764     4.2509     4.6731     6.9555
  123.0000     8.1465    86.8598     0.0981     0.1154     2.4694   -43.0570     3.7030     4.0712     6.2292
  123.5000     8.1480    89.7200     0.1028     0.1184     2.4582   -43.4867     3.2481     3.5715     5.5787
  124.0000     8.1645    91.8291     0.1074     0.1214     2.4477   -44.0696     2.7714     3.1116     4.9276
  124.5000     8.1660    93.6396     0.1106     0.1316     2.4358   -44.4975     2.3975     2.8258     4.1182
  125.0000     8.1675    95.5995     0.1137     0.1406     2.4029   -44.6269     2.0598     2.4790     3.5628
  125.5000     8.1690    96.8130     0.1154     0.1610     2.3596   -44.4596     1.9631     2.2358     3.3490
  126.0000     8.1705    97.7280     0.1140     0.1807     2.2815   -44.1432     2.0332     2.2061     3.1919
  126.5000     8.1567    97.2998     0.1066     0.2453     2.2020   -43.9759     2.1499     2.3175     3.1272
  127.0000     8.1585    96.8716     0.0781     0.3000     2.1531   -43.5102     2.3209     2.5199     3.1721
  127.5000     8.1600    95.5478     0.0135     0.3000     2.0866   -43.1937     2.4641     2.9364     3.4958
  128.0000     8.1616    90.9404    -0.0029     0.3000     2.0596   -42.8773     2.7555     3.6672     4.1569
  128.5000     8.1477    88.7211    -0.0103     0.3000     2.1190   -42.7100     3.1050     4.4547     7.4331
  129.0000     8.1496    87.3974     0.0019     0.2401     2.2563   -42.3936     3.6729     5.1196     9.0868
  129.5000     8.1511    86.6706     0.0427     0.1768     2.3751   -42.0771     4.6123     5.6054     9.4750
  130.0000     8.1373    83.8543     0.0594     0.1274     2.4380   -41.7606     6.0323     6.2229     8.4856
  130.5000     8.1392    82.3813     0.0640     0.1259     2.4335   -41.5934     7.2481     6.9564     8.8481
  131.0000     8.1254    82.4008     0.0626     0.1277     2.4303   -41.4261     7.6553     7.6165     9.4849
  131.5000     8.1272    82.6244     0.0628     0.1307     2.4275   -41.4082     7.6592     7.7801     9.5541
  132.0000     8.1287    84.5313     0.0614     0.1333     2.4253   -41.3902     7.5563     7.4178     9.7570
  132.5000     8.1302    88.0672     0.0585     0.1363     2.4232   -41.5224     7.3531     6.9739     9.8281
  133.0000     8.1164    89.5084     0.0587     0.1390     2.4203   -41.6573     7.0570     6.5114     9.0077
  133.5000     8.1183    90.1214     0.0557     0.1413     2.4159   -41.7841     6.6337     6.0796     8.1488
  134.0000     8.1198    90.7224     0.0544     0.1464     2.4099   -41.9153     6.0237     5.5983     7.7700
  134.5000     8.1060    91.2065     0.0515     0.1524     2.4017   -42.0511     5.5078     5.2270     7.3054
  135.0000     8.1079    92.1095     0.0487     0.1638     2.3883   -42.1824     4.6669     4.7470     6.8244
  135.5000     8.1094    93.1717     0.0458     0.1769     2.3779   -42.0107     4.3870     4.4933     5.9863
  136.0000     8.1109    95.5762     0.0414     0.1886     2.3464   -41.8435     4.2982     4.5700     4.9006
  136.5000     8.0970    99.1778     0.0370     0.1955     2.3210   -41.0792     4.3303     5.0116     5.1811
  137.0000     8.0989    99.8119     0.0356     0.1997     2.3150   -40.1657     4.4846     5.5546     6.9418
  137.5000     8.1004    95.0377     0.0448     0.1879     2.3346   -39.8493     4.7748     6.0358     9.4290
  138.0000     8.1019    88.0423     0.0540     0.1495     2.3760   -39.5328     5.2627     6.6044    10.0723
  138.5000     8.1031    80.4499     0.0541     0.1456     2.4075   -39.3655     6.0047     7.0290     9.6597
  139.0000     8.0896    79.2754     0.0482     0.1497     2.4090   -39.4968     6.7106     7.4821     9.3368
