~VERSION INFORMATION
 VERS.                2.0:   CWLS LOG ASCII STANDARD - VERSION 2.0
 WRAP.                 NO:   ONE LINE PER DEPTH STEP
~WELL INFORMATION
#MNEM.UNIT      DATA TYPE    INFORMATION
#----------   ------------   ------------------------------
 STRT.F            0.0000:   START DEPTH
 STOP.F         1008.0000:   STOP DEPTH
 STEP.F            0.5000:   STEP LENGTH
 NULL.          -999.2500:   NO VALUE
 COMP. LAWRENCE/ALLISON INC:   COMPANY
 WELL. NPR 3 #51-61-SX-14:   WELL
 FLD .             TEAPOT:   FIELD
 LOC .      S14 T38N R78W:   LOCATION
 CNTY.            NATRONA:   COUNTY
 STAT.            WYOMING:   STATE
 CTRY. UNITED STATES OF AMERICA:   COUNTRY
 SRVC.      Dresser Atlas:   SERVICE COMPANY
 DATE.        05-FEB-1986:   LOGDATE
 API .       490251106600:   API NUMBER
~CURVE INFORMATION
#MNEM.UNIT       API CODE    CURVE DESCRIPTION
#----------   ------------   ------------------------------
 DEPT.F                  :   
 GRR .GAPI   07 310 01 00:   GAMMA RAY FROM RES. LOG.
 RILD.OHMM   10 120 46 00:   INDUCTION LOG DEEP RESISTIVITY
 RILM.OHMM   07 120 44 00:   INDUCTION LOG MEDIUM RESISTIVITY
 CALD.IN     45 280 60 00:   CALIPER
 DEN .G/C3   45 350 01 00:   COMPENSATED BULK DENSTIY
 CORR.G/C3   45 356 01 00:   DENSITY CORRECTION
 PORD.DEC    45 890 10 00:   POROSITY DENSITY LIMESTONE
~PARAMETER INFORMATION
#MNEM.UNIT          VALUE    DESCRIPTION
#----------   ------------   ------------------------------
 PD  .                 GL:   PERMANENT DATUM
 EPD .F              5225:   ELEVATION PERMANENT DATUM
 LMF .                 GL:   LOG MEASURED FROM
 DMF .                 GL:   DRILLING MEASURED FROM
 EGL .F              5225:   GROUND LEVEL
 DATE.             2-5-86:   RUN DATE
 RUN .                  1:   RUN NUMBER
 DD  .F              1010:   DEPTH DRILLER
 DL  .F              1008:   DEPTH LOGGER
 BLI .F              1008:   BOTTOM LOG INTERVAL
 CS  .IN            8.625:   CASING SIZE
 CBD .F                86:   CASING BOTTOM DRILLER
 CBL .F                84:   CASING BOTTOM LOGGER
 BS  .IN             6.25:   BIT SIZE
 BSD .F              1010:   BIT SIZE AT DEPTH
 DFT .                AIR:   DRILLING FLUID TYPE
 LUN .            HL 6264:   LOGGING UNIT NUMBER
 LUL .           GILLETTE:   LOGGING UNIT LOCATION
 ENGI.           FAHLSING:   RECORDING ENGINEER
 WITN.              FIVAS:   WITNESSED BY
 CLNT.            A2DTECH:   CLIENT CODE
 ORIG.       2", 5" PRINT:   ORIGIN OF DATA
 UWI .       490251106600:   UNIQUE WELL ID
 DICO. A2D Technologies, Inc.:   DIGITIZING COMPANY
~OTHER INFORMATION
~A    DEPT      GRR      RILD       RILM       CALD        DEN       CORR       PORD   
# ...
   91.0000   101.2182     3.7133     2.9773     7.8788     2.4273     0.2283     0.1519
   91.5000   106.0083     4.3662     3.6230     8.2003     2.3815     0.2310     0.1723
   92.0000   108.3184     5.0145     4.4088     9.1642     2.3315     0.2436     0.2001
   92.5000   105.5891     5.7590     4.9390     9.8263     2.2815     0.2964     0.2280
   93.0000   100.8904     6.2945     4.6737     9.0115     2.2508     0.3137     0.2539
   93.5000    99.4349     6.0688     4.7448     8.0873     2.3073     0.3155     0.2335
   94.0000   101.3910     5.7106     4.8886     7.4770     2.3605     0.2416     0.2015
   94.5000   104.9126     5.2676     5.0368     7.0560     2.3797     0.1676     0.1828
   95.0000   108.4171     5.3991     5.1894     6.9907     2.3999     0.0977     0.1678
   95.5000   111.9183     5.6142     5.3467     6.9131     2.4315     0.1049     0.1540
   96.0000   115.4347     5.8365     5.5087     6.8987     2.4335     0.1182     0.1464
   96.5000   117.5456     5.9768     5.6757     6.8878     2.4311     0.1314     0.1492
   97.0000   116.9271     6.0442     5.8286     6.8771     2.4396     0.1448     0.1425
   97.5000   113.4780     6.1137     5.8039     6.8663     2.4559     0.1439     0.1355
   98.0000   110.1870     6.2164     5.7769     6.8555     2.4569     0.1142     0.1319
   98.5000   112.1092     6.1920     5.7514     6.8448     2.4495     0.0856     0.1364
   99.0000   114.4255     6.1475     5.7262     6.8337     2.4423     0.0844     0.1414
   99.5000   115.3030     6.1034     5.7011     6.8442     2.4367     0.0814     0.1441
  100.0000   112.4398     6.0595     5.6761     6.8664     2.4315     0.0662     0.1469
  100.5000   109.0682     6.0159     5.6512     6.8889     2.4266     0.0512     0.1503
  101.0000   109.5954     5.9369     5.6265     6.8775     2.4137     0.0496     0.1590
  101.5000   111.1450     5.9697     5.6018     6.8634     2.3993     0.0488     0.1676
  102.0000   112.7561     6.0029     5.5772     6.8511     2.3891     0.0613     0.1721
  102.5000   111.1858     6.0369     5.5665     6.8797     2.3980     0.0825     0.1672
  103.0000   108.0889     6.0711     5.6338     6.8657     2.4056     0.0947     0.1633
  103.5000   104.9610     6.1054     5.6851     6.8290     2.4002     0.0856     0.1678
  104.0000   104.0091     6.1400     5.7369     6.8125     2.3946     0.0744     0.1721
  104.5000   105.9784     6.1747     5.7892     6.8173     2.3888     0.0839     0.1739
  105.0000   109.6087     6.2097     5.8419     6.8222     2.3870     0.0946     0.1741
  105.5000   112.0534     6.2512     5.8951     6.8271     2.3913     0.0789     0.1723
  106.0000   113.0755     6.2945     5.9488     6.8320     2.3999     0.0480     0.1671
  106.5000   110.2705     6.3381     6.0030     6.8369     2.4083     0.0442     0.1618
  107.0000   106.4932     6.3820     6.0577     6.8417     2.4167     0.0559     0.1566
  107.5000   105.8953     6.4263     6.1129     6.8466     2.4240     0.0677     0.1521
  108.0000   105.4319     6.4708     6.1686     6.8506     2.4313     0.0800     0.1479
  108.5000   103.4873     6.5156     6.2248     6.8524     2.4340     0.0747     0.1466
  109.0000   100.4135     6.5608     6.2791     6.8543     2.4354     0.0677     0.1462
  109.5000   100.3159     6.6063     6.3184     6.8562     2.4369     0.0724     0.1461
  110.0000   105.5455     6.6521     6.3580     6.8580     2.4379     0.0799     0.1450
  110.5000   109.6946     6.6982     6.3979     6.8599     2.4346     0.0876     0.1466
  111.0000   109.3745     6.7447     6.4380     6.8618     2.4228     0.0865     0.1527
  111.5000   109.4071     6.7749     6.4783     6.8636     2.4111     0.0818     0.1588
  112.0000   112.9930     6.8016     6.5189     6.8655     2.4013     0.0703     0.1638
  112.5000   114.3089     6.8284     6.5597     6.8673     2.4072     0.0589     0.1620
  113.0000   107.5950     6.8553     6.6008     6.8694     2.4105     0.0565     0.1601
  113.5000    99.9703     6.8823     6.6422     6.8466     2.4087     0.0626     0.1615
  114.0000   100.9411     6.9095     6.6838     6.8072     2.4055     0.0656     0.1634
  114.5000   106.0420     6.9367     6.7088     6.7710     2.4023     0.0498     0.1645
  115.0000   110.0430     6.9641     6.7303     6.7798     2.4019     0.0422     0.1648
  115.5000   111.9822     6.9921     6.7531     6.7896     2.4012     0.0586     0.1667
  116.0000   110.4505     7.0071     6.5751     6.7991     2.3969     0.0813     0.1685
  116.5000   107.5542     6.8960     6.3918     6.8087     2.4058     0.0988     0.1635
  117.0000   104.6821     6.7851     6.2136     6.8182     2.4146     0.0829     0.1581
  117.5000   101.8872     6.6763     6.0392     6.8278     2.4207     0.0733     0.1545
  118.0000   101.2682     6.5693     5.9354     6.8374     2.4138     0.0902     0.1607
  118.5000   105.5191     6.4983     5.9372     6.8467     2.4063     0.1063     0.1640
  119.0000   104.8903     6.4735     6.0006     6.8370     2.4032     0.1137     0.1649
  119.5000   103.7172     6.5090     6.0547     6.8096     2.4164     0.1122     0.1559
  120.0000   104.8572     6.4805     6.1094     6.7823     2.4297     0.1037     0.1477
  120.5000   105.5616     6.4494     6.1645     6.7548     2.4432     0.0995     0.1395
  121.0000   104.5279     6.4849     6.2201     6.7278     2.4567     0.1030     0.1329
  121.5000   106.5437     6.5413     6.2762     6.6994     2.4702     0.1201     0.1247
  122.0000   111.7684     6.5982     6.3328     6.7569     2.4830     0.1368     0.1180
  122.5000   109.0637     6.6557     6.3899     6.7199     2.4757     0.1583     0.1269
  123.0000   104.9025     6.7136     6.4476     6.6450     2.4346     0.2094     0.1446
  123.5000   101.5348     6.7720     6.5057     6.5687     2.4059     0.2542     0.1637
  124.0000   100.1808     6.8309     6.5692     6.4928     2.4270     0.2171     0.1482
  124.5000    98.8995     6.8843     6.5362     6.4282     2.4529     0.1471     0.1358
  125.0000    98.3354     6.9138     6.5090     6.4233     2.4599     0.0882     0.1308
  125.5000   103.5662     6.9421     6.7003     6.4063     2.4569     0.0836     0.1308
  126.0000   108.3234     7.1075     6.8586     6.3895     2.4353     0.0747     0.1449
  126.5000   107.0801     7.2702     7.0207     6.3702     2.4146     0.0627     0.1593
  127.0000   105.3546     7.4366     7.1862     6.3510     2.4056     0.0647     0.1633
  127.5000   103.6547     7.6067     7.3569     6.3641     2.4121     0.0675     0.1593
  128.0000   103.3673     7.7808     7.4767     6.3800     2.4186     0.0747     0.1553
  128.5000   103.8548     7.9589     7.6281     6.3959     2.4170     0.0819     0.1561
  129.0000   106.9646     8.1410     7.7830     6.4117     2.4149     0.0892     0.1573
  129.5000   109.9708     8.3273     7.9410     6.4282     2.4131     0.0964     0.1584
  130.0000   107.7058     8.5179     8.1022     6.4086     2.4169     0.1035     0.1586
  130.5000   106.1075     8.5782     8.1925     6.3829     2.4184     0.1091     0.1561
  131.0000   106.3131     8.4642     8.0831     6.3822     2.4162     0.1143     0.1576
  131.5000   108.4611     8.3472     7.9719     6.4066     2.4139     0.1078     0.1576
  132.0000   111.9220     8.2320     7.8618     6.4311     2.4185     0.1001     0.1565
  132.5000   111.7838     8.1185     7.7535     6.4551     2.4261     0.0926     0.1512
  133.0000   112.4773     8.0066     7.6466     6.4546     2.4337     0.0864     0.1464
  133.5000   119.2075     7.8963     7.5412     6.4153     2.4321     0.0835     0.1469
  134.0000   123.8351     7.7874     7.4373     6.4219     2.4253     0.0875     0.1523
  134.5000   119.8927     7.6801     7.3348     6.4398     2.4186     0.0949     0.1557
  135.0000   116.0265     7.5743     7.2337     6.4578     2.4190     0.0910     0.1555
  135.5000   115.7167     7.4699     7.1340     6.4702     2.4205     0.0729     0.1544
  136.0000   116.3333     7.3667     7.0082     6.4700     2.4258     0.0551     0.1511
