~VERSION INFORMATION
 VERS.                2.0:   CWLS LOG ASCII STANDARD - VERSION 2.0
 WRAP.                 NO:   ONE LINE PER DEPTH STEP
~WELL INFORMATION
#MNEM.UNIT      DATA TYPE    INFORMATION
#----------   ------------   ------------------------------
 STRT.F           41.0000:   START DEPTH
 STOP.F          468.0000:   STOP DEPTH
 STEP.F            0.1000:   STEP LENGTH
 NULL.          -999.2500:   NO VALUE
 COMP.       F D SERV INC:   COMPANY
 WELL. NAVAL PETROLEUM RESERVE 3 SX-1 #53-1-10:   WELL
 FLD .             TEAPOT:   FIELD
 LOC .      S10 T38N R78W:   LOCATION
 CNTY.            NATRONA:   COUNTY
 STAT.            WYOMING:   STATE
 CTRY. UNITED STATES OF AMERICA:   COUNTRY
 SRVC.     Atlas Wireline:   SERVICE COMPANY
 DATE.        22-DEC-1992:   LOGDATE
 API .       490252256900:   API NUMBER
~CURVE INFORMATION
#MNEM.UNIT       API CODE    CURVE DESCRIPTION
#----------   ------------   ------------------------------
 DEPT.F                  :   
 GRR .GAPI   07 310 01 00:   GAMMA RAY
 RILD.OHMM   07 120 46 00:   INDUCTION LOG DEEP RESISTIVITY
 RILM.OHMM   07 120 44 00:   RESITIVITY LONG MEDIUM
~PARAMETER INFORMATION
#MNEM.UNIT          VALUE    DESCRIPTION
#----------   ------------   ------------------------------
 PD  .                 GL:   PERMANENT DATUM
 EPD .F              5185:   ELEVATION PERMANENT DATUM
 LMF .                 KB:   LOG MEASURED FROM
 DAPD.F                10:   FEET ABOVE PERMANENT DATUM
 DMF .                 KB:   DRILLING MEASURED FROM
 EKB .F              5195:   KELLING BUSHING
 EDF .F              5194:   DRILLING FLOOR
 EGL .F              5185:   GROUND LEVEL
 DATE.        22-DEC-1992:   RUN DATE
 RUN .                  1:   RUN NUMBER
 DD  .F               475:   DEPTH DRILLER
 DL  .F               472:   DEPTH LOGGER
 BLI .F               470:   BOTTOM LOG INTERVAL
 CS  .IN            8.625:   CASING SIZE
 CBL .F                80:   CASING BOTTOM LOGGER
 BS  .IN            7.875:   BIT SIZE
 BSD .F               475:   BIT SIZE AT DEPTH
 DFT .        AIR DRILLED:   DRILLING FLUID TYPE
 LUN .            HL 6321:   LOGGING UNIT NUMBER
 LUL .       RCK, SPRINGS:   LOGGING UNIT LOCATION
 ENGI.      JOHN THOMPSON:   RECORDING ENGINEER
 WITN.          G. STRONG:   WITNESSED BY
 CLNT.            A2DTECH:   CLIENT CODE
 ORIG.           5" PRINT:   ORIGIN OF DATA
 UWI .       490252256900:   UNIQUE WELL ID
 DICO. A2D Technologies, Inc.:   DIGITIZING COMPANY
~OTHER INFORMATION
~A   DEPT      GRR       RILD       RILM   
# ...
  295.8000   114.4251    17.2274    18.2689
  295.9000   114.1802    17.2287    18.2705
  296.0000   114.0485    17.2298    18.2635
  296.1000   114.2327    17.2310    18.1469
  296.2000   114.9995    17.2322    18.1483
  296.3000   116.4882    17.2334    18.1498
  296.4000   117.5064    17.2346    18.1513
  296.5000   118.9091    17.2360    18.1297
  296.6000   120.4120    17.2370    18.0275
  296.7000   121.8722    17.2382    17.9261
  296.8000   123.1784    17.2394    17.9063
  296.9000   123.9006    17.2406    17.9078
  297.0000   124.8403    17.2418    17.8720
  297.1000   125.4464    17.2430    17.7863
  297.2000   125.7801    17.2442    17.7881
  297.3000   126.2586    17.2454    17.7895
  297.4000   126.5411    17.2466    17.7178
  297.5000   126.7676    17.2478    17.6690
  297.6000   126.8533    17.2491    17.6705
  297.7000   126.8582    17.2502    17.6720
  297.8000   126.8008    17.2514    17.6737
  297.9000   126.5383    17.2526    17.6749
  298.0000   125.6615    17.2538    17.6764
  298.1000   124.8445    17.2550    17.6779
  298.2000   123.8506    17.2564    17.6794
  298.3000   122.7581    17.1758    17.6808
  298.4000   121.5598    17.1388    17.6823
  298.5000   120.5335    17.1400    17.6838
  298.6000   119.8134    17.1412    17.6853
  298.7000   119.2574    17.1424    17.6868
  298.8000   118.7629    17.1436    17.6882
  298.9000   118.3499    17.0713    17.6898
  299.0000   118.1050    17.0269    17.6912
  299.1000   117.8356    17.0281    17.6927
  299.2000   117.6153    17.0192    17.6941
  299.3000   117.5418    16.9124    17.6666
  299.4000   117.5467    16.9134    17.5742
  299.5000   117.5515    16.9146    17.5760
  299.6000   117.5450    16.8716    17.4911
  299.7000   117.2590    16.7995    17.4568
  299.8000   116.8476    16.7982    17.4154
  299.9000   116.1987    16.6854    17.3386
  300.0000   115.4545    16.6863    17.3400
  300.1000   114.8056    16.6875    17.3415
  300.2000   114.5553    16.6525    17.2651
  300.3000   114.0719    16.5738    17.2240
  300.4000   113.7681    16.5752    17.2255
  300.5000   113.6606    16.5763    17.2269
  300.6000   113.5814    16.5081    17.2285
  300.7000   113.3667    16.4635    17.1385
  300.8000   113.3726    16.4363    17.1117
  300.9000   113.3770    16.3514    17.1131
  301.0000   113.3818    16.3527    17.0868
  301.1000   113.8683    16.3423    16.9971
  301.2000   115.0062    16.3304    16.9989
  301.3000   116.4679    16.3184    16.9171
  301.4000   117.3414    16.3065    16.8801
  301.5000   117.7656    16.2945    16.8816
  301.6000   118.1131    16.2826    16.7992
  301.7000   118.8502    16.2706    16.7667
  301.8000   119.4897    16.2587    16.7678
  301.9000   120.2357    16.2490    16.7506
  302.0000   120.8808    16.2504    16.6539
  302.1000   121.3794    16.1625    16.6550
  302.2000   121.8983    16.1398    16.6561
  302.3000   121.9018    16.0940    16.6088
  302.4000   121.7236    16.0039    16.5159
  302.5000   121.4798    15.9197    16.4236
  302.6000   121.2359    15.9211    16.3166
  302.7000   120.9921    15.8468    16.3176
  302.8000   120.7085    15.8126    16.2625
  302.9000   120.5044    15.8137    16.2066
  303.0000   120.2606    15.8009    16.2077
  303.1000   120.0168    15.7062    16.2089
  303.2000   119.8127    15.6246    16.1248
  303.3000   119.8172    15.5992    16.0987
  303.4000   119.8206    15.5583    16.0564
  303.5000   119.8242    15.4931    15.9892
  303.6000   119.8279    15.4941    15.9903
  303.7000   119.7659    15.4952    15.9914
  303.8000   119.5220    15.4264    15.9205
  303.9000   119.2334    15.3898    15.8827
  304.0000   119.0344    15.3909    15.8529
  304.1000   118.6441    15.3817    15.7746
  304.2000   118.0618    15.2863    15.7759
  304.3000   117.2522    15.2872    15.6974
  304.4000   115.9179    15.2308    15.6097
  304.5000   115.4667    15.1456    15.5224
  304.6000   114.9753    15.0788    15.4356
  304.7000   114.7164    15.0799    15.3479
  304.8000   114.6594    14.9969    15.3490
  304.9000   114.4205    14.9773    15.2842
  305.0000   114.6768    14.9783    15.1988
  305.1000   115.1248    14.9535    15.1399
  305.2000   115.7649    14.8763    15.1342
  305.3000   116.5110    14.8776    15.0371
  305.4000   117.2266    14.8785    15.0380
  305.5000   117.7761    14.8268    15.0391
  305.6000   118.2238    14.7772    15.0401
  305.7000   118.0558    14.7783    15.0265
  305.8000   117.6756    14.7793    14.9379
  305.9000   117.4317    14.7803    14.9389
  306.0000   117.1879    14.7813    14.9399
  306.1000   116.6965    14.7411    14.9410
  306.2000   116.3972    14.6808    14.9420
  306.3000   116.1534    14.6818    14.9430
  306.4000   115.9903    14.6830    14.9443
  306.5000   115.9686    14.6838    14.9451
  306.6000   115.6950    14.6360    14.9462
  306.7000   115.6982    14.5839    14.9472
  306.8000   116.0251    14.5849    14.9482
  306.9000   116.7360    14.5860    14.9494
  307.0000   117.6283    14.5870    14.9503
  307.1000   118.1370    14.5880    14.9514
  307.2000   118.6255    14.5890    14.9524
  307.3000   119.3110    14.5900    14.9534
  307.4000   120.1884    14.5910    14.9545
  307.5000   121.3332    14.5920    14.9555
  307.6000   122.7409    14.5931    14.9566
  307.7000   123.3108    14.5941    14.9576
  307.8000   123.3139    14.5951    14.9587
  307.9000   123.1610    14.5961    14.9597
  308.0000   122.6142    14.5973    14.9609
  308.1000   121.5370    14.5981    14.9618
  308.2000   119.9953    14.5992    14.9628
  308.3000   118.8120    14.5658    14.9993
  308.4000   117.2145    14.4996    15.0694
  308.5000   115.7384    14.5009    15.0705
  308.6000   114.5048    14.5018    15.0715
  308.7000   113.3012    14.4424    15.0726
  308.8000   112.4418    14.4032    15.0302
  308.9000   111.4095    14.3810    14.9701
  309.0000   110.6303    14.3051    14.9712
  309.1000   110.3309    14.3063    14.9724
  309.2000   110.3345    14.2399    14.9732
  309.3000   110.3384    14.1602    14.9743
  309.4000   110.5741    14.0810    14.9433
  309.5000   111.0021    14.0140    14.8597
  309.6000   111.8645    14.0152    14.7704
  309.7000   112.9740    13.9427    14.7713
  309.8000   113.7300    13.9198    14.7140
  309.9000   114.9061    13.8836    14.6318
  310.0000   115.5152    13.8251    14.5701
  310.1000   116.1148    13.8260    14.5711
  310.2000   116.5224    13.8270    14.4882
  310.3000   116.7382    13.8279    14.4721
  310.4000   116.7421    13.7848    14.4268
  310.5000   115.8363    13.7077    14.3461
  310.6000   115.1936    13.6393    14.2749
  310.7000   114.7023    13.6405    14.2761
  310.8000   114.2109    13.6414    14.2054
  310.9000   113.7246    13.5913    14.1789
  311.0000   113.4808    13.5153    14.1451
  311.1000   113.4339    13.4554    14.0825
  311.2000   113.2961    13.4564    14.0835
  311.3000   113.1382    13.3826    14.0063
  311.4000   113.2024    13.3648    13.9877
  311.5000   113.7519    13.3258    13.9887
  311.6000   115.0885    13.2512    13.9658
  311.7000   116.5770    13.1825    13.8935
  311.8000   118.1767    13.1837    13.8947
  311.9000   119.7460    13.1212    13.8955
  312.0000   120.7394    13.0938    13.8965
  312.1000   121.2379    13.0947    13.8664
  312.2000   121.7365    13.0956    13.8018
  312.3000   122.2352    13.0966    13.8030
  312.4000   122.7337    13.0276    13.8039
  312.5000   123.2070    13.0074    13.8049
  312.6000   123.4889    12.9723    13.7676
  312.7000   123.9265    12.9189    13.7110
  312.8000   124.4251    12.9198    13.7120
  312.9000   124.9236    12.9209    13.7131
  313.0000   125.4221    12.9216    13.6511
  313.1000   125.9310    12.8799    13.6197
  313.2000   126.4194    12.8337    13.5932
  313.3000   126.9179    12.8346    13.5270
  313.4000   127.2853    12.8356    13.5281
  313.5000   127.4606    12.8364    13.4598
  313.6000   127.4642    12.8373    13.4360
  313.7000   127.4684    12.8382    13.4370
  313.8000   127.6836    12.8391    13.4379
  313.9000   127.6216    12.8400    13.4388
