~VERSION INFORMATION
 VERS.                2.0:   CWLS LOG ASCII STANDARD - VERSION 2.0
 WRAP.                 NO:   ONE LINE PER DEPTH STEP
~WELL INFORMATION
#MNEM.UNIT      DATA TYPE    INFORMATION
#----------   ------------   ------------------------------
 STRT.F           17.0000:   START DEPTH
 STOP.F          634.0000:   STOP DEPTH
 STEP.F            0.5000:   STEP LENGTH
 NULL.          -999.2500:   NO VALUE
 COMP. FENIX & SCISSON INC:   COMPANY
 WELL.        NPR 3 #72-3:   WELL
 FLD .             TEAPOT:   FIELD
 LOC .       S3 T38N R78W:   LOCATION
 CNTY.            NATRONA:   COUNTY
 STAT.            WYOMING:   STATE
 CTRY. UNITED STATES OF AMERICA:   COUNTRY
 SRVC.           BIRDWELL:   SERVICE COMPANY
 DATE.        24-SEP-1978:   LOGDATE
 API .       490251069100:   API NUMBER
~CURVE INFORMATION
#MNEM.UNIT       API CODE    CURVE DESCRIPTION
#----------   ------------   ------------------------------
 DEPT.F                  :   
 SPR .MV     05 010 01 00:   SPONTANEOUS POTENTIAL FROM RES.
 SN  .OHMM   05 040 16 00:   SHORT NORMAL 16"
 ILD .OHMM   05 120 46 00:   INDUCTION LOG DEEP
 GRD .GAPI   45 310 01 00:   GAMMA RAY FROM DENSITY LOG
 CALD.IN     45 280 60 00:   CALIPER
 DEN .G/C3   45 350 01 00:   COMPENSATED BULK DENSTIY
 DPHI.DEC    45 890 12 00:   DENSITY POROSITY SANDSTONE
 CORR.G/C3   45 356 01 00:   DENSITY CORRECTION
~PARAMETER INFORMATION
#MNEM.UNIT          VALUE    DESCRIPTION
#----------   ------------   ------------------------------
 PD  .                 GL:   PERMANENT DATUM
 EPD .F              5155:   ELEVATION PERMANENT DATUM
 LMF .                 KB:   LOG MEASURED FROM
 DAPD.F                 4:   FEET ABOVE PERMANENT DATUM
 DMF .                 KB:   DRILLING MEASURED FROM
 EKB .F              5159:   KELLING BUSHING
 EGL .F              5155:   GROUND LEVEL
 DATE.            9-24-78:   RUN DATE
 RUN .                  1:   RUN NUMBER
 DD  .F               635:   DEPTH DRILLER
 DL  .F               634:   DEPTH LOGGER
 BLI .F               627:   BOTTOM LOG INTERVAL
 TLI .F                30:   TOP LOG INTERVAL
 CS  .IN            8.625:   CASING SIZE
 CBD .F                34:   CASING BOTTOM DRILLER
 CBL .F                34:   CASING BOTTOM LOGGER
 BS  .IN            7.875:   BIT SIZE
 BSD .F               635:   BIT SIZE AT DEPTH
 DFT .                KCL:   DRILLING FLUID TYPE
 DFD .                8.7:   DRILLING FLUID DENSITY
 DFV .                 36:   DRILLING FLUID VISCOSITY
 DFPH.                9.5:   DRILLING FLUID PH
 DFL .                8.2:   DRILLING FLUID LOSS
 MSS .          FLOW LINE:   MUD SAMPLE SOURCE
 RMS .OHMM             .2:   RESISTIVITY MUD SAMPLE
 MST .F                68:   MUD SAMPLE TEMPERATURE
 RMF .OHMM            .18:   RESISTIVITY MUD FILTRATE SAMPLE
 MFST.F                76:   MUD FILTRATE SAMPLE TEMPERATURE
 RMC .OHMM            .32:   RESISTIVITY MUD CAKE
 MCST.F                76:   MUD CAKE SAMPLE TEMPERATURE
 MFSS.               MEAS:   MUD FILTRATE SAMPLE SOURCE
 RMB .OHMM             .2:   RESISTIVITY MUD AT BHT
 BHT .F                70:   BOTTOM HOLE TEMPERATURE
 TCS .HRS               3:   TIME CURCULATED STOPPED
 MRT .F                70:   MAXIMUM RECORDED TEMPERATURE
 LUN .               2958:   LOGGING UNIT NUMBER
 LUL .               CASP:   LOGGING UNIT LOCATION
 ENGI.           REYNOLDS:   RECORDING ENGINEER
 WITN.              AMEND:   WITNESSED BY
 CLNT.            A2DTECH:   CLIENT CODE
 ORIG.           5" PRINT:   ORIGIN OF DATA
 UWI .       490251069100:   UNIQUE WELL ID
 DICO. A2D Technologies, Inc.:   DIGITIZING COMPANY
~OTHER INFORMATION
~A   DEPT      SPR         SN        ILD         GRD      CALD        DEN       DPHI       CORR   
# ...
  341.0000   -60.3493     3.5271     3.9421   118.1715     7.6992     2.3967     0.1831     0.0125
  341.5000   -60.7269     3.9270     4.4558   126.6388     7.6992     2.4279     0.1593     0.0125
  342.0000   -60.8791     4.3722     5.0937   135.0191     7.6992     2.4507     0.1445     0.0125
  342.5000   -61.1567     4.9094     5.2337   136.6865     7.6992     2.4602     0.1297     0.0125
  343.0000   -61.5487     5.1649     5.3921   136.8391     7.6977     2.4802     0.1226     0.0125
  343.5000   -61.9343     5.4573     5.5554   136.6172     7.6945     2.4801     0.1196     0.0125
  344.0000   -61.9913     5.6185     5.7236   136.5426     7.6912     2.4809     0.1196     0.0141
  344.5000   -62.0314     5.7145     5.9024   136.6374     7.6880     2.4816     0.1200     0.0175
  345.0000   -62.0724     5.8122     5.9024   136.7197     7.6847     2.4832     0.1200     0.0178
  345.5000   -62.1156     5.9115     5.9024   136.0169     7.6817     2.4857     0.1182     0.0163
  346.0000   -62.2248     6.0121     5.6953   135.2734     7.6862     2.4882     0.1163     0.0148
  346.5000   -62.6230     6.0003     5.4938   135.8295     7.7158     2.4905     0.1142     0.0133
  347.0000   -63.0165     5.9856     5.2995   137.3331     7.7443     2.4987     0.1112     0.0119
  347.5000   -63.1570     5.9709     5.1120   138.0586     7.7524     2.5076     0.1080     0.0105
  348.0000   -62.7495     5.9570     5.0007   137.9617     7.7387     2.5126     0.1051     0.0104
  348.5000   -62.1404     5.8780     4.6691   137.6749     7.7251     2.4934     0.1098     0.0108
  349.0000   -61.9508     5.7093     4.3942   136.7600     7.7115     2.4733     0.1309     0.0172
  349.5000   -61.9483     5.4728     4.3973   136.5668     7.6990     2.4367     0.1519     0.0234
  350.0000   -61.9384     5.2365     4.2296   139.2696     7.6937     2.3994     0.1730     0.0259
  350.5000   -61.7651     5.0104     4.0813   142.9093     7.6886     2.3800     0.1797     0.0245
  351.0000   -61.5958     4.7941     4.0089   141.0931     7.6836     2.3913     0.1683     0.0232
  351.5000   -61.4276     4.6885     4.0594   139.9835     7.6805     2.4185     0.1558     0.0225
  352.0000   -61.2622     4.7494     4.1491   138.9414     7.6909     2.4461     0.1433     0.0225
  352.5000   -61.1507     4.9636     4.4015   135.4910     7.7012     2.4443     0.1402     0.0225
  353.0000   -61.2273     5.1875     4.7258   131.1616     7.7116     2.4390     0.1444     0.0225
  353.5000   -61.3017     5.4215     5.0590   129.3589     7.7219     2.4508     0.1445     0.0225
  354.0000   -61.3763     5.6661     5.2727   130.9371     7.7322     2.4659     0.1264     0.0225
  354.5000   -61.4508     5.8971     5.4928   135.3955     7.7425     2.4783     0.1198     0.0225
  355.0000   -61.5265     6.0732     5.7228   138.0826     7.7526     2.4907     0.1130     0.0225
  355.5000   -61.6369     6.2544     5.9626   136.5993     7.7504     2.5030     0.1063     0.0225
  356.0000   -61.7625     6.4411     6.2128   135.8788     7.7286     2.5150     0.1009     0.0225
  356.5000   -61.8885     6.6334     6.3350   136.7993     7.7069     2.5177     0.0974     0.0213
  357.0000   -62.0158     6.7769     6.3932   136.9668     7.6993     2.5170     0.0968     0.0202
  357.5000   -62.1412     6.8250     6.4522   134.7090     7.6992     2.5161     0.0990     0.0190
  358.0000   -62.0331     6.8807     6.5118   134.5836     7.7009     2.5100     0.1030     0.0178
  358.5000   -61.9063     6.9371     6.5318   134.3562     7.7090     2.5040     0.1071     0.0167
  359.0000   -61.7798     6.9665     6.4588   133.9214     7.7167     2.4979     0.1108     0.0162
  359.5000   -61.6540     6.9001     6.4095   130.1799     7.7114     2.4918     0.1112     0.0159
  360.0000   -61.5423     6.8549     6.3608   129.1031     7.6786     2.4900     0.1136     0.0156
  360.5000   -61.5813     6.8101     6.3115   130.9692     7.6471     2.4893     0.1147     0.0153
  361.0000   -61.6295     6.7541     6.2287   135.9810     7.6198     2.4887     0.1146     0.0150
  361.5000   -61.6774     6.6658     6.1266   140.5699     7.6295     2.4881     0.1145     0.0147
  362.0000   -61.7254     6.5791     6.0268   141.6440     7.6394     2.4880     0.1144     0.0147
  362.5000   -61.7733     6.4936     5.8382   142.5346     7.6630     2.4874     0.1148     0.0153
  363.0000   -61.8214     6.4125     5.6400   143.1082     7.6882     2.4865     0.1154     0.0159
  363.5000   -61.8695     6.2788     5.4511   143.1854     7.7094     2.4827     0.1160     0.0166
  364.0000   -61.9152     6.1538     5.3307   143.2963     7.7280     2.4746     0.1181     0.0198
  364.5000   -61.8455     6.0313     5.3317   143.2984     7.7547     2.4693     0.1277     0.0232
  365.0000   -61.5458     5.9617     5.4496   143.3002     7.7946     2.4590     0.1373     0.0264
  365.5000   -61.2484     5.9024     5.5851   143.3364     7.7973     2.4410     0.1469     0.0257
  366.0000   -60.9566     5.9167     5.6634   145.1059     7.6782     2.4351     0.1472     0.0248
  366.5000   -60.8757     5.9774     5.7398   147.1335     7.6740     2.4382     0.1423     0.0238
  367.0000   -60.7914     6.0388     5.8172   146.3018     7.6969     2.4610     0.1366     0.0226
  367.5000   -60.7054     6.1008     5.8962   144.5267     7.7187     2.4850     0.1253     0.0214
  368.0000   -60.6192     6.2431     6.0045   138.1705     7.7155     2.5035     0.1140     0.0205
  368.5000   -60.5330     6.4374     6.2248   135.7296     7.7100     2.4992     0.1084     0.0203
  369.0000   -60.4464     6.6377     6.4510   135.6153     7.7047     2.4948     0.1106     0.0201
  369.5000   -60.3591     6.8396     6.6858   135.3019     7.6940     2.4940     0.1126     0.0199
  370.0000   -60.2575     6.9088     6.7769   135.4647     7.6976     2.4945     0.1136     0.0198
  370.5000   -60.1142     6.9772     6.7769   140.4768     7.7217     2.4963     0.1110     0.0196
  371.0000   -59.9706     7.0462     6.7769   147.9945     7.7470     2.4981     0.1088     0.0194
  371.5000   -59.8283     7.1160     6.7769   147.5287     7.7734     2.4986     0.1091     0.0192
  372.0000   -59.7596     7.1864     6.7769   146.3627     7.7640     2.4991     0.1114     0.0190
  372.5000   -59.8189     7.2282     6.7769   146.7704     7.7435     2.5048     0.1101     0.0188
  373.0000   -59.8761     7.1876     6.7773   147.9921     7.7385     2.5110     0.1000     0.0186
  373.5000   -59.9337     7.1589     6.7590   147.6588     7.7343     2.5151     0.0985     0.0189
  374.0000   -59.9911     7.1303     6.7368   143.6736     7.7304     2.5147     0.0997     0.0196
  374.5000   -60.0486     7.1019     6.7147   139.6377     7.7264     2.5140     0.1000     0.0203
  375.0000   -60.1067     7.0736     6.6927   139.0542     7.7225     2.5134     0.1000     0.0209
  375.5000   -60.1847     7.0453     6.6708   143.8345     7.7183     2.5102     0.1014     0.0216
  376.0000   -60.2998     7.0172     6.6536   146.3234     7.6953     2.5031     0.1059     0.0223
  376.5000   -60.1861     6.9893     6.6719   146.2789     7.6716     2.5021     0.1084     0.0247
  377.0000   -59.9381     6.9671     6.6877   145.4760     7.6473     2.5026     0.1071     0.0280
  377.5000   -59.7577     6.9803     6.7035   143.7362     7.6658     2.5030     0.1047     0.0306
  378.0000   -59.8902     6.9918     6.7193   144.3761     7.7056     2.5034     0.1047     0.0303
  378.5000   -60.0169     7.0034     6.7351   147.5081     7.6976     2.5039     0.1056     0.0301
  379.0000   -60.1427     7.0150     6.7508   147.6515     7.6519     2.5079     0.1050     0.0298
  379.5000   -60.2671     7.0268     6.7668   144.8712     7.6205     2.5137     0.1012     0.0296
  380.0000   -60.3043     7.0312     6.7769   144.0424     7.6528     2.5190     0.0975     0.0294
  380.5000   -60.2113     6.8840     6.5967   146.3548     7.6842     2.5191     0.0964     0.0291
  381.0000   -60.1202     6.8396     6.3976   147.8379     7.6989     2.5187     0.0983     0.0289
