~VERSION INFORMATION
 VERS.                2.0:   CWLS LOG ASCII STANDARD - VERSION 2.0
 WRAP.                 NO:   ONE LINE PER DEPTH STEP
~WELL INFORMATION
#MNEM.UNIT      DATA TYPE    INFORMATION
#----------   ------------   ------------------------------
 STRT.F            2.0000:   START DEPTH
 STOP.F          560.0000:   STOP DEPTH
 STEP.F            0.1000:   STEP LENGTH
 NULL.          -999.2500:   NO VALUE
 COMP.       F D SERV INC:   COMPANY
 WELL. NAVAL PETROLEUM RESERVE 3 SX-3 #88-3:   WELL
 FLD .             NPR #3:   FIELD
 LOC .       S3 T38N R78W:   LOCATION
 CNTY.            NATRONA:   COUNTY
 STAT.            WYOMING:   STATE
 CTRY. UNITED STATES OF AMERICA:   COUNTRY
 SRVC.      Western Atlas:   SERVICE COMPANY
 DATE.        30-OCT-1992:   LOGDATE
 API .       490252254900:   API NUMBER
~CURVE INFORMATION
#MNEM.UNIT       API CODE    CURVE DESCRIPTION
#----------   ------------   ------------------------------
 DEPT.F                  :   
 GRR .GAPI   07 310 01 00:   GAMMA RAY
 RILD.OHMM   07 120 46 00:   INDUCTION LOG DEEP RESISTIVITY
 RILM.OHMM   07 120 44 00:   INDUCTION LOG MEDIUM RESISTIVITY
~PARAMETER INFORMATION
#MNEM.UNIT          VALUE    DESCRIPTION
#----------   ------------   ------------------------------
 PD  .                 GL:   PERMANENT DATUM
 EPD .F              5131:   ELEVATION PERMANENT DATUM
 LMF .                 KB:   LOG MEASURED FROM
 DAPD.F                10:   FEET ABOVE PERMANENT DATUM
 DMF .                 KB:   DRILLING MEASURED FROM
 EKB .F              5141:   KELLING BUSHING
 EDF .F              5140:   DRILLING FLOOR
 EGL .F              5131:   GROUND LEVEL
 DATE.        30-OCT-1992:   RUN DATE
 RUN .                  1:   RUN NUMBER
 DD  .F               568:   DEPTH DRILLER
 DL  .F               568:   DEPTH LOGGER
 BLI .F               560:   BOTTOM LOG INTERVAL
 CS  .IN            8.625:   CASING SIZE
 CBD .F                73:   CASING BOTTOM DRILLER
 CBL .F                73:   CASING BOTTOM LOGGER
 BS  .IN            7.875:   BIT SIZE
 BSD .F               568:   BIT SIZE AT DEPTH
 DFT .           AIR FOAM:   DRILLING FLUID TYPE
 BHT .F                63:   BOTTOM HOLE TEMPERATURE
 TCS .HRS               2:   TIME CURCULATED STOPPED
 MRT .F                63:   MAXIMUM RECORDED TEMPERATURE
 LUN .            HL-6274:   LOGGING UNIT NUMBER
 LUL .             CASPER:   LOGGING UNIT LOCATION
 ENGI.             RAUTIO:   RECORDING ENGINEER
 WITN.          BOB SYLAR:   WITNESSED BY
 CLNT.            A2DTECH:   CLIENT CODE
 ORIG.           5" PRINT:   ORIGIN OF DATA
 UWI .       490252254900:   UNIQUE WELL ID
 DICO. A2D Technologies, Inc.:   DIGITIZING COMPANY
~OTHER INFORMATION
~A    DEPT      GRR      RILD       RILM   
# ...
  384.2000    97.6795    19.3514    18.3876
  384.3000    97.8916    19.3525    18.3575
  384.4000    97.8932    19.3361    18.3590
  384.5000    98.1928    19.2212    18.3200
  384.6000    98.1928    19.2224    18.2354
  384.7000    98.1928    19.1307    18.2369
  384.8000    98.1928    19.0918    18.2386
  384.9000    98.1928    19.0928    18.2400
  385.0000    98.1526    19.0939    18.1660
  385.1000    97.8916    19.0950    18.1172
  385.2000    97.8916    19.0960    18.1187
  385.3000    97.8916    19.2299    18.1202
  385.4000    97.7253    19.2307    18.1217
  385.5000    97.5904    19.2318    18.1234
  385.6000    97.5904    19.2670    18.1247
  385.7000    97.5554    19.3405    18.1262
  385.8000    97.2892    19.4141    18.1841
  385.9000    97.0406    19.4876    18.2551
  386.0000    96.9880    19.5612    18.2769
  386.1000    96.8269    19.6347    18.3870
  386.2000    96.5695    19.7083    18.5144
  386.3000    96.3120    19.7818    18.6093
  386.4000    96.0546    19.8554    18.7214
  386.5000    95.7831    19.9644    18.8920
  386.6000    95.5398    20.3389    19.0792
  386.7000    95.2823    20.6893    19.2145
  386.8000    94.8691    20.9631    19.4459
  386.9000    94.3542    21.2929    19.8524
  387.0000    93.7711    21.6758    20.1537
  387.1000    93.0478    22.0278    20.5169
  387.2000    92.7711    22.2913    20.8865
  387.3000    92.0566    22.5723    21.2197
  387.4000    91.2843    22.7005    21.4526
  387.5000    90.8132    22.8367    21.5818
  387.6000    90.3422    22.8906    22.0367
  387.7000    89.6329    22.9520    22.4786
  387.8000    89.0988    23.0896    23.1117
  387.9000    88.2530    23.2134    23.7374
  388.0000    87.5542    23.2148    24.3082
  388.1000    86.2144    23.2160    24.8923
  388.2000    84.5245    23.2173    25.4957
  388.3000    83.0273    23.2186    25.4982
  388.4000    81.9976    23.2199    25.4999
  388.5000    80.9819    23.2211    25.5020
  388.6000    80.1205    23.2357    25.4310
  388.7000    79.6650    23.3851    25.3304
  388.8000    79.3341    23.3863    25.2879
  388.9000    79.2169    23.3876    24.9864
  389.0000    79.2169    23.3889    24.6454
  389.1000    79.2695    23.3901    24.5287
  389.2000    79.5358    23.3914    24.2015
  389.3000    80.1205    23.3927    23.8437
  389.4000    80.3430    23.3941    23.5222
  389.5000    80.7791    23.3953    23.1095
  389.6000    81.4290    23.2929    22.6925
  389.7000    82.1101    23.2366    22.0752
  389.8000    82.6723    23.1245    21.5600
  389.9000    83.4446    22.8534    20.8557
  390.0000    84.3373    22.5853    20.2385
  390.1000    85.4237    22.2966    19.8350
  390.2000    86.8844    21.8237    19.5879
  390.3000    88.2993    21.3144    19.2313
  390.4000    89.4145    20.9569    18.9073
  390.5000    90.1868    20.6622    18.5761
  390.6000    90.9639    20.2435    18.1174
  390.7000    92.1687    19.6681    17.7795
  390.8000    93.0169    19.2884    17.6458
  390.9000    93.8784    18.9840    17.4393
  391.0000    94.6507    18.4914    17.2258
  391.1000    95.3422    18.0121    16.9383
  391.2000    95.9310    17.6726    16.7187
  391.3000    96.9880    17.4654    16.5232
  391.4000    97.5904    17.2605    16.3300
  391.5000    97.7972    17.0361    16.1655
  391.6000    98.0546    16.8584    16.0714
  391.7000    98.1928    16.7320    15.9725
  391.8000    98.1928    16.5260    15.7964
  391.9000    98.1928    16.3095    15.6834
  392.0000    98.1928    16.1933    15.5363
  392.1000    98.1928    16.0080    15.3546
  392.2000    98.1928    15.9033    15.1750
  392.3000    98.1928    15.8213    15.0064
  392.4000    98.1928    15.6626    14.9133
  392.5000    98.1928    15.4791    14.7505
  392.6000    98.1928    15.3657    14.6441
  392.7000    98.1928    15.3289    14.5076
  392.8000    98.1928    15.1562    14.3742
  392.9000    98.1928    15.1572    14.3126
  393.0000    98.1928    15.0799    14.3138
  393.1000    98.1928    14.9295    14.3151
  393.2000    98.1928    14.7545    14.3162
  393.3000    98.1715    14.6131    14.3174
  393.4000    97.8916    14.5445    14.3186
  393.5000    97.6567    14.5428    14.3198
  393.6000    97.5904    14.4461    14.3210
  393.7000    97.2956    14.4468    14.3221
  393.8000    96.9880    14.4476    14.3234
  393.9000    96.8682    14.4484    14.3245
  394.0000    96.3533    14.4492    14.3257
  394.1000    95.7831    14.4500    14.3269
  394.2000    95.3238    14.4508    14.3281
  394.3000    94.9948    14.4517    14.3293
  394.4000    94.7374    14.4524    14.3241
  394.5000    94.3814    14.3947    14.2329
  394.6000    93.9759    14.3543    14.2340
  394.7000    93.9650    14.3551    14.2977
  394.8000    93.6747    14.3559    14.3352
  394.9000    93.4502    14.3567    14.3364
  395.0000    93.3735    14.2586    14.3376
  395.1000    93.6473    14.2593    14.3388
  395.2000    94.1622    14.2600    14.3401
  395.3000    94.7761    14.2608    14.3412
  395.4000    95.7945    14.2616    14.3424
  395.5000    96.3855    14.2624    14.3436
  395.6000    97.2625    14.2632    14.3448
  395.7000    98.2923    14.2641    14.3460
  395.8000    99.0586    14.2648    14.3471
  395.9000    99.5735    14.2656    14.3485
  396.0000   100.0442    14.3086    14.3495
  396.1000   100.3017    14.3662    14.3507
  396.2000   100.6024    14.3670    14.3519
  396.3000   100.3884    14.3678    14.3531
  396.4000   100.1310    14.3687    14.3726
  396.5000   100.0000    14.3694    14.4552
  396.6000    99.8345    14.3702    14.4565
  396.7000    99.3976    14.3710    14.4576
  396.8000    99.3976    14.3718    14.4588
  396.9000    98.7952    14.3726    14.4600
  397.0000    98.5864    14.3734    14.4612
  397.1000    98.3289    14.4741    14.4624
  397.2000    97.9502    14.4050    14.4604
  397.3000    97.5904    14.3758    14.3652
  397.4000    97.5904    14.3766    14.3662
  397.5000    97.5904    14.3509    14.3674
  397.6000    97.5904    14.2789    14.3686
  397.7000    97.5904    14.2798    14.3389
  397.8000    97.5904    14.1823    14.2717
  397.9000    97.7064    14.1153    14.2730
  398.0000    97.8916    14.0859    14.1760
  398.1000    97.8916    14.0475    14.1050
  398.2000    97.8916    13.9903    14.0229
  398.3000    97.8916    13.9800    13.9845
  398.4000    97.8916    13.8954    13.9563
  398.5000    97.8916    13.8961    13.8901
  398.6000    97.8916    13.8969    13.8915
  398.7000    97.8245    13.8976    13.7970
  398.8000    97.5904    13.8984    13.7980
  398.9000    97.5904    13.8992    13.7436
  399.0000    97.5904    13.9000    13.7051
  399.1000    97.2040    13.9008    13.7063
  399.2000    96.8386    13.8230    13.6930
  399.3000    96.5811    13.8064    13.6140
  399.4000    96.2619    13.8072    13.6153
  399.5000    95.7470    13.7711    13.6163
  399.6000    95.1807    13.6905    13.6174
  399.7000    94.7172    13.6196    13.6185
  399.8000    93.8265    13.6204    13.6197
  399.9000    93.3735    13.6212    13.6208
  400.0000    93.3113    13.6219    13.6219
  400.1000    93.1519    13.5736    13.6232
  400.2000    92.9925    13.5165    13.5656
  400.3000    92.8331    13.4881    13.4964
  400.4000    92.6737    13.4596    13.4271
  400.5000    92.6170    13.4311    13.3468
  400.6000    92.8755    13.4027    13.3476
  400.7000    93.1681    13.3742    13.3485
  400.8000    94.0599    13.3479    13.3494
  400.9000    95.0868    13.3488    13.3504
  401.0000    95.8620    13.3494    13.3513
  401.1000    96.3766    13.3502    13.3523
  401.2000    96.8913    13.3907    13.3531
  401.3000    97.4443    13.4193    13.3541
  401.4000    97.9207    13.3523    13.3550
  401.5000    98.4353    13.3532    13.3559
  401.6000    98.9500    13.2807    13.3568
  401.7000    99.3725    13.2625    13.3578
  401.8000    99.6311    13.2196    13.3587
  401.9000    99.8941    13.1725    13.3596
  402.0000   100.1482    13.1732    13.3605
  402.1000   100.4067    13.1740    13.3332
  402.2000   100.6653    13.0840    13.2701
  402.3000   100.9238    13.0846    13.2712
