~VERSION INFORMATION
 VERS.                2.0:   CWLS LOG ASCII STANDARD - VERSION 2.0
 WRAP.                 NO:   ONE LINE PER DEPTH STEP
~WELL INFORMATION
#MNEM.UNIT      DATA TYPE    INFORMATION
#----------   ------------   ------------------------------
 STRT.F            0.0000:   START DEPTH
 STOP.F          596.0000:   STOP DEPTH
 STEP.F            0.1000:   STEP LENGTH
 NULL.          -999.2500:   NO VALUE
 COMP. BROWN JOHN E&C INC:   COMPANY
 WELL.    72-5 SX-3 #72-3:   WELL
 FLD .             TEAPOT:   FIELD
 LOC .       S3 T38N R78W:   LOCATION
 CNTY.            NATRONA:   COUNTY
 STAT.            WYOMING:   STATE
 CTRY. UNITED STATES OF AMERICA:   COUNTRY
 SRVC.      Western Atlas:   SERVICE COMPANY
 DATE.        15-APR-1992:   LOGDATE
 API .       490252250900:   API NUMBER
~CURVE INFORMATION
#MNEM.UNIT       API CODE    CURVE DESCRIPTION
#----------   ------------   ------------------------------
 DEPT.F                  :   
 GRR .GAPI   07 310 01 00:   GAMMA RAY
 RILD.OHMM   07 120 46 00:   INDUCTION LOG DEEP RESISTIVITY
 RILM.OHMM   07 120 44 00:   INDUCTION LOG MEDIUM RESISTIVITY
~PARAMETER INFORMATION
#MNEM.UNIT          VALUE    DESCRIPTION
#----------   ------------   ------------------------------
 PD  .                 GL:   PERMANENT DATUM
 EPD .F              5132:   ELEVATION PERMANENT DATUM
 LMF .                 KB:   LOG MEASURED FROM
 DAPD.F                 5:   FEET ABOVE PERMANENT DATUM
 DMF .                 KB:   DRILLING MEASURED FROM
 EKB .F              5137:   KELLING BUSHING
 EDF .F              5136:   DRILLING FLOOR
 EGL .F              5132:   GROUND LEVEL
 DATE.        15-APR-1992:   RUN DATE
 RUN .                  1:   RUN NUMBER
 DD  .F               605:   DEPTH DRILLER
 DL  .F               599:   DEPTH LOGGER
 BLI .F               596:   BOTTOM LOG INTERVAL
 TLI .F                46:   TOP LOG INTERVAL
 CS  .IN            8.625:   CASING SIZE
 CBD .F                48:   CASING BOTTOM DRILLER
 CBL .F                46:   CASING BOTTOM LOGGER
 BS  .IN            7.875:   BIT SIZE
 BSD .F               605:   BIT SIZE AT DEPTH
 DFT .                AIR:   DRILLING FLUID TYPE
 LUN .            HL-6321:   LOGGING UNIT NUMBER
 LUL .        RK. SPRINGS:   LOGGING UNIT LOCATION
 ENGI.            TRIBBLE:   RECORDING ENGINEER
 WITN.             STRONG:   WITNESSED BY
 CLNT.            A2DTECH:   CLIENT CODE
 ORIG.           5" PRINT:   ORIGIN OF DATA
 UWI .       490252250900:   UNIQUE WELL ID
 DICO. A2D Technologies, Inc.:   DIGITIZING COMPANY
~OTHER INFORMATION
~A    DEPT     GRR       RILD       RILM   
# ...
  254.8000   110.0072     8.3130     8.1141
  254.9000   110.7460     8.2801     8.0856
  255.0000   111.9090     8.2761     8.0854
  255.1000   113.2183     8.2220     8.0852
  255.2000   114.2343     8.2218     8.0850
  255.3000   115.5966     8.1923     8.0520
  255.4000   116.2582     8.1641     8.0282
  255.5000   117.1627     8.1638     8.0280
  255.6000   118.0388     8.1636     8.0278
  255.7000   118.6693     8.1634     8.0275
  255.8000   118.9151     8.1632     8.0273
  255.9000   118.9121     8.1629     8.0271
  256.0000   118.9091     8.1627     8.0269
  256.1000   118.9061     8.1625     8.0267
  256.2000   118.9030     8.1622     8.0264
  256.3000   118.9000     8.1247     8.0262
  256.4000   118.8966     8.1050     8.0260
  256.5000   118.8939     8.1047     8.0258
  256.6000   118.8909     8.1045     8.0256
  256.7000   118.8879     8.1043     8.0253
  256.8000   118.8849     8.1041     8.0251
  256.9000   118.8817     8.1038     8.0249
  257.0000   118.8788     8.1036     8.0247
  257.1000   119.0584     8.1034     8.0244
  257.2000   119.5563     8.1031     8.0242
  257.3000   120.2241     8.1029     8.0240
  257.4000   120.7157     8.1027     8.0238
  257.5000   121.2874     8.1025     7.9938
  257.6000   121.2849     8.1022     7.9675
  257.7000   121.2818     8.1020     7.9673
  257.8000   121.1834     8.1018     7.9670
  257.9000   120.8539     8.1016     7.9668
  258.0000   120.0604     8.1013     7.9666
  258.1000   119.3643     8.1011     7.9664
  258.2000   118.7947     8.1009     7.9661
  258.3000   118.1775     8.1006     7.9659
  258.4000   117.6242     8.0573     7.9657
  258.5000   117.6212     8.0438     7.9655
  258.6000   117.6176     8.0436     7.9653
  258.7000   117.6152     8.0433     7.9650
  258.8000   117.8998     8.0431     7.9648
  258.9000   118.3913     8.0429     7.9646
  259.0000   118.9151     8.0427     7.9644
  259.1000   119.7240     8.0424     7.9641
  259.2000   119.9451     8.0422     7.9639
  259.3000   120.0212     8.0420     7.9637
  259.4000   119.9058     8.0417     7.9635
  259.5000   119.6556     8.0415     7.9632
  259.6000   119.4052     8.0413     7.9630
  259.7000   119.1550     8.0411     7.9628
  259.8000   118.9046     8.0409     7.9626
  259.9000   118.7909     8.0406     7.9624
  260.0000   118.7071     7.9956     7.9621
  260.1000   118.4568     7.9842     7.9619
  260.2000   118.1754     7.9840     7.9617
  260.3000   117.9561     7.9838     7.9615
  260.4000   117.7059     7.9835     7.9613
  260.5000   117.4556     7.9833     7.9610
  260.6000   117.2053     7.9831     7.9608
  260.7000   116.9484     7.9829     7.9606
  260.8000   116.4638     7.9826     7.9604
  260.9000   116.1513     7.9824     7.9601
  261.0000   115.6424     7.9822     7.9599
  261.1000   114.9711     7.9820     7.9597
  261.2000   114.4735     7.9818     7.9595
  261.3000   113.8995     7.9815     7.9593
  261.4000   113.6877     7.9813     7.9590
  261.5000   113.4374     7.9811     7.9588
  261.6000   113.2848     7.9809     7.9586
  261.7000   113.3239     7.9806     7.9584
  261.8000   113.5816     7.9804     7.9581
  261.9000   113.8123     7.9802     7.9579
  262.0000   114.4121     7.9800     7.9577
  262.1000   115.2730     7.9797     7.9575
  262.2000   116.1928     7.9795     7.9572
  262.3000   116.9627     7.9793     7.9570
  262.4000   118.7146     7.9791     7.9568
  262.5000   121.1367     7.9789     7.9566
  262.6000   123.5158     7.9786     7.9564
  262.7000   125.1287     7.9784     7.9561
  262.8000   126.0800     7.9782     7.9559
  262.9000   126.8816     7.9780     7.9557
  263.0000   126.8788     7.9777     7.9555
  263.1000   126.7052     7.9775     7.9553
  263.2000   126.4550     7.9773     7.9550
  263.3000   126.2047     7.9391     7.9548
  263.4000   125.9543     7.9213     7.9546
  263.5000   125.7040     7.9211     7.9544
  263.6000   124.8693     7.9209     7.9370
  263.7000   124.0163     7.9206     7.8986
  263.8000   123.1884     7.9204     7.8983
  263.9000   122.1961     7.8886     7.8981
  264.0000   121.0906     7.8648     7.8664
  264.1000   120.6499     7.8536     7.8427
  264.2000   120.1523     7.8096     7.8313
  264.3000   119.7622     7.8094     7.7877
  264.4000   119.4602     7.8092     7.7875
  264.5000   118.9545     7.8090     7.7519
  264.6000   118.7083     7.8087     7.7329
  264.7000   118.2706     7.8037     7.7173
  264.8000   117.7730     7.7539     7.6786
  264.9000   117.3513     7.7537     7.6784
  265.0000   117.1010     7.7535     7.6782
  265.1000   116.8147     7.7533     7.6780
  265.2000   116.3887     7.7531     7.6778
  265.3000   116.0471     7.7528     7.6873
  265.4000   115.6965     7.7526     7.7312
  265.5000   115.2434     7.7197     7.6872
  265.6000   114.9817     7.6982     7.6769
  265.7000   114.2710     7.6980     7.6767
  265.8000   113.7063     7.6978     7.6765
  265.9000   113.0842     7.6975     7.6763
  266.0000   112.2706     7.6609     7.6760
  266.1000   111.2916     7.6435     7.6380
  266.2000   110.4177     7.6268     7.6222
  266.3000   109.8018     7.5899     7.6220
  266.4000   109.0569     7.5897     7.6218
  266.5000   108.5909     7.5496     7.6216
  266.6000   108.6250     7.5066     7.5795
  266.7000   108.8876     7.4837     7.5363
  266.8000   109.1136     7.4835     7.4932
  266.9000   109.7037     7.4827     7.4628
  267.0000   110.5596     7.4400     7.4598
  267.1000   111.5456     7.4308     7.4104
  267.2000   112.5316     7.4070     7.4102
  267.3000   113.5178     7.3647     7.3842
  267.4000   114.5039     7.3270     7.3420
  267.5000   115.6313     7.3268     7.3001
  267.6000   116.8646     7.2901     7.2558
  267.7000   118.0383     7.2754     7.2169
  267.8000   118.8542     7.2752     7.2049
  267.9000   119.5157     7.2669     7.1848
  268.0000   119.7576     7.2241     7.1437
  268.1000   119.7545     7.1843     7.1029
  268.2000   119.7515     7.1433     7.0547
  268.3000   119.7485     7.1232     7.0221
  268.4000   119.4998     7.1115     6.9820
  268.5000   119.4394     7.0732     6.9280
  268.6000   119.3022     7.0730     6.8544
  268.7000   119.0519     7.0396     6.8117
  268.8000   118.8016     6.9994     6.7764
  268.9000   118.5178     6.9447     6.7377
  269.0000   118.5152     6.8773     6.6992
  269.1000   118.1954     6.8771     6.6610
  269.2000   117.8004     6.8054     6.6229
  269.3000   117.5501     6.7547     6.5851
  269.4000   117.2908     6.7161     6.5476
  269.5000   116.8111     6.6778     6.4897
  269.6000   116.1309     6.6393     6.4279
  269.7000   115.3860     6.5640     6.3874
  269.8000   114.7123     6.5185     6.3061
  269.9000   114.1841     6.5017     6.2745
  270.0000   113.0298     6.4895     6.2387
  270.1000   111.9930     6.4525     6.1881
  270.2000   110.9045     6.4109     6.1247
  270.3000   109.9124     6.3791     6.0889
  270.4000   108.9997     6.3427     6.0550
  270.5000   108.4695     6.3215     5.9948
  270.6000   109.1600     6.3145     5.9444
  270.7000   110.0742     6.2771     5.9105
  270.8000   111.1798     6.2769     5.8767
  270.9000   112.4129     6.2506     5.8381
  271.0000   113.6464     6.2329     5.8098
  271.1000   115.1176     6.2327     5.7972
  271.2000   116.5125     6.2325     5.7970
  271.3000   118.2403     6.2323     5.7969
  271.4000   119.7038     6.2322     5.7967
  271.5000   120.6252     6.2320     5.8279
  271.6000   121.1634     6.2318     5.8611
  271.7000   121.6082     6.2316     5.8777
  271.8000   121.9317     6.2314     5.8867
  271.9000   121.9513     6.2313     5.9186
  272.0000   121.6444     6.2556     5.9184
  272.1000   121.1444     6.2746     5.9460
  272.2000   119.9051     6.2745     5.9798
  272.3000   118.8581     6.2743     6.0138
  272.4000   117.8659     6.3101     6.0430
  272.5000   116.8737     6.3179     6.0428
  272.6000   115.8817     6.3178     6.0744
  272.7000   114.7663     6.3176     6.0849
  272.8000   114.3305     6.3208     6.0847
  272.9000   113.6721     6.3615     6.0929
