~VERSION INFORMATION
 VERS.                2.0:   CWLS LOG ASCII STANDARD - VERSION 2.0
 WRAP.                 NO:   ONE LINE PER DEPTH STEP
~WELL INFORMATION
#MNEM.UNIT      DATA TYPE    INFORMATION
#----------   ------------   ------------------------------
 STRT.F           28.0000:   START DEPTH
 STOP.F          563.0000:   STOP DEPTH
 STEP.F            0.1000:   STEP LENGTH
 NULL.          -999.2500:   NO VALUE
 COMP.       F D SERV INC:   COMPANY
 WELL.    SX-3 62-4 #62-3:   WELL
 FLD .          N.P.R. #3:   FIELD
 LOC .       S3 T38N R78W:   LOCATION
 CNTY.            NATRONA:   COUNTY
 STAT.            WYOMING:   STATE
 CTRY. UNITED STATES OF AMERICA:   COUNTRY
 SRVC.     Atlas Wireline:   SERVICE COMPANY
 DATE.        03-MAY-1992:   LOGDATE
 API .       490252252100:   API NUMBER
~CURVE INFORMATION
#MNEM.UNIT       API CODE    CURVE DESCRIPTION
#----------   ------------   ------------------------------
 DEPT.F                  :   
 RILD.OHMM   07 120 46 00:   INDUCTION LOG DEEP RESISTIVITY
 RILM.OHMM   07 120 44 00:   INDUCTION LOG MEDIUM RESISTIVITY
 CALD.IN     45 280 60 00:   CALIPER FROM DENSITY LOG
 CORR.G/C3   45 356 01 00:   DENSITY CORRECTION
 DEN .G/C3   45 350 01 00:   COMPENSATED BULK DENSTIY
 GRD .GAPI   45 310 01 00:   GAMMA RAY FROM DENSITY LOG
 PORD.DEC    45 890 12 00:   POROSITY DENSITY SANDSTONE
~PARAMETER INFORMATION
#MNEM.UNIT          VALUE    DESCRIPTION
#----------   ------------   ------------------------------
 PD  .                 GL:   PERMANENT DATUM
 EPD .F              5156:   ELEVATION PERMANENT DATUM
 LMF .                 KB:   LOG MEASURED FROM
 DAPD.F                 5:   FEET ABOVE PERMANENT DATUM
 DMF .                 KB:   DRILLING MEASURED FROM
 EKB .F              5161:   KELLING BUSHING
 EGL .F              5156:   GROUND LEVEL
 DATE.        03-MAY-1992:   RUN DATE
 RUN .                  1:   RUN NUMBER
 DD  .F               565:   DEPTH DRILLER
 DL  .F               566:   DEPTH LOGGER
 BLI .F               564:   BOTTOM LOG INTERVAL
 TLI .F                50:   TOP LOG INTERVAL
 CS  .IN            8.625:   CASING SIZE
 CBD .F                49:   CASING BOTTOM DRILLER
 CBL .F                50:   CASING BOTTOM LOGGER
 BS  .IN            7.875:   BIT SIZE
 BSD .F               565:   BIT SIZE AT DEPTH
 DFT .        AIR DRILLED:   DRILLING FLUID TYPE
 LUN .             HL 632:   LOGGING UNIT NUMBER
 LUL .           RK. SPGS:   LOGGING UNIT LOCATION
 ENGI.               RALL:   RECORDING ENGINEER
 WITN.             STRONG:   WITNESSED BY
 CLNT.            A2DTECH:   CLIENT CODE
 ORIG.           5" PRINT:   ORIGIN OF DATA
 UWI .       490252252100:   UNIQUE WELL ID
 DICO. A2D Technologies, Inc.:   DIGITIZING COMPANY
~OTHER INFORMATION
~A   DEPT     RILD       RILM       CALD       CORR        DEN        GRD       PORD   
# ...
  210.0000     7.6165     7.8525     8.2226    -0.0018     2.5188   168.5923     0.0805
  210.1000     7.6163     7.8520     8.2224    -0.0018     2.5171   169.0893     0.0814
  210.2000     7.6162     7.8516     8.2222    -0.0018     2.5158   169.6355     0.0821
  210.3000     7.6161     7.8512     8.2220    -0.0012     2.5144   169.8590     0.0826
  210.4000     7.6160     7.8780     8.2225     0.0000     2.5138   170.1070     0.0831
  210.5000     7.6159     7.9049     8.2367     0.0013     2.5132   170.4746     0.0834
  210.6000     7.6158     7.9045     8.2365     0.0027     2.5123   170.9046     0.0838
  210.7000     7.6157     7.9040     8.2363     0.0038     2.5112   171.1525     0.0842
  210.8000     7.6437     7.9035     8.2361     0.0050     2.5106   171.4381     0.0844
  210.9000     7.6685     7.9032     8.2360     0.0057     2.5106   171.6485     0.0847
  211.0000     7.6684     7.9027     8.2358     0.0060     2.5106   171.8964     0.0849
  211.1000     7.6683     7.9236     8.2356     0.0072     2.5102   172.1444     0.0853
  211.2000     7.6682     7.9568     8.2354     0.0072     2.5096   172.3924     0.0857
  211.3000     7.7074     7.9564     8.2352     0.0072     2.5091   172.6389     0.0860
  211.4000     7.7213     7.9559     8.2303     0.0072     2.5091   172.6377     0.0862
  211.5000     7.7212     7.9555     8.2198     0.0072     2.5085   172.6365     0.0868
  211.6000     7.7352     7.9551     8.2197     0.0072     2.5078   172.6353     0.0870
  211.7000     7.7748     7.9546     8.2195     0.0072     2.5076   172.7272     0.0873
  211.8000     7.7746     7.9695     8.2193     0.0072     2.5076   172.9347     0.0875
  211.9000     7.7745     8.0092     8.2191     0.0072     2.5075   172.9333     0.0876
  212.0000     7.8083     8.0086     8.2189     0.0072     2.5068   173.1694     0.0878
  212.1000     7.8284     8.0529     8.2188     0.0076     2.5068   173.4174     0.0881
  212.2000     7.8283     8.0635     8.2186     0.0087     2.5068   173.6653     0.0883
  212.3000     7.8364     8.0631     8.2299     0.0087     2.5065   173.9133     0.0884
  212.4000     7.8826     8.0809     8.2333     0.0087     2.5060   174.2160     0.0884
  212.5000     7.8825     8.1184     8.2331     0.0087     2.5060   175.0376     0.0884
  212.6000     7.9194     8.1178     8.2329     0.0087     2.5060   175.9327     0.0887
  212.7000     7.9371     8.1738     8.2327     0.0087     2.5055   176.9281     0.0889
  212.8000     7.9567     8.1734     8.2325     0.0087     2.5048   177.9236     0.0892
  212.9000     7.9921     8.1730     8.2324     0.0102     2.5042   178.7859     0.0894
  213.0000     7.9920     8.1725     8.2322     0.0102     2.5034   179.2830     0.0896
  213.1000     7.9919     8.1843     8.2320     0.0101     2.5022   179.8568     0.0896
  213.2000     8.0320     8.2317     8.2318     0.0112     2.5015   180.0666     0.0899
  213.3000     8.0473     8.2852     8.2316     0.0134     2.5010   180.3145     0.0901
  213.4000     8.0472     8.3274     8.2314     0.0147     2.4999   180.6683     0.0904
  213.5000     8.0609     8.3420     8.2313     0.0147     2.4992   180.7924     0.0905
  213.6000     8.1079     8.3660     8.2311     0.0157     2.4992   179.5460     0.0905
  213.7000     8.1592     8.4145     8.2309     0.0169     2.4992   178.5483     0.0905
  213.8000     8.1591     8.4632     8.2307     0.0181     2.5000   178.1428     0.0905
  213.9000     8.1938     8.5155     8.2306     0.0194     2.5000   177.7474     0.0905
  214.0000     8.2157     8.5617     8.2304     0.0207     2.5000   177.3404     0.0905
  214.1000     8.2324     8.5738     8.2302     0.0183     2.5000   177.0900     0.0904
  214.2000     8.2727     8.6014     8.2300     0.0158     2.5001   176.8271     0.0901
  214.3000     8.2725     8.6512     8.2298     0.0146     2.5007   176.3525     0.0899
  214.4000     8.2724     8.7013     8.2297     0.0142     2.5013   176.0372     0.0896
  214.5000     8.3103     8.7521     8.2295     0.0130     2.5014   175.6551     0.0896
  214.6000     8.3588     8.8125     8.2293     0.0116     2.5021   175.2348     0.0893
  214.7000     8.3876     8.8535     8.2291     0.0093     2.5032   175.0112     0.0888
  214.8000     8.3982     8.8729     8.2356     0.0086     2.5038   175.0098     0.0884
  214.9000     8.4472     8.8946     8.2438     0.0074     2.5044   174.7853     0.0884
  215.0000     8.5044     8.9461     8.2436     0.0049     2.5056   174.3640     0.0878
  215.1000     8.5043     8.9979     8.2434     0.0026     2.5064   173.8645     0.0874
  215.2000     8.5042     9.0574     8.2432     0.0026     2.5070   173.3649     0.0872
  215.3000     8.5272     9.1026     8.2431     0.0015     2.5075   172.8518     0.0871
  215.4000     8.5631     9.1195     8.2429     0.0010     2.5074   171.9859     0.0868
  215.5000     8.5674     9.1448     8.2427     0.0005     2.5074   170.9341     0.0863
  215.6000     8.6225     9.1819     8.2425    -0.0005     2.5074   169.6870     0.0860
  215.7000     8.6677     9.1871     8.2423    -0.0005     2.5074   168.7556     0.0860
  215.8000     8.7184     9.2448     8.2422    -0.0005     2.5074   168.3614     0.0859
  215.9000     8.7426     9.2939     8.2420    -0.0005     2.5074   168.3602     0.0856
  216.0000     8.7424     9.3478     8.2418    -0.0005     2.5074   168.6084     0.0854
  216.1000     8.7497     9.3724     8.2416    -0.0005     2.5074   168.8563     0.0854
  216.2000     8.8030     9.3911     8.2414    -0.0005     2.5074   169.3931     0.0854
  216.3000     8.8522     9.4366     8.2412    -0.0005     2.5074   170.0475     0.0855
  216.4000     8.8641     9.4360     8.2411    -0.0005     2.5074   170.5446     0.0854
  216.5000     8.8940     9.4893     8.2409    -0.0005     2.5074   171.0678     0.0852
  216.6000     8.9459     9.5444     8.2407    -0.0005     2.5074   171.7749     0.0852
  216.7000     8.9875     9.5997     8.2405    -0.0005     2.5074   172.3377     0.0855
  216.8000     8.9874     9.6323     8.2404    -0.0004     2.5074   172.7037     0.0855
  216.9000     8.9872     9.6317     8.2402     0.0010     2.5074   173.0303     0.0855
  217.0000     9.0305     9.6330     8.2400     0.0010     2.5074   173.5013     0.0855
  217.1000     9.0832     9.6976     8.2398     0.0019     2.5074   173.7754     0.0855
  217.2000     9.1362     9.6972     8.2396     0.0025     2.5074   173.7744     0.0855
  217.3000     9.1757     9.7338     8.2395     0.0025     2.5074   173.7732     0.0852
  217.4000     9.1793     9.7636     8.2393     0.0025     2.5079   173.7719     0.0852
  217.5000     9.2393     9.7789     8.2391     0.0025     2.5081   173.7054     0.0850
  217.6000     9.2392     9.8305     8.2389     0.0036     2.5081   173.4550     0.0849
  217.7000     9.2765     9.8298     8.2387     0.0048     2.5082   173.1648     0.0849
  217.8000     9.3032     9.8811     8.2386     0.0060     2.5089   172.7447     0.0849
  217.9000     9.3203     9.8972     8.2384     0.0073     2.5095   172.2452     0.0846
  218.0000     9.3746     9.8966     8.2382     0.0085     2.5101   171.6410     0.0846
  218.1000     9.4327     9.9155     8.2380     0.0085     2.5104   170.8923     0.0844
  218.2000     9.4326     9.9645     8.2378     0.0085     2.5107   170.1424     0.0842
  218.3000     9.4739     9.9638     8.2377     0.0085     2.5119   169.3949     0.0838
  218.4000     9.4980    10.0191     8.2375     0.0085     2.5126   168.6461     0.0831
  218.5000     9.5186    10.0772     8.2373     0.0087     2.5132   168.0412     0.0825
  218.6000     9.5639    10.1013     8.2371     0.0100     2.5138   167.4503     0.0817
  218.7000     9.5637    10.1239     8.2369     0.0112     2.5147   166.7405     0.0808
  218.8000     9.6301    10.1705     8.2368     0.0124     2.5159   166.2135     0.0801
  218.9000     9.6755    10.1700     8.2366     0.0137     2.5172   165.5058     0.0794
  219.0000     9.7320    10.2401     8.2364     0.0145     2.5186   164.9402     0.0789
