~VERSION INFORMATION
 VERS.                2.0:   CWLS LOG ASCII STANDARD - VERSION 2.0
 WRAP.                 NO:   ONE LINE PER DEPTH STEP
~WELL INFORMATION
#MNEM.UNIT      DATA TYPE    INFORMATION
#----------   ------------   ------------------------------
 STRT.F           29.0000:   START DEPTH
 STOP.F          435.0000:   STOP DEPTH
 STEP.F            0.5000:   STEP LENGTH
 NULL.          -999.2500:   NO VALUE
 COMP. FENIX & SCISSON INC:   COMPANY
 WELL.    525 X 10 #52-10:   WELL
 FLD .             TEAPOT:   FIELD
 LOC .      S10 T38N R78W:   LOCATION
 CNTY.            NATRONA:   COUNTY
 STAT.            WYOMING:   STATE
 CTRY. UNITED STATES OF AMERICA:   COUNTRY
 SRVC.       Schlumberger:   SERVICE COMPANY
 DATE.        18-NOV-1978:   LOGDATE
 API .       490251077700:   API NUMBER
~CURVE INFORMATION
#MNEM.UNIT       API CODE    CURVE DESCRIPTION
#----------   ------------   ------------------------------
 DEPT.F                  :   
 NEUT.NAPI   35 330 01 00:   NEUTRON
 SPR .MV     07 010 01 00:   SPONTANEOUS POTENTIAL
 SFL .OHMM   07 220 01 00:   SHALLOW FOCUSED LOG RESISTIVITY
 ILD .OHMM   07 120 46 00:   INDUCTION LOG DEEP RESISTIVITY
 ILM .OHMM   07 120 44 00:   INDUCTION LOG MEDIUM
 CORR.G/C3   45 356 01 00:   DENSITY CORRECTION
 RHOB.G/C3   45 350 01 00:   BULK DENSITY
 DPHI.DEC    45 890 12 00:   DENSITY POROSITY SANDSTONE
 CALD.IN     45 280 60 00:   CALIPER
 GRD .GAPI   45 310 01 00:   GAMMA RAY FROM DENSITY LOG
~PARAMETER INFORMATION
#MNEM.UNIT          VALUE    DESCRIPTION
#----------   ------------   ------------------------------
 PD  .                 GL:   PERMANENT DATUM
 EPD .F              5176:   ELEVATION PERMANENT DATUM
 LMF .                 KB:   LOG MEASURED FROM
 DAPD.F                 4:   FEET ABOVE PERMANENT DATUM
 DMF .                 KB:   DRILLING MEASURED FROM
 EKB .F              5180:   KELLING BUSHING
 EGL .F              5176:   GROUND LEVEL
 DATE.           11-18-78:   RUN DATE
 RUN .                  1:   RUN NUMBER
 DD  .F               433:   DEPTH DRILLER
 DL  .F               435:   DEPTH LOGGER
 BLI .F               429:   BOTTOM LOG INTERVAL
 TLI .F                48:   TOP LOG INTERVAL
 CS  .IN            8.625:   CASING SIZE
 CBD .F                40:   CASING BOTTOM DRILLER
 CBL .F                48:   CASING BOTTOM LOGGER
 BS  .IN            7.875:   BIT SIZE
 BSD .F               433:   BIT SIZE AT DEPTH
 DFT .            KCL MUD:   DRILLING FLUID TYPE
 DFD .                8.5:   DRILLING FLUID DENSITY
 DFV .                 30:   DRILLING FLUID VISCOSITY
 DFPH.                9.6:   DRILLING FLUID PH
 DFL .                 16:   DRILLING FLUID LOSS
 MSS .             MUDPIT:   MUD SAMPLE SOURCE
 RMS .OHMM            .45:   RESISTIVITY MUD SAMPLE
 MST .F                50:   MUD SAMPLE TEMPERATURE
 RMF .OHMM            .37:   RESISTIVITY MUD FILTRATE SAMPLE
 MFST.F                50:   MUD FILTRATE SAMPLE TEMPERATURE
 RMC .OHMM            .43:   RESISTIVITY MUD CAKE
 MCST.F                50:   MUD CAKE SAMPLE TEMPERATURE
 MFSS.                  M:   MUD FILTRATE SAMPLE SOURCE
 MCSS.                  C:   MUD CAKE SAMPLE SOURCE
 RMB .OHMM            .42:   RESISTIVITY MUD AT BHT
 BHT .F                63:   BOTTOM HOLE TEMPERATURE
 TCS .HRS            2400:   TIME CURCULATED STOPPED
 TLAB.HRS            1300:   TIME LOGGER AT BOTTOM
 MRT .F                63:   MAXIMUM RECORDED TEMPERATURE
 LUN .               7663:   LOGGING UNIT NUMBER
 LUL .                GLT:   LOGGING UNIT LOCATION
 ENGI.        SATTERFIELD:   RECORDING ENGINEER
 WITN.              AMEND:   WITNESSED BY
 CLNT.            A2DTECH:   CLIENT CODE
 ORIG.     1", 2.5" PRINT:   ORIGIN OF DATA
 UWI .       490251077700:   UNIQUE WELL ID
 DICO. A2D Technologies, Inc.:   DIGITIZING COMPANY
~OTHER INFORMATION
~A   DEPT     NEUT        SPR        SFL        ILD        ILM       CORR       RHOB       DPHI       CALD         GRD  
# ...
  163.0000   279.1604   -44.0410     9.0673     7.9164     8.1480     0.0079     2.4574     0.1326     8.2952   114.7272
  163.5000   279.2922   -44.3562     8.5172     7.7194     7.8408     0.0049     2.4491     0.1386     8.2896   115.4044
  164.0000   279.4241   -44.6583     8.0004     6.9828     7.5338     0.0044     2.4394     0.1448     8.2844   114.5687
  164.5000   279.5559   -44.9639     7.5150     6.4167     7.2959     0.0055     2.4294     0.1500     8.2789   113.7601
  165.0000   279.6878   -45.2707     7.0413     5.7309     6.3014     0.0066     2.4191     0.1547     8.2734   112.2141
  165.5000   279.8196   -45.5766     6.5165     5.0735     5.5592     0.0073     2.4096     0.1603     8.2681   109.0635
  166.0000   279.9515   -45.8796     5.8850     4.4911     4.9040     0.0095     2.3988     0.1690     8.2626   107.4509
  166.5000   280.0834   -46.1912     5.1064     3.9757     4.3258     0.0076     2.3885     0.1765     8.2572   105.7311
  167.0000   280.1971   -46.4924     4.4309     3.5969     3.8159     0.0063     2.3581     0.1953     8.2517   103.7046
  167.5000   279.9096   -46.7442     3.8447     3.3021     3.5951     0.0088     2.3312     0.2118     8.2463   103.0972
  168.0000   279.5204   -46.6311     3.3360     3.0178     3.2509     0.0143     2.3024     0.2283     8.2409   102.8796
  168.5000   304.9562   -46.5282     2.9381     2.7787     2.9644     0.0113     2.2768     0.2373     8.2355   102.7116
  169.0000   206.0872   -46.4178     2.7787     2.7275     2.8308     0.0080     2.2459     0.2340     8.2300   102.5485
  169.5000   195.2870   -46.2322     2.9297     2.7900     2.9637     0.0044     2.2509     0.2283     8.2247   102.7608
  170.0000   285.6469   -45.9591     3.3486     2.9217     3.1195     0.0070     2.2855     0.2219     8.2189   105.4082
  170.5000   282.3052   -45.6941     4.0305     3.0596     3.2835     0.0106     2.3187     0.2075     8.2106   110.1253
  171.0000   282.4848   -45.4291     4.2649     3.3679     3.5113     0.0138     2.3525     0.1911     8.1973   113.8328
  171.5000   282.4727   -45.1622     4.4958     3.7996     3.9223     0.0174     2.3844     0.1757     8.1801   116.7659
  172.0000   282.5217   -44.8969     4.9302     4.2867     4.3814     0.0199     2.3986     0.1639     8.1914   119.5277
  172.5000   282.5709   -44.6310     6.0873     4.8363     4.8942     0.0149     2.3996     0.1528     8.2367   120.5193
  173.0000   282.6199   -44.3651     7.5160     5.4562     5.4670     0.0106     2.4300     0.1416     8.2582   121.4053
  173.5000   282.6690   -44.0996     8.6396     6.0021     6.1069     0.0059     2.4555     0.1367     8.2527   121.9995
  174.0000   282.7180   -43.8336     8.5656     6.3828     6.7264     0.0045     2.4497     0.1409     8.2483   122.1630
  174.5000   282.7671   -43.5676     8.4480     6.7876     7.0439     0.0135     2.4537     0.1374     8.2435   120.8238
  175.0000   282.8162   -43.3033     8.3319     7.3081     7.3081     0.0173     2.4706     0.1290     8.2386   119.2438
  175.5000   282.8653   -43.0346     8.2174     7.2638     7.3081     0.0186     2.4744     0.1239     8.2339   118.8106
  176.0000   282.9143   -42.7684     8.1708     7.1530     7.4204     0.0148     2.4790     0.1198     8.2292   118.1866
  176.5000   282.9634   -42.3658     8.2605     7.0439     7.2683     0.0069     2.4703     0.1264     8.2242   118.2424
  177.0000   283.0125   -41.9171     8.5021     6.9364     7.0483     0.0059     2.4635     0.1304     8.2198   119.0548
  177.5000   283.0616   -41.4712     8.7507     6.6455     6.9116     0.0049     2.4589     0.1329     8.2155   119.7821
  178.0000   283.1106   -41.0235     8.9669     6.3135     6.6123     0.0041     2.4554     0.1337     8.2276   122.3943
  178.5000   283.1597   -40.5779     7.5866     5.9981     6.3143     0.0029     2.4438     0.1398     8.2456   124.4436
  179.0000   283.2088   -40.1363     6.5630     5.7387     6.0297     0.0046     2.4187     0.1503     8.2563   124.8924
  179.5000   283.2571   -39.6692     5.8464     5.6269     5.7579     0.0082     2.3996     0.1608     8.2349   125.2441
  180.0000   283.3063   -39.4558     5.9895     5.5304     5.6329     0.0131     2.3992     0.1708     8.2120   123.7885
  180.5000   283.3627   -39.4772     6.2722     5.4273     5.6329     0.0184     2.4168     0.1659     8.1890   124.7043
  181.0000   283.7848   -39.4735     6.4765     5.4846     5.6329     0.0186     2.4403     0.1503     8.1658   125.8228
  181.5000   284.6801   -39.4717     6.5971     5.5991     5.7713     0.0185     2.4461     0.1403     8.1412   127.0435
  182.0000   285.5685   -39.4743     6.9368     5.8399     5.9561     0.0134     2.4386     0.1458     8.1467   129.0127
  182.5000   286.5970   -39.4730     7.5372     6.0910     6.2463     0.0067     2.4412     0.1432     8.1951   131.1522
  183.0000   288.4000   -39.4735     7.8724     6.3530     6.5253     0.0045     2.4567     0.1320     8.2520   131.3485
  183.5000   290.4172   -39.4737     8.1096     6.6262     6.8175     0.0070     2.4633     0.1302     8.2447   130.0609
  184.0000   296.5521   -39.4739     8.3241     6.9112     7.1228     0.0088     2.4722     0.1279     8.2166   127.5249
  184.5000   302.2851   -39.4736     8.9009     7.2084     7.4420     0.0122     2.4875     0.1195     8.1862   124.6238
  185.0000   267.2557   -39.4740     9.4836     7.5185     7.7757     0.0121     2.5029     0.1079     8.1743   122.4199
  185.5000   266.2092   -39.4748    10.2136     7.8418     8.1240     0.0109     2.5080     0.1038     8.1914   120.7527
  186.0000   265.0707   -39.4715    10.2626     8.1708     8.3962     0.0095     2.5031     0.1081     8.2142   119.8916
  186.5000   265.0053   -39.4784    10.3220     8.3507     8.5520     0.0087     2.4960     0.1124     8.2364   118.8609
  187.0000   265.8510   -39.4712    10.4053     8.3936     8.6442     0.0096     2.4891     0.1166     8.2554   118.9063
  187.5000   266.6918   -39.4491    10.3330     8.4366     8.6385     0.0107     2.4816     0.1203     8.2559   121.1485
  188.0000   267.5294   -39.1439    10.2146     8.4852     8.6411     0.0114     2.4761     0.1240     8.2563   121.9990
  188.5000   268.4075   -38.8891    10.0975     8.4781     8.4999     0.0119     2.4795     0.1255     8.2560   121.6775
  189.0000   267.0440   -38.6155     9.9817     8.2268     8.3601     0.0129     2.4873     0.1174     8.2561   121.4985
  189.5000   266.8015   -38.3475     9.8673     8.0211     8.2224     0.0096     2.4841     0.1158     8.2561   121.2726
  190.0000   269.5128   -38.0798     9.6529     7.8207     8.0870     0.0069     2.4774     0.1191     8.2561   122.0575
  190.5000   267.8423   -37.8604     9.4131     7.6251     7.9535     0.0091     2.4644     0.1281     8.2561   123.4396
  191.0000   268.0727   -37.8569     9.1792     7.4338     7.8357     0.0108     2.4635     0.1295     8.2561   125.9732
  191.5000   270.1484   -37.8523     8.9487     7.2490     7.7512     0.0125     2.4691     0.1270     8.2561   127.6109
  192.0000   271.0472   -37.8543     8.7503     7.0674     7.4816     0.0143     2.4752     0.1245     8.2562   128.7575
  192.5000   269.5923   -37.8552     8.6044     6.9116     7.1775     0.0160     2.4694     0.1223     8.2561   129.8499
  193.0000   269.9738   -37.8541     8.4611     6.5895     6.8856     0.0179     2.4777     0.1215     8.2561   130.9687
  193.5000   271.0946   -37.8519     8.3201     6.3148     6.6057     0.0177     2.4718     0.1253     8.2563   131.2261
  194.0000   270.7290   -37.8658     8.1675     6.0516     6.4161     0.0151     2.4578     0.1320     8.2556   131.4695
  194.5000   265.2299   -37.7287     7.4427     5.7994     6.1566     0.0231     2.4425     0.1392     8.2560   131.7201
  195.0000   263.0280   -37.4364     6.7120     5.5292     5.8791     0.0325     2.4311     0.1472     8.2235   131.5345
  195.5000   279.9406   -37.1607     6.0505     5.4182     5.6329     0.0422     2.4278     0.1549     8.1773   130.4831
  196.0000   273.5849   -36.8832     5.7387     5.3273     5.6329     0.0504     2.4140     0.1623     8.1313   129.2634
