~VERSION INFORMATION
 VERS.                2.0:   CWLS LOG ASCII STANDARD - VERSION 2.0
 WRAP.                 NO:   ONE LINE PER DEPTH STEP
~WELL INFORMATION
#MNEM.UNIT      DATA TYPE    INFORMATION
#----------   ------------   ------------------------------
 STRT.F            3.0000:   START DEPTH
 STOP.F         3449.0000:   STOP DEPTH
 STEP.F            0.5000:   STEP LENGTH
 NULL.          -999.2500:   NO VALUE
 COMP. LAWRENCE/ALLISON INC:   COMPANY
 WELL.       NPR 3 #24-10:   WELL
 FLD .             TEAPOT:   FIELD
 LOC .      S10 T38N R78W:   LOCATION
 CNTY.            NATRONA:   COUNTY
 STAT.            WYOMING:   STATE
 CTRY. UNITED STATES OF AMERICA:   COUNTRY
 SRVC.      Dresser Atlas:   SERVICE COMPANY
 DATE.        28-JUL-1985:   LOGDATE
 API .       490251104400:   API NUMBER
~CURVE INFORMATION
#MNEM.UNIT       API CODE    CURVE DESCRIPTION
#----------   ------------   ------------------------------
 DEPT.F                  :   
 PORD.DEC    45 890 12 00:   POROSITY DENSITY SANDSTONE
 CNC .DEC    42 890 03 00:   NEUTRON POROSITY SANDSTONE
 CORR.G/C3   45 356 01 00:   DENSITY CORRECTION
 DEN .G/C3   45 350 01 00:   COMPENSATED BULK DENSTIY
 AC  .US/F   60 520 00 00:   ACCOUSTIC
 CALR.IN     07 280 01 00:   CALIPER FROM RESISTIVITY
 GRR .GAPI   07 310 01 00:   GAMMA RAY
 RFOC.OHMM   07 220 04 00:   RESISTIVITY FOCUSED LOG
 RILD.OHMM   07 120 46 00:   INDUCTION LOG DEEP RESISTIVITY
 RILM.OHMM   07 120 44 00:   INDUCTION LOG MEDIUM RESISTIVITY
 SPR .MV     07 010 01 00:   SPONTANEOUS POTENTIAL
~PARAMETER INFORMATION
#MNEM.UNIT          VALUE    DESCRIPTION
#----------   ------------   ------------------------------
 PD  .                 GL:   PERMANENT DATUM
 EPD .F              5242:   ELEVATION PERMANENT DATUM
 LMF .                 KB:   LOG MEASURED FROM
 DAPD.F                13:   FEET ABOVE PERMANENT DATUM
 DMF .                 KB:   DRILLING MEASURED FROM
 EKB .F              5255:   KELLING BUSHING
 EGL .F              5242:   GROUND LEVEL
 DATE.        28-JUL-1985:   RUN DATE
 RUN .                  1:   RUN NUMBER
 DD  .F              3451:   DEPTH DRILLER
 DL  .F              3451:   DEPTH LOGGER
 BLI .F              3449:   BOTTOM LOG INTERVAL
 CS  .IN            8.625:   CASING SIZE
 CBD .F               688:   CASING BOTTOM DRILLER
 CBL .F               686:   CASING BOTTOM LOGGER
 BS  .IN            7.875:   BIT SIZE
 BSD .F              3451:   BIT SIZE AT DEPTH
 DFT .            KCL GEL:   DRILLING FLUID TYPE
 DFD .                8.9:   DRILLING FLUID DENSITY
 DFV .                 40:   DRILLING FLUID VISCOSITY
 DFPH.                8.0:   DRILLING FLUID PH
 DFL .                 10:   DRILLING FLUID LOSS
 MSS .           FLOWLINE:   MUD SAMPLE SOURCE
 RMS .OHMM           0.87:   RESISTIVITY MUD SAMPLE
 MST .F                92:   MUD SAMPLE TEMPERATURE
 RMF .OHMM             65:   RESISTIVITY MUD FILTRATE SAMPLE
 MFST.F                92:   MUD FILTRATE SAMPLE TEMPERATURE
 RMC .OHMM           1.09:   RESISTIVITY MUD CAKE
 MCST.F                92:   MUD CAKE SAMPLE TEMPERATURE
 MFSS.               CALC:   MUD FILTRATE SAMPLE SOURCE
 MCSS.               CALC:   MUD CAKE SAMPLE SOURCE
 RMB .OHMM            .66:   RESISTIVITY MUD AT BHT
 BHT .F               121:   BOTTOM HOLE TEMPERATURE
 TCS .HRS               4:   TIME CURCULATED STOPPED
 MRT .F               121:   MAXIMUM RECORDED TEMPERATURE
 LUN .               6264:   LOGGING UNIT NUMBER
 LUL .               GLTE:   LOGGING UNIT LOCATION
 ENGI.           FAHLSING:   RECORDING ENGINEER
 WITN.             STRONG:   WITNESSED BY
 CLNT.            A2DTECH:   CLIENT CODE
 ORIG.        2" 5" PRINT:   ORIGIN OF DATA
 UWI .       490251104400:   UNIQUE WELL ID
 DICO. A2D Technologies, Inc.:   DIGITIZING COMPANY
 R1  . POROSITY WITH SANDSTONE:   REMARKS 1
~OTHER INFORMATION
~A    DEPT    PORD        CNC       CORR        DEN         AC       CALR         GRR      RFOC       RILD       RILM        SPR   
# ...
 2687.0000     0.0352     0.2205     0.1412     2.5891    78.2077     8.9674   107.0136     7.9074     7.0796     7.2543   -42.0442
 2687.5000     0.0328     0.2241     0.1472     2.5959    78.4437     8.9676   109.7285     7.5919     7.1780     7.3545   -42.3445
 2688.0000     0.0343     0.2386     0.1411     2.5937    79.0707     8.9677   113.3484     7.3828     7.2778     7.4038   -42.6205
 2688.5000     0.0422     0.2446     0.1351     2.5816    79.4049     8.9679   115.6109     7.2384     7.2268     7.4022   -42.6205
 2689.0000     0.0419     0.2389     0.1309     2.5786    79.4021     8.9680   113.3484     7.2972     7.1764     7.3495   -42.6205
 2689.5000     0.0392     0.2292     0.1325     2.5846    79.3999     8.9682   111.0860     7.5018     7.0281     7.3480   -42.6205
 2690.0000     0.0328     0.2257     0.1386     2.5982    79.6234     8.9532   109.7285     7.7548     6.9308     7.2453   -42.4699
 2690.5000     0.0249     0.2356     0.1477     2.6118    79.9227     8.9534   112.4434     7.8623     6.9787     7.0946   -42.4699
 2691.0000     0.0199     0.2371     0.1598     2.6178    79.9199     8.9535   117.4208     7.8066     6.9781     7.0441   -42.4699
 2691.5000     0.0170     0.2344     0.1674     2.6208    79.8430     8.9537   120.1357     7.6448     7.0263     6.9940   -42.4699
 2692.0000     0.0188     0.2278     0.1705     2.6186    80.1412     8.9538   116.9683     7.5385     7.0747     7.0416   -42.4699
 2692.5000     0.0239     0.2257     0.1615     2.6148    80.0637     8.9540   113.1222     7.4853     7.1234     7.1877   -42.4699
 2693.0000     0.0257     0.2263     0.1526     2.6111    79.6853     8.9391   111.0860     7.5888     7.1724     7.3373   -42.3193
 2693.5000     0.0251     0.2254     0.1391     2.6081    78.8554     8.9392   111.5385     7.8012     7.2721     7.4900   -42.1687
 2694.0000     0.0194     0.2206     0.1331     2.6073    78.1007     8.9243   111.0860     8.0754     7.3223     7.6991   -42.0181
 2694.5000     0.0173     0.2137     0.1347     2.6179    77.4965     8.9093   109.7285     8.2443     7.4241     7.8594   -41.8675
 2695.0000     0.0198     0.2091     0.1363     2.6186    77.0428     8.9095   108.3710     8.3583     7.5795     7.9128   -41.8675
 2695.5000     0.0252     0.2076     0.1409     2.6103    76.9653     8.9097   106.7873     8.4153     7.6318     7.9108   -41.8675
 2696.0000     0.0258     0.2125     0.1485     2.6066    76.9631     8.9098   106.1086     8.4727     7.7378     7.9091   -42.1687
 2696.5000     0.0222     0.2182     0.1561     2.6065    76.9609     8.9100   105.4299     8.3545     7.7372     7.9075   -42.4699
 2697.0000     0.0201     0.2245     0.1607     2.6141    76.9586     8.9101   105.8824     8.2957     7.7367     7.8512   -42.6264
 2697.5000     0.0213     0.2318     0.1578     2.6157    76.9626     8.9253   107.6923     8.1802     7.6827     7.7415   -42.9267
 2698.0000     0.0262     0.2390     0.1443     2.6081    77.1047     8.9255   109.7285     8.0664     7.4203     7.4761   -43.2229
 2698.5000     0.0292     0.2444     0.1383     2.6006    77.4586     8.9407   111.0860     7.8993     7.0682     7.1698   -43.2229
 2699.0000     0.0310     0.2555     0.1414     2.5991    78.9055     8.9409   111.9910     7.7355     6.7796     6.9722   -43.0723
 2699.5000     0.0358     0.2594     0.1385     2.5961    80.0320     8.9561   111.9910     7.5228     6.6858     6.7801   -42.9217
 2700.0000     0.0401     0.2514     0.1315     2.5885    80.8878     8.9563   112.5748     7.3672     6.6350     6.6391   -42.7711
 2700.5000     0.0395     0.2405     0.1552     2.5848    81.2495     8.9588   114.2558     7.4408     6.5933     6.5918   -42.8554
 2701.0000     0.0346     0.2378     0.1839     2.5909    81.4584     8.9614   117.1992     7.5186     6.5477     6.5904   -42.9158
 2701.5000     0.0301     0.2357     0.1750     2.5992    81.3822     8.9639   118.5589     7.5171     6.4575     6.5891   -42.9127
 2702.0000     0.0268     0.2456     0.1480     2.6049    81.3062     8.9665   114.9412     7.5155     6.4575     6.6788   -42.9091
 2702.5000     0.0241     0.2519     0.1450     2.6064    81.2302     8.9690   109.9661     7.4105     6.4575     6.6330   -42.9061
 2703.0000     0.0244     0.2520     0.1421     2.6057    81.0790     8.9705   108.1584     7.3069     6.4575     6.6463   -42.7525
 2703.5000     0.0286     0.2490     0.1332     2.5987    81.0030     8.9703   108.4155     7.2047     6.5025     6.7487   -42.5990
 2704.0000     0.0338     0.2315     0.1152     2.5914    80.7765     8.9701   110.0267     7.2032     6.5483     6.8511   -42.4454
 2704.5000     0.0341     0.2243     0.1183     2.5908    80.6252     8.9700   111.6393     7.2018     6.6392     6.9313   -42.1412
 2705.0000     0.0328     0.2249     0.1485     2.5938    79.9473     8.9698   113.8240     7.3517     6.6392     6.9786   -42.1383
 2705.5000     0.0308     0.2268     0.1621     2.5969    79.3446     8.9697   115.1837     7.5047     6.6392     6.9774   -42.1353
 2706.0000     0.0296     0.2308     0.1637     2.5984    78.8924     8.9695   113.1497     7.5555     6.6306     6.8803   -42.1323
 2706.5000     0.0296     0.2352     0.1729     2.5977    79.1174     8.9690   111.3420     7.6065     6.5477     6.6910   -42.2807
 2707.0000     0.0332     0.2412     0.1805     2.5933    79.6433     8.9542   111.1174     7.5522     6.4575     6.6438   -42.4277
 2707.5000     0.0380     0.2451     0.1670     2.5850    80.2445     8.9389   111.7989     7.4467     6.2808     6.5969   -42.4246
 2708.0000     0.0422     0.2548     0.1490     2.5768    80.8457     8.9237   112.7061     7.2918     6.1943     6.5468   -42.4217
 2708.5000     0.0437     0.2620     0.1371     2.5776    81.2964     8.9084   113.1608     7.1402     6.0668     6.3646   -42.5693
 2709.0000     0.0428     0.2611     0.1266     2.5791    81.8976     8.8932   111.8056     7.0378     5.9832     6.2306   -42.5662
 2709.5000     0.0410     0.2539     0.1147     2.5777    82.1226     8.8930   108.4142     6.8895     5.8600     6.0243   -42.5421
 2710.0000     0.0401     0.2464     0.0907     2.5679    82.3476     8.8778   105.9277     6.6977     5.7793     5.8993   -42.4090
 2710.5000     0.0492     0.2407     0.0953     2.5619    82.4974     8.8777   105.4774     6.5191     5.6997     5.9398   -42.2555
 2711.0000     0.0516     0.2395     0.1390     2.5673    82.4214     8.8775   106.6109     6.5176     5.6212     6.0637   -42.1019
 2711.5000     0.0449     0.2416     0.1542     2.5854    82.1949     8.8774   108.4231     6.6532     5.5437     6.0629   -41.7977
 2712.0000     0.0347     0.2573     0.1561     2.5990    81.9674     8.8772   110.2478     6.6985     5.5054     6.0620   -41.6442
 2712.5000     0.0272     0.2618     0.1529     2.6058    82.2686     8.8771   111.6327     6.7437     5.3920     5.8140   -41.3400
 2713.0000     0.0260     0.2621     0.1575     2.6036    82.7956     8.8618   112.2759     6.6954     5.2445     5.5761   -41.0358
 2713.5000     0.0296     0.2627     0.1455     2.5878    83.5540     8.8466   110.6950     6.5108     5.1723     5.4226   -40.5810
 2714.0000     0.0372     0.2709     0.1287     2.5668    84.4662     8.8163   109.7923     6.1582     5.2083     5.3472   -39.9757
 2714.5000     0.0576     0.2709     0.1502     2.5435    85.6635     8.7860   109.3420     5.8246     5.3178     5.3839   -39.0691
 2715.0000     0.0669     0.2591     0.1940     2.5262    86.6542     8.7406   108.8918     5.4710     5.3548     5.5345   -38.1625
 2715.5000     0.0799     0.2287     0.2287     2.5074    87.6065     8.6499   107.0840     5.2835     5.3178     5.9314   -37.1053
 2716.0000     0.0914     0.1864     0.2077     2.4939    86.9040     8.5580    99.3940     5.3934     5.5116     6.4906   -35.7469
 2716.5000     0.0992     0.1720     0.1732     2.4812    82.3378     8.4686    78.8080     6.1093     6.0875     7.4561   -33.9367
 2717.0000     0.1073     0.1690     0.1415     2.4669    76.7690     8.4210    55.0865     8.3454     9.0066     8.7455   -32.1026
