~VERSION INFORMATION
 VERS.                2.0:   CWLS LOG ASCII STANDARD - VERSION 2.0
 WRAP.                 NO:   ONE LINE PER DEPTH STEP
~WELL INFORMATION
#MNEM.UNIT      DATA TYPE    INFORMATION
#----------   ------------   ------------------------------
 STRT.F           30.0000:   START DEPTH
 STOP.F          515.0000:   STOP DEPTH
 STEP.F            0.5000:   STEP LENGTH
 NULL.          -999.2500:   NO VALUE
 COMP. FENIX & SCISSON INC:   COMPANY
 WELL.      FP SX-3 #63-3:   WELL
 FLD .              NPR 3:   FIELD
 LOC .       S3 T38N R78W:   LOCATION
 CNTY.            NATRONA:   COUNTY
 STAT.            WYOMING:   STATE
 CTRY. UNITED STATES OF AMERICA:   COUNTRY
 SRVC.              Welex:   SERVICE COMPANY
 DATE.        21-JUN-1980:   LOGDATE
 API .       490251082100:   API NUMBER
~CURVE INFORMATION
#MNEM.UNIT       API CODE    CURVE DESCRIPTION
#----------   ------------   ------------------------------
 DEPT.F                  :   
 SPR .MV     07 010 01 00:   SPONTANEOUS POTENTIAL
 SGRD.OHMM   07 220 05 00:   SHALLOW GUARD RESISTIVITY
 ILD .OHMM   07 120 46 00:   INDUCTION LOG DEEP RESISTIVITY
 ILM .OHMM   07 120 44 00:   INDUCTION LOG MEDIUM
 CALD.IN     45 280 60 00:   CALIPER
 GRD .GAPI   45 310 01 00:   GAMMA RAY FROM DENSITY LOG
 CORR.G/C3   45 356 01 00:   DENSITY CORRECTION
 RHOB.G/C3   45 350 01 00:   BULK DENSITY
 DPHI.DEC    45 890 12 00:   DENSITY POROSITY SANDSTONE
 NPHI.DEC    42 890 03 00:   NEUTRON POROSITY SANDSTONE
~PARAMETER INFORMATION
#MNEM.UNIT          VALUE    DESCRIPTION
#----------   ------------   ------------------------------
 PD  .                 GL:   PERMANENT DATUM
 EPD .F              5160:   ELEVATION PERMANENT DATUM
 LMF .                 KB:   LOG MEASURED FROM
 DAPD.F                 5:   FEET ABOVE PERMANENT DATUM
 DMF .                 KB:   DRILLING MEASURED FROM
 EKB .F              5165:   KELLING BUSHING
 EGL .F              5160:   GROUND LEVEL
 DATE.            6-21-80:   RUN DATE
 RUN .                  1:   RUN NUMBER
 DD  .F               508:   DEPTH DRILLER
 DL  .F               517:   DEPTH LOGGER
 BLI .F               515:   BOTTOM LOG INTERVAL
 TLI .F                35:   TOP LOG INTERVAL
 BS  .IN            9.875:   BIT SIZE
 BSD .F               508:   BIT SIZE AT DEPTH
 DFT .            KCL MUD:   DRILLING FLUID TYPE
 DFD .                9.2:   DRILLING FLUID DENSITY
 DFV .                 50:   DRILLING FLUID VISCOSITY
 DFPH.                8.5:   DRILLING FLUID PH
 DFL .                  8:   DRILLING FLUID LOSS
 MSS .           FLOWLINE:   MUD SAMPLE SOURCE
 RMS .OHMM            .42:   RESISTIVITY MUD SAMPLE
 MST .F                63:   MUD SAMPLE TEMPERATURE
 RMF .OHMM            .34:   RESISTIVITY MUD FILTRATE SAMPLE
 MFST.F                63:   MUD FILTRATE SAMPLE TEMPERATURE
 RMC .OHMM             .5:   RESISTIVITY MUD CAKE
 MCST.F                63:   MUD CAKE SAMPLE TEMPERATURE
 MFSS.           MEASURED:   MUD FILTRATE SAMPLE SOURCE
 MCSS.           MEASURED:   MUD CAKE SAMPLE SOURCE
 RMB .OHMM            .35:   RESISTIVITY MUD AT BHT
 BHT .F                75:   BOTTOM HOLE TEMPERATURE
 TCS .HRS             1.5:   TIME CURCULATED STOPPED
 MRT .F                75:   MAXIMUM RECORDED TEMPERATURE
 LUN .               9685:   LOGGING UNIT NUMBER
 LUL .             CASPER:   LOGGING UNIT LOCATION
 ENGI.            TOTHILL:   RECORDING ENGINEER
 WITN.           DINSMORE:   WITNESSED BY
 CLNT.            A2DTECH:   CLIENT CODE
 ORIG.           5" PRINT:   ORIGIN OF DATA
 UWI .       490251082100:   UNIQUE WELL ID
 DICO. A2D Technologies, Inc.:   DIGITIZING COMPANY
~OTHER INFORMATION
~A   DEPT      SPR       SGRD        ILD        ILM        CALD       GRD         CORR       RHOB       DPHI       NPHI 
# ...
  197.5000   -49.4238     6.0075     4.9112     5.1358    10.0993   101.7265     0.0458     2.4178     0.1563     0.3002
  198.0000   -49.6291     5.7890     4.8109     5.0311    10.0982   101.3175     0.0424     2.4122     0.1586     0.3004
  198.5000   -50.2341     5.5367     4.5317     4.9286    10.0972   101.7574     0.0466     2.4081     0.1614     0.3057
  199.0000   -50.5239     5.2955     4.2830     4.7681    10.0961   103.1823     0.0522     2.4059     0.1652     0.3144
  199.5000   -50.6843     5.0647     4.0684     4.4642    10.0951   104.5442     0.0522     2.3942     0.1639     0.3195
  200.0000   -51.1737     4.7220     3.7004     4.1498    10.0940   105.9657     0.0536     2.3955     0.1611     0.3253
  200.5000   -51.6229     4.3889     3.3919     3.7922    10.0930   106.2894     0.0763     2.4050     0.1597     0.3370
  201.0000   -51.9361     4.0792     3.1091     3.4655    10.0919   105.0287     0.0925     2.4072     0.1664     0.3448
  201.5000   -51.9279     3.7819     2.8500     3.1669    10.0909   103.5893     0.0922     2.3978     0.1706     0.3509
  202.0000   -51.9230     3.4707     2.6124     2.8940    10.0898   103.5863     0.0937     2.3889     0.1712     0.3570
  202.5000   -51.9231     3.0540     2.3946     2.6447    10.0888   104.2355     0.1062     2.3884     0.1742     0.3605
  203.0000   -51.9231     2.6878     2.1946     2.4168    10.0878   104.8986     0.1193     2.3835     0.1808     0.3615
  203.5000   -51.9231     2.3608     2.0115     2.2086    10.0867   104.1468     0.1160     2.3713     0.1870     0.3620
  204.0000   -51.9231     2.2417     1.8967     2.0411    10.0857   103.1066     0.1143     2.3588     0.1894     0.3609
  204.5000   -51.9236     2.2003     1.8613     2.0858    10.0846   102.0636     0.1198     2.3553     0.1939     0.3605
  205.0000   -51.9281     2.4414     1.9055     2.2873    10.0836   101.0249     0.1259     2.3523     0.1970     0.3612
  205.5000   -51.7275     4.0353     1.9680     2.5070    10.0825    99.9663     0.1200     2.3444     0.1931     0.3592
  206.0000   -51.4961     4.0450     2.0490     2.7476    10.0815    99.5514     0.1081     2.3438     0.1812     0.3478
  206.5000   -50.9002     2.6087     2.2359     3.0112    10.0804    99.5251     0.1001     2.3572     0.1619     0.3383
  207.0000   -50.2740     3.9836     2.4576     3.2942    10.0794   100.6221     0.1012     2.3823     0.1426     0.3307
  207.5000   -49.6529     5.3565     2.7090     3.5550    10.0783   102.3676     0.1039     2.4165     0.1252     0.3270
  208.0000   -49.2886     5.9711     2.9862     3.8409    10.0773   104.1276     0.1063     2.4593     0.1206     0.3253
  208.5000   -49.2576     5.7803     3.2916     4.0731    10.0762   105.8881     0.1046     2.4694     0.1156     0.3233
  209.0000   -49.2036     5.4802     3.6382     4.1912    10.0752   107.6462     0.1019     2.4771     0.1107     0.3181
  209.5000   -49.1503     5.5350     3.7615     4.3126    10.0741   109.4143     0.1006     2.4857     0.1066     0.3181
  210.0000   -49.0965     5.6352     3.8927     4.4376    10.0731   110.4857     0.1017     2.4943     0.1068     0.3181
  210.5000   -49.0428     5.5231     4.0307     4.4655    10.0720   110.9029     0.1028     2.4982     0.1072     0.3149
  211.0000   -48.9891     5.3314     4.0684     4.4655    10.0710   110.0149     0.1040     2.4962     0.1084     0.3113
  211.5000   -48.9354     5.1831     4.0684     4.4655    10.0699   108.9747     0.1030     2.4916     0.1095     0.3137
  212.0000   -48.8817     5.6338     4.0688     4.4655    10.0689   107.9306     0.1010     2.4869     0.1098     0.3137
  212.5000   -48.8280     5.5114     4.0684     4.4211    10.0679   106.8907     0.1003     2.4897     0.1050     0.3136
  213.0000   -48.7743     5.4316     4.0187     4.3771    10.0668   105.8204     0.1047     2.4961     0.1050     0.3135
  213.5000   -48.7206     5.7958     3.9331     4.3068    10.0658   105.4849     0.1162     2.4999     0.1134     0.3133
  214.0000   -48.6670     5.5797     3.7709     4.1332    10.0647   106.5949     0.1160     2.4861     0.1209     0.3153
  214.5000   -48.6134     5.2425     3.5910     3.9676    10.0637   107.9228     0.1045     2.4713     0.1234     0.3316
  215.0000   -48.5599     3.5614     3.4197     3.8085    10.0626   109.2635     0.0959     2.4665     0.1273     0.3379
  215.5000   -48.5047     2.7387     3.2563     3.6559    10.0616   110.4658     0.1010     2.4618     0.1257     0.3440
  216.0000   -48.4093     3.5759     3.1047     3.5380    10.0605   110.3863     0.1068     2.4588     0.1289     0.3501
  216.5000   -48.1941     4.5920     3.0617     3.6153    10.0595   109.9717     0.1102     2.4572     0.1292     0.3540
  217.0000   -47.9817     4.6350     3.0490     3.7981    10.0584   109.5773     0.1086     2.4557     0.1282     0.3521
  217.5000   -47.7708     3.2535     3.0457     3.9918    10.0587   109.1841     0.1058     2.4565     0.1277     0.3500
  218.0000   -47.5556     4.0013     3.1467     4.1449    10.0605   108.7901     0.0932     2.4597     0.1285     0.3500
  218.5000   -47.3675     5.1855     3.2636     4.1449    10.0623   108.3861     0.0807     2.4574     0.1307     0.3434
  219.0000   -46.7650     5.3341     3.4265     4.1449    10.0641   108.5352     0.0681     2.4539     0.1345     0.3376
  219.5000   -46.1730     5.0140     3.5975     4.3167    10.0659   109.3202     0.0556     2.4481     0.1336     0.3261
  220.0000   -45.5858     4.9472     3.7770     4.4867    10.0677   110.0989     0.0461     2.4475     0.1318     0.3176
  220.5000   -45.2402     5.9166     3.9655     4.6633    10.0695   110.8772     0.0463     2.4503     0.1301     0.3132
  221.0000   -45.2390     6.2639     4.1258     4.8470    10.0714   111.6550     0.0463     2.4532     0.1298     0.3137
  221.5000   -44.9815     6.3615     4.2730     4.9963    10.0732   112.4327     0.0464     2.4559     0.1285     0.3129
  222.0000   -44.3788     6.1289     4.4255     5.1026    10.0750   113.2111     0.0468     2.4597     0.1213     0.3122
  222.5000   -43.8363     6.9176     4.5836     5.2111    10.0768   113.9893     0.0573     2.4734     0.1054     0.3140
  223.0000   -44.0583     6.9176     4.7479     5.3218    10.0786   114.7615     0.0729     2.4869     0.1046     0.3177
  223.5000   -45.1252     6.3615     4.8995     5.3797    10.0804   115.2554     0.0846     2.4989     0.1073     0.3185
  224.0000   -45.7847     6.7977     4.9501     5.3797    10.0822   115.1749     0.0834     2.4951     0.1137     0.3157
  224.5000   -45.3051     6.6138     4.9472     5.3797    10.0840   114.7414     0.0680     2.4789     0.1157     0.3104
  225.0000   -44.7639     6.4252     4.9013     5.2467    10.0858   114.3114     0.0663     2.4782     0.1111     0.3061
  225.5000   -44.6422     6.2395     4.7950     5.1555    10.0877   113.8830     0.0735     2.4870     0.1085     0.3046
  226.0000   -45.1495     6.0602     4.7096     5.0659    10.0895   113.4532     0.0818     2.4930     0.1115     0.3030
  226.5000   -45.6595     5.9037     4.6257     4.9779    10.0913   113.0307     0.0817     2.4852     0.1185     0.3073
  227.0000   -45.5016     5.8483     4.5432     4.9013    10.0931   112.2077     0.0762     2.4757     0.1209     0.3121
  227.5000   -45.3380     5.8001     4.4633     4.8664    10.0949   111.1654     0.0722     2.4701     0.1201     0.3168
  228.0000   -45.1782     5.7421     4.3733     4.7908    10.0967   110.1177     0.0738     2.4717     0.1185     0.3216
  228.5000   -45.0305     5.5839     4.2218     4.7289    10.0985   109.0732     0.0789     2.4739     0.1169     0.3245
  229.0000   -44.7165     5.4300     4.0747     4.6679    10.1003   108.4837     0.0839     2.4762     0.1153     0.3268
  229.5000   -44.3757     5.2804     3.9329     4.6077    10.1021   108.4822     0.0884     2.4785     0.1105     0.3319
  230.0000   -44.0349     5.0632     3.7961     4.3665    10.1039   108.7479     0.0947     2.4849     0.1038     0.3333
  230.5000   -43.6951     4.8571     3.6640     4.0781    10.1058   109.0525     0.1016     2.4939     0.1038     0.3261
