~VERSION INFORMATION
 VERS.                2.0:   CWLS LOG ASCII STANDARD - VERSION 2.0
 WRAP.                 NO:   ONE LINE PER DEPTH STEP
~WELL INFORMATION
#MNEM.UNIT      DATA TYPE    INFORMATION
#----------   ------------   ------------------------------
 STRT.F           30.0000:   START DEPTH
 STOP.F          440.0000:   STOP DEPTH
 STEP.F            0.5000:   STEP LENGTH
 NULL.          -999.2500:   NO VALUE
 COMP. FENIX & SCISSON INC:   COMPANY
 WELL.    54 SX 10 #54-10:   WELL
 FLD .             TEAPOT:   FIELD
 LOC .      S10 T38N R78W:   LOCATION
 CNTY.            NATRONA:   COUNTY
 STAT.            WYOMING:   STATE
 CTRY. UNITED STATES OF AMERICA:   COUNTRY
 SRVC.            Unknown:   SERVICE COMPANY
 DATE.        10-NOV-1978:   LOGDATE
 API .       490251072800:   API NUMBER
~CURVE INFORMATION
#MNEM.UNIT       API CODE    CURVE DESCRIPTION
#----------   ------------   ------------------------------
 DEPT.F                  :   
 CALD.IN     45 280 60 00:   CALIPER
 GRD .GAPI   45 310 01 00:   GAMMA RAY FROM DENSITY LOG
 DPHI.DEC    45 890 12 00:   DENSITY POROSITY SANDSTONE
 RHOB.G/C3   45 350 01 00:   BULK DENSITY
 CORR.G/C3   45 356 01 00:   DENSITY CORRECTION
 SPR .MV     05 010 01 00:   SPONTANEOUS POTENTIAL FROM RES.
 ILD .OHMM   05 120 46 00:   INDUCTION LOG DEEP
 SN  .OHMM   05 040 16 00:   SHORT NORMAL 16"
~PARAMETER INFORMATION
#MNEM.UNIT          VALUE    DESCRIPTION
#----------   ------------   ------------------------------
 PD  .                 GL:   PERMANENT DATUM
 EPD .F              5196:   ELEVATION PERMANENT DATUM
 LMF .                 KB:   LOG MEASURED FROM
 DAPD.F                 4:   FEET ABOVE PERMANENT DATUM
 DMF .                 KB:   DRILLING MEASURED FROM
 EKB .F              5200:   KELLING BUSHING
 EGL .F              5196:   GROUND LEVEL
 DATE.           11-10-78:   RUN DATE
 RUN .                  1:   RUN NUMBER
 DD  .F               435:   DEPTH DRILLER
 DL  .F               442:   DEPTH LOGGER
 BLI .F               436:   BOTTOM LOG INTERVAL
 TLI .F                50:   TOP LOG INTERVAL
 CS  .IN            8.625:   CASING SIZE
 CBD .F                40:   CASING BOTTOM DRILLER
 CBL .F                50:   CASING BOTTOM LOGGER
 BS  .IN            7.875:   BIT SIZE
 BSD .F               435:   BIT SIZE AT DEPTH
 DFT .            SEA MUD:   DRILLING FLUID TYPE
 DFD .                8.7:   DRILLING FLUID DENSITY
 DFV .                 34:   DRILLING FLUID VISCOSITY
 DFPH.                 10:   DRILLING FLUID PH
 MSS .            MUD PIT:   MUD SAMPLE SOURCE
 RMS .OHMM             .4:   RESISTIVITY MUD SAMPLE
 MST .F                57:   MUD SAMPLE TEMPERATURE
 RMF .OHMM            .34:   RESISTIVITY MUD FILTRATE SAMPLE
 MFST.F                64:   MUD FILTRATE SAMPLE TEMPERATURE
 RMC .OHMM            .44:   RESISTIVITY MUD CAKE
 MCST.F                60:   MUD CAKE SAMPLE TEMPERATURE
 MFSS.            MUD PIT:   MUD FILTRATE SAMPLE SOURCE
 MCSS.            MUD PIT:   MUD CAKE SAMPLE SOURCE
 RMB .OHMM            .36:   RESISTIVITY MUD AT BHT
 BHT .F                72:   BOTTOM HOLE TEMPERATURE
 TCS .HRS               1:   TIME CURCULATED STOPPED
 MRT .F                70:   MAXIMUM RECORDED TEMPERATURE
 LUN .               3006:   LOGGING UNIT NUMBER
 LUL .               CASP:   LOGGING UNIT LOCATION
 ENGI.             MILLER:   RECORDING ENGINEER
 WITN.           DINSMORE:   WITNESSED BY
 CLNT.            A2DTECH:   CLIENT CODE
 ORIG.           5" PRINT:   ORIGIN OF DATA
 UWI .       490251072800:   UNIQUE WELL ID
 DICO. A2D Technologies, Inc.:   DIGITIZING COMPANY
~OTHER INFORMATION
~A   DEPT     CALD         GRD      DPHI       RHOB       CORR        SPR        ILD         SN   
# ...
   70.5000     8.1891   112.7216     0.1188     2.4811     0.0333   -46.9860    11.1936     9.7811
   71.0000     8.2237   110.4355     0.1153     2.4872     0.0327   -46.9781    11.2396     9.9043
   71.5000     8.2480   108.6201     0.1193     2.4932     0.0294   -46.9701    11.2863    10.0290
   72.0000     8.2478   108.3034     0.1268     2.4905     0.0261   -46.9621    11.3528    10.1553
   72.5000     8.2469   108.7480     0.1288     2.4828     0.0228   -46.9541    11.4858    10.2833
   73.0000     8.1903   111.8139     0.1276     2.4739     0.0205   -46.9461    11.6203    10.4121
   73.5000     8.0975   116.2532     0.1263     2.4711     0.0267   -46.9381    11.7564    10.5386
   74.0000     7.9983   119.3030     0.1241     2.4731     0.0392   -46.9301    11.8817    10.6271
   74.5000     7.9029   116.6196     0.1178     2.4776     0.0578   -46.9221    11.9838    10.7163
   75.0000     7.8084   114.4924     0.1110     2.4848     0.0763   -46.9141    12.0868    10.8063
   75.5000     7.7148   112.3390     0.1034     2.5035     0.0948   -46.9061    12.1906    10.8970
   76.0000     7.6230   110.4905     0.1076     2.5227     0.1133   -46.8981    12.2953    10.9885
   76.5000     7.5670   108.9020     0.1136     2.5276     0.1002   -46.8901    12.4010    11.0808
   77.0000     7.5174   107.2993     0.1196     2.5088     0.0781   -46.8821    12.5075    11.1738
   77.5000     7.4729   105.2061     0.1256     2.4935     0.0559   -46.8741    12.6150    11.3301
   78.0000     7.4770   102.5086     0.1317     2.4813     0.0336   -46.8661    12.7234    11.5480
   78.5000     7.4819    99.8143     0.1355     2.4723     0.0218   -46.8581    12.8327    11.7702
   79.0000     7.4867    98.8527     0.1390     2.4642     0.0219   -46.8501    13.0941    11.9966
   79.5000     7.4914    99.3365     0.1425     2.4583     0.0219   -46.8441    13.2111    12.1942
   80.0000     7.4961    99.7916     0.1469     2.4524     0.0219   -46.8442    13.2111    12.2781
   80.5000     7.5008    99.8106     0.1539     2.4466     0.0219   -46.8442    13.2111    12.3631
   81.0000     7.5056    98.2416     0.1595     2.4410     0.0219   -46.8442    13.2112    12.4487
   81.5000     7.5095    96.7271     0.1615     2.4288     0.0219   -46.8442    13.1618    12.5349
   82.0000     7.5491    95.2250     0.1590     2.4181     0.0219   -46.8442    13.0677    12.6247
   82.5000     7.6213    94.3490     0.1518     2.4169     0.0219   -46.8442    12.9743    12.5490
   83.0000     7.7634    95.6111     0.1446     2.4260     0.0219   -46.8442    12.8816    12.4711
   83.5000     7.9170    97.5053     0.1374     2.4397     0.0225   -46.8442    12.7896    12.3936
   84.0000     8.1385    99.4352     0.1334     2.4536     0.0238   -46.8443    12.6983    12.3166
   84.5000     8.3417    99.7844     0.1316     2.4613     0.0251   -46.8456    12.6076    12.2400
   85.0000     8.4087    99.8367     0.1349     2.4655     0.0264   -46.8447    12.5106    12.1640
   85.5000     8.3905    99.8888     0.1401     2.4684     0.0282   -46.7491    12.4416    12.0884
   86.0000     8.3338    99.9811     0.1454     2.4575     0.0392   -46.2532    12.3673    12.0133
   86.5000     8.2768    97.9991     0.1495     2.4465     0.0506   -45.7674    12.2934    11.9387
   87.0000     8.2218    95.6245     0.1313     2.4399     0.0686   -45.2833    12.2199    11.8645
   87.5000     8.0560    93.9609     0.1163     2.4501     0.1167   -44.8598    12.1468    11.7907
   88.0000     7.8668    93.7061     0.1013     2.4761     0.1638   -44.8707    12.0742    11.7175
   88.5000     7.7128    93.5834     0.0861     2.5017     0.1875   -44.8607    12.0020    11.6447
   89.0000     7.6092    93.6628     0.0826     2.5366     0.1670   -44.8467    11.9303    11.5723
   89.5000     7.5546    93.7287     0.1095     2.5203     0.1225   -44.8327    11.8590    11.5004
   90.0000     7.5260    95.0428     0.1321     2.4907     0.0780   -44.8186    11.7881    11.4290
   90.5000     7.5153    96.6561     0.1550     2.4608     0.0328   -44.8046    11.7177    11.3580
   91.0000     7.5048    98.2847     0.1610     2.4373     0.0125   -44.7905    11.6476    11.2874
   91.5000     7.4938    99.8782     0.1622     2.4249     0.0118   -44.7765    11.5780    11.2173
   92.0000     7.5072    99.8825     0.1622     2.4171     0.0151   -44.7625    11.5088    11.1476
   92.5000     7.5266    99.8017     0.1619     2.4170     0.0184   -44.7484    11.4400    11.0783
   93.0000     7.5714    99.7856     0.1580     2.4169     0.0217   -44.7344    11.3716    11.0095
   93.5000     7.6627   100.1583     0.1436     2.4220     0.0238   -44.7203    11.3036    10.9411
   94.0000     7.7582   101.6358     0.1292     2.4419     0.0233   -44.7063    11.2361    10.8731
   94.5000     7.8537   102.3007     0.1147     2.4629     0.0230   -44.6922    11.1689    10.8055
   95.0000     7.9492    98.1400     0.1050     2.4839     0.0226   -44.6782    11.1021    10.7384
   95.5000     8.0444    95.9014     0.1106     2.5092     0.0222   -44.6642    11.0358    10.6717
   96.0000     8.1592    95.2677     0.1211     2.5003     0.0218   -44.6501    10.9698    10.6007
   96.5000     8.3038    98.2795     0.1309     2.4867     0.0214   -44.6361    10.9043    10.5185
   97.0000     8.3575   100.7535     0.1339     2.4733     0.0211   -44.6220    10.8391    10.4370
   97.5000     8.3414   102.8067     0.1369     2.4650     0.0207   -44.6080    10.7743    10.3560
   98.0000     8.3068   101.2719     0.1388     2.4562     0.0203   -44.5939    10.7099    10.2758
   98.5000     8.2681    99.7876     0.1388     2.4533     0.0198   -44.5799    10.6459    10.1961
   99.0000     8.1613    98.7178     0.1388     2.4532     0.0249   -44.5658    10.5822    10.1171
   99.5000     8.0658    99.1841     0.1318     2.4537     0.0340   -44.5518    10.5190    10.0386
  100.0000     7.9713   100.0102     0.1241     2.4598     0.0483   -44.5378    10.4561     9.9608
  100.5000     7.8735   100.6887     0.1173     2.4719     0.0628   -44.5237    10.3936     9.8836
  101.0000     7.8307   100.0736     0.1175     2.4840     0.0603   -44.5097    10.3315     9.8070
  101.5000     7.8029    99.5686     0.1185     2.4950     0.0486   -44.4956    10.2697     9.7310
  102.0000     7.7905    99.9147     0.1224     2.4892     0.0371   -44.4816    10.2083     9.6555
  102.5000     7.7902   100.2637     0.1293     2.4818     0.0257   -44.4675    10.1473     9.5807
  103.0000     7.7902   100.3149     0.1352     2.4744     0.0153   -44.4535    10.0867     9.5064
  103.5000     7.7903   100.2861     0.1349     2.4669     0.0134   -44.4395    10.0264     9.4327
  104.0000     7.7903   100.2549     0.1365     2.4636     0.0114   -44.4254     9.9664     9.3596
  104.5000     7.7902   100.2238     0.1410     2.4644     0.0098   -44.4114     9.9069     9.2870
  105.0000     7.7903   100.1898     0.1456     2.4588     0.0094   -44.3973     9.8480     9.2150
  105.5000     7.7901   100.1634     0.1503     2.4519     0.0091   -44.3833     9.7902     9.1436
  106.0000     7.8047   100.4450     0.1503     2.4451     0.0088   -44.3693     9.6837     9.0727
  106.5000     7.8289   102.2225     0.1503     2.4381     0.0086   -44.3552     9.5805     9.0028
  107.0000     7.8532   102.3783     0.1503     2.4368     0.0083   -44.3412     9.4786     8.9257
  107.5000     7.8775   102.1996     0.1511     2.4364     0.0080   -44.3271     9.3778     8.8017
  108.0000     7.9018   102.1243     0.1550     2.4361     0.0077   -44.3127     9.2780     8.6791
  108.5000     7.9261   102.4472     0.1589     2.4306     0.0074   -44.2985     9.1783     8.5582
  109.0000     7.9491   102.9445     0.1618     2.4243     0.0071   -44.2876     9.1045     8.4390
  109.5000     7.9555   103.4495     0.1572     2.4179     0.0068   -44.4448     9.0222     8.3214
  110.0000     7.9614   103.9431     0.1517     2.4170     0.0065   -44.8089     9.1080     8.2391
  110.5000     7.9673   104.0307     0.1461     2.4242     0.0062   -45.1708     9.1673     8.3194
