~VERSION INFORMATION
 VERS.                2.0:   CWLS LOG ASCII STANDARD - VERSION 2.0
 WRAP.                 NO:   ONE LINE PER DEPTH STEP
~WELL INFORMATION
#MNEM.UNIT      DATA TYPE    INFORMATION
#----------   ------------   ------------------------------
 STRT.F           23.0000:   START DEPTH
 STOP.F         2536.0000:   STOP DEPTH
 STEP.F            0.5000:   STEP LENGTH
 NULL.          -999.2500:   NO VALUE
 COMP. FENIX & SCISSON INC:   COMPANY
 WELL.     14 SHX 3 #14-3:   WELL
 FLD .             TEAPOT:   FIELD
 LOC .       S3 T38N R78W:   LOCATION
 CNTY.            NATRONA:   COUNTY
 STAT.            WYOMING:   STATE
 CTRY. UNITED STATES OF AMERICA:   COUNTRY
 SRVC.           BIRDWELL:   SERVICE COMPANY
 DATE.        20-MAR-1979:   LOGDATE
 API .       490251073900:   API NUMBER
~CURVE INFORMATION
#MNEM.UNIT       API CODE    CURVE DESCRIPTION
#----------   ------------   ------------------------------
 DEPT.F                  :   
 SPR .MV     07 010 01 00:   SPONTANEOUS POTENTIAL
 SN  .OHMM   07 040 16 00:   SHORT NORMAL 16'
 IL  .OHMM   07 120 00 00:   INDUCTION LOG
 GRD .GAPI   45 310 01 00:   GAMMA RAY FROM DENSITY LOG
 CALD.IN     45 280 60 00:   CALIPER
 CORR.G/C3   45 356 01 00:   DENSITY CORRECTION
 DEN .G/C3   45 350 01 00:   
 DPHI.DEC    45 890 12 00:   DENSITY POROSITY SANDSTONE
~PARAMETER INFORMATION
#MNEM.UNIT          VALUE    DESCRIPTION
#----------   ------------   ------------------------------
 PD  .                 GL:   PERMANENT DATUM
 EPD .F              5208:   ELEVATION PERMANENT DATUM
 LMF .                 KB:   LOG MEASURED FROM
 DAPD.F                10:   FEET ABOVE PERMANENT DATUM
 DMF .                 KB:   DRILLING MEASURED FROM
 EKB .F              5218:   KELLING BUSHING
 EGL .F              5208:   GROUND LEVEL
 DATE.            3-20-79:   RUN DATE
 RUN .                  1:   RUN NUMBER
 DD  .F              2580:   DEPTH DRILLER
 DL  .F              2536:   DEPTH LOGGER
 BLI .F              2536:   BOTTOM LOG INTERVAL
 TLI .F               400:   TOP LOG INTERVAL
 CS  .IN            9.625:   CASING SIZE
 CBL .F               680:   CASING BOTTOM LOGGER
 BS  .IN             8.75:   BIT SIZE
 BSD .F              2580:   BIT SIZE AT DEPTH
 DFT .                AIR:   DRILLING FLUID TYPE
 TCS .HRS               6:   TIME CURCULATED STOPPED
 LUN .               2959:   LOGGING UNIT NUMBER
 LUL .             CASPER:   LOGGING UNIT LOCATION
 ENGI.            ROLLINS:   RECORDING ENGINEER
 WITN.           DINSMORE:   WITNESSED BY
 CLNT.            A2DTECH:   CLIENT CODE
 ORIG. 1", 2", 2.5", 5" PRINT:   ORIGIN OF DATA
 UWI .       490251073900:   UNIQUE WELL ID
 DICO. A2D Technologies, Inc.:   DIGITIZING COMPANY
~OTHER INFORMATION
~A   DEPT      SPR         SN         IL        GRD       CALD       CORR        DEN       DPHI   
   23.0000  -999.2500  -999.2500  -999.2500   127.3000  -999.2500  -999.2500  -999.2500  -999.2500
   23.5000  -999.2500  -999.2500  -999.2500   129.4590  -999.2500  -999.2500  -999.2500  -999.2500
   24.0000  -999.2500  -999.2500  -999.2500   131.2125  -999.2500  -999.2500  -999.2500  -999.2500
   24.5000  -999.2500  -999.2500  -999.2500   136.3692  -999.2500  -999.2500  -999.2500  -999.2500
   25.0000  -999.2500  -999.2500  -999.2500   139.4899  -999.2500  -999.2500  -999.2500  -999.2500
   25.5000  -999.2500  -999.2500  -999.2500   139.4009  -999.2500  -999.2500  -999.2500  -999.2500
   26.0000  -999.2500  -999.2500  -999.2500   139.2851  -999.2500  -999.2500  -999.2500  -999.2500
   26.5000  -999.2500  -999.2500  -999.2500   139.2100  -999.2500  -999.2500  -999.2500  -999.2500
   27.0000  -999.2500  -999.2500  -999.2500   139.2046  -999.2500  -999.2500  -999.2500  -999.2500
   27.5000  -999.2500  -999.2500  -999.2500   138.5730  -999.2500  -999.2500  -999.2500  -999.2500
   28.0000  -999.2500  -999.2500  -999.2500   139.9307  -999.2500  -999.2500  -999.2500  -999.2500
   28.5000  -999.2500  -999.2500  -999.2500   119.1531  -999.2500  -999.2500  -999.2500  -999.2500
   29.0000  -999.2500  -999.2500  -999.2500   118.4092  -999.2500  -999.2500  -999.2500  -999.2500
   29.5000  -999.2500  -999.2500  -999.2500   117.7256  -999.2500  -999.2500  -999.2500  -999.2500
   30.0000  -999.2500  -999.2500  -999.2500   116.9510  -999.2500  -999.2500  -999.2500  -999.2500
   30.5000  -999.2500  -999.2500  -999.2500   116.1424  -999.2500  -999.2500  -999.2500  -999.2500
   31.0000  -999.2500  -999.2500  -999.2500   114.5966  -999.2500  -999.2500  -999.2500  -999.2500
   31.5000  -999.2500  -999.2500  -999.2500   116.2812  -999.2500  -999.2500  -999.2500  -999.2500
   32.0000  -999.2500  -999.2500  -999.2500   118.5390  -999.2500  -999.2500  -999.2500  -999.2500
   32.5000  -999.2500  -999.2500  -999.2500   120.8008  -999.2500  -999.2500  -999.2500  -999.2500
   33.0000  -999.2500  -999.2500  -999.2500   122.1312  -999.2500  -999.2500  -999.2500  -999.2500
   33.5000  -999.2500  -999.2500  -999.2500   121.3620  -999.2500  -999.2500  -999.2500  -999.2500
   34.0000  -999.2500  -999.2500  -999.2500   120.3593  -999.2500  -999.2500  -999.2500  -999.2500
   34.5000  -999.2500  -999.2500  -999.2500   119.3476  -999.2500  -999.2500  -999.2500  -999.2500
   35.0000  -999.2500  -999.2500  -999.2500   118.3352  -999.2500  -999.2500  -999.2500  -999.2500
   35.5000  -999.2500  -999.2500  -999.2500   117.3098  -999.2500  -999.2500  -999.2500  -999.2500
   36.0000  -999.2500  -999.2500  -999.2500   116.1698  -999.2500  -999.2500  -999.2500  -999.2500
   36.5000  -999.2500  -999.2500  -999.2500   114.2035  -999.2500  -999.2500  -999.2500  -999.2500
   37.0000  -999.2500  -999.2500  -999.2500   112.3495  -999.2500  -999.2500  -999.2500  -999.2500
   37.5000  -999.2500  -999.2500  -999.2500   112.7965  -999.2500  -999.2500  -999.2500  -999.2500
   38.0000  -999.2500  -999.2500  -999.2500   114.0766  -999.2500  -999.2500  -999.2500  -999.2500
   38.5000  -999.2500  -999.2500  -999.2500   114.5452  -999.2500  -999.2500  -999.2500  -999.2500
   39.0000  -999.2500  -999.2500  -999.2500   113.2351  -999.2500  -999.2500  -999.2500  -999.2500
   39.5000  -999.2500  -999.2500  -999.2500   110.3222  -999.2500  -999.2500  -999.2500  -999.2500
   40.0000  -999.2500  -999.2500  -999.2500   107.3760    12.4397     0.2319     2.0015     0.2998
   40.5000  -999.2500  -999.2500  -999.2500   109.3339    12.3752     0.1668     2.0055     0.2998
   41.0000  -999.2500  -999.2500  -999.2500   115.7526    12.3607     0.1017     2.1163     0.2958
   41.5000  -999.2500  -999.2500  -999.2500   121.3046    12.3627     0.0311     2.2500     0.2397
   42.0000  -999.2500  -999.2500  -999.2500   119.3133    12.3651     0.0312     2.3604     0.2001
   42.5000  -999.2500  -999.2500  -999.2500   116.5115    12.3678     0.0313     2.3967     0.1737
   43.0000  -999.2500  -999.2500  -999.2500   113.7742    12.3704     0.0280     2.3881     0.1793
   43.5000  -999.2500  -999.2500  -999.2500   111.4406    12.3730     0.0133     2.3647     0.1949
   44.0000  -999.2500  -999.2500  -999.2500   108.4354    12.3756     0.0093     2.3413     0.2106
   44.5000  -999.2500  -999.2500  -999.2500   102.3450    12.3790     0.0315     2.3174     0.2215
   45.0000  -999.2500  -999.2500  -999.2500    98.5465    12.3533     0.0567     2.3523     0.2067
   45.5000  -999.2500  -999.2500  -999.2500   101.9879    12.3211     0.0640     2.3898     0.1808
   46.0000  -999.2500  -999.2500  -999.2500   104.2905    12.2887     0.0752     2.4276     0.1549
   46.5000  -999.2500  -999.2500  -999.2500   101.4346    12.2560     0.0880     2.4649     0.1323
   47.0000  -999.2500  -999.2500  -999.2500    99.9964    12.2218     0.0762     2.4544     0.1423
   47.5000  -999.2500  -999.2500  -999.2500    98.9001    12.2670     0.0684     2.4444     0.1456
   48.0000  -999.2500  -999.2500  -999.2500    97.8030    12.3244     0.0751     2.4547     0.1375
   48.5000  -999.2500  -999.2500  -999.2500    96.7077    12.3826     0.0787     2.4643     0.1325
   49.0000  -999.2500  -999.2500  -999.2500    95.7143    12.4406     0.0761     2.4597     0.1364
   49.5000  -999.2500  -999.2500  -999.2500    95.8920    12.4981     0.0736     2.4586     0.1361
   50.0000  -999.2500  -999.2500  -999.2500    96.2663    12.5374     0.0646     2.4568     0.1370
   50.5000  -999.2500  -999.2500  -999.2500    93.8809    12.5261     0.0545     2.4425     0.1447
   51.0000  -999.2500  -999.2500  -999.2500    92.5906    12.5161     0.0479     2.4339     0.1476
   51.5000  -999.2500  -999.2500  -999.2500    94.3687    12.5060     0.0522     2.4418     0.1484
   52.0000   -27.2636     0.2028     5.0218    95.7042    12.4999     0.0486     2.4301     0.1543
   52.5000   -27.9927     0.2053     5.0396    94.8542    12.5290     0.0417     2.4123     0.1663
   53.0000   -28.4300     0.2072     5.0575    93.2198    12.5575     0.0353     2.4002     0.1737
   53.5000   -28.8674     0.2098     5.1042    92.6671    12.5857     0.0350     2.3972     0.1721
   54.0000   -29.1959     0.2172     5.0844    94.2178    12.6139     0.0392     2.4113     0.1616
   54.5000   -29.6335     0.2266     5.1070    95.7248    12.6421     0.0433     2.4335     0.1511
   55.0000   -30.0707     4.1060     5.1251    97.2262    12.6703     0.0336     2.4460     0.1460
   55.5000   -30.4756     9.8583     5.1433    98.1280    12.6985     0.0191     2.4398     0.1482
   56.0000   -30.8887     0.9111     5.2090    95.7349    12.7267     0.0207     2.4372     0.1496
   56.5000   -31.3582     0.2066     5.2077    92.0559    12.7548     0.0231     2.4423     0.1472
   57.0000   -31.8307     0.8105     5.3851    88.3195    12.7827     0.0206     2.4367     0.1510
   57.5000   -32.3032     3.6991     5.6600    86.5578    12.7997     0.0180     2.4307     0.1544
   58.0000   -32.7753     2.7772     5.7948    88.1785    12.7989     0.0154     2.4410     0.1441
   58.5000   -33.2469     1.2325     5.9255    90.2331    12.7757     0.0126     2.4622     0.1333
   59.0000   -33.7228     1.4536     6.0590    92.3172    12.7515     0.0112     2.4839     0.1216
   59.5000   -33.9016     2.0730     6.1955    94.4122    12.7275     0.0131     2.4874     0.1220
   60.0000   -33.9037     3.0519     6.3352    96.3764    12.7036     0.0177     2.4803     0.1239
   60.5000   -33.9062     3.8385     6.4782    93.6195    12.6794     0.0219     2.4731     0.1258
   61.0000   -33.8344     3.9102     6.5029    94.3292    12.6316     0.0260     2.4701     0.1276
   61.5000   -33.7478     4.6183     6.5027    95.0180    12.4657     0.0282     2.4695     0.1295
   62.0000   -33.6600     4.8818     6.4609    92.1036    12.2991     0.0239     2.4685     0.1313
   62.5000   -33.5722     7.8962     6.3625    88.9524    12.1326     0.0199     2.4663     0.1337
   63.0000   -33.5036     8.1183     6.2656    86.5606    11.9621     0.0158     2.4581     0.1374
