~VERSION INFORMATION
 VERS.                2.0:   CWLS LOG ASCII STANDARD - VERSION 2.0
 WRAP.                 NO:   ONE LINE PER DEPTH STEP
~WELL INFORMATION
#MNEM.UNIT      DATA TYPE    INFORMATION
#----------   ------------   ------------------------------
 STRT.F           40.0000:   START DEPTH
 STOP.F         3444.0000:   STOP DEPTH
 STEP.F            0.5000:   STEP LENGTH
 NULL.          -999.2500:   NO VALUE
 COMP.    FENIX & SCISSON:   COMPANY
 WELL.     13-A-10 #13-10:   WELL
 FLD .            WILDCAT:   FIELD
 LOC .      S10 T38N R78W:   LOCATION
 CNTY.            NATRONA:   COUNTY
 STAT.            WYOMING:   STATE
 CTRY. UNITED STATES OF AMERICA:   COUNTRY
 SRVC.       Schlumberger:   SERVICE COMPANY
 DATE.        08-JUL-1970:   LOGDATE
 API .       490251090300:   API NUMBER
~CURVE INFORMATION
#MNEM.UNIT       API CODE    CURVE DESCRIPTION
#----------   ------------   ------------------------------
 DEPT.F                  :   
 ASN .OHMM   05 041 16 00:   AMPLIFIED SHORT NORMAL 16"
 CILD.MMHO   05 110 46 00:   CONDUCTIVITY INDUCTION LOG DEEP
 ILD .OHMM   05 120 46 00:   INDUCTION LOG DEEP
 SPR .MV     05 010 01 00:   SPONTANEOUS POTENTIAL FROM RES.
 CALD.IN     45 280 60 00:   CALIPER FROM DENSITY
 CORR.G/C3   45 356 01 00:   DENSITY CORRECTION
 DPHI.DEC    45 890 12 00:   DENSITY POROSITY SANDSTONE
 RHOB.G/C3   45 350 01 00:   BULK DENSITY
~PARAMETER INFORMATION
#MNEM.UNIT          VALUE    DESCRIPTION
#----------   ------------   ------------------------------
 PD  .                 GL:   PERMANENT DATUM
 EPD .F              5295:   ELEVATION PERMANENT DATUM
 LMF .                 KB:   LOG MEASURED FROM
 DAPD.F                10:   FEET ABOVE PERMANENT DATUM
 DMF .                 KB:   DRILLING MEASURED FROM
 EKB .F              5305:   KELLING BUSHING
 EGL .F              5295:   GROUND LEVEL
 DATE.        08-JUL-1970:   RUN DATE
 RUN .                  3:   RUN NUMBER
 DD  .F              3450:   DEPTH DRILLER
 DL  .F              3444:   DEPTH LOGGER
 BLI .F              3443:   BOTTOM LOG INTERVAL
 TLI .F              2950:   TOP LOG INTERVAL
 CS  .IN            10.75:   CASING SIZE
 CBD .F               842:   CASING BOTTOM DRILLER
 BS  .IN                9:   BIT SIZE
 BSD .F              3450:   BIT SIZE AT DEPTH
 DFT .      FRESH GEL MUD:   DRILLING FLUID TYPE
 DFD .               10.4:   DRILLING FLUID DENSITY
 DFV .                 43:   DRILLING FLUID VISCOSITY
 DFPH.                7.6:   DRILLING FLUID PH
 DFL .                  8:   DRILLING FLUID LOSS
 MSS .           FLOWLINE:   MUD SAMPLE SOURCE
 RMS .OHMM              2:   RESISTIVITY MUD SAMPLE
 MST .F                85:   MUD SAMPLE TEMPERATURE
 RMF .OHMM            1.6:   RESISTIVITY MUD FILTRATE SAMPLE
 MFST.F                85:   MUD FILTRATE SAMPLE TEMPERATURE
 MFSS.               MEAS:   MUD FILTRATE SAMPLE SOURCE
 RMB .OHMM           1.49:   RESISTIVITY MUD AT BHT
 BHT .F               114:   BOTTOM HOLE TEMPERATURE
 TCS .HRS               3:   TIME CURCULATED STOPPED
 MRT .F               114:   MAXIMUM RECORDED TEMPERATURE
 LUN .               4507:   LOGGING UNIT NUMBER
 LUL .               CSPR:   LOGGING UNIT LOCATION
 ENGI.             TURNER:   RECORDING ENGINEER
 WITN.                MAY:   WITNESSED BY
 CLNT.            A2DTECH:   CLIENT CODE
 ORIG.     2.5", 5" PRINT:   ORIGIN OF DATA
 UWI .       490251090300:   UNIQUE WELL ID
 DICO. A2D Technologies, Inc.:   DIGITIZING COMPANY
~OTHER INFORMATION
~A   DEPT        ASN      CILD         ILD      SPR       CALD       CORR       DPHI       RHOB   
# ...
  728.5000    10.9369    74.4162    14.0436   -29.8843  -999.2500  -999.2500  -999.2500  -999.2500
  729.0000    10.7878    74.4611    14.1904   -29.5965  -999.2500  -999.2500  -999.2500  -999.2500
  729.5000    10.7807    74.5060    14.1872   -29.3086  -999.2500  -999.2500  -999.2500  -999.2500
  730.0000    10.6281    76.0479    13.8847   -29.0208  -999.2500  -999.2500  -999.2500  -999.2500
  730.5000    10.4755    76.0928    13.5764   -28.7331  -999.2500  -999.2500  -999.2500  -999.2500
  731.0000    10.3229    77.6347    13.2797   -28.4452  -999.2500  -999.2500  -999.2500  -999.2500
  731.5000    10.1906    77.6796    13.1094   -28.1533  -999.2500  -999.2500  -999.2500  -999.2500
  732.0000    10.1662    79.8202    12.8011   -27.8693  -999.2500  -999.2500  -999.2500  -999.2500
  732.5000    10.0408    81.3872    12.4927   -27.5813  -999.2500  -999.2500  -999.2500  -999.2500
  733.0000     9.8917    83.8024    12.3690   -27.2934  -999.2500  -999.2500  -999.2500  -999.2500
  733.5000     9.8909    85.3443    12.2162   -27.6350  -999.2500  -999.2500  -999.2500  -999.2500
  734.0000     9.7418    86.8862    12.2130   -27.9486  -999.2500  -999.2500  -999.2500  -999.2500
  734.5000     9.7411    86.9311    12.2100   -28.2107  -999.2500  -999.2500  -999.2500  -999.2500
  735.0000     9.7404    86.9760    12.1486   -28.5163  -999.2500  -999.2500  -999.2500  -999.2500
  735.5000     9.6916    87.0210    12.0540   -28.2275  -999.2500  -999.2500  -999.2500  -999.2500
  736.0000     9.5905    87.0659    12.0509   -28.2374  -999.2500  -999.2500  -999.2500  -999.2500
  736.5000     9.5898    87.1108    11.9721   -27.9483  -999.2500  -999.2500  -999.2500  -999.2500
  737.0000     9.5890    88.6527    11.8950   -27.9584  -999.2500  -999.2500  -999.2500  -999.2500
  737.5000     9.5883    88.6976    11.7421   -27.8685  -999.2500  -999.2500  -999.2500  -999.2500
  738.0000     9.5875    88.7514    11.7384   -27.5727  -999.2500  -999.2500  -999.2500  -999.2500
  738.5000     9.5868    88.7960    11.7354   -27.3900  -999.2500  -999.2500  -999.2500  -999.2500
  739.0000     9.4377    88.8405    11.7323   -27.1038  -999.2500  -999.2500  -999.2500  -999.2500
  739.5000     9.4369    87.3880    11.6906   -27.2433  -999.2500  -999.2500  -999.2500  -999.2500
  740.0000     9.4362    87.4326    11.5765   -27.4184  -999.2500  -999.2500  -999.2500  -999.2500
  740.5000     9.5838    87.4771    11.5734   -27.7241  -999.2500  -999.2500  -999.2500  -999.2500
  741.0000     9.5831    87.5217    11.5704   -27.5786  -999.2500  -999.2500  -999.2500  -999.2500
  741.5000     9.7307    86.0692    11.5673   -27.4451  -999.2500  -999.2500  -999.2500  -999.2500
  742.0000     9.7298    86.1137    11.5643   -27.2838  -999.2500  -999.2500  -999.2500  -999.2500
  742.5000     9.7291    86.1583    11.5612   -26.8694  -999.2500  -999.2500  -999.2500  -999.2500
  743.0000     9.7284    87.6998    11.7079   -25.9898  -999.2500  -999.2500  -999.2500  -999.2500
  743.5000     9.7276    87.7443    11.7122   -25.1083  -999.2500  -999.2500  -999.2500  -999.2500
  744.0000     9.8754    87.7889    11.8514   -24.8204  -999.2500  -999.2500  -999.2500  -999.2500
  744.5000     9.8745    87.8334    11.8673   -24.5311  -999.2500  -999.2500  -999.2500  -999.2500
  745.0000     9.8738    87.8780    11.9950   -24.5412  -999.2500  -999.2500  -999.2500  -999.2500
  745.5000     9.8731    87.9225    11.9917   -24.5500  -999.2500  -999.2500  -999.2500  -999.2500
  746.0000     9.8723    87.9670    11.9885   -25.1523  -999.2500  -999.2500  -999.2500  -999.2500
  746.5000    10.0200    88.0116    11.9854   -25.4578  -999.2500  -999.2500  -999.2500  -999.2500
  747.0000    10.0192    88.0561    11.9823   -25.4666  -999.2500  -999.2500  -999.2500  -999.2500
  747.5000    10.0185    89.5977    11.9792   -25.7721  -999.2500  -999.2500  -999.2500  -999.2500
  748.0000    10.0178    89.6422    11.8264   -25.7809  -999.2500  -999.2500  -999.2500  -999.2500
  748.5000    10.0170    89.6867    11.6735   -25.7897  -999.2500  -999.2500  -999.2500  -999.2500
  749.0000     9.8679    91.2283    11.5207   -25.7985  -999.2500  -999.2500  -999.2500  -999.2500
  749.5000     9.8672    91.2728    11.3679   -25.8072  -999.2500  -999.2500  -999.2500  -999.2500
  750.0000     9.8665    91.3174    11.3648   -25.8160  -999.2500  -999.2500  -999.2500  -999.2500
  750.5000     9.7174    92.8593    11.3610   -25.8248  -999.2500  -999.2500  -999.2500  -999.2500
  751.0000     9.7097    92.9042    11.3580   -25.5213  -999.2500  -999.2500  -999.2500  -999.2500
  751.5000     9.5675    92.9491    11.3549   -25.2255  -999.2500  -999.2500  -999.2500  -999.2500
  752.0000     9.5668    94.4910    11.2022   -24.6642  -999.2500  -999.2500  -999.2500  -999.2500
  752.5000     9.7144    94.5359    11.1991   -24.3763  -999.2500  -999.2500  -999.2500  -999.2500
  753.0000     9.7136    94.5808    11.1960   -24.0883  -999.2500  -999.2500  -999.2500  -999.2500
  753.5000     9.7129    93.1261    11.1930   -23.7458  -999.2500  -999.2500  -999.2500  -999.2500
  754.0000     9.7398    93.1737    11.1899   -23.5124  -999.2500  -999.2500  -999.2500  -999.2500
  754.5000    10.0393    91.7182    11.3367   -23.1543  -999.2500  -999.2500  -999.2500  -999.2500
  755.0000    10.3733    88.7687    11.6329   -22.9365  -999.2500  -999.2500  -999.2500  -999.2500
  755.5000    10.7866    87.0462    11.9292   -22.6486  -999.2500  -999.2500  -999.2500  -999.2500
  756.0000    11.0861    85.2690    12.2288   -22.7537  -999.2500  -999.2500  -999.2500  -999.2500
  756.5000    11.3406    82.5948    12.5401   -23.0673  -999.2500  -999.2500  -999.2500  -999.2500
  757.0000    11.3882    79.6205    13.1474   -23.3808  -999.2500  -999.2500  -999.2500  -999.2500
  757.5000    11.6359    76.6465    13.7340   -23.9911  -999.2500  -999.2500  -999.2500  -999.2500
  758.0000    11.8388    75.1692    14.0627   -24.6014  -999.2500  -999.2500  -999.2500  -999.2500
  758.5000    11.9312    73.6923    14.4879   -25.2117  -999.2500  -999.2500  -999.2500  -999.2500
  759.0000    11.9303    72.2161    14.6403   -25.8219  -999.2500  -999.2500  -999.2500  -999.2500
  759.5000    12.0779    71.2055    14.8988   -26.4323  -999.2500  -999.2500  -999.2500  -999.2500
  760.0000    12.0772    71.2575    14.8952   -27.4975  -999.2500  -999.2500  -999.2500  -999.2500
  760.5000    12.1491    71.3024    14.8921   -28.5430  -999.2500  -999.2500  -999.2500  -999.2500
  761.0000    12.2240    71.3473    14.6777   -29.4501  -999.2500  -999.2500  -999.2500  -999.2500
  761.5000    12.2233    71.3922    14.5190   -31.0670  -999.2500  -999.2500  -999.2500  -999.2500
  762.0000    12.2226    72.9341    14.2107   -32.8562  -999.2500  -999.2500  -999.2500  -999.2500
  762.5000    12.2218    74.4760    14.0521   -34.3486  -999.2500  -999.2500  -999.2500  -999.2500
  763.0000    12.3695    75.1698    13.9783   -35.5444  -999.2500  -999.2500  -999.2500  -999.2500
  763.5000    12.3686    76.7364    13.9746   -36.7401  -999.2500  -999.2500  -999.2500  -999.2500
  764.0000    12.2195    78.3032    13.8218   -37.6391  -999.2500  -999.2500  -999.2500  -999.2500
  764.5000    11.9220    79.1467    13.6695   -38.2414  -999.2500  -999.2500  -999.2500  -999.2500
  765.0000    11.7729    80.6886    13.6082   -38.5469  -999.2500  -999.2500  -999.2500  -999.2500
  765.5000    11.6238    81.5069    13.5136   -38.5557  -999.2500  -999.2500  -999.2500  -999.2500
  766.0000    11.6231    82.2754    13.3608   -37.9710  -999.2500  -999.2500  -999.2500  -999.2500
  766.5000    11.6223    83.8174    13.2820   -37.3863  -999.2500  -999.2500  -999.2500  -999.2500
  767.0000    11.6216    83.8623    13.1233   -36.8016  -999.2500  -999.2500  -999.2500  -999.2500
  767.5000    11.6209    83.9072    13.0520   -36.2169  -999.2500  -999.2500  -999.2500  -999.2500
  768.0000    11.4718    83.9610    12.8986   -35.6322  -999.2500  -999.2500  -999.2500  -999.2500
  768.5000    11.4710    84.0055    12.8956   -34.7508  -999.2500  -999.2500  -999.2500  -999.2500
