~VERSION INFORMATION
 VERS.                2.0:   CWLS LOG ASCII STANDARD - VERSION 2.0
 WRAP.                 NO:   ONE LINE PER DEPTH STEP
~WELL INFORMATION
#MNEM.UNIT      DATA TYPE    INFORMATION
#----------   ------------   ------------------------------
 STRT.F          436.0000:   START DEPTH
 STOP.F         2160.0000:   STOP DEPTH
 STEP.F            0.5000:   STEP LENGTH
 NULL.          -999.2500:   NO VALUE
 COMP.   FLUOR DANIEL INC:   COMPANY
 WELL. NAVAL PETROLEUM RESERVE 3 X-29 #31-29:   WELL
 FLD .            WILDCAT:   FIELD
 LOC .      S29 T39N R78W:   LOCATION
 CNTY.            NATRONA:   COUNTY
 STAT.            WYOMING:   STATE
 CTRY. UNITED STATES OF AMERICA:   COUNTRY
 SRVC.            Unknown:   SERVICE COMPANY
 DATE.        25-JUN-1995:   LOGDATE
 API .       490252272300:   API NUMBER
~CURVE INFORMATION
#MNEM.UNIT       API CODE    CURVE DESCRIPTION
#----------   ------------   ------------------------------
 DEPT.F                  :   
 ROP .FT/HR  91 810 01 00:   RAT OF DRILLING PENETRATION
 TGAS.TC/CC  91 830 01 00:   TOTAL GAS UNIT
~PARAMETER INFORMATION
#MNEM.UNIT          VALUE    DESCRIPTION
#----------   ------------   ------------------------------
 EPD .F              5058:   ELEVATION PERMANENT DATUM
 EKB .F              5068:   KELLING BUSHING
 EGL .F              5058:   GROUND LEVEL
 DATE.        25-JUN-1995:   RUN DATE
 RUN .                  1:   RUN NUMBER
 ENGI.     C.TOWER/R.HUSK:   RECORDING ENGINEER
 CLNT.            A2DTECH:   CLIENT CODE
 ORIG.           5" PRINT:   ORIGIN OF DATA
 UWI .       490252272300:   UNIQUE WELL ID
 DICO. A2D Technologies, Inc.:   DIGITIZING COMPANY
~OTHER INFORMATION
~A   DEPT        ROP     TGAS   
# ...
 1651.0000     0.7887     6.7925
 1651.5000     0.7883     6.7925
 1652.0000     0.7879     6.7925
 1652.5000     0.3458     6.6038
 1653.0000     0.3549     6.4151
 1653.5000     0.3545     6.2264
 1654.0000     0.3541     6.2264
 1654.5000     0.3632     6.2264
 1655.0000     0.3628     6.2264
 1655.5000     0.3718     6.2264
 1656.0000     0.3714     6.2264
 1656.5000     0.3711     6.2264
 1657.0000     0.3612     6.0377
 1657.5000     0.3514     6.0377
 1658.0000     0.3511     6.0377
 1658.5000     0.3507     6.0955
 1659.0000     0.3503     6.2264
 1659.5000     0.3595     6.2264
 1660.0000     0.3496     6.2264
 1660.5000     0.3492     6.2264
 1661.0000     0.3489     6.2264
 1661.5000     0.3597     6.2264
 1662.0000     0.3759     6.2264
 1662.5000     0.9868     6.4151
 1663.0000     0.9774     6.4151
 1663.5000     0.9868     6.2264
 1664.0000     0.9962     6.0377
 1664.5000     0.8647     6.0377
 1665.0000     0.7895     6.0377
 1665.5000     0.7895     6.0377
 1666.0000     0.7989     6.0377
 1666.5000     0.7895     6.2264
 1667.0000     0.7801     6.2264
 1667.5000     0.7707     6.2264
 1668.0000     0.8835     6.2264
 1668.5000     0.9586     6.2264
 1669.0000     0.9868     6.0377
 1669.5000     0.9868     6.0377
 1670.0000     0.9868     6.0377
 1670.5000     0.9774     6.0377
 1671.0000     0.9892     6.0377
 1671.5000     0.9962     6.0377
 1672.0000     0.9962     6.0377
 1672.5000     0.8177     6.0377
 1673.0000     0.7707     6.0377
 1673.5000     0.7707     6.0377
 1674.0000     0.7707     6.2264
 1674.5000     0.7707     6.2264
 1675.0000     0.7707     6.2264
 1675.5000     0.7707     6.2264
 1676.0000     0.7436     6.2264
 1676.5000     0.5169     6.2264
 1677.0000     0.5263     6.4151
 1677.5000     0.5357     6.4151
 1678.0000     0.5075     6.4151
 1678.5000     0.3947     6.4151
 1679.0000     0.3947     6.2264
 1679.5000     0.3947     6.2264
 1680.0000     0.3947     6.2264
 1680.5000     0.3947     6.2264
 1681.0000     0.3947     6.4151
 1681.5000     0.3947     6.4151
 1682.0000     0.3947     6.0377
 1682.5000     0.6579     5.8491
 1683.0000     0.6391     6.0377
 1683.5000     0.6391     6.0377
 1684.0000     0.6391     6.0377
 1684.5000     0.6391     6.0377
 1685.0000     0.6391     6.2264
 1685.5000     0.6391     6.0377
 1686.0000     0.6485     6.0377
 1686.5000     0.8177     6.0377
 1687.0000     0.8271     6.0377
 1687.5000     0.8271     6.0377
 1688.0000     0.7895     6.2264
 1688.5000     0.6485     6.2264
 1689.0000     0.6579     6.2264
 1689.5000     0.6579     6.2264
 1690.0000     0.6485     6.2264
 1690.5000     0.6485     6.0377
 1691.0000     0.6485     6.0119
 1691.5000     0.6015     5.6604
 1692.0000     0.5451     5.6604
 1692.5000     0.5357     5.6604
 1693.0000     0.5357     5.6604
 1693.5000     0.5357     5.6604
 1694.0000     0.5357     5.6604
 1694.5000     0.5357     5.6604
 1695.0000     0.5357     5.8491
 1695.5000     0.5364     6.0377
 1696.0000     0.5451     6.0377
 1696.5000     0.5451     6.2264
 1697.0000     0.5451     6.4151
 1697.5000     0.5357     6.4151
 1698.0000     0.5263     6.2264
 1698.5000     0.5263     6.0377
 1699.0000     0.5357     5.6604
 1699.5000     0.5357     5.6604
 1700.0000     0.5357     6.2272
 1700.5000     0.5450     6.2318
 1701.0000     0.5447     6.2364
 1701.5000     0.5443     6.2410
 1702.0000     0.5440     7.0003
 1702.5000     0.5437     7.7596
 1703.0000     0.5434     8.5190
 1703.5000     0.5431     8.7123
 1704.0000     0.5429     8.9057
 1704.5000     0.5426     9.1000
 1705.0000     0.5439     9.2932
 1705.5000     0.5514     9.6752
 1706.0000     0.5605    10.0572
 1706.5000     0.5602    11.0052
 1707.0000     0.5599    13.8400
 1707.5000     0.5597    15.3540
 1708.0000     0.5594    16.1133
 1708.5000     0.5591    16.1179
 1709.0000     0.5588    15.3485
 1709.5000     0.5491    14.2415
 1710.0000     0.5489    13.4914
 1710.5000     0.5537    12.5526
 1711.0000     0.5577    11.6138
 1711.5000     0.5574    10.1090
 1712.0000     0.7827     9.1702
 1712.5000     0.7919     8.7963
 1713.0000     0.7915     8.8020
 1713.5000     0.8007     8.4293
 1714.0000     0.5184     7.8678
 1714.5000     0.5181     7.6837
 1715.0000     0.5178     7.4997
 1715.5000     0.5270     7.1281
 1716.0000     0.5267     7.1327
 1716.5000     0.5358     7.5146
 1717.0000     0.5355     7.5192
 1717.5000     0.5258     7.7125
 1718.0000     0.5255     7.5283
 1718.5000     0.5252     7.5331
 1719.0000     0.5250     7.3490
 1719.5000     0.5247     7.3538
 1720.0000     0.5339     7.1707
 1720.5000     0.5241     7.1753
 1721.0000     0.5239     7.1799
 1721.5000     0.5142     7.1845
 1722.0000     0.5139     7.1891
 1722.5000     0.4948     6.8152
 1723.0000     0.4945     6.6322
 1723.5000     0.4942     6.2595
 1724.0000     0.4939     5.8867
 1724.5000     0.4937     5.7027
 1725.0000     0.5029     5.7084
 1725.5000     0.5495     5.7130
 1726.0000     0.6527     5.5289
 1726.5000     0.6618     5.5335
 1727.0000     0.6521     5.3483
 1727.5000     0.6518     5.3541
 1728.0000     0.6515     5.3587
 1728.5000     0.6512     5.3633
 1729.0000     0.6509     5.3679
 1729.5000     0.6506     4.9951
 1730.0000     0.6409     5.0009
 1730.5000     0.6313     5.0055
 1731.0000     0.6216     5.0101
 1731.5000     0.6213     5.0147
 1732.0000     0.6305     5.0193
 1732.5000     0.6302     5.0239
 1733.0000     0.6299     4.8396
 1733.5000     0.6296     4.8444
 1734.0000     0.6199     4.6604
 1734.5000     0.6196     4.2876
 1735.0000     0.6194     4.2934
 1735.5000     0.6378     4.2980
 1736.0000     0.7785     4.4912
 1736.5000     0.7689     4.4958
 1737.0000     0.7686     4.5004
 1737.5000     0.7683     4.3152
 1738.0000     0.7680     4.3210
 1738.5000     0.7772     3.9481
 1739.0000     0.7753     3.7636
 1739.5000     0.7766     3.5801
 1740.0000     0.7763     3.7745
 1740.5000     0.6539     3.9678
 1741.0000     0.6536     3.9717
 1741.5000     0.6532     4.1657
 1742.0000     0.6624     4.1703
 1742.5000     0.6621     4.1749
 1743.0000     0.6713     4.1795
 1743.5000     0.6709     4.1841
 1744.0000     0.6801     4.1887
 1744.5000     0.6798     4.1934
 1745.0000     0.6795     4.0104
 1745.5000     0.6792     4.0150
 1746.0000     0.5850     4.2083
 1746.5000     0.3309     4.2129
 1747.0000     0.3306     4.0276
 1747.5000     0.3303     3.8436
 1748.0000     0.3301     3.6595
 1748.5000     0.3392     3.6652
 1749.0000     0.3389     3.4812
 1749.5000     0.3414     3.4858
 1750.0000     0.3478     3.4906
 1750.5000     0.3474     3.4961
 1751.0000     0.3566     3.5007
 1751.5000     0.3657     3.5047
 1752.0000     0.3654     3.5099
 1752.5000     0.3651     3.5145
 1753.0000     0.3633     3.3293
 1753.5000     0.3499     3.3351
 1754.0000     0.3430     3.3397
 1754.5000     0.3361     3.3443
 1755.0000     0.3292     3.3491
 1755.5000     0.3248     2.9773
 1756.0000     0.3244     2.7932
 1756.5000     0.3146     2.6080
 1757.0000     0.3049     2.6137
 1757.5000     0.3045     2.6183
 1758.0000     0.3041     2.6229
 1758.5000     0.3038     2.6275
 1759.0000     0.3034     2.6321
 1759.5000     0.3080     2.6368
 1760.0000     0.3173     2.6415
 1760.5000     0.3230     2.6471
 1761.0000     0.3301     2.6517
 1761.5000     0.3296     2.6563
 1762.0000     0.3293     2.6609
 1762.5000     0.3289     2.6655
 1763.0000     0.3286     2.6701
 1763.5000     0.3282     2.6747
 1764.0000     0.3184     2.6793
 1764.5000     0.3181     2.6840
 1765.0000     0.3271     2.6887
 1765.5000     0.3266     2.6943
 1766.0000     0.3279     2.6989
 1766.5000     0.3354     2.7035
 1767.0000     0.3349     2.7081
 1767.5000     0.3360     2.7127
 1768.0000     0.3467     2.7173
 1768.5000     0.3527     2.7219
 1769.0000     0.3522     2.7265
 1769.5000     0.3519     2.7311
 1770.0000     0.3515     2.6321
 1770.5000     0.3511     2.5517
 1771.0000     0.3508     2.5574
 1771.5000     0.3409     2.3733
 1772.0000     0.3405     2.3779
