~VERSION INFORMATION
 VERS.                2.0:   CWLS LOG ASCII STANDARD - VERSION 2.0
 WRAP.                 NO:   ONE LINE PER DEPTH STEP
~WELL INFORMATION
#MNEM.UNIT      DATA TYPE    INFORMATION
#----------   ------------   ------------------------------
 STRT.F            7.0000:   START DEPTH
 STOP.F          549.0000:   STOP DEPTH
 STEP.F            0.5000:   STEP LENGTH
 NULL.          -999.2500:   NO VALUE
 COMP. LAWRENCE-ALLISON &AS:   COMPANY
 WELL. NPR 3 #51-62-SX-10-LP3:   WELL
 FLD .             TEAPOT:   FIELD
 LOC .      S10 T38N R78W:   LOCATION
 CNTY.            NATRONA:   COUNTY
 STAT.            WYOMING:   STATE
 CTRY. UNITED STATES OF AMERICA:   COUNTRY
 SRVC.      Dresser Atlas:   SERVICE COMPANY
 DATE.        10-DEC-1984:   LOGDATE
 API .       490251099500:   API NUMBER
~CURVE INFORMATION
#MNEM.UNIT       API CODE    CURVE DESCRIPTION
#----------   ------------   ------------------------------
 DEPT.F                  :   
 SPR .MV     07 010 01 00:   SPONTANEOUS POTENTIAL
 RILD.OHMM   07 120 46 00:   INDUCTION LOG DEEP RESISTIVITY
 RILM.OHMM   07 120 44 00:   INDUCTION LOG MEDIUM RESISTIVITY
 RFOC.OHMM   07 220 04 00:   RESISTIVITY FOCUSED LOG
 DT  .US/F   60 520 00 00:   INTERVAL TRANSIT TIME
 PORD.DEC    45 890 12 00:   POROSITY DENSITY SANDSTONE
 CNCF.DEC    42 890 03 00:   NEUTRON POROSITY SANDSTONE
 CALD.IN     45 280 60 00:   CALIPER FROM DENSITY LOG
 GRD .GAPI   45 310 01 00:   GAMMA RAY FROM DENSITY LOG
 CORR.G/C3   45 356 01 00:   DENSITY CORRECTION
 DEN .G/C3   45 350 01 00:   COMPENSATED BULK DENSTIY
~PARAMETER INFORMATION
#MNEM.UNIT          VALUE    DESCRIPTION
#----------   ------------   ------------------------------
 PD  .                 GL:   PERMANENT DATUM
 EPD .F              5179:   ELEVATION PERMANENT DATUM
 LMF .                 GL:   LOG MEASURED FROM
 DMF .                 GL:   DRILLING MEASURED FROM
 EGL .F              5179:   GROUND LEVEL
 DATE.        10-DEC-1984:   RUN DATE
 RUN .                  1:   RUN NUMBER
 DD  .F               554:   DEPTH DRILLER
 DL  .F               551:   DEPTH LOGGER
 BLI .F               549:   BOTTOM LOG INTERVAL
 TLI .F                20:   TOP LOG INTERVAL
 CS  .IN            8.625:   CASING SIZE
 CBD .F                20:   CASING BOTTOM DRILLER
 CBL .F                20:   CASING BOTTOM LOGGER
 BS  .IN            7.875:   BIT SIZE
 BSD .F               554:   BIT SIZE AT DEPTH
 DFT .         KCL- WATER:   DRILLING FLUID TYPE
 MSS .           MUD TANK:   MUD SAMPLE SOURCE
 RMS .OHMM           .168:   RESISTIVITY MUD SAMPLE
 MST .F                77:   MUD SAMPLE TEMPERATURE
 RMF .OHMM           .126:   RESISTIVITY MUD FILTRATE SAMPLE
 MFST.F                77:   MUD FILTRATE SAMPLE TEMPERATURE
 RMC .OHMM            .21:   RESISTIVITY MUD CAKE
 MCST.F                77:   MUD CAKE SAMPLE TEMPERATURE
 MFSS.               CALC:   MUD FILTRATE SAMPLE SOURCE
 MCSS.               CALC:   MUD CAKE SAMPLE SOURCE
 RMB .OHMM            .15:   RESISTIVITY MUD AT BHT
 BHT .F                85:   BOTTOM HOLE TEMPERATURE
 TCS .HRS             3.5:   TIME CURCULATED STOPPED
 MRT .F               100:   MAXIMUM RECORDED TEMPERATURE
 LUN .               6270:   LOGGING UNIT NUMBER
 LUL .                 FM:   LOGGING UNIT LOCATION
 ENGI.          E. GOVETT:   RECORDING ENGINEER
 WITN.             GROOMS:   WITNESSED BY
 CLNT.            A2DTECH:   CLIENT CODE
 ORIG.           5" PRINT:   ORIGIN OF DATA
 UWI .       490251099500:   UNIQUE WELL ID
 DICO. A2D Technologies, Inc.:   DIGITIZING COMPANY
~OTHER INFORMATION
~A    DEPT     SPR       RILD       RILM       RFOC         DT       PORD         CNCF     CALD        GRD       CORR        DEN   
    7.0000  -999.2500  -999.2500  -999.2500  -999.2500  -999.2500  -999.2500     0.0314  -999.2500   155.5759  -999.2500  -999.2500
    7.5000  -999.2500  -999.2500  -999.2500  -999.2500  -999.2500  -999.2500     0.0305  -999.2500   155.5715  -999.2500  -999.2500
    8.0000  -999.2500  -999.2500  -999.2500  -999.2500  -999.2500  -999.2500     0.0299  -999.2500   153.7142  -999.2500  -999.2500
    8.5000  -999.2500  -999.2500  -999.2500  -999.2500  -999.2500  -999.2500     0.0305  -999.2500   149.3945  -999.2500  -999.2500
    9.0000  -999.2500  -999.2500  -999.2500  -999.2500  -999.2500  -999.2500     0.0308  -999.2500   147.7383  -999.2500  -999.2500
    9.5000  -999.2500  -999.2500  -999.2500  -999.2500  -999.2500  -999.2500     0.0305  -999.2500   150.7405  -999.2500  -999.2500
   10.0000  -999.2500  -999.2500  -999.2500  -999.2500  -999.2500  -999.2500     0.0302  -999.2500   151.9401  -999.2500  -999.2500
   10.5000  -999.2500  -999.2500  -999.2500  -999.2500  -999.2500  -999.2500     0.0305  -999.2500   151.7842  -999.2500  -999.2500
   11.0000  -999.2500  -999.2500  -999.2500  -999.2500  -999.2500  -999.2500     0.0305  -999.2500   151.3286  -999.2500  -999.2500
   11.5000  -999.2500  -999.2500  -999.2500  -999.2500  -999.2500  -999.2500     0.0308  -999.2500   146.5121  -999.2500  -999.2500
   12.0000  -999.2500  -999.2500  -999.2500  -999.2500  -999.2500  -999.2500     0.0315  -999.2500   142.8986  -999.2500  -999.2500
   12.5000  -999.2500  -999.2500  -999.2500  -999.2500  -999.2500  -999.2500     0.0327  -999.2500   142.8942  -999.2500  -999.2500
   13.0000  -999.2500  -999.2500  -999.2500  -999.2500  -999.2500  -999.2500     0.0333  -999.2500   144.6942  -999.2500  -999.2500
   13.5000  -999.2500  -999.2500  -999.2500  -999.2500  -999.2500  -999.2500     0.0333  -999.2500   147.0958  -999.2500  -999.2500
   14.0000  -999.2500  -999.2500  -999.2500  -999.2500  -999.2500  -999.2500     0.0333  -999.2500   147.2428  -999.2500  -999.2500
   14.5000  -999.2500  -999.2500  -999.2500  -999.2500  -999.2500  -999.2500     0.0336  -999.2500   146.3350  -999.2500  -999.2500
   15.0000  -999.2500  -999.2500  -999.2500  -999.2500  -999.2500  -999.2500     0.0336  -999.2500   145.5786  -999.2500  -999.2500
   15.5000  -999.2500  -999.2500  -999.2500  -999.2500  -999.2500  -999.2500     0.0342  -999.2500   144.6719  -999.2500  -999.2500
   16.0000  -999.2500  -999.2500  -999.2500  -999.2500  -999.2500  -999.2500     0.0345  -999.2500   142.8630  -999.2500  -999.2500
   16.5000  -999.2500  -999.2500  -999.2500  -999.2500  -999.2500  -999.2500     0.0345  -999.2500   141.6555  -999.2500  -999.2500
   17.0000  -999.2500  -999.2500  -999.2500  -999.2500  -999.2500  -999.2500     0.0345  -999.2500   137.7413  -999.2500  -999.2500
   17.5000  -999.2500  -999.2500  -999.2500  -999.2500  -999.2500  -999.2500     0.0333  -999.2500   135.3308  -999.2500  -999.2500
   18.0000  -999.2500  -999.2500  -999.2500  -999.2500  -999.2500  -999.2500     0.0321  -999.2500   134.7248  -999.2500  -999.2500
   18.5000  -999.2500  -999.2500  -999.2500  -999.2500  -999.2500  -999.2500     0.0327  -999.2500   158.4790  -999.2500  -999.2500
   19.0000  -999.2500  -999.2500  -999.2500  -999.2500  -999.2500  -999.2500     0.0346  -999.2500   162.9858  -999.2500  -999.2500
   19.5000  -999.2500  -999.2500  -999.2500  -999.2500  -999.2500  -999.2500     0.0367  -999.2500   177.7182  -999.2500  -999.2500
   20.0000  -999.2500  1960.0950  1911.1447  1999.0394  -999.2500     0.2445     0.0388     7.5393   184.9318    -0.0103     2.2612
   20.5000  -999.2500  1960.4270  1962.6956  1999.1495  -999.2500     0.2502     0.0406     7.5698   186.8834    -0.0247     2.2536
   21.0000  -999.2500  1975.3881  1949.2025  1999.2712  -999.2500     0.2502     0.0428     7.6003   186.7274    -0.0225     2.2551
   21.5000  -999.2500  1990.4633  1935.7095  2000.0000  -999.2500     0.2478     0.0443     7.6158   185.5199    -0.0286     2.2574
   22.0000  -999.2500  1991.8121  1081.0430  2000.0000  -999.2500     0.2478     0.0452     7.6011   184.1621    -0.0226     2.2604
   22.5000  -999.2500  1993.1620    35.5966  2000.0000  -999.2500     0.2463     0.0464     7.5865   183.4058    -0.0167     2.2725
   23.0000  -999.2500   970.6325    30.5768  1989.3921  -999.2500     0.2358     0.0473     7.5570   180.0930    -0.0062     2.2875
   23.5000  -999.2500    22.6082     2.9633  1990.3152  -999.2500     0.2307     0.0476     7.5725   173.9232    -0.0047     2.3064
   24.0000  -999.2500     4.0251     1.7891  1977.4968  -999.2500     0.2187     0.0473     7.5880   171.5127     0.0133     2.3124
   24.5000  -999.2500     2.0243     1.5908     6.7632  -999.2500     0.2163     0.0468     7.6035   173.3127     0.0132     2.3169
   25.0000  -999.2500     1.9656     2.3947     2.1583  -999.2500     0.2139     0.0462     7.6491   176.4662     0.0072     2.3199
   25.5000  -999.2500     2.0086     2.8286     1.9734  -999.2500     0.2130     0.0459     7.6797   181.9316     0.0011     2.3184
   26.0000  -999.2500     3.3553     3.5315     2.5336  -999.2500     0.2226     0.0462     7.7253   184.4272     0.0100     2.2943
   26.5000  -999.2500     6.2619     3.8924     3.3438  -999.2500     0.2332     0.0471     7.7710   182.9850     0.0130     2.2822
   27.0000  -999.2500     5.3435     3.9480     3.7373  -999.2500     0.2331     0.0477     7.7262   180.9131     0.0129     2.2890
   27.5000  -999.2500     4.9208     4.0603     3.8977  -999.2500     0.2205     0.0468     7.6815   178.5480     0.0099     2.3093
   28.0000  -999.2500     4.9241     4.4752     3.9814  -999.2500     0.1930     0.0456     7.6668   176.4383     0.0068     2.3515
   28.5000  -999.2500     4.9274     4.8311     4.0114  -999.2500     0.1865     0.0444     7.6522   176.2846    -0.0053     2.3575
   29.0000  -999.2500     4.9995     5.0031     4.2713  -999.2500     0.1835     0.0441     7.6376   177.4820    -0.0295     2.3666
   29.5000  -999.2500     5.1816     5.2899     4.7740  -999.2500     0.1808     0.0444     7.6382   177.6290    -0.0265     2.3756
   30.0000   -79.1099     5.7865     6.0429     5.1187  -999.2500     0.1769     0.0450     7.6234   176.4205    -0.0176     2.3839
   30.5000   -79.2804     7.1825     7.1297     6.1740  -999.2500     0.1733     0.0456     7.6088   177.0175     0.0125     2.3906
   31.0000   -79.5462     7.5968     7.1321     7.3183  -999.2500     0.1688     0.0459     7.5792   179.8702     0.0305     2.3959
   31.5000   -80.2826     7.6535     7.0848     7.7136  -999.2500     0.1658     0.0459     7.5646   178.2116     0.0230     2.3967
   32.0000   -86.5096     7.3993     6.9897     7.6111  -999.2500     0.1658     0.0456     7.5651   176.4026    -0.0361     2.3967
   32.5000   -90.9563     7.1029     6.7081     7.2543  -999.2500     0.1658     0.0456     7.5656   175.3466    -0.0510     2.3966
   33.0000   -94.3643     7.0088     6.5271     7.0105  -999.2500     0.1665     0.0450     7.5660   176.5441    -0.0495     2.3966
   33.5000   -95.6953     7.1126     6.5747     7.0627  -999.2500     0.1683     0.0455     7.5815   178.7953    -0.0355     2.3959
   34.0000   -94.6523     7.2167     6.7617     7.1653  -999.2500     0.1719     0.0460     7.5820   181.1968    -0.0093     2.3891
   34.5000   -93.0158     7.2717     6.8583     7.1686  -999.2500     0.1719     0.0466     7.5975   182.9969     0.0346     2.3876
   35.0000   -91.8245     7.2767     6.9084     7.1216  -999.2500     0.1698     0.0466     7.6130   184.7969     0.0285     2.3936
   35.5000   -90.6331     7.2270     6.8616     7.0758  -999.2500     0.1671     0.0469     7.6135   186.8977     0.0240     2.3981
   36.0000   -89.1451     7.1195     6.7710     7.0310  -999.2500     0.1700     0.0472     7.6139   186.5885     0.0360     2.3936
   36.5000   -86.9151     6.8997     6.7687     6.9857  -999.2500     0.1735     0.0469     7.6144   183.5583     0.0344     2.3875
   37.0000   -83.4983     6.8094     6.7289     6.8936  -999.2500     0.1744     0.0460     7.6148   182.5053     0.0283     2.3860
