~VERSION INFORMATION
 VERS.                2.0:   CWLS LOG ASCII STANDARD - VERSION 2.0
 WRAP.                 NO:   ONE LINE PER DEPTH STEP
~WELL INFORMATION
#MNEM.UNIT      DATA TYPE    INFORMATION
#----------   ------------   ------------------------------
 STRT.F            0.0000:   START DEPTH
 STOP.F         4113.0000:   STOP DEPTH
 STEP.F            0.5000:   STEP LENGTH
 NULL.          -999.2500:   NO VALUE
 COMP. LAWRENCE/ALLISON INC:   COMPANY
 WELL.  NPR # #3 76 -MX-3:   WELL
 FLD .             TEAPOT:   FIELD
 LOC .       S3 T38N R78W:   LOCATION
 CNTY.            NATRONA:   COUNTY
 STAT.            WYOMING:   STATE
 CTRY. UNITED STATES OF AMERICA:   COUNTRY
 SRVC.      Dresser Atlas:   SERVICE COMPANY
 DATE.        04-SEP-1983:   LOGDATE
 API .       490251094300:   API NUMBER
~CURVE INFORMATION
#MNEM.UNIT       API CODE    CURVE DESCRIPTION
#----------   ------------   ------------------------------
 DEPT.F                  :   
 GRR .GAPI   07 310 01 00:   GAMMA RAY
 SPR .MV     07 010 01 00:   SPONTANEOUS POTENTIAL
 RILD.OHMM   07 120 46 00:   INDUCTION LOG DEEP RESISTIVITY
 RILM.OHMM   07 120 44 00:   INDUCTION LOG MEDIUM RESISTIVITY
 RFOC.OHMM   07 220 04 00:   RESISTIVITY FOCUSED LOG
 CNCF.DEC    42 890 03 00:   NEUTRON POROSITY SANDSTONE
 PORD.DEC    45 890 12 00:   POROSITY DENSITY SANDSTONE
 CALD.IN     45 280 60 00:   CALIPER FROM DENSITY LOG
 CORR.G/C3   45 356 01 00:   DENSITY CORRECTION
 DEN .G/C3   45 350 01 00:   COMPENSATED BULK DENSTIY
 AC  .US/F   60 520 00 00:   ACCOUSTIC
~PARAMETER INFORMATION
#MNEM.UNIT          VALUE    DESCRIPTION
#----------   ------------   ------------------------------
 PD  .                 GL:   PERMANENT DATUM
 EPD .F              5147:   ELEVATION PERMANENT DATUM
 LMF .                 KB:   LOG MEASURED FROM
 DAPD.F                10:   FEET ABOVE PERMANENT DATUM
 DMF .                 KB:   DRILLING MEASURED FROM
 EKB .F              5157:   KELLING BUSHING
 EGL .F              5147:   GROUND LEVEL
 DATE.        04-SEP-1983:   RUN DATE
 RUN .                  1:   RUN NUMBER
 DD  .F              4119:   DEPTH DRILLER
 DL  .F              4115:   DEPTH LOGGER
 BLI .F              4112:   BOTTOM LOG INTERVAL
 CS  .IN            9.625:   CASING SIZE
 CBD .F               491:   CASING BOTTOM DRILLER
 CBL .F               494:   CASING BOTTOM LOGGER
 BS  .IN             8.75:   BIT SIZE
 BSD .F              4119:   BIT SIZE AT DEPTH
 DFT .            KCL GEL:   DRILLING FLUID TYPE
 DFD .                8.9:   DRILLING FLUID DENSITY
 DFV .                 46:   DRILLING FLUID VISCOSITY
 DFPH.                9.0:   DRILLING FLUID PH
 DFL .               13.6:   DRILLING FLUID LOSS
 MSS .           MUD TANK:   MUD SAMPLE SOURCE
 RMS .OHMM           .315:   RESISTIVITY MUD SAMPLE
 MST .F                92:   MUD SAMPLE TEMPERATURE
 RMF .OHMM            .25:   RESISTIVITY MUD FILTRATE SAMPLE
 MFST.F                84:   MUD FILTRATE SAMPLE TEMPERATURE
 RMC .OHMM             .4:   RESISTIVITY MUD CAKE
 MCST.F                92:   MUD CAKE SAMPLE TEMPERATURE
 MFSS.               MEAS:   MUD FILTRATE SAMPLE SOURCE
 MCSS.               CALC:   MUD CAKE SAMPLE SOURCE
 RMB .OHMM            .22:   RESISTIVITY MUD AT BHT
 BHT .F               132:   BOTTOM HOLE TEMPERATURE
 TCS .HRS               4:   TIME CURCULATED STOPPED
 MRT .F               132:   MAXIMUM RECORDED TEMPERATURE
 LUN .               6274:   LOGGING UNIT NUMBER
 LUL .              GLTE.:   LOGGING UNIT LOCATION
 ENGI.             RAUTIO:   RECORDING ENGINEER
 WITN.             STRONG:   WITNESSED BY
 CLNT.            A2DTECH:   CLIENT CODE
 ORIG.        2" 5" PRINT:   ORIGIN OF DATA
 UWI .       490251094300:   UNIQUE WELL ID
 DICO. A2D Technologies, Inc.:   DIGITIZING COMPANY
~OTHER INFORMATION
~A    DEPT     GRR        SPR       RILD       RILM       RFOC       CNCF       PORD       CALD       CORR        DEN         AC   
# ...
 1220.0000    92.3313   -50.0957     7.7578     7.7463     8.2793     0.2611     0.0783     9.0857    -0.0205     2.5192  -999.2500
 1220.5000    94.1782   -50.1096     7.8096     7.7419     8.1539     0.2506     0.0803     9.0854    -0.0265     2.5207  -999.2500
 1221.0000    94.1431   -50.1236     7.8624     7.7943     8.0887     0.2493     0.0782     9.0851    -0.0280     2.5329  -999.2500
 1221.5000    91.5786   -50.1375     7.9714     7.9056     8.1411     0.2493     0.0731     9.0848    -0.0219     2.5577  -999.2500
 1222.0000    86.0857   -50.4649     8.0827     8.0131     8.3242     0.2493     0.0643     9.0845    -0.0114     2.5696  -999.2500
 1222.5000    80.8660   -50.6356     8.1443     8.1329     8.6833     0.2493     0.0519     9.0691     0.0007     2.5726  -999.2500
 1223.0000    83.7059   -50.8063     8.1909     8.1794     8.8585     0.2516     0.0477     9.0538     0.0097     2.5771  -999.2500
 1223.5000    90.2286   -50.9770     8.1850     8.1735     8.5354     0.2555     0.0462     9.0535     0.0143     2.5809  -999.2500
 1224.0000    87.0678   -50.9909     8.1803     8.1688     8.3455     0.2588     0.0443     9.0532     0.0128     2.5854  -999.2500
 1224.5000    83.9069   -51.1616     8.1756     8.1642     8.4605     0.2612     0.0380     9.0529     0.0203     2.5884  -999.2500
 1225.0000    83.5707   -51.1755     8.1710     8.1007     8.8930     0.2407     0.0367     9.0526     0.0354     2.5862  -999.2500
 1225.5000    88.5397   -51.1897     8.1663     8.0378     9.0828     0.2389     0.0358     9.0523     0.0461     2.5724  -999.2500
 1226.0000    99.1504   -51.2038     8.1029     7.9179     9.0738     0.2428     0.0379     9.0671     0.0475     2.5553  -999.2500
 1226.5000   107.8831   -51.2179     8.0401     7.6878     8.7445     0.2454     0.0451     9.0819     0.0400     2.5440  -999.2500
 1227.0000   108.7988   -51.2320     7.9203     7.5185     8.3665     0.2457     0.0583     9.0965     0.0324     2.5433  -999.2500
 1227.5000   102.1873   -51.2488     7.8023     7.3530     8.2414     0.2514     0.0631     9.0962     0.0264     2.5463  -999.2500
 1228.0000    97.1485   -51.1025     7.6308     7.2433     8.4156     0.2550     0.0628     9.0959     0.0174     2.5485  -999.2500
 1228.5000    94.3006   -50.9597     7.4631     7.0838     8.4073     0.2547     0.0631     9.0956     0.0129     2.5380  -999.2500
 1229.0000    95.2086   -50.8169     7.2465     6.9781     8.2203     0.2526     0.0679     9.0953     0.0114     2.5320  -999.2500
 1229.5000    97.0555   -50.6741     7.0873     6.8740     7.8649     0.2504     0.0715     9.0950     0.0131     2.5275  -999.2500
 1230.0000   100.1544   -50.3780     6.9817     6.8206     7.6345     0.2501     0.0727     9.0947     0.0235     2.5282  -999.2500
 1230.5000   100.7572   -50.3920     6.8777     6.8167     7.4647     0.2606     0.0738     9.0794     0.0341     2.5305  -999.2500
 1231.0000    97.5885   -50.2492     6.8243     6.7637     7.4491     0.2657     0.0708     9.0791     0.0431     2.5335  -999.2500
 1231.5000    97.5127   -50.2631     6.8204     6.7112     7.5073     0.2675     0.0693     9.0788     0.0401     2.5342  -999.2500
 1232.0000   101.2824   -50.2771     6.7675     6.7073     7.5558     0.2693     0.0698     9.0784     0.0326     2.5335  -999.2500
 1232.5000   110.9541   -50.1308     6.7636     6.7035     7.5497     0.2665     0.0701     9.0781     0.0447     2.5320  -999.2500
 1233.0000   114.0530   -50.1482     6.7598     6.6996     7.4894     0.2575     0.0707     9.0930     0.0582     2.5305  -999.2500
 1233.5000   110.5630   -50.1622     6.7559     6.7444     7.4295     0.2538     0.0716     9.0926     0.0502     2.5282  -999.2500
 1234.0000   106.4455   -50.1761     6.7520     6.7894     7.3672     0.2523     0.0743     9.0923     0.0311     2.5251  -999.2500
 1234.5000   104.1986   -50.1900     6.7971     6.8348     7.3111     0.2616     0.0763     9.0920     0.0266     2.5214  -999.2500
 1235.0000   101.2833   -50.2040     6.7930     6.8804     7.3585     0.2694     0.0784     9.0917     0.0206     2.5199  -999.2500
 1235.5000    96.8331   -50.2179     6.7891     6.9264     7.4599     0.2703     0.0799     9.0894     0.0161     2.5192  -999.2500
 1236.0000    95.4007   -50.2320     6.8346     6.9214     7.5082     0.2691     0.0798     9.0760     0.0116     2.5252  -999.2500
 1236.5000    99.4308   -50.2461     6.8297     7.0182     7.4467     0.2778     0.0741     9.0757     0.0192     2.5335  -999.2500
 1237.0000   102.5297   -50.2602     6.8762     7.0661     7.3872     0.2796     0.0675     9.0604     0.0448     2.5380  -999.2500
 1237.5000   105.6286   -50.2743     6.9221     7.1133     7.3282     0.2708     0.0626     9.0752     0.0365     2.5425  -999.2500
 1238.0000   107.4833   -50.2911     6.9682     7.1608     7.4291     0.2617     0.0605     9.0749     0.0177     2.5487  -999.2500
 1238.5000   106.5056   -50.3051     7.0137     7.2086     7.5315     0.2605     0.0590     9.0746     0.0147     2.5553  -999.2500
 1239.0000   104.2837   -50.1588     7.0605     7.2568     7.6367     0.2638     0.0538     9.0743     0.0584     2.5636  -999.2500
 1239.5000    95.4890   -50.1762     7.1086     7.2516     7.7419     0.2668     0.0493     9.0890     0.0765     2.5696  -999.2500
 1240.0000    89.8242   -50.1902     7.1035     7.2474     7.7920     0.2602     0.0472     9.0887     0.0780     2.5726  -999.2500
 1240.5000    89.1750   -50.2041     7.1519     7.2433     7.7843     0.2460     0.0468     9.0884     0.0779     2.5734  -999.2500
 1241.0000   100.4039   -50.2181     7.1468     7.2391     7.7782     0.2454     0.0502     9.0881     0.0841     2.5688  -999.2500
 1241.5000   105.6937   -50.2320     7.1427     7.2350     7.7721     0.2492     0.0558     9.0878     0.0781     2.5546  -999.2500
 1242.0000   106.2887   -50.2460     7.1386     7.2309     7.7660     0.2558     0.0669     9.0875     0.0540     2.5369  -999.2500
 1242.5000   107.1967   -50.2599     7.1345     7.2267     7.8177     0.2685     0.0754     9.0872     0.0269     2.5252  -999.2500
 1243.0000   108.4177   -50.2738     7.1304     7.2226     7.8683     0.2742     0.0760     9.0869     0.0254     2.5245  -999.2500
 1243.5000   109.6401   -50.2878     7.1264     7.2184     7.9179     0.2738     0.0731     9.0866     0.0284     2.5282  -999.2500
 1244.0000   104.2868   -50.3017     7.1223     7.2143     8.0269     0.2756     0.0693     9.0863     0.0299     2.5327  -999.2500
 1244.5000    92.6752   -50.3157     7.1182     7.2102     8.1373     0.2810     0.0683     9.0860     0.0209     2.5350  -999.2500
 1245.0000    86.6975   -50.3296     7.1658     7.2584     8.1900     0.2798     0.0695     9.0857     0.0010     2.5327  -999.2500
 1245.5000    87.6054   -50.3436     7.1616     7.2542     8.0659     0.2710     0.0710     9.0854    -0.0122     2.5305  -999.2500
 1246.0000    93.5514   -50.3575     7.2093     7.3026     7.9437     0.2593     0.0731     9.0851    -0.0092     2.5275  -999.2500
 1246.5000   100.7394   -50.3715     7.2574     7.2984     7.8802     0.2574     0.0734     9.0848     0.0210     2.5282  -999.2500
 1247.0000   102.2230   -50.3866     7.2533     7.3472     7.8739     0.2616     0.0691     9.0845     0.0330     2.5312  -999.2500
 1247.5000   100.2710   -50.3997     7.3085     7.3963     7.8677     0.2712     0.0682     9.0842     0.0315     2.5342  -999.2500
 1248.0000   101.1793   -50.4138     7.4036     7.4457     7.8617     0.2760     0.0682     9.0839     0.0270     2.5357  -999.2500
 1248.5000   113.3898   -50.4307     7.5059     7.4954     7.9125     0.2715     0.0730     9.0836     0.0210     2.5327  -999.2500
 1249.0000   113.3588   -50.4447     7.6107     7.6543     7.9637     0.2693     0.0729     9.0833     0.0212     2.5305  -999.2500
 1249.5000   108.6330   -50.4586     7.8291     7.7624     8.1304     0.2690     0.0708     9.0830     0.0346     2.5305  -999.2500
 1250.0000   102.6581   -50.4725     8.0175     7.8809     8.2441     0.2684     0.0698     9.0827     0.0361     2.5335  -999.2500
