~VERSION INFORMATION
 VERS.                2.0:   CWLS LOG ASCII STANDARD - VERSION 2.0
 WRAP.                 NO:   ONE LINE PER DEPTH STEP
~WELL INFORMATION
#MNEM.UNIT      DATA TYPE    INFORMATION
#----------   ------------   ------------------------------
 STRT.F            9.0000:   START DEPTH
 STOP.F          512.0000:   STOP DEPTH
 STEP.F            0.5000:   STEP LENGTH
 NULL.          -999.2500:   NO VALUE
 COMP. LAWRENCE-ALLISON &AS:   COMPANY
 WELL. NPR 3 #61-21SX10UP2:   WELL
 FLD .             TEAPOT:   FIELD
 LOC .      S10 T38N R78W:   LOCATION
 CNTY.            NATRONA:   COUNTY
 STAT.            WYOMING:   STATE
 CTRY. UNITED STATES OF AMERICA:   COUNTRY
 SRVC.      Dresser Atlas:   SERVICE COMPANY
 DATE.        13-DEC-1984:   LOGDATE
 API .       490251100500:   API NUMBER
~CURVE INFORMATION
#MNEM.UNIT       API CODE    CURVE DESCRIPTION
#----------   ------------   ------------------------------
 DEPT.F                  :   
 PORD.DEC    45 890 12 00:   POROSITY DENSITY SANDSTONE
 CNCF.DEC    42 890 03 00:   NEUTRON POROSITY SANDSTONE
 GRD .GAPI   45 310 01 00:   GAMMA RAY FROM DENSITY LOG
 CALD.IN     45 280 60 00:   CALIPER FROM DENSITY LOG
 CORR.G/C3   45 356 01 00:   DENSITY CORRECTION
 DEN .G/C3   45 350 01 00:   COMPENSATED BULK DENSTIY
 AC  .US/F   60 520 00 00:   ACCOUSTIC
 RILD.OHMM   07 120 46 00:   INDUCTION LOG DEEP RESISTIVITY
 RILM.OHMM   07 120 44 00:   INDUCTION LOG MEDIUM RESISTIVITY
 RFOC.OHMM   07 220 04 00:   RESISTIVITY FOCUSED LOG
 SPR .MV     11 010 01 00:   SPONTANEOUS POTENTIAL FROM RES.
 RS  .OHMM   11 220 09 00:   RESISTIVITY SHALLOW
 RD  .OHMM   11 220 10 00:   RESISTIVITY DEEP
~PARAMETER INFORMATION
#MNEM.UNIT          VALUE    DESCRIPTION
#----------   ------------   ------------------------------
 PD  .                 GL:   PERMANENT DATUM
 EPD .F              5157:   ELEVATION PERMANENT DATUM
 LMF .                 GL:   LOG MEASURED FROM
 DMF .                 GL:   DRILLING MEASURED FROM
 EGL .F              5157:   GROUND LEVEL
 DATE.         12-13-1984:   RUN DATE
 RUN .                  1:   RUN NUMBER
 DD  .F               514:   DEPTH DRILLER
 DL  .F               513:   DEPTH LOGGER
 BLI .F               512:   BOTTOM LOG INTERVAL
 TLI .F                20:   TOP LOG INTERVAL
 CS  .IN            8.625:   CASING SIZE
 CBD .F                20:   CASING BOTTOM DRILLER
 CBL .F                20:   CASING BOTTOM LOGGER
 BS  .IN            7.875:   BIT SIZE
 BSD .F               514:   BIT SIZE AT DEPTH
 DFT .          KCL WATER:   DRILLING FLUID TYPE
 MSS .           FLOWLINE:   MUD SAMPLE SOURCE
 RMS .OHMM            .17:   RESISTIVITY MUD SAMPLE
 MST .F                95:   MUD SAMPLE TEMPERATURE
 RMF .OHMM            .08:   RESISTIVITY MUD FILTRATE SAMPLE
 MFST.F                95:   MUD FILTRATE SAMPLE TEMPERATURE
 RMC .OHMM            .14:   RESISTIVITY MUD CAKE
 MCST.F                95:   MUD CAKE SAMPLE TEMPERATURE
 MFSS.               CALC:   MUD FILTRATE SAMPLE SOURCE
 MCSS.               CALC:   MUD CAKE SAMPLE SOURCE
 TCS .HRS              10:   TIME CURCULATED STOPPED
 MRT .F               100:   MAXIMUM RECORDED TEMPERATURE
 LUN .               6270:   LOGGING UNIT NUMBER
 LUL .                 FM:   LOGGING UNIT LOCATION
 ENGI.            LEBSOCK:   RECORDING ENGINEER
 WITN.        GREG GROOMS:   WITNESSED BY
 CLNT.            A2DTECH:   CLIENT CODE
 ORIG.           5" PRINT:   ORIGIN OF DATA
 UWI .       490251100500:   UNIQUE WELL ID
 DICO. A2D Technologies, Inc.:   DIGITIZING COMPANY
~OTHER INFORMATION
~A    DEPT    PORD       CNCF        GRD       CALD       CORR        DEN          AC      RILD       RILM       RFOC        SPR         RS         RD   
# ...
  321.0000     0.1564     0.2539    81.7803     7.7973     0.0006     2.4122    93.5537    15.9566    12.0320    15.7997   -56.6636    16.0790    18.7200
  321.5000     0.1505     0.2545    84.0408     7.7970     0.0187     2.4265    93.3344    15.5109    12.1183    15.4646   -56.0743    15.8497    18.3263
  322.0000     0.1437     0.2488    84.4937     7.7963     0.0383     2.4401    93.2042    15.0776    12.2742    15.2423   -55.6324    15.7309    17.9409
  322.5000     0.1426     0.2509    83.5920     7.7813     0.0368     2.4386    93.1355    14.7588    12.3639    15.0232   -55.0457    15.6145    17.5637
  323.0000     0.1469     0.2585    84.0453     7.7659     0.0171     2.4310    92.9914    14.4468    12.5213    14.8073   -54.4565    15.6070    17.0753
  323.5000     0.1505     0.2592    85.7034     7.7656     0.0005     2.4272    92.9227    14.2401    12.7027    14.6964   -54.0171    15.5995    16.9501
  324.0000     0.1503     0.2544    87.2110     7.7653    -0.0056     2.4294    92.9298    14.2332    12.8756    14.5863   -53.4278    15.5919    16.5937
  324.5000     0.1434     0.2553    86.6101     7.7801     0.0095     2.4370    93.0876    14.3257    13.2338    14.5782   -53.1379    15.6929    16.8188
  325.0000     0.1372     0.2544    86.4606     7.7798     0.0260     2.4475    93.0944    14.4188    13.6181    14.5701   -52.6987    15.9046    17.0470
  325.5000     0.1342     0.2478    86.6131     7.7795     0.0275     2.4520    92.9379    14.6159    14.1944    14.6651   -52.4093    16.1191    17.4012
  326.0000     0.1415     0.2409    87.0664     7.7943     0.0198     2.4467    92.7185    15.0233    14.8988    15.0722   -51.9703    16.4523    17.7676
  326.5000     0.1472     0.2361    87.6703     7.7939     0.0077     2.4338    93.0229    15.7816    15.7472    15.5989   -51.6807    17.0230    18.3852
  327.0000     0.1509     0.2355    87.6718     7.7936    -0.0014     2.4278    94.6889    17.0458    17.3027    16.0261   -51.5412    17.7383    19.0297
  327.5000     0.1597     0.2377    85.5649     7.7933    -0.0073     2.4104    96.6793    19.2312    18.9338    16.1291   -51.4018    18.3558    19.9863
  328.0000     0.1860     0.2498    80.2953     7.7930     0.0039     2.3658    99.4452    23.8955    23.0009    16.2328   -51.2624    19.9405    21.2726
  328.5000     0.2123     0.2516    73.6703     7.7927     0.0247     2.3084   101.4546    29.1716    30.5907    17.0559   -51.1229    22.1177    22.9812
  329.0000     0.2253     0.2378    71.5052     7.8076     0.0336     2.3008   100.2479    35.5810    37.6833    20.4329   -51.1334    25.5759    25.1530
  329.5000     0.2256     0.2082    69.8900     7.8072     0.0394     2.3161    92.9357    44.0083    47.4009    28.4340   -50.9939    31.7004    29.0888
  330.0000     0.1995     0.1974    68.1826     7.8069     0.0423     2.3572    84.3821    50.9372    52.9647    39.9821   -51.0045    42.4088    40.4461
  330.5000     0.1465     0.2022    67.0497     7.8066     0.0106     2.4633    79.0362    58.5184    53.3156    53.0835   -51.0150    54.4204    52.2769
  331.0000     0.1129     0.2131    68.1416     7.7912    -0.0181     2.4874    79.7141    62.7071    52.5459    59.3945   -51.0255    61.6324    59.6273
  331.5000     0.1205     0.2412    69.9664     7.7909    -0.0408     2.4781    81.7459    63.9994    45.0569    57.2736   -50.8857    57.4720    60.4426
  332.0000     0.1527     0.2452    72.8615     7.8058    -0.0272     2.4447    88.8604    60.9259    40.2846    35.7571   -51.0465    51.4064    52.5759
  332.5000     0.1885     0.2482    75.9865     7.8054    -0.0046     2.3742    95.8804    54.4774    38.0822    32.3971   -51.0570    45.3471    45.7377
  333.0000     0.2115     0.2576    76.3945     7.8051     0.0120     2.3263    99.6197    49.0517    36.7605    32.3791   -51.0695    41.1281    42.0625
  333.5000     0.2142     0.2776    73.7162     7.8048     0.0225     2.3195   101.7797    46.6960    35.9827    32.8148   -51.2299    39.7061    39.4972
  334.0000     0.2164     0.2921    69.6989     7.8045     0.0240     2.3111   103.2112    46.3495    35.4675    32.1188   -51.2403    38.8691    37.8692
  334.5000     0.2215     0.2915    68.3981     7.8194     0.0255     2.3021   103.8805    46.6507    35.2041    31.0028   -51.4007    38.5816    37.5915
  335.0000     0.2291     0.2919    68.4187     7.8341     0.0239     2.2922   104.0225    46.3046    34.4592    29.9256   -51.5610    37.5071    37.3158
  335.5000     0.2309     0.2932    68.8931     7.8338     0.0224     2.2945   103.7130    45.0111    33.2633    30.3283   -51.5715    36.9721    37.3003
  336.0000     0.2270     0.2868    70.4678     7.8335     0.0163     2.3103   103.1165    42.5522    31.4448    31.6044   -51.7318    36.4448    37.8064
  336.5000     0.2180     0.2726    72.4081     7.8332     0.0087     2.3186   102.3690    40.2276    29.3143    32.9342   -51.8922    36.6854    38.3194
  337.0000     0.2140     0.2642    75.2982     7.8480     0.0057     2.3223   101.7791    38.8326    27.1385    32.6876   -51.9026    37.4346    38.5745
  337.5000     0.2110     0.2606    75.9563     7.8476     0.0041     2.3246   101.7924    38.0115    25.8342    31.3329   -52.0630    37.4165    37.7594
  338.0000     0.2089     0.2606    73.8956     7.8473     0.0041     2.3291   102.3456    38.5258    25.4643    29.8261   -52.0734    36.1228    36.4555
  338.5000     0.2074     0.2631    72.1401     7.8470     0.0056     2.3306   103.1761    38.7808    25.6330    28.5900   -51.9339    34.3931    34.7109
  339.0000     0.2068     0.2682    71.5933     7.8467     0.0086     2.3290   103.6297    39.5753    25.9800    27.4052   -51.9444    32.5198    33.0499
  339.5000     0.2093     0.2758    72.2555     7.8464     0.0146     2.3230   103.6309    39.8373    26.1489    26.8239   -51.9548    31.3954    31.0342
  340.0000     0.2129     0.2774    73.2533     7.8461     0.0221     2.3184   103.0189    39.5369    26.3189    26.4383   -51.9652    30.7336    29.9625
  340.5000     0.2157     0.2692    73.4054     7.8458     0.0176     2.3177   101.8896    38.7010    25.4024    26.4236   -51.8231    29.6709    28.9277
  341.0000     0.2124     0.2583    73.4069     7.8455    -0.0112     2.3252   100.5389    38.4185    24.0137    26.4090   -51.8362    28.4469    28.5168
  341.5000     0.2075     0.2523    73.1072     7.8151    -0.0187     2.3365    97.8194    38.3952    21.7714    27.5202   -51.9965    29.4372    29.1052
  342.0000     0.2015     0.2485    72.2051     7.7695     0.0069     2.3538    93.0584    36.8066    20.2964    30.1103   -52.0070    31.3254    30.5427
  342.5000     0.1841     0.2509    72.3572     7.7391     0.0476     2.3765    90.3018    35.5303    19.4560    32.9441   -52.1673    33.3455    32.4995
  343.0000     0.1683     0.2448    73.8647     7.7086     0.0446     2.3968    90.0180    35.0220    19.9961    34.5701   -52.3277    34.9771    34.1045
  343.5000     0.1677     0.2401    77.1795     7.7238     0.0355     2.3893    90.8746    34.2815    21.8810    35.2850   -52.4880    34.4479    35.2952
  344.0000     0.1780     0.2448    78.0842     7.7691     0.0189     2.3734    94.6536    33.0927    23.6123    28.6145   -52.6484    32.0768    34.3138
  344.5000     0.1963     0.2583    76.5797     7.7993    -0.0068     2.3477    96.9064    31.7235    25.1281    26.6754   -52.8088    29.7154    31.9980
  345.0000     0.2056     0.2617    77.4852     7.8130    -0.0174     2.3363    98.1610    30.6234    26.0062    26.4756   -53.1190    28.7063    30.0465
  345.5000     0.2080     0.2585    79.7458     7.8278    -0.0160     2.3303    99.2227    29.7680    26.3583    26.2774   -53.2794    28.1270    28.6086
  346.0000     0.2074     0.2560    80.3493     7.8275    -0.0115     2.3301    99.9828    29.3421    26.7151    25.3643   -53.5897    27.3436    27.8132
  346.5000     0.2080     0.2636    74.1765     7.8246    -0.0085     2.3317   100.5166    28.9224    27.2661    24.8263   -53.7500    26.7671    27.6092
