~VERSION INFORMATION
 VERS.                2.0:   CWLS LOG ASCII STANDARD - VERSION 2.0
 WRAP.                 NO:   ONE LINE PER DEPTH STEP
~WELL INFORMATION
#MNEM.UNIT      DATA TYPE    INFORMATION
#----------   ------------   ------------------------------
 STRT.F         1304.0000:   START DEPTH
 STOP.F         2900.0000:   STOP DEPTH
 STEP.F            0.5000:   STEP LENGTH
 NULL.          -999.2500:   NO VALUE
 COMP.   FLUOR DANIEL INC:   COMPANY
 WELL. NAVAL PETROLEUM RESERVE 3 SHX- #18-14:   WELL
 FLD .             TEAPOT:   FIELD
 LOC .      S14 T38N R78W:   LOCATION
 CNTY.            NATRONA:   COUNTY
 STAT.            WYOMING:   STATE
 CTRY. UNITED STATES OF AMERICA:   COUNTRY
 SRVC.            Unknown:   SERVICE COMPANY
 DATE.        17-APR-1995:   LOGDATE
 API .       490252270800:   API NUMBER
~CURVE INFORMATION
#MNEM.UNIT       API CODE    CURVE DESCRIPTION
#----------   ------------   ------------------------------
 DEPT.F                  :   
 ROP .FT/HR  91 810 01 00:   RAT OF DRILLING PENETRATION
 TGAS.TC/CC  91 830 01 00:   TOTAL GAS UNIT
~PARAMETER INFORMATION
#MNEM.UNIT          VALUE    DESCRIPTION
#----------   ------------   ------------------------------
 EKB .F              5271:   KELLING BUSHING
 EGL .F              5281:   GROUND LEVEL
 DATE.        17-APR-1995:   RUN DATE
 RUN .                  1:   RUN NUMBER
 BLI .F              2900:   BOTTOM LOG INTERVAL
 TLI .F              1310:   TOP LOG INTERVAL
 WITN.     C.TOWER/R.HUSK:   WITNESSED BY
 CLNT.            A2DTECH:   CLIENT CODE
 ORIG.           5" PRINT:   ORIGIN OF DATA
 UWI .       490252270800:   UNIQUE WELL ID
 DICO. A2D Technologies, Inc.:   DIGITIZING COMPANY
~OTHER INFORMATION
~A  DEPT         ROP     TGAS   
# ...
 2276.0000     0.7808    42.2642
 2276.5000     0.6307    42.4528
 2277.0000     0.6306    42.4528
 2277.5000     0.6305    42.4528
 2278.0000     0.6304    42.2642
 2278.5000     0.6303    42.2642
 2279.0000     0.6302    42.2642
 2279.5000     0.6301    42.2642
 2280.0000     0.6300    42.2642
 2280.5000     0.6299    42.2642
 2281.0000     0.6298    42.4528
 2281.5000     0.6297    42.4528
 2282.0000     0.6296    42.4528
 2282.5000     0.6295    42.4528
 2283.0000     0.6294    42.4528
 2283.5000     0.6293    42.2642
 2284.0000     0.6292    42.2642
 2284.5000     0.6291    42.2642
 2285.0000     0.6290    42.2642
 2285.5000     0.6289    42.4528
 2286.0000     0.6288    42.4528
 2286.5000     0.6292    42.4528
 2287.0000     0.6301    42.4528
 2287.5000     0.6310    42.4528
 2288.0000     0.6318    42.4528
 2288.5000     0.6327    42.4528
 2289.0000     0.6336    42.4528
 2289.5000     0.6344    42.4528
 2290.0000     0.6353    42.4528
 2290.5000     0.6361    42.4528
 2291.0000     0.6370    42.4528
 2291.5000     0.6379    42.6415
 2292.0000     0.6387    42.4528
 2292.5000     0.6396    42.8302
 2293.0000     0.6404    42.4528
 2293.5000     0.6413    42.4528
 2294.0000     0.6422    42.4528
 2294.5000     0.6430    42.4528
 2295.0000     0.6439    42.4528
 2295.5000     0.6447    42.6415
 2296.0000     0.6456    42.4528
 2296.5000     0.6465    42.6415
 2297.0000     0.6473    42.8302
 2297.5000     0.6482    42.6415
 2298.0000     0.6491    42.4528
 2298.5000     0.6499    42.4528
 2299.0000     0.6508    42.4528
 2299.5000     0.6516    42.4528
 2300.0000     0.6525    42.2560
 2300.5000     0.6534    42.2057
 2301.0000     0.6542    42.1554
 2301.5000     0.6551    42.1051
 2302.0000     0.6559    42.0599
 2302.5000     0.6568    42.2449
 2303.0000     0.6577    42.2413
 2303.5000     0.6585    42.4264
 2304.0000     0.6594    42.2340
 2304.5000     0.6602    42.2302
 2305.0000     0.6611    42.2257
 2305.5000     0.6621    42.4107
 2306.0000     0.5882    42.4071
 2306.5000     0.5310    42.2147
 2307.0000     0.5308    42.4007
 2307.5000     0.5305    42.2074
 2308.0000     0.5303    42.2038
 2308.5000     0.5301    42.2000
 2309.0000     0.5298    42.1955
 2309.5000     0.5296    42.1919
 2310.0000     0.5293    42.1882
 2310.5000     0.5291    42.1845
 2311.0000     0.5289    41.9931
 2311.5000     0.5286    41.9885
 2312.0000     0.5284    41.9849
 2312.5000     0.5282    41.9811
 2313.0000     0.5279    41.9766
 2313.5000     0.5277    41.9730
 2314.0000     0.5275    41.9698
 2314.5000     0.6118    41.9656
 2315.0000     0.6108    41.9620
 2315.5000     0.6098    41.9583
 2316.0000     0.6088    41.9547
 2316.5000     0.6078    41.9509
 2317.0000     0.6068    41.9464
 2317.5000     0.6058    41.7541
 2318.0000     0.7654    41.5617
 2318.5000     0.7658    41.3694
 2319.0000     0.7662    41.5553
 2319.5000     0.7665    41.5508
 2320.0000     0.7669    41.5471
 2320.5000     0.7673    41.5434
 2321.0000     0.7677    41.5396
 2321.5000     0.7680    41.5358
 2322.0000     0.7685    41.5315
 2322.5000     0.6734    41.5279
 2323.0000     0.6713    41.5791
 2323.5000     0.6691    41.8988
 2324.0000     0.6666    41.8940
 2324.5000     0.9975    41.8906
 2325.0000     1.0004    41.8868
 2325.5000     1.0033    42.0720
 2326.0000     1.0064    41.8787
 2326.5000     0.7906    41.8750
 2327.0000     0.7910    41.8714
 2327.5000     0.7914    41.8677
 2328.0000     0.7917    42.0527
 2328.5000     0.9877    41.8604
 2329.0000     0.9857    41.7078
 2329.5000     0.9836    41.4755
 2330.0000     0.9812    41.4711
 2330.5000     0.6836    41.2792
 2331.0000     0.6889    41.2755
 2331.5000     0.6942    41.2715
 2332.0000     0.6995    41.2678
 2332.5000     1.0019    41.2642
 2333.0000     1.0023    41.2604
 2333.5000     1.0026    41.4455
 2334.0000     1.0030    41.4409
 2334.5000     0.7984    41.2486
 2335.0000     0.8014    41.2449
 2335.5000     0.8043    41.2415
 2336.0000     0.8073    41.2376
 2336.5000     0.8103    41.2340
 2337.0000     0.8133    41.0415
 2337.5000     0.8162    40.8484
 2338.0000     0.5361    40.6560
 2338.5000     0.5365    40.6524
 2339.0000     0.5368    40.6491
 2339.5000     0.5372    40.6451
 2340.0000     0.5376    40.8302
 2340.5000     0.5380    40.8264
 2341.0000     0.5383    41.0111
 2341.5000     0.5387    41.0068
 2342.0000     0.5391    41.1919
 2342.5000     0.5395    41.1882
 2343.0000     0.5398    41.1845
 2343.5000     0.5402    41.3705
 2344.0000     0.5406    41.1772
 2344.5000     0.5410    41.3623
 2345.0000     0.5414    41.3585
 2345.5000     0.5417    40.9766
 2346.0000     0.5421    40.5956
 2346.5000     0.5425    40.5925
 2347.0000     0.5429    40.5887
 2347.5000     0.5432    40.5846
 2348.0000     0.7692    40.5811
 2348.5000     0.7830    40.5773
 2349.0000     0.7984    40.5736
 2349.5000     0.8137    40.5691
 2350.0000     0.8290    40.5781
 2350.5000     0.8352    40.6116
 2351.0000     0.8327    40.6451
 2351.5000     0.8301    40.6786
 2352.0000     0.8275    40.7120
 2352.5000     0.8249    40.7455
 2353.0000     0.8223    40.5894
 2353.5000     0.8197    40.7818
 2354.0000     1.0248    40.5958
 2354.5000     1.0201    40.7891
 2355.0000     1.0154    40.6032
 2355.5000     1.0107    40.9852
 2356.0000     0.8383    41.1776
 2356.5000     0.8358    41.1812
 2357.0000     0.8333    41.1849
 2357.5000     0.8308    41.1887
 2358.0000     0.8284    41.1925
 2358.5000     0.8259    41.1962
 2359.0000     0.8234    41.2006
 2359.5000     0.8631    41.3930
 2360.0000     1.0069    41.5853
 2360.5000     1.0025    41.5890
 2361.0000     0.9981    41.5927
 2361.5000     0.9938    41.5964
 2362.0000     0.9894    41.4113
 2362.5000     0.9850    41.4151
 2363.0000     0.9807    41.6075
 2363.5000     0.9763    41.4225
 2364.0000     0.7947    41.2375
 2364.5000     0.7955    41.2421
 2365.0000     0.7963    41.4345
 2365.5000     0.7971    41.4381
 2366.0000     0.7979    41.4415
 2366.5000     0.7987    41.6340
 2367.0000     0.7995    41.6382
 2367.5000     0.8003    41.6416
 2368.0000     0.8011    41.4566
 2368.5000     0.8019    41.2716
 2369.0000     0.8027    41.0875
 2369.5000     0.8035    41.2799
 2370.0000     0.8043    41.0940
 2370.5000     0.8051    41.2873
 2371.0000     0.8059    41.2909
 2371.5000     0.8067    41.2946
 2372.0000     0.9669    41.2983
 2372.5000     0.9671    41.1133
 2373.0000     0.9673    41.1170
 2373.5000     0.9675    40.9320
 2374.0000     0.9677    40.9899
 2374.5000     0.9679    41.3177
 2375.0000     0.9680    41.3214
 2375.5000     0.9682    41.3251
 2376.0000     0.7523    41.3287
 2376.5000     0.7530    41.3324
 2377.0000     0.7537    41.3361
 2377.5000     0.7545    41.3398
 2378.0000     0.7553    41.3435
 2378.5000     0.7561    41.3472
 2379.0000     0.7568    41.5396
 2379.5000     0.7576    41.5106
 2380.0000     0.7584    41.3582
 2380.5000     0.7592    41.3629
 2381.0000     0.7599    41.1769
 2381.5000     0.7607    41.3702
 2382.0000     0.7615    41.3736
 2382.5000     0.7623    41.3776
 2383.0000     0.7631    41.3813
 2383.5000     0.7638    41.3850
 2384.0000     0.7646    41.2000
 2384.5000     0.7654    41.2038
 2385.0000     0.7662    41.1950
 2385.5000     0.7669    41.0226
 2386.0000     0.7677    41.2151
 2386.5000     0.7685    41.4080
 2387.0000     0.7693    41.4117
 2387.5000     0.7700    41.4151
 2388.0000     0.7708    41.3472
 2388.5000     0.7716    41.1465
 2389.0000     0.7724    40.8604
 2389.5000     0.7731    40.8642
 2390.0000     0.7739    40.8679
 2390.5000     0.7747    40.8717
 2391.0000     0.7755    40.6865
 2391.5000     0.7763    40.6911
 2392.0000     0.7771    40.6943
 2392.5000     1.0012    40.5098
 2393.0000     0.9989    40.3239
 2393.5000     0.9967    40.3285
 2394.0000     0.9945    40.3322
 2394.5000     0.9922    40.3359
 2395.0000     0.9900    40.3396
 2395.5000     0.9878    40.1546
 2396.0000     0.9854    40.3479
 2396.5000     0.7699    40.3515
 2397.0000     0.7715    40.3552
