~VERSION INFORMATION
 VERS.                2.0:   CWLS LOG ASCII STANDARD - VERSION 2.0
 WRAP.                 NO:   ONE LINE PER DEPTH STEP
~WELL INFORMATION
#MNEM.UNIT      DATA TYPE    INFORMATION
#----------   ------------   ------------------------------
 STRT.M            0.0000:   START DEPTH
 STOP.M          642.0000:   STOP DEPTH
 STEP.M            0.1000:   STEP LENGTH
 NULL.          -999.2500:   NO VALUE
 COMP.   FLUOR DANIEL INC:   COMPANY
 WELL.     71-1 X 3 #71-3:   WELL
 FLD .             TEAPOT:   FIELD
 LOC .       S3 T38N R78W:   LOCATION
 CNTY.            NATRONA:   COUNTY
 STAT.            WYOMING:   STATE
 CTRY. UNITED STATES OF AMERICA:   COUNTRY
 SRVC.      Western Atlas:   SERVICE COMPANY
 DATE.        04-JAN-1995:   LOGDATE
 API .       490252267900:   API NUMBER
~CURVE INFORMATION
#MNEM.UNIT       API CODE    CURVE DESCRIPTION
#----------   ------------   ------------------------------
 DEPT.M                  :   
 RILD.OHMM   07 120 46 00:   INDUCTION LOG DEEP RESISTIVITY
 RILM.OHMM   07 120 44 00:   INDUCTION LOG MEDIUM RESISTIVITY
 GRR .GAPI   07 310 01 00:   GAMMA RAY
~PARAMETER INFORMATION
#MNEM.UNIT          VALUE    DESCRIPTION
#----------   ------------   ------------------------------
 PD  .                 GL:   PERMANENT DATUM
 EPD .F              5123:   ELEVATION PERMANENT DATUM
 LMF .                 KB:   LOG MEASURED FROM
 DAPD.F                10:   FEET ABOVE PERMANENT DATUM
 DMF .                 KB:   DRILLING MEASURED FROM
 EKB .F              5133:   KELLING BUSHING
 EDF .F              5132:   DRILLING FLOOR
 EGL .F              5123:   GROUND LEVEL
 DATE.        04-JAN-1995:   RUN DATE
 RUN .                  1:   RUN NUMBER
 DD  .F               647:   DEPTH DRILLER
 DL  .F               650:   DEPTH LOGGER
 BLI .F               642:   BOTTOM LOG INTERVAL
 TLI .F                96:   TOP LOG INTERVAL
 CS  .IN            9.625:   CASING SIZE
 CBD .F                96:   CASING BOTTOM DRILLER
 CBL .F                96:   CASING BOTTOM LOGGER
 BS  .IN             8.75:   BIT SIZE
 BSD .F               647:   BIT SIZE AT DEPTH
 DFT .                AIR:   DRILLING FLUID TYPE
 MRT .F                91:   MAXIMUM RECORDED TEMPERATURE
 LUN .            HL 6530:   LOGGING UNIT NUMBER
 LUL .             CASPER:   LOGGING UNIT LOCATION
 ENGI.        VERN RAUTIO:   RECORDING ENGINEER
 WITN.        GARY STRONG:   WITNESSED BY
 CLNT.            A2DTECH:   CLIENT CODE
 ORIG.           5" PRINT:   ORIGIN OF DATA
 UWI .       490252267900:   UNIQUE WELL ID
 DICO. A2D Technologies, Inc.:   DIGITIZING COMPANY
~OTHER INFORMATION
~A    DEPT    RILD       RILM        GRR   
# ...
  582.4000    11.4903    11.6058   102.1045
  582.5000    11.4904    11.6059   102.5982
  582.6000    11.4773    11.5967   102.8463
  582.7000    11.4450    11.5641   103.0944
  582.8000    11.4114    11.5261   103.2097
  582.9000    11.4116    11.4717   103.3650
  583.0000    11.4118    11.4466   103.8187
  583.1000    11.4119    11.3968   103.8215
  583.2000    11.3929    11.2890   104.0331
  583.3000    11.3333    11.2892   104.2812
  583.4000    11.3335    11.2893   104.6259
  583.5000    11.3336    11.2439   105.0393
  583.6000    11.3338    11.2115   105.0418
  583.7000    11.3078    11.1948   105.0441
  583.8000    11.2440    11.1342   105.0465
  583.9000    11.1780    11.1344   104.9321
  584.0000    11.1781    11.1345   104.6888
  584.1000    11.1783    11.0974   104.4413
  584.2000    11.1785    11.0348   103.9524
  584.3000    11.1600    10.9813   103.6569
  584.4000    11.1014    10.9815   103.2767
  584.5000    11.1016    10.9817   102.8681
  584.6000    11.0751    10.9818   102.6487
  584.7000    11.0438    10.9820   102.6517
  584.8000    11.0253    10.9821   102.6538
  584.9000    11.0254    10.9823   102.6562
  585.0000    11.0256    10.9824   102.6586
  585.1000    11.0257    10.9826   102.7053
  585.2000    10.9799    10.9827   102.9657
  585.3000    10.9179    10.9829   103.2016
  585.4000    10.8742    10.9830   103.4497
  585.5000    10.8743    10.9832   103.6979
  585.6000    10.8745    10.9276   103.9461
  585.7000    10.8746    10.9075   104.1942
  585.8000    10.8748    10.9076   104.4911
  585.9000    10.8502    10.9078   104.4930
  586.0000    10.7999    10.9079   104.4955
  586.1000    10.8000    10.9081   104.4979
  586.2000    10.8002    10.9082   104.4721
  586.3000    10.8003    10.9084   104.2009
  586.4000    10.8005    10.9085   103.9855
  586.5000    10.8006    10.9087   103.5810
  586.6000    10.8008    10.9088   102.9872
  586.7000    10.8010    10.9090   102.3008
  586.8000    10.8011    10.9497   101.7958
  586.9000    10.8012    10.9853   101.3228
  587.0000    10.8014    10.9855   101.0151
  587.1000    10.8015    10.9856   100.7719
  587.2000    10.8017    10.9858   100.5970
  587.3000    10.8018    10.9859   100.5872
  587.4000    10.8020    10.9861   100.3001
  587.5000    10.8021    10.9862   100.3021
  587.6000    10.8023    10.9915   100.4496
  587.7000    10.8064    11.0631   100.6977
  587.8000    10.8778    11.0633   100.9459
  587.9000    10.8780    11.0634   101.2184
  588.0000    10.8781    11.0636   101.6634
  588.1000    10.8783    11.0753   101.9923
  588.2000    10.8784    11.1410   102.3494
  588.3000    10.8786    11.1412   102.8431
  588.4000    10.8787    11.1413   103.3451
  588.5000    10.8789    11.1415   103.8308
  588.6000    10.9104    11.1416   104.1394
  588.7000    10.9549    11.1418   104.5164
  588.8000    10.9551    11.1420   104.9377
  588.9000    10.9553    11.1421   105.1858
  589.0000    11.0078    11.1422   105.4747
  589.1000    11.0319    11.1424   105.6822
  589.2000    11.0320    11.1426   105.7813
  589.3000    11.0322    11.1427   105.7837
  589.4000    11.0323    11.1429   105.7861
  589.5000    11.0325    11.1430   105.7887
  589.6000    11.0326    11.1432   105.7909
  589.7000    11.0328    11.1433   105.9624
  589.8000    11.0507    11.1435   106.2106
  589.9000    11.1099    11.1437   106.4589
  590.0000    11.1101    11.1438   106.7069
  590.1000    11.1102    11.1439   106.9551
  590.2000    11.1104    11.1441   106.8246
  590.3000    11.1105    11.1443   106.5813
  590.4000    11.1000    11.1444   106.1848
  590.5000    11.0340    11.1446   105.4302
  590.6000    11.0342    11.1447   104.3049
  590.7000    11.0343    11.1449   103.6785
  590.8000    11.0345    11.1450   102.9437
  590.9000    11.0346    11.1452   102.2090
  591.0000    11.0348    11.1453   101.5145
  591.1000    11.0349    11.1455   100.9935
  591.2000    11.0351    11.1456   100.5365
  591.3000    11.0352    11.1458   100.0476
  591.4000    11.0354    11.1460    99.6754
  591.5000    11.0355    11.1461    99.4321
  591.6000    11.0357    11.1463    99.1927
  591.7000    11.0358    11.1464    99.1952
  591.8000    11.0360    11.1466    98.8108
  591.9000    11.0361    11.1467    98.5958
  592.0000    11.0363    11.1469    98.5982
  592.1000    11.0365    11.1470    98.6006
  592.2000    11.0366    11.1472    98.6033
  592.3000    11.0368    11.1474    98.6054
  592.4000    11.0369    11.1269    98.6079
  592.5000    11.0129    11.0705    98.6103
  592.6000    10.9609    11.0707    98.6127
  592.7000    10.9610    11.0159    98.6152
  592.8000    10.9028    10.9943    98.6175
  592.9000    10.8855    10.9945    98.6199
  593.0000    10.8857    10.9946    98.7432
  593.1000    10.8858    10.9948    98.9913
  593.2000    10.8828    10.9949    99.2476
  593.3000    10.8109    10.9951    99.8385
  593.4000    10.8110    10.9952   100.2353
  593.5000    10.8111    10.9764   100.7291
  593.6000    10.8113    10.9194   101.2230
  593.7000    10.8015    10.9196   101.7168
  593.8000    10.7368    10.9197   102.2673
  593.9000    10.7369    10.9199   102.7045
  594.0000    10.7371    10.8949   103.0372
  594.1000    10.7372    10.8446   103.2854
  594.2000    10.7374    10.8448   103.4852
  594.3000    10.7375    10.8449   103.4877
  594.4000    10.7377    10.8451   103.9654
  594.5000    10.6876    10.8139   104.0967
  594.6000    10.6272    10.7703   104.2240
  594.7000    10.5901    10.7667   104.4721
  594.8000    10.5903    10.6961   104.7082
  594.9000    10.5904    10.6962   104.7110
  595.0000    10.5905    10.6593   104.7130
  595.1000    10.5479    10.6224   104.8604
  595.2000    10.5176    10.6128   105.1086
  595.3000    10.5177    10.5492   105.3245
  595.4000    10.5179    10.5494   105.3271
  595.5000    10.5181    10.5495   105.1077
  595.6000    10.4936    10.5205   105.0296
  595.7000    10.4640    10.4611   104.9233
  595.8000    10.4457    10.4044   104.7323
  595.9000    10.4366    10.4046   104.7348
  596.0000    10.3738    10.3567   104.7372
  596.1000    10.3739    10.3328   104.7396
  596.2000    10.3322    10.3115   104.7420
  596.3000    10.3024    10.2616   104.7444
  596.4000    10.3026    10.2617   104.7468
  596.5000    10.3027    10.2619   104.7496
  596.6000    10.3029    10.1818   104.7517
  596.7000    10.2551    10.1206   104.9031
  596.8000    10.2319    10.1207   105.1512
  596.9000    10.2102    10.1197   105.3631
  597.0000    10.1614    10.0626   105.3658
  597.1000    10.1615    10.0059   105.5935
  597.2000    10.1617     9.9816   105.8417
  597.3000    10.1210     9.9818   106.0898
  597.4000    10.0638     9.9750   106.3379
  597.5000    10.0220     9.9130   106.5861
  597.6000    10.0197     9.8628   106.8342
  597.7000     9.9530     9.8446   107.0824
  597.8000     9.9069     9.8448   107.3306
  597.9000     9.8844     9.8324   107.5787
  598.0000     9.8636     9.7769   107.8066
  598.1000     9.8078     9.7770   107.8094
  598.2000     9.7485     9.7343   107.8115
  598.3000     9.7487     9.7096   107.8139
  598.4000     9.7098     9.7097   107.8163
  598.5000     9.6550     9.7043   107.7383
  598.6000     9.6147     9.6428   107.2171
  598.7000     9.6148     9.5951   106.9897
  598.8000     9.6150     9.5763   106.7464
  598.9000     9.5265     9.5765   106.2696
  599.0000     9.4827     9.5655   105.5952
  599.1000     9.4828     9.5104   105.1102
  599.2000     9.4749     9.5106   104.8669
  599.3000     9.4175     9.5107   104.4303
  599.4000     9.3682     9.4823   104.2151
  599.5000     9.3526     9.4451   104.2175
  599.6000     9.3527     9.4453   104.2199
  599.7000     9.3254     9.4454   104.2227
  599.8000     9.2240     9.4455   104.2248
  599.9000     9.2242     9.4119   104.3843
  600.0000     9.2243     9.3588   104.7581
  600.1000     9.1935     9.3156   105.3133
  600.2000     9.1416     9.3157   105.8684
  600.3000     9.0975     9.3159   106.4236
  600.4000     9.0977     9.2773   106.9788
  600.5000     9.0501     9.2516   107.5339
