~VERSION INFORMATION
 VERS.                2.0:   CWLS LOG ASCII STANDARD - VERSION 2.0
 WRAP.                 NO:   ONE LINE PER DEPTH STEP
~WELL INFORMATION
#MNEM.UNIT      DATA TYPE    INFORMATION
#----------   ------------   ------------------------------
 STRT.F            8.0000:   START DEPTH
 STOP.F          598.0000:   STOP DEPTH
 STEP.F            0.5000:   STEP LENGTH
 NULL.          -999.2500:   NO VALUE
 COMP. FENIX & SCISSON INC:   COMPANY
 WELL.    16-SX-11 #16-11:   WELL
 FLD .             TEAPOT:   FIELD
 LOC .      S11 T38N R78W:   LOCATION
 CNTY.            NATRONA:   COUNTY
 STAT.            WYOMING:   STATE
 CTRY. UNITED STATES OF AMERICA:   COUNTRY
 SRVC.            Unknown:   SERVICE COMPANY
 DATE.        13-DEC-1978:   LOGDATE
 API .       490251078400:   API NUMBER
~CURVE INFORMATION
#MNEM.UNIT       API CODE    CURVE DESCRIPTION
#----------   ------------   ------------------------------
 DEPT.F                  :   
 RHOB.G/C3   45 350 01 00:   BULK DENSITY
 CORR.G/C3   45 356 01 00:   DENSITY CORRECTION
 SN  .OHMM   05 040 16 00:   SHORT NORMAL 16"
 ILD .OHMM   05 120 46 00:   INDUCTION LOG DEEP
 SPR .MV     05 010 01 00:   SPONTANEOUS POTENTIAL FROM RES.
 DPHI.DEC    45 890 12 00:   DENSITY POROSITY SANDSTONE
 CALD.IN     45 280 60 00:   CALIPER
 GRD .GAPI   45 310 01 00:   GAMMA RAY FROM DENSITY LOG
~PARAMETER INFORMATION
#MNEM.UNIT          VALUE    DESCRIPTION
#----------   ------------   ------------------------------
 PD  .                 GL:   PERMANENT DATUM
 EPD .F              5209:   ELEVATION PERMANENT DATUM
 LMF .                 KB:   LOG MEASURED FROM
 DAPD.F                 4:   FEET ABOVE PERMANENT DATUM
 DMF .                 KB:   DRILLING MEASURED FROM
 EKB .F              5213:   KELLING BUSHING
 EGL .F              5209:   GROUND LEVEL
 DATE.           12-13-78:   RUN DATE
 RUN .                  1:   RUN NUMBER
 DD  .F               590:   DEPTH DRILLER
 DL  .F               598:   DEPTH LOGGER
 BLI .F               591:   BOTTOM LOG INTERVAL
 TLI .F                40:   TOP LOG INTERVAL
 CS  .IN            8.625:   CASING SIZE
 CBD .F                40:   CASING BOTTOM DRILLER
 CBL .F                25:   CASING BOTTOM LOGGER
 BS  .IN            7.875:   BIT SIZE
 BSD .F               590:   BIT SIZE AT DEPTH
 DFT .                KCL:   DRILLING FLUID TYPE
 DFD .                8.8:   DRILLING FLUID DENSITY
 DFV .                 37:   DRILLING FLUID VISCOSITY
 DFPH.                8.9:   DRILLING FLUID PH
 MSS .           FLOWLINE:   MUD SAMPLE SOURCE
 RMS .OHMM             .3:   RESISTIVITY MUD SAMPLE
 MST .F                56:   MUD SAMPLE TEMPERATURE
 RMF .OHMM            .26:   RESISTIVITY MUD FILTRATE SAMPLE
 MFST.F                66:   MUD FILTRATE SAMPLE TEMPERATURE
 RMC .OHMM            .24:   RESISTIVITY MUD CAKE
 MCST.F                66:   MUD CAKE SAMPLE TEMPERATURE
 MFSS.           MEASURED:   MUD FILTRATE SAMPLE SOURCE
 MCSS.           MEASURED:   MUD CAKE SAMPLE SOURCE
 RMB .OHMM            .29:   RESISTIVITY MUD AT BHT
 BHT .F                58:   BOTTOM HOLE TEMPERATURE
 TCS .HRS               3:   TIME CURCULATED STOPPED
 MRT .F                58:   MAXIMUM RECORDED TEMPERATURE
 LUN .               2958:   LOGGING UNIT NUMBER
 LUL .             CASPER:   LOGGING UNIT LOCATION
 ENGI.            ROLLINS:   RECORDING ENGINEER
 WITN.         RICHARDSON:   WITNESSED BY
 CLNT.            A2DTECH:   CLIENT CODE
 ORIG.       2", 5" PRINT:   ORIGIN OF DATA
 UWI .       490251078400:   UNIQUE WELL ID
 DICO. A2D Technologies, Inc.:   DIGITIZING COMPANY
~OTHER INFORMATION
~A    DEPT    RHOB       CORR         SN        ILD        SPR       DPHI       CALD         GRD  
# ...
  170.0000     2.4775     0.0471     8.8002     8.3466    -2.3774     0.1334     7.9432   106.1483
  170.5000     2.4874     0.0481     8.7851     8.3466    -2.4039     0.1290     7.9432   104.2830
  171.0000     2.4904     0.0481     8.7702     8.3466    -2.4304     0.1245     7.9432   103.6298
  171.5000     2.4901     0.0470     8.7552     8.3466    -2.4569     0.1212     7.9432   103.0087
  172.0000     2.4896     0.0433     8.7433     8.3465    -2.4835     0.1206     7.9432   101.8122
  172.5000     2.4871     0.0344     8.7848     8.3465    -2.5089     0.1226     7.9432   101.7790
  173.0000     2.4741     0.0233     8.8242     8.3658    -2.5010     0.1271     7.9432   103.8421
  173.5000     2.4625     0.0139     8.8637     8.4306    -2.4914     0.1353     7.9432   104.9396
  174.0000     2.4613     0.0063     8.9035     8.4959    -2.4819     0.1427     7.9432   107.4428
  174.5000     2.4663     0.0082     8.9437     8.5616    -2.4725     0.1424     7.9432   110.4779
  175.0000     2.4739     0.0100     8.9834     8.5814    -2.4631     0.1395     7.9432   108.5160
  175.5000     2.4754     0.0100     9.0690     8.5815    -2.4537     0.1366     7.9432   105.5165
  176.0000     2.4871     0.0088     9.0388     8.5815    -2.4443     0.1313     7.9432   105.4884
  176.5000     2.4895     0.0063     9.0174     8.5816    -2.4349     0.1258     7.9432   107.8926
  177.0000     2.4895     0.0040     8.9961     8.5816    -2.4255     0.1227     7.9432   110.4195
  177.5000     2.4880     0.0040     8.9747     8.5252    -2.4161     0.1224     7.9432   110.9046
  178.0000     2.4859     0.0040     8.9535     8.4632    -2.4067     0.1244     7.9432   108.4606
  178.5000     2.4806     0.0040     8.9323     8.4017    -2.3973     0.1280     7.9432   105.5094
  179.0000     2.4753     0.0040     8.9111     8.3482    -2.3879     0.1316     7.9432   102.7147
  179.5000     2.4700     0.0040     8.9047     8.3636    -2.3785     0.1353     7.9432   103.0454
  180.0000     2.4685     0.0040     8.9048     8.3791    -2.3691     0.1384     7.9432   104.4320
  180.5000     2.4704     0.0040     8.9048     8.3946    -2.3597     0.1392     7.9432   103.6019
  181.0000     2.4722     0.0040     8.9048     8.4101    -2.3503     0.1383     7.9432   103.7411
  181.5000     2.4740     0.0040     8.9048     8.4222    -2.3409     0.1359     7.9432   106.2038
  182.0000     2.4759     0.0040     8.9049     8.4037    -2.3315     0.1335     7.9432   107.1876
  182.5000     2.4756     0.0040     8.9033     8.3853    -2.3221     0.1317     7.9432   108.4637
  183.0000     2.4745     0.0040     8.8893     8.3669    -2.3127     0.1315     7.9432   106.4810
  183.5000     2.4733     0.0040     8.8750     8.3485    -2.3033     0.1324     7.9432   105.0159
  184.0000     2.4722     0.0040     8.8609     8.3301    -2.2939     0.1337     7.9432   105.6622
  184.5000     2.4716     0.0040     8.8467     8.3118    -2.2845     0.1350     7.9432   109.7774
  185.0000     2.4724     0.0041     8.8326     8.2935    -2.2751     0.1359     7.9432   112.2448
  185.5000     2.4731     0.0051     8.8242     8.2752    -2.2657     0.1356     7.9432   111.9065
  186.0000     2.4739     0.0061     8.8712     8.2698    -2.2563     0.1353     7.9425   108.9300
  186.5000     2.4749     0.0071     8.9086     8.2698    -2.2469     0.1349     7.9390   106.0545
  187.0000     2.4767     0.0080     8.9461     8.2698    -2.2375     0.1344     7.9356   104.7788
  187.5000     2.4785     0.0062     8.9838     8.2698    -2.2281     0.1336     7.9323   101.8056
  188.0000     2.4792     0.0042     9.0216     8.2698    -2.2187     0.1311     7.9289   100.2067
  188.5000     2.4787     0.0051     9.0672     8.2698    -2.2093     0.1319     7.9255   102.1399
  189.0000     2.4802     0.0062     8.9875     8.2698    -2.1999     0.1322     7.9221   105.1022
  189.5000     2.4839     0.0074     8.9875     8.2698    -2.1905     0.1308     7.9187   104.7760
  190.0000     2.4872     0.0097     8.9875     8.2698    -2.1811     0.1266     7.9153   105.6458
  190.5000     2.4858     0.0154     8.9875     8.2698    -2.1717     0.1239     7.9120   108.2917
  191.0000     2.4800     0.0263     8.9875     8.2698    -2.1623     0.1272     7.9086   108.5627
  191.5000     2.4743     0.0294     8.9875     8.2698    -2.1528     0.1313     7.9051   108.3931
  192.0000     2.4713     0.0320     8.9875     8.2698    -2.1435     0.1354     7.9003   108.2685
  192.5000     2.4759     0.0314     8.9875     8.2698    -2.1341     0.1362     7.8936   108.9026
  193.0000     2.4822     0.0307     8.9875     8.2698    -2.1248     0.1309     7.8870   109.0091
  193.5000     2.4855     0.0301     8.9875     8.2698    -2.1151     0.1264     7.8803   105.8391
  194.0000     2.4856     0.0294     8.9875     8.2698    -2.0907     0.1255     7.8737   104.0632
  194.5000     2.4770     0.0287     8.9875     8.2697    -2.0135     0.1258     7.8669   104.7494
  195.0000     2.4650     0.0281     8.9875     8.2953    -1.9389     0.1324     7.8590   105.4457
  195.5000     2.4539     0.0332     8.9875     8.3466    -1.8643     0.1397     7.8495   105.4846
  196.0000     2.4543     0.0441     8.9875     8.3982    -1.7895     0.1465     7.8400   102.5458
  196.5000     2.4636     0.0603     8.9870     8.4241    -1.7151     0.1462     7.8305    99.6693
  197.0000     2.4731     0.0765     9.0141     8.4242    -1.7205     0.1376     7.8184    97.6104
  197.5000     2.4825     0.0925     9.0520     8.4240    -1.7401     0.1298     7.7966    99.5770
  198.0000     2.4882     0.0968     9.0901     8.4361    -1.7600     0.1257     7.7756   103.6032
  198.5000     2.4860     0.1007     9.1285     8.5590    -1.7799     0.1279     7.7547   106.6531
  199.0000     2.4864     0.1043     9.1590     8.6837    -1.7997     0.1276     7.7466   106.3431
  199.5000     2.4994     0.1042     9.1710     8.8101    -1.8195     0.1249     7.7575   106.1952
  200.0000     2.5138     0.1042     9.1831     8.8562    -1.8393     0.1128     7.7680   106.0293
  200.5000     2.5270     0.1003     9.1952     8.8934    -1.8591     0.0986     7.7784   107.6568
  201.0000     2.5251     0.0858     9.2073     8.9048    -1.8789     0.0983     7.7888   109.2262
  201.5000     2.5181     0.0671     9.2195     8.8083    -1.8988     0.1045     7.7993   108.3931
  202.0000     2.4978     0.0450     9.2316     8.7344    -1.9186     0.1145     7.8097   107.2403
  202.5000     2.4764     0.0215     9.2403     8.6612    -1.9384     0.1244     7.8201   106.3307
  203.0000     2.4669     0.0047     9.1468     8.5885    -1.9582     0.1344     7.8306   106.0298
  203.5000     2.4622     0.0032     9.0610     8.5165    -1.9780     0.1415     7.8410   104.9611
  204.0000     2.4639     0.0027     8.9761     8.4450    -1.9978     0.1419     7.8514   105.2265
  204.5000     2.4674     0.0021     8.8919     8.3742    -2.0176     0.1395     7.8619   106.9658
  205.0000     2.4705     0.0014     8.8086     8.3039    -2.0375     0.1370     7.8723   106.3039
  205.5000     2.4703     0.0007     8.7260     8.2343    -2.0573     0.1343     7.8827   104.9793
  206.0000     2.4661     0.0000     8.6440     8.1652    -2.0771     0.1349     7.8932   103.6549
  206.5000     2.4616     0.0006     8.5631     8.0967    -2.0968     0.1392     7.9036   105.4934
  207.0000     2.4570     0.0013     8.5024     8.0288    -2.1086     0.1435     7.9140   107.6551
  207.5000     2.4525     0.0021     8.4242     7.9614    -2.1084     0.1472     7.9245   109.4540
  208.0000     2.4532     0.0068     8.4242     7.8946    -2.1084     0.1479     7.9349   111.8836
  208.5000     2.4578     0.0119     8.3955     7.8284    -2.1084     0.1464     7.9433   111.4364
  209.0000     2.4588     0.0161     8.3680     7.7515    -2.1084     0.1443     7.9420   110.7673
  209.5000     2.4625     0.0160     8.3466     7.8147    -2.1084     0.1427     7.9410   110.0723
  210.0000     2.4681     0.0156     8.4244     7.8915    -2.1084     0.1415     7.9399   109.9584
