~VERSION INFORMATION
 VERS.                2.0:   CWLS LOG ASCII STANDARD - VERSION 2.0
 WRAP.                 NO:   ONE LINE PER DEPTH STEP
~WELL INFORMATION
#MNEM.UNIT      DATA TYPE    INFORMATION
#----------   ------------   ------------------------------
 STRT.F           28.0000:   START DEPTH
 STOP.F          856.0000:   STOP DEPTH
 STEP.F            0.5000:   STEP LENGTH
 NULL.          -999.2500:   NO VALUE
 COMP. FENIX & SCISSON INC:   COMPANY
 WELL. NPR 3  76 SX #76-27:   WELL
 FLD .             TEAPOT:   FIELD
 LOC .      S27 T39N R78W:   LOCATION
 CNTY.            NATRONA:   COUNTY
 STAT.            WYOMING:   STATE
 CTRY. UNITED STATES OF AMERICA:   COUNTRY
 SRVC.            Unknown:   SERVICE COMPANY
 DATE.        06-SEP-1978:   LOGDATE
 API .       490251069600:   API NUMBER
~CURVE INFORMATION
#MNEM.UNIT       API CODE    CURVE DESCRIPTION
#----------   ------------   ------------------------------
 DEPT.F                  :   
 SPR .MV     05 010 01 00:   SPONTANEOUS POTENTIAL FROM RES.
 SN  .OHMM   05 040 16 00:   SHORT NORMAL 16"
 ILD .OHMM   05 120 46 00:   INDUCTION LOG DEEP
 NPHI.DEC    42 890 03 00:   NEUTRON POROSITY SANDSTONE
 GRD .GAPI   45 310 01 00:   GAMMA RAY FROM DENSITY LOG
 CALD.IN     45 280 60 00:   CALIPER
 RHOB.G/C3   45 350 01 00:   BULK DENSITY
 DPHI.DEC    45 890 12 00:   DENSITY POROSITY SANDSTONE
 CORR.G/C3   45 356 01 00:   DENSITY CORRECTION
~PARAMETER INFORMATION
#MNEM.UNIT          VALUE    DESCRIPTION
#----------   ------------   ------------------------------
 PD  .                 GL:   PERMANENT DATUM
 EPD .F              5062:   ELEVATION PERMANENT DATUM
 LMF .                 KB:   LOG MEASURED FROM
 DAPD.F                 4:   FEET ABOVE PERMANENT DATUM
 DMF .                 KB:   DRILLING MEASURED FROM
 EKB .F              5066:   KELLING BUSHING
 EGL .F              5062:   GROUND LEVEL
 DATE.             9-6-78:   RUN DATE
 RUN .                  1:   RUN NUMBER
 DD  .F               865:   DEPTH DRILLER
 DL  .F               857:   DEPTH LOGGER
 BLI .F               851:   BOTTOM LOG INTERVAL
 TLI .F                40:   TOP LOG INTERVAL
 CS  .IN            8.625:   CASING SIZE
 CBD .F                43:   CASING BOTTOM DRILLER
 CBL .F                43:   CASING BOTTOM LOGGER
 BS  .IN            7.875:   BIT SIZE
 BSD .F               865:   BIT SIZE AT DEPTH
 DFT .                KCL:   DRILLING FLUID TYPE
 DFD .                8.4:   DRILLING FLUID DENSITY
 DFV .                 40:   DRILLING FLUID VISCOSITY
 DFPH.                  9:   DRILLING FLUID PH
 DFL .                  6:   DRILLING FLUID LOSS
 MSS .           FLOWLINE:   MUD SAMPLE SOURCE
 RMS .OHMM            .14:   RESISTIVITY MUD SAMPLE
 MST .F                84:   MUD SAMPLE TEMPERATURE
 RMF .OHMM             .1:   RESISTIVITY MUD FILTRATE SAMPLE
 MFST.F                94:   MUD FILTRATE SAMPLE TEMPERATURE
 RMC .OHMM            .18:   RESISTIVITY MUD CAKE
 MCST.F                92:   MUD CAKE SAMPLE TEMPERATURE
 MFSS.               MEAS:   MUD FILTRATE SAMPLE SOURCE
 MCSS.               MEAS:   MUD CAKE SAMPLE SOURCE
 RMB .OHMM           .145:   RESISTIVITY MUD AT BHT
 BHT .F                82:   BOTTOM HOLE TEMPERATURE
 TCS .HRS               3:   TIME CURCULATED STOPPED
 MRT .F                82:   MAXIMUM RECORDED TEMPERATURE
 LUN .               2958:   LOGGING UNIT NUMBER
 LUL .               CASP:   LOGGING UNIT LOCATION
 ENGI.           REYNOLDS:   RECORDING ENGINEER
 WITN.           MCGINLEY:   WITNESSED BY
 CLNT.            A2DTECH:   CLIENT CODE
 ORIG.           5" PRINT:   ORIGIN OF DATA
 UWI .       490251069600:   UNIQUE WELL ID
 DICO. A2D Technologies, Inc.:   DIGITIZING COMPANY
~OTHER INFORMATION
~A   DEPT      SPR         SN        ILD       NPHI         GRD      CALD       RHOB       DPHI       CORR   
# ...
   64.5000   -89.8221     6.9521     4.6858  -999.2500    78.7738     7.2937     2.4530     0.1397     0.0308
   65.0000   -89.8221     6.9343     4.8695  -999.2500    80.8520     7.3786     2.4515     0.1430     0.0352
   65.5000   -89.8221     6.9322     5.0604  -999.2500    82.5320     7.5256     2.4501     0.1482     0.0451
   66.0000   -89.8221     6.9322     5.1687  -999.2500    83.1953     7.6752     2.4450     0.1536     0.0551
   66.5000   -89.8221     6.9322     5.2595  -999.2500    83.5453     7.7581     2.4392     0.1473     0.0645
   67.0000   -89.8221     6.9320     5.2644  -999.2500    82.6870     7.7729     2.4343     0.1400     0.0600
   67.5000   -89.8221     6.9322     5.2235  -999.2500    81.4377     7.7878     2.4432     0.1408     0.0465
   68.0000   -89.8221     6.8690     5.1438  -999.2500    81.8106     7.8029     2.4524     0.1486     0.0275
   68.5000   -89.8221     6.7813     5.0653  -999.2500    82.6975     7.8101     2.4554     0.1524     0.0142
   69.0000   -89.8223     6.6947     4.9879  -999.2500    83.1243     7.8048     2.4412     0.1521     0.0104
   69.5000   -89.8211     6.6091     4.9118  -999.2500    82.4187     7.7656     2.4325     0.1552     0.0090
   70.0000   -89.8883     6.5246     4.8369  -999.2500    81.7370     7.7099     2.4320     0.1614     0.0089
   70.5000   -89.9864     6.4413     4.8002  -999.2500    81.1806     7.6546     2.4297     0.1642     0.0090
   71.0000   -90.0857     6.3590     4.8494  -999.2500    81.5106     7.5993     2.4203     0.1625     0.0090
   71.5000   -90.1850     6.2777     4.8481  -999.2500    81.8290     7.5440     2.4117     0.1543     0.0088
   72.0000   -90.2842     6.1975     4.8473  -999.2500    82.1432     7.4891     2.4106     0.1460     0.0089
   72.5000   -90.3834     6.1182     4.8472  -999.2500    82.2276     7.4431     2.4205     0.1400    -0.0009
   73.0000   -90.4827     6.0398     4.8472  -999.2500    81.5237     7.4151     2.4331     0.1441    -0.0104
   73.5000   -90.5831     5.9315     4.8472  -999.2500    78.9238     7.3865     2.4460     0.1501    -0.0190
   74.0000   -90.6124     5.9589     4.8472  -999.2500    76.3007     7.3744     2.4491     0.1561    -0.0052
   74.5000   -90.6128     6.0087     4.8471  -999.2500    75.9326     7.3593     2.4381     0.1600     0.0088
   75.0000   -90.6127     6.0583     4.8472  -999.2500    77.8671     7.3375     2.4272     0.1590     0.0090
   75.5000   -90.5953     6.1082     4.8547  -999.2500    80.5085     7.3513     2.4208     0.1579     0.0060
   76.0000   -90.5607     6.1585     4.8911  -999.2500    80.6681     7.3549     2.4188     0.1577     0.0026
   76.5000   -90.5261     6.2092     4.9278  -999.2500    77.7413     7.3586     2.4194     0.1579     0.0018
   77.0000   -90.4914     6.2604     4.9649  -999.2500    74.8484     7.3779     2.4200     0.1560     0.0034
   77.5000   -90.4568     6.3119     5.0022  -999.2500    74.7353     7.3968     2.4205     0.1510     0.0050
   78.0000   -90.4222     6.3828     5.0397  -999.2500    78.1867     7.4156     2.4256     0.1460     0.0065
   78.5000   -90.3876     6.3645     5.0776  -999.2500    80.9173     7.4345     2.4346     0.1412     0.0091
   79.0000   -90.3530     6.3359     5.1157  -999.2500    81.2037     7.4534     2.4436     0.1416     0.0090
   79.5000   -90.3184     6.3075     5.1215  -999.2500    79.0156     7.4722     2.4496     0.1428     0.0094
   80.0000   -90.2838     6.2792     5.1215  -999.2500    76.4275     7.4911     2.4483     0.1440     0.0097
   80.5000   -90.2492     6.2509     5.1215  -999.2500    76.0565     7.5100     2.4471     0.1462     0.0101
   81.0000   -90.2146     6.2229     4.9475  -999.2500    79.1374     7.5289     2.4457     0.1504     0.0104
   81.5000   -90.1800     6.1949     4.7631  -999.2500    81.2673     7.5477     2.4401     0.1498     0.0108
   82.0000   -90.1454     6.1671     4.5855  -999.2500    81.8882     7.5671     2.4340     0.1487     0.0110
   82.5000   -90.1107     6.1202     4.4631  -999.2500    79.4553     7.5549     2.4341     0.1475     0.0110
   83.0000   -90.0761     6.0083     4.4215  -999.2500    80.8374     7.5313     2.4358     0.1464     0.0103
   83.5000   -90.0421     5.8770     4.3573  -999.2500    81.0951     7.5274     2.4376     0.1494     0.0082
   84.0000   -90.0371     5.8893     4.2998  -999.2500    80.2526     7.5529     2.4394     0.1539     0.0062
   84.5000   -90.0867     5.9069     4.3175  -999.2500    79.3833     7.5801     2.4353     0.1579     0.0043
   85.0000   -90.1354     5.9245     4.3322  -999.2500    79.3935     7.6077     2.4276     0.1561     0.0044
   85.5000   -90.1842     5.9422     4.3541  -999.2500    80.1484     7.6353     2.4201     0.1522     0.0095
   86.0000   -90.2330     5.9599     4.3921  -999.2500    81.6237     7.6630     2.4211     0.1483     0.0171
   86.5000   -90.2818     5.9774     4.4289  -999.2500    80.7893     7.6905     2.4351     0.1444     0.0254
   87.0000   -90.3306     5.9858     4.4609  -999.2500    79.2555     7.7183     2.4377     0.1404     0.0310
   87.5000   -90.3794     5.9756     4.4212  -999.2500    79.6690     7.7306     2.4418     0.1390     0.0287
   88.0000   -90.4282     5.9568     4.4081  -999.2500    81.1855     7.7308     2.4483     0.1394     0.0261
   88.5000   -90.4770     5.9381     4.4000  -999.2500    82.6837     7.7308     2.4542     0.1445     0.0234
   89.0000   -90.5259     5.9194     4.3919  -999.2500    84.2296     7.7308     2.4458     0.1496     0.0249
   89.5000   -90.5745     5.9008     4.3838  -999.2500    83.7473     7.7307     2.4368     0.1558     0.0269
   90.0000   -90.6120     5.8823     4.3757  -999.2500    82.9375     7.7315     2.4296     0.1632     0.0269
   90.5000   -90.6029     5.8638     4.3676  -999.2500    83.3660     7.6712     2.4284     0.1705     0.0269
   91.0000   -90.5946     5.8454     4.3596  -999.2500    83.2297     7.5686     2.4222     0.1759     0.0268
   91.5000   -90.5865     5.8232     4.3515  -999.2500    80.2646     7.4648     2.4087     0.1771     0.0291
   92.0000   -90.5783     5.8238     4.3435  -999.2500    77.5219     7.3611     2.3954     0.1777     0.0319
   92.5000   -90.5702     5.7204     4.3294  -999.2500    77.7449     7.2579     2.3861     0.1768     0.0346
   93.0000   -90.5621     5.6480     4.2988  -999.2500    77.9964     7.1908     2.3849     0.1801     0.0375
   93.5000   -90.5539     5.5766     4.2630  -999.2500    78.0772     7.1784     2.3868     0.1831     0.0477
   94.0000   -90.5458     5.5061     4.2784  -999.2500    75.2430     7.1653     2.3883     0.1707     0.0678
   94.5000   -90.5377     5.4364     4.3031  -999.2500    72.5363     7.1522     2.3850     0.1431     0.0879
   95.0000   -90.5295     5.4113     4.3280  -999.2500    72.9185     7.1405     2.3844     0.1135     0.0984
   95.5000   -90.5214     5.5023     4.3531  -999.2500    75.1799     7.1108     2.4054     0.1074     0.0894
   96.0000   -90.5133     5.5768     4.3782  -999.2500    76.1951     7.0998     2.4517     0.1275     0.0571
   96.5000   -90.5051     5.6524     4.4576  -999.2500    75.1619     7.0963     2.5035     0.1413     0.0251
   97.0000   -90.4970     5.7290     4.5479  -999.2500    74.2255     7.1201     2.4796     0.1551     0.0129
   97.5000   -90.4889     5.7815     4.6401  -999.2500    75.6657     7.1505     2.4513     0.1601     0.0129
   98.0000   -90.4807     5.8238     4.7341  -999.2500    77.5552     7.2257     2.4283     0.1604     0.0129
   98.5000   -90.4726     5.8665     4.8029  -999.2500    77.3780     7.3046     2.4198     0.1548     0.0130
   99.0000   -90.4644     5.9092     4.7094  -999.2500    77.2702     7.3837     2.4194     0.1486     0.0130
   99.5000   -90.4563     5.9318     4.6246  -999.2500    78.6676     7.4628     2.4248     0.1423     0.0130
  100.0000   -90.4482     5.8709     4.5413  -999.2500    80.0447     7.5417     2.4317     0.1411     0.0130
  100.5000   -90.4400     5.8246     4.4595  -999.2500    81.3911     7.6205     2.4387     0.1434     0.0129
