~VERSION INFORMATION
 VERS.                2.0:   CWLS LOG ASCII STANDARD - VERSION 2.0
 WRAP.                 NO:   ONE LINE PER DEPTH STEP
~WELL INFORMATION
#MNEM.UNIT      DATA TYPE    INFORMATION
#----------   ------------   ------------------------------
 STRT.F           20.0000:   START DEPTH
 STOP.F          565.0000:   STOP DEPTH
 STEP.F            0.5000:   STEP LENGTH
 NULL.          -999.2500:   NO VALUE
 COMP. FENIX & SCISSON INC:   COMPANY
 WELL.     NPR-3 #12-SX-3:   WELL
 FLD .        TEAPOT DOME:   FIELD
 LOC .       S3 T38N R78W:   LOCATION
 CNTY.            NATRONA:   COUNTY
 STAT.            WYOMING:   STATE
 CTRY. UNITED STATES OF AMERICA:   COUNTRY
 SRVC.           BIRDWELL:   SERVICE COMPANY
 DATE.        29-JUL-1978:   LOGDATE
 API .       490251067000:   API NUMBER
~CURVE INFORMATION
#MNEM.UNIT       API CODE    CURVE DESCRIPTION
#----------   ------------   ------------------------------
 DEPT.F                  :   
 SPR .MV     05 010 01 00:   SPONTANEOUS POTENTIAL FROM RES.
 SN  .OHMM   05 040 16 00:   SHORT NORMAL 16"
 IL  .OHMM   05 120 00 00:   INDUCTION LOG
 GRD .GAPI   45 310 01 00:   GAMMA RAY FROM DENSITY LOG
 CALD.IN     45 280 60 00:   CALIPER
 CORR.G/C3   45 356 01 00:   DENSITY CORRECTION
 RHOB.G/C3   45 350 01 00:   BULK DENSITY
 DPHI.DEC    45 890 12 00:   DENSITY POROSITY SANDSTONE
~PARAMETER INFORMATION
#MNEM.UNIT          VALUE    DESCRIPTION
#----------   ------------   ------------------------------
 PD  .                 GL:   PERMANENT DATUM
 EPD .F              5191:   ELEVATION PERMANENT DATUM
 LMF .                 KB:   LOG MEASURED FROM
 DAPD.F                 4:   FEET ABOVE PERMANENT DATUM
 DMF .                 KB:   DRILLING MEASURED FROM
 EKB .F              5195:   KELLING BUSHING
 EGL .F              5191:   GROUND LEVEL
 DATE.            7-29-78:   RUN DATE
 RUN .                  1:   RUN NUMBER
 DD  .F               565:   DEPTH DRILLER
 DL  .F               571:   DEPTH LOGGER
 BLI .F               565:   BOTTOM LOG INTERVAL
 TLI .F                40:   TOP LOG INTERVAL
 CS  .IN            8.625:   CASING SIZE
 CBD .F                40:   CASING BOTTOM DRILLER
 CBL .F                40:   CASING BOTTOM LOGGER
 BS  .IN            7.875:   BIT SIZE
 BSD .F               565:   BIT SIZE AT DEPTH
 DFT .                KCL:   DRILLING FLUID TYPE
 DFD .                8.6:   DRILLING FLUID DENSITY
 DFV .                 31:   DRILLING FLUID VISCOSITY
 DFPH.                  9:   DRILLING FLUID PH
 RMS .OHMM            .32:   RESISTIVITY MUD SAMPLE
 MST .F                70:   MUD SAMPLE TEMPERATURE
 TCS .HRS               1:   TIME CURCULATED STOPPED
 LUN .               2958:   LOGGING UNIT NUMBER
 LUL .               CASP:   LOGGING UNIT LOCATION
 ENGI.              HONEA:   RECORDING ENGINEER
 WITN.              AMEND:   WITNESSED BY
 CLNT.            A2DTECH:   CLIENT CODE
 ORIG.           5" PRINT:   ORIGIN OF DATA
 UWI .       490251067000:   UNIQUE WELL ID
 DICO. A2D Technologies, Inc.:   DIGITIZING COMPANY
~OTHER INFORMATION
~A   DEPT      SPR         SN         IL         GRD      CALD       CORR       RHOB       DPHI   
# ...
  344.0000   -32.1643     8.2941     6.8209    92.9292     7.3669     0.0198     2.4613     0.1412
  344.5000   -32.1643     8.1940     6.7136    93.5186     7.4005     0.0213     2.4488     0.1435
  345.0000   -32.1643     8.0951     6.6081    92.5197     7.4341     0.0228     2.4418     0.1434
  345.5000   -32.1643     7.9974     6.5042    92.4805     7.4676     0.0243     2.4458     0.1491
  346.0000   -32.1643     7.9011     6.4020    93.5969     7.5014     0.0258     2.4404     0.1514
  346.5000   -32.1643     7.8053     6.2955    93.5592     7.5118     0.0272     2.4333     0.1551
  347.0000   -32.1643     7.6413     6.1813    92.2294     7.5045     0.0332     2.4263     0.1603
  347.5000   -32.1643     7.4559     5.9749    94.5827     7.4970     0.0392     2.4195     0.1690
  348.0000   -32.1643     7.2750     5.7753    94.9756     7.4895     0.0485     2.4029     0.1773
  348.5000   -32.1643     7.0986     5.5825    91.8699     7.4821     0.0712     2.3849     0.1773
  349.0000   -32.1643     6.9270     5.3961    90.8057     7.4748     0.0899     2.3634     0.1715
  349.5000   -32.1643     6.7769     5.2159    91.1033     7.5007     0.0894     2.3887     0.1638
  350.0000   -32.1643     6.8396     5.0937    91.4045     7.5374     0.0758     2.3775     0.1549
  350.5000   -32.1644     6.9599     5.2146    91.2089     7.5747     0.0623     2.4172     0.1460
  351.0000   -32.1654     7.0989     5.3095    88.9264     7.6119     0.0619     2.4291     0.1400
  351.5000   -32.1118     7.2889     5.4061    86.9913     7.6486     0.0633     2.4400     0.1395
  352.0000   -32.0388     7.5452     5.5393    88.9202     7.6745     0.0529     2.4565     0.1401
  352.5000   -31.9654     7.9037     5.7852    90.2942     7.6750     0.0264     2.5000     0.1410
  353.0000   -31.8921     8.2792     6.0753    87.6521     7.6760     0.0266     2.4658     0.1442
  353.5000   -31.8188     8.6137     6.3777    87.1471     7.6769     0.0279     2.4486     0.1530
  354.0000   -31.7454     8.6079     6.6971    89.4128     7.6779     0.0530     2.4437     0.1567
  354.5000   -31.6721     8.6945     6.9058    91.8760     7.6788     0.0604     2.3905     0.1475
  355.0000   -31.5988     8.6787     6.9021    94.3742     7.6797     0.0522     2.4374     0.1359
  355.5000   -31.5255     8.6689     6.9031    95.2977     7.6807     0.0441     2.4712     0.1320
  356.0000   -31.4520     8.6591     6.9129    95.0457     7.6816     0.0372     2.4699     0.1387
  356.5000   -31.3769     8.6493     6.9213    91.8383     7.6826     0.0470     2.4550     0.1433
  357.0000   -31.3622     8.6395     6.9298    89.6834     7.6835     0.0671     2.4397     0.1471
  357.5000   -31.3649     8.6298     6.9383    90.9280     7.6845     0.0775     2.4281     0.1394
  358.0000   -31.4471     8.6150     6.9468    90.5641     7.6854     0.0751     2.4513     0.1322
  358.5000   -31.5333     8.6073     6.9552    88.0625     7.6864     0.0699     2.4730     0.1292
  359.0000   -31.6192     8.5252     6.9637    87.6727     7.6873     0.0564     2.4691     0.1297
  359.5000   -31.7050     8.5217     6.9722    88.4852     7.6883     0.0412     2.4657     0.1300
  360.0000   -31.7908     8.5068     6.9808    91.7849     7.6892     0.0415     2.4628     0.1277
  360.5000   -31.8766     8.4960     6.9893    96.0991     7.6901     0.0229     2.4729     0.1298
  361.0000   -31.9624     8.4851     6.9978    97.9045     7.6911     0.0206     2.4790     0.1406
  361.5000   -32.0482     8.4741     7.0064    96.7646     7.6920     0.0231     2.4508     0.1440
  362.0000   -32.1348     8.4632     7.0150    97.2789     7.6930     0.0254     2.4468     0.1467
  362.5000   -32.1639     8.4534     7.0236    97.3757     7.6938     0.0278     2.4389     0.1541
  363.0000   -32.1644     8.4533     7.0313    93.9295     7.7106     0.0474     2.4271     0.1610
  363.5000   -32.1644     8.4534     7.0311    93.4255     7.7447     0.0694     2.4108     0.1594
  364.0000   -32.1643     8.4541     7.0317    93.3335     7.7892     0.0917     2.4022     0.1525
  364.5000   -32.1643     8.4218     6.9277    93.2182     7.7924     0.0991     2.4242     0.1456
  365.0000   -32.1643     8.3759     6.7876    90.1706     7.7895     0.0939     2.4392     0.1424
  365.5000   -32.1643     8.3336     6.6504    86.8303     7.7869     0.0884     2.4457     0.1431
  366.0000   -32.1643     8.2123     6.5159    84.0042     7.7843     0.0835     2.4489     0.1439
  366.5000   -32.1643     8.0928     6.3842    89.6339     7.7818     0.0835     2.4337     0.1443
  367.0000   -32.1643     7.9750     6.2378    95.6134     7.7793     0.0836     2.4353     0.1390
  367.5000   -32.1642     7.8529     6.1806    99.0923     7.7768     0.0832     2.4363     0.1331
  368.0000   -32.1648     7.7152     6.1806    98.2481     7.7742     0.0575     2.4553     0.1275
  368.5000   -32.2023     7.5771     6.1806    99.9352     7.7717     0.0281     2.4771     0.1322
  369.0000   -32.3272     7.4416     6.1806   101.1668     7.7692     0.0218     2.4698     0.1363
  369.5000   -32.4507     7.2951     6.1806   100.4856     7.7667     0.0196     2.4623     0.1387
  370.0000   -32.5741     7.2722     5.9438    98.1351     7.7641     0.0173     2.4580     0.1408
  370.5000   -32.6976     7.2432     5.5779    97.8580     7.7616     0.0159     2.4499     0.1517
  371.0000   -32.8210     7.1650     5.2346    97.6282     7.7591     0.0178     2.4281     0.1684
  371.5000   -32.9444     6.8249     4.9125    96.4882     7.7565     0.0225     2.4064     0.1790
  372.0000   -33.0679     6.5157     4.8644    93.3692     7.7540     0.0453     2.3848     0.1841
  372.5000   -33.1916     6.1212     4.8644    94.9485     7.7515     0.0531     2.3670     0.1781
  373.0000   -33.3178     6.2418     4.8741    97.2106     7.7490     0.0518     2.3783     0.1577
  373.5000   -33.3555     6.5024     4.8855    96.4442     7.7464     0.0559     2.3964     0.1459
  374.0000   -32.9722     6.7743     4.8968    94.4854     7.7439     0.0758     2.4116     0.1400
  374.5000   -32.5651     7.0575     4.9082    92.5183     7.7414     0.0831     2.4639     0.1287
  375.0000   -32.7763     7.3528     5.1086    91.2883     7.7389     0.0797     2.4690     0.1198
  375.5000   -32.7525     7.6594     5.5351    90.1544     7.7363     0.0730     2.4771     0.1228
  376.0000   -32.7370     8.0765     5.9972    89.7934     7.7337     0.0521     2.4867     0.1278
  376.5000   -32.7195     8.0717     6.4978    89.6632     7.7342     0.0339     2.4764     0.1279
  377.0000   -32.7018     8.0768     6.9720    89.5393     7.7350     0.0294     2.4633     0.1264
  377.5000   -32.6841     7.9731     6.9077    89.4083     7.7358     0.0200     2.4631     0.1284
  378.0000   -32.6665     7.9180     6.3935    89.3179     7.7366     0.0059     2.4823     0.1325
  378.5000   -32.6488     7.8655     6.0233    90.5486     7.7374     0.0001     2.4722     0.1426
  379.0000   -32.6311     7.5814     5.6759    91.4761     7.7382     0.0012     2.4539     0.1491
  379.5000   -32.6135     7.2375     5.3484    90.0053     7.7390     0.0031     2.4437     0.1543
  380.0000   -32.5963     6.9087     5.0937    88.7984     7.7399     0.0046     2.4274     0.1649
  380.5000   -32.5776     6.6512     5.0475    90.0615     7.7407     0.0231     2.4073     0.1706
  381.0000   -32.5104     6.5895     5.0009    92.3517     7.7415     0.0278     2.3872     0.1599
  381.5000   -32.2681     6.6251     4.9543    96.4503     7.7423     0.0186     2.3844     0.1494
  382.0000   -32.0338     6.6488     4.9071   100.5792     7.7431     0.0118     2.4179     0.1392
  382.5000   -31.7999     6.8913     4.8657    99.1460     7.7439     0.0129     2.4587     0.1383
  383.0000   -31.5658     7.1956     5.2274    99.1772     7.7447     0.0140     2.4492     0.1355
  383.5000   -31.3318     7.5134     5.6095    99.5154     7.7455     0.0099     2.4474     0.1311
  384.0000   -31.0978     7.8453     6.0196    96.6160     7.7463     0.0041     2.4604     0.1333
