~VERSION INFORMATION
 VERS.                2.0:   CWLS LOG ASCII STANDARD - VERSION 2.0
 WRAP.                 NO:   ONE LINE PER DEPTH STEP
~WELL INFORMATION
#MNEM.UNIT      DATA TYPE    INFORMATION
#----------   ------------   ------------------------------
 STRT.F          372.0000:   START DEPTH
 STOP.F         1845.0000:   STOP DEPTH
 STEP.F            0.5000:   STEP LENGTH
 NULL.          -999.2500:   NO VALUE
 COMP.             T.H.E.:   COMPANY
 WELL. 63-1-STX-29 #63-29:   WELL
 FLD .             TEAPOT:   FIELD
 LOC .      S29 T39N R78W:   LOCATION
 CNTY.            NATRONA:   COUNTY
 STAT.            WYOMING:   STATE
 CTRY. UNITED STATES OF AMERICA:   COUNTRY
 SRVC.            Unknown:   SERVICE COMPANY
 DATE.        20-MAY-1996:   LOGDATE
 API .       490252279200:   API NUMBER
~CURVE INFORMATION
#MNEM.UNIT       API CODE    CURVE DESCRIPTION
#----------   ------------   ------------------------------
 DEPT.F                  :   
 ROP .MIN/FT 91 810 01 00:   RATE OF DRILLING PENETRATION
 TGAS.UNITS  91 830 01 00:   TOTAL GAS FROM HOTWIRE
~PARAMETER INFORMATION
#MNEM.UNIT          VALUE    DESCRIPTION
#----------   ------------   ------------------------------
 EKB .F              4983:   KELLING BUSHING
 EGL .F              4973:   GROUND LEVEL
 DATE.          5-20-1996:   RUN DATE
 RUN .                  1:   RUN NUMBER
 BLI .F              1845:   BOTTOM LOG INTERVAL
 TLI .F               372:   TOP LOG INTERVAL
 CS  .IN                7:   CASING SIZE
 CBD .F               354:   CASING BOTTOM DRILLER
 ENGI.   C. TOWER/R. HUSK:   RECORDING ENGINEER
 CLNT.            A2DTECH:   CLIENT CODE
 ORIG.           5" PRINT:   ORIGIN OF DATA
 UWI .       490252279200:   UNIQUE WELL ID
 DICO. A2D Technologies, Inc.:   DIGITIZING COMPANY
~OTHER INFORMATION
~A   DEPT        ROP     TGAS   
# ...
  615.0000     0.6746     2.1444
  615.5000     0.6742     2.1455
  616.0000     0.6738     2.1465
  616.5000     0.6734     2.1475
  617.0000     0.6731     2.1486
  617.5000     0.6622     2.1497
  618.0000     0.6618     2.1507
  618.5000     0.6614     2.1518
  619.0000     0.6610     2.1528
  619.5000     0.6607     2.1539
  620.0000     0.6603     2.1551
  620.5000     0.6600     2.1560
  621.0000     0.6596     2.1570
  621.5000     0.6653     2.1581
  622.0000     0.6695     2.1593
  622.5000     0.6704     2.1602
  623.0000     0.6792     2.1613
  623.5000     0.6893     2.1623
  624.0000     0.6938     2.1635
  624.5000     0.6993     2.1644
  625.0000     0.6988     2.1655
  625.5000     0.6984     2.1665
  626.0000     0.6981     2.1677
  626.5000     0.6872     2.1687
  627.0000     0.6868     2.1697
  627.5000     0.6759     2.1708
  628.0000     0.6649     2.1719
  628.5000     0.6646     2.1731
  629.0000     0.6622     2.1739
  629.5000     0.6533     2.1750
  630.0000     0.6529     2.1761
  630.5000     0.6526     2.1773
  631.0000     0.5045     2.1782
  631.5000     0.5042     2.1792
  632.0000     0.5038     2.1803
  632.5000     0.5034     2.1815
  633.0000     0.5136     2.1824
  633.5000     0.5150     2.1835
  634.0000     0.5234     2.1845
  634.5000     0.5335     2.1857
  635.0000     0.5332     2.1866
  635.5000     0.5223     2.1877
  636.0000     0.5219     2.1887
  636.5000     0.5215     1.7673
  637.0000     0.5212     0.9356
  637.5000     0.5208     0.4150
  638.0000     0.5205     0.2548
  638.5000     0.5201    -0.1299
  639.0000     0.5197     0.0826
  639.5000     0.5194     0.0835
  640.0000     0.5190     0.0845
  640.5000     0.5186     0.0856
  641.0000     0.5182     0.0868
  641.5000     0.5179     0.2989
  642.0000     0.5175     0.3000
  642.5000     0.5171     0.3109
  643.0000     0.5167     0.5135
  643.5000     0.5163     0.5144
  644.0000     0.5160     0.5867
  644.5000     0.5157     0.7278
  645.0000     0.5153     0.7290
  645.5000     0.5149     0.7299
  646.0000     0.5146     0.7310
  646.5000     0.5142     0.7320
  647.0000     0.5131     0.5219
  647.5000     0.5029     0.5231
  648.0000     0.4920     0.5239
  648.5000     0.4916     0.5250
  649.0000     0.4895     0.5261
  649.5000     0.4803     0.5273
  650.0000     0.4799     0.5282
  650.5000     0.4796     0.5292
  651.0000     0.4792     0.5303
  651.5000     0.4789     0.5315
  652.0000     0.4890     0.5324
  652.5000     0.4887     0.5335
  653.0000     0.4883     0.5345
  653.5000     0.4985     0.5357
  654.0000     0.4981     0.5366
  654.5000     0.5083     0.5377
  655.0000     0.5079     0.5387
  655.5000     0.5075     0.5398
  656.0000     0.5072     0.5410
  656.5000     0.5068     0.5419
  657.0000     0.5064     0.5430
  657.5000     0.5061     0.5440
  658.0000     0.5057     0.5452
  658.5000     0.5053     0.5461
  659.0000     0.5049     0.5472
  659.5000     0.5151     0.5482
  660.0000     0.5148     0.5494
  660.5000     0.5144     0.5504
  661.0000     0.5140     0.5514
  661.5000     0.5137     0.5525
  662.0000     0.5133     0.5536
  662.5000     0.5129     0.5546
  663.0000     0.5125     0.5556
  663.5000     0.5122     0.5567
  664.0000     0.5118     0.5578
  664.5000     0.5114     0.5588
  665.0000     0.5111     0.5599
  665.5000     0.5106     0.5609
  666.0000     0.5103     0.5620
  666.5000     0.5100     0.5632
  667.0000     0.5096     0.5641
  667.5000     0.5092     0.5651
  668.0000     0.5089     0.5662
  668.5000     0.5085     0.5674
  669.0000     0.5096     0.5683
  669.5000     0.5183     0.5694
  670.0000     0.5179     0.5704
  670.5000     0.5176     0.5716
  671.0000     0.5197     0.5725
  671.5000     0.5274     0.5736
  672.0000     0.5270     0.5746
  672.5000     0.5266     0.5758
  673.0000     0.5263     0.5768
  673.5000     0.5259     0.5778
  674.0000     0.5255     0.5789
  674.5000     0.5251     0.5800
  675.0000     0.5248     0.5812
  675.5000     0.5350     0.5820
  676.0000     0.5346     0.5831
  676.5000     0.5342     0.5842
  677.0000     0.5339     0.5854
  677.5000     0.5335     0.5863
  678.0000     0.5331     0.5873
  678.5000     0.5222     0.5884
  679.0000     0.5153     0.8008
  679.5000     0.5109     1.0345
  680.0000     0.5124     1.4366
  680.5000     0.6262     1.4541
  681.0000     0.6258     1.6501
  681.5000     0.6412     1.8623
  682.0000     0.6568     1.8634
  682.5000     0.6564     1.8923
  683.0000     0.6560     1.8656
  683.5000     0.6556     1.8668
  684.0000     0.6553     1.8676
  684.5000     0.6655     1.8293
  685.0000     0.6651     1.4472
  685.5000     0.6647     1.4484
  686.0000     0.6538     1.1372
  686.5000     0.6509     0.8164
  687.0000     0.6424     0.8176
  687.5000     0.6315     0.6074
  688.0000     0.6312     0.3972
  688.5000     0.6309     0.3982
  689.0000     0.6199     0.3993
  689.5000     0.6195     0.4005
  690.0000     0.6297     0.4014
  690.5000     0.6385     0.4025
  691.0000     0.6501     0.4035
  691.5000     0.6497     0.4047
  692.0000     0.6493     0.4056
  692.5000     0.5274     0.4067
  693.0000     0.5220     0.4077
  693.5000     0.5217     0.4088
  694.0000     0.5213     0.6213
  694.5000     0.5209     0.8335
  695.0000     0.5206     1.0925
  695.5000     0.5202     1.4694
  696.0000     0.5198     1.6818
  696.5000     0.5194     1.6827
  697.0000     0.5191     1.7421
  697.5000     0.5187     1.8961
  698.0000     0.5184     2.1086
  698.5000     0.5179     2.3208
  699.0000     0.5282     2.3218
  699.5000     0.5278     2.3031
  700.0000     0.5274     1.0574
  700.5000     0.5827     1.0627
  701.0000     0.5784     1.0690
  701.5000     0.5766     1.0754
  702.0000     0.5674     1.0817
  702.5000     0.5565     1.0880
  703.0000     0.5458     1.0944
  703.5000     0.5436     1.1007
  704.0000     0.5347     1.1076
  704.5000     0.5344     1.1134
  705.0000     0.5289     1.1197
  705.5000     0.5206     1.1261
  706.0000     0.5123     1.1327
  706.5000     0.5018     1.1399
  707.0000     0.4911     1.1451
  707.5000     0.4908     1.1514
  708.0000     0.4905     1.1579
  708.5000     0.4902     1.1650
  709.0000     0.4965     1.0654
  709.5000     0.5148     0.9645
  710.0000     0.5226     0.9718
  710.5000     0.5313     0.9789
  711.0000     0.5310     0.9845
  711.5000     0.5308     0.9908
  712.0000     0.6105     0.9972
  712.5000     0.7197     1.0040
  713.0000     0.7194     1.0099
  713.5000     0.7087     1.2275
  714.0000     0.7084     1.2338
  714.5000     0.6976     1.2404
  715.0000     0.6973     1.2476
  715.5000     0.6971     1.2528
  716.0000     0.6968     1.2592
  716.5000     0.6966     1.2656
  717.0000     0.7068     1.2727
  717.5000     0.7066     1.2782
  718.0000     0.6555     1.2845
  718.5000     0.5587     1.2912
  719.0000     0.5584     1.2979
  719.5000     0.5581     1.3035
  720.0000     0.5579     1.3099
  720.5000     0.5597     1.3162
  721.0000     0.5679     1.3230
  721.5000     0.5676     1.3289
  722.0000     0.5674     1.3352
  722.5000     0.5671     1.3415
  723.0000     0.5668     1.3481
  723.5000     0.5665     1.3553
  724.0000     0.6292     1.3606
  724.5000     0.6819     1.3669
  725.0000     0.6816     1.3732
  725.5000     0.6708     1.1692
  726.0000     0.6705     1.3859
  726.5000     0.6597     1.3923
  727.0000     0.6595     1.3986
  727.5000     0.6592     1.4055
  728.0000     0.6694     1.4113
  728.5000     0.6587     1.4176
  729.0000     0.6690     1.4239
  729.5000     0.6687     1.4307
  730.0000     0.6684     1.4379
  730.5000     0.6787     1.4430
  731.0000     0.6784     1.4493
  731.5000     0.6887     1.4558
  732.0000     0.6884     1.4630
  732.5000     0.6882     1.4683
  733.0000     0.6879     1.4746
  733.5000     0.6883     1.4810
  734.0000     0.6979     1.4873
  734.5000     0.6976     1.4937
  735.0000     0.6974     1.5000
  735.5000     0.6971     1.5063
  736.0000     0.6968     1.5132
