~VERSION INFORMATION
 VERS.                2.0:   CWLS LOG ASCII STANDARD - VERSION 2.0
 WRAP.                 NO:   ONE LINE PER DEPTH STEP
~WELL INFORMATION
#MNEM.UNIT      DATA TYPE    INFORMATION
#----------   ------------   ------------------------------
 STRT.F            3.5000:   START DEPTH
 STOP.F          523.0000:   STOP DEPTH
 STEP.F            0.5000:   STEP LENGTH
 NULL.          -999.2500:   NO VALUE
 COMP.       F D SERV INC:   COMPANY
 WELL.    88-8 SX 3 #88-3:   WELL
 FLD .             TEAPOT:   FIELD
 LOC .       S3 T38N R78W:   LOCATION
 CNTY.            NATRONA:   COUNTY
 STAT.            WYOMING:   STATE
 CTRY. UNITED STATES OF AMERICA:   COUNTRY
 SRVC.      Western Atlas:   SERVICE COMPANY
 DATE.        28-NOV-1992:   LOGDATE
 API .       490252256200:   API NUMBER
~CURVE INFORMATION
#MNEM.UNIT       API CODE    CURVE DESCRIPTION
#----------   ------------   ------------------------------
 DEPT.F                  :   
 GRR .GAPI   07 310 01 00:   GAMMA RAY
 RILD.OHMM   07 120 46 00:   INDUCTION LOG DEEP RESISTIVITY
 RILM.OHMM   07 120 44 00:   RESITIVITY LONG MEDIUM
 C13 .IN     45 280 13 00:   CALIPER X
 PORZ.DEC    45 890 12 00:   DENSITY POROSITY SANDSTONE
 NPHI.DEC    42 890 03 00:   NEUTRON POROSITY SANDSTONE
 ZCOR.G/C3   45 356 01 00:   DENSITY CORRECTION
 ZDEN.G/C3   45 350 01 00:   BULK DENSITY
~PARAMETER INFORMATION
#MNEM.UNIT          VALUE    DESCRIPTION
#----------   ------------   ------------------------------
 PD  .                 GL:   PERMANENT DATUM
 EPD .F              5126:   ELEVATION PERMANENT DATUM
 LMF .                 KB:   LOG MEASURED FROM
 DAPD.F                10:   FEET ABOVE PERMANENT DATUM
 DMF .                 KB:   DRILLING MEASURED FROM
 EKB .F              5136:   KELLING BUSHING
 EDF .F              5135:   DRILLING FLOOR
 EGL .F              5126:   GROUND LEVEL
 DATE.        28-NOV-1992:   RUN DATE
 RUN .                  1:   RUN NUMBER
 DD  .F               525:   DEPTH DRILLER
 DL  .F               525:   DEPTH LOGGER
 BLI .F               516:   BOTTOM LOG INTERVAL
 TLI .F                76:   TOP LOG INTERVAL
 CS  .IN            8.625:   CASING SIZE
 CBD .F                95:   CASING BOTTOM DRILLER
 CBL .F                76:   CASING BOTTOM LOGGER
 BS  .IN            7.875:   BIT SIZE
 BSD .F               525:   BIT SIZE AT DEPTH
 DFT .           AIR FOAM:   DRILLING FLUID TYPE
 MRT .F                70:   MAXIMUM RECORDED TEMPERATURE
 LUN .            HL-6274:   LOGGING UNIT NUMBER
 LUL .             CASPER:   LOGGING UNIT LOCATION
 ENGI.             RAUTIO:   RECORDING ENGINEER
 WITN.           ED REISH:   WITNESSED BY
 CLNT.            A2DTECH:   CLIENT CODE
 ORIG.           5" PRINT:   ORIGIN OF DATA
 UWI .       490252256200:   UNIQUE WELL ID
 DICO. A2D Technologies, Inc.:   DIGITIZING COMPANY
~OTHER INFORMATION
~A    DEPT     GRR       RILD       RILM        C13       PORZ       NPHI       ZCOR       ZDEN   
# ...
  368.0000   109.8552    23.4278    20.7046     8.1892     0.1689     0.2607     0.0527     2.3714
  368.5000   107.7538    22.1679    20.0000     8.2044     0.1648     0.2598     0.0467     2.3752
  369.0000   104.4462    21.1210    19.5888     8.2196     0.1609     0.2583     0.0573     2.3812
  369.5000   101.4398    20.1236    19.1860     8.2197     0.1594     0.2574     0.0661     2.3872
  370.0000   106.2662    19.5755    18.7915     8.2199     0.1582     0.2565     0.0631     2.3917
  370.5000   110.1875    18.9114    18.5331     8.2201     0.1576     0.2562     0.0526     2.3865
  371.0000   112.9040    18.5240    18.2782     8.2202     0.1612     0.2554     0.0451     2.3812
  371.5000   113.2168    18.0195    17.9023     8.2203     0.1636     0.2521     0.0453     2.3775
  372.0000   109.6035    17.7730    17.9023     8.2054     0.1648     0.2485     0.0571     2.3782
  372.5000   106.2959    17.7744    17.9023     8.2056     0.1639     0.2461     0.0540     2.3805
  373.0000   102.6871    18.0233    18.1520     8.2062     0.1648     0.2488     0.0480     2.3790
  373.5000   100.2831    18.0244    18.2782     8.2074     0.1682     0.2503     0.0495     2.3730
  374.0000   103.9046    18.2938    18.4052     8.2085     0.1733     0.2518     0.0526     2.3587
  374.5000   107.5247    18.5330    18.5331     8.2096     0.1770     0.2533     0.0540     2.3527
  375.0000   109.9400    18.5342    18.5331     8.2108     0.1763     0.2558     0.0525     2.3603
  375.5000   111.5100    18.5755    18.7915     8.2119     0.1703     0.2585     0.0525     2.3670
  376.0000   113.2660    18.6657    18.6619     8.2130     0.1673     0.2600     0.0524     2.3738
  376.5000   113.8726    18.5378    18.4052     8.2141     0.1670     0.2600     0.0524     2.3708
  377.0000   111.7712    18.1584    18.1520     8.2153     0.1703     0.2603     0.0539     2.3670
  377.5000   109.9697    17.7865    17.9023     8.2164     0.1706     0.2606     0.0539     2.3768
  378.0000   113.2900    17.4225    17.6561     8.2175     0.1694     0.2628     0.0539     2.3873
  378.5000   114.5005    17.0656    17.4132     8.2186     0.1589     0.2643     0.0524     2.3964
  379.0000   113.9037    16.8322    16.9375     8.2198     0.1541     0.2670     0.0492     2.4009
  379.5000   114.8144    16.7172    16.7045     8.2209     0.1529     0.2691     0.0463     2.4001
  380.0000   113.3140    16.6030    16.5893     8.2220     0.1517     0.2704     0.0448     2.4024
  380.5000   110.3076    16.2632    16.5893     8.2231     0.1496     0.2727     0.0418     2.4047
  381.0000   108.8072    16.0407    16.3611     8.2081     0.1487     0.2764     0.0523     2.4024
  381.5000   110.3203    15.7595    16.1360     8.1932     0.1508     0.2800     0.0568     2.3968
  382.0000   111.5308    15.4975    15.9141     8.1934     0.1595     0.2818     0.0508     2.3799
  382.5000   109.7292    15.2852    15.4686     8.1936     0.1631     0.2806     0.0582     2.3776
  383.0000   106.3796    15.1810    15.1610     8.2087     0.1631     0.2800     0.0627     2.3852
  383.5000   104.0176    14.9733    14.9525     8.1938     0.1556     0.2794     0.0672     2.3995
  384.0000   106.4343    14.7448    14.6451     8.1943     0.1460     0.2794     0.0672     2.4115
  384.5000   108.5484    14.5667    14.4436     8.1950     0.1409     0.2795     0.0612     2.4160
  385.0000   110.3615    14.3674    14.2450     8.1956     0.1406     0.2792     0.0507     2.4160
  385.5000   109.1636    14.2693    14.1467     8.1963     0.1472     0.2789     0.0402     2.4145
  386.0000   109.7716    14.0743    14.1467     8.1970     0.1499     0.2786     0.0401     2.4085
  386.5000   110.9821    14.0752    14.1467     8.1976     0.1515     0.2792     0.0446     2.4040
  387.0000   111.2904    14.0761    14.1467     8.1983     0.1527     0.2783     0.0476     2.4010
  387.5000   109.4888    13.9799    14.1467     8.1990     0.1542     0.2762     0.0461     2.3993
  388.0000   107.6858    13.9811    14.1467     8.1996     0.1551     0.2747     0.0431     2.3973
  388.5000   110.1025    13.8856    14.1467     8.2003     0.1557     0.2732     0.0401     2.3942
  389.0000   112.2180    13.8865    14.0490     8.2009     0.1530     0.2714     0.0371     2.3950
  389.5000   113.1258    13.8876    14.0041     8.2016     0.1499     0.2715     0.0370     2.3988
  390.0000   112.2293    13.6974    13.6652     8.2023     0.1458     0.2712     0.0430     2.4026
  390.5000   109.5241    13.5436    13.3842     8.2029     0.1434     0.2700     0.0475     2.4071
  391.0000   111.0372    13.4181    13.1661     8.2036     0.1419     0.2682     0.0580     2.4116
  391.5000   110.4404    13.2346    13.0186     8.2043     0.1401     0.2649     0.0625     2.4161
  392.0000   109.2413    13.0535    12.9287     8.2049     0.1383     0.2646     0.0580     2.4199
  392.5000   108.6445    12.8749    12.8395     8.2056     0.1362     0.2637     0.0489     2.4236
  393.0000   110.4588    12.5245    12.6629     8.2062     0.1347     0.2650     0.0474     2.4267
  393.5000   114.6813    12.3531    12.3977     8.2069     0.1347     0.2667     0.0490     2.4282
  394.0000   113.7834    12.2687    12.3170     8.2076     0.1374     0.2646     0.0534     2.4214
  394.5000   110.9538    12.1551    12.3170     8.2082     0.1356     0.2634     0.0534     2.4237
  395.0000   108.9754    12.1017    12.2320     8.2089     0.1305     0.2635     0.0519     2.4304
  395.5000   115.0065    12.0190    12.0637     8.2096     0.1251     0.2641     0.0504     2.4450
  396.0000   118.9279    12.0200    12.0637     8.2102     0.1187     0.2638     0.0488     2.4560
  396.5000   122.2482    12.1043    11.9805     8.2109     0.1167     0.2647     0.0518     2.4552
  397.0000   123.7599    12.1052    12.0018     8.2115     0.1188     0.2662     0.0503     2.4507
  397.5000   124.0653    12.1060    12.0637     8.2122     0.1236     0.2671     0.0443     2.4455
  398.0000   121.9639    12.1068    12.1475     8.2129     0.1276     0.2665     0.0533     2.4401
  398.5000   119.8626    12.1917    12.0637     8.2134     0.1305     0.2666     0.0548     2.4342
  399.0000   117.7598    12.2971    12.1948     8.2136     0.1317     0.2678     0.0458     2.4331
  399.5000   116.2594    12.4492    12.3170     8.1986     0.1327     0.2687     0.0397     2.4312
  400.0000   114.1566    12.5365    12.4026     8.1988     0.1336     0.2657     0.0427     2.4313
  400.5000   112.6563    12.7122    12.5755     8.1990     0.1342     0.2630     0.0472     2.4298
  401.0000   112.3607    12.8013    12.6629     8.1991     0.1345     0.2624     0.0502     2.4275
  401.5000   111.4650    12.8910    12.6629     8.2143     0.1348     0.2648     0.0517     2.4267
  402.0000   108.7599    12.8030    12.5755     8.2145     0.1351     0.2648     0.0517     2.4267
  402.5000   109.9705    12.8040    12.5755     8.2297     0.1348     0.2636     0.0472     2.4267
  403.0000   113.5907    12.4553    12.3170     8.2147     0.1351     0.2649     0.0381     2.4267
  403.5000   117.2109    12.2002    12.1475     8.2300     0.1351     0.2661     0.0351     2.4267
  404.0000   114.6866    12.0222    12.0282     8.2301     0.1326     0.2679     0.0381     2.4313
  404.5000   113.6080    11.7870    11.8053     8.2303     0.1294     0.2697     0.0441     2.4365
  405.0000   117.5308    11.5456    11.5727     8.2304     0.1279     0.2693     0.0456     2.4380
  405.5000   117.2354    11.3091    11.2566     8.2155     0.1258     0.2678     0.0411     2.4418
  406.0000   115.4339    11.0774    10.9490     8.2307     0.1219     0.2666     0.0366     2.4470
  406.5000   116.3584    10.9261    10.7984     8.2158     0.1167     0.2666     0.0365     2.4530
  407.0000   118.4589    10.7023    10.6499     8.2160     0.1137     0.2675     0.0380     2.4584
  407.5000   122.3804    10.5559    10.5764     8.2010     0.1116     0.2711     0.0425     2.4628
  408.0000   124.1933    10.4839    10.6499     8.1711     0.1101     0.2756     0.0455     2.4666
