~VERSION INFORMATION
 VERS.                2.0:   CWLS LOG ASCII STANDARD - VERSION 2.0
 WRAP.                 NO:   ONE LINE PER DEPTH STEP
~WELL INFORMATION
#MNEM.UNIT      DATA TYPE    INFORMATION
#----------   ------------   ------------------------------
 STRT.F            5.0000:   START DEPTH
 STOP.F          610.0000:   STOP DEPTH
 STEP.F            0.5000:   STEP LENGTH
 NULL.          -999.2500:   NO VALUE
 COMP. FENIX & SCISSON INC:   COMPANY
 WELL.        NPR 3 #25-3:   WELL
 FLD .        TEAPOT DOME:   FIELD
 LOC .       S3 T38N R78W:   LOCATION
 CNTY.            NATRONA:   COUNTY
 STAT.            WYOMING:   STATE
 CTRY. UNITED STATES OF AMERICA:   COUNTRY
 SRVC.           BIRDWELL:   SERVICE COMPANY
 DATE.        28-SEP-1978:   LOGDATE
 API .       490251068900:   API NUMBER
~CURVE INFORMATION
#MNEM.UNIT       API CODE    CURVE DESCRIPTION
#----------   ------------   ------------------------------
 DEPT.F                  :   
 SPR .MV     05 010 01 00:   SPONTANEOUS POTENTIAL FROM RES.
 IL  .OHMM   05 120 00 00:   INDUCTION LOG
 SN  .OHMM   05 040 16 00:   SHORT NORMAL 16"
 CALD.IN     45 280 60 00:   CALIPER
 GRD .GAPI   45 310 01 00:   GAMMA RAY FROM DENSITY LOG
 CORR.G/C3   45 356 01 00:   DENSITY CORRECTION
 DEN .G/C3   45 350 01 00:   COMPENSATED BULK DENSTIY
 DPHI.DEC    45 890 12 00:   DENSITY POROSITY SANDSTONE
~PARAMETER INFORMATION
#MNEM.UNIT          VALUE    DESCRIPTION
#----------   ------------   ------------------------------
 PD  .                 GL:   PERMANENT DATUM
 EPD .F              5249:   ELEVATION PERMANENT DATUM
 LMF .                 KB:   LOG MEASURED FROM
 DAPD.F                 4:   FEET ABOVE PERMANENT DATUM
 DMF .                 KB:   DRILLING MEASURED FROM
 EKB .F              5253:   KELLING BUSHING
 EGL .F              5249:   GROUND LEVEL
 DATE.            9-28-78:   RUN DATE
 RUN .                  1:   RUN NUMBER
 DD  .F               616:   DEPTH DRILLER
 DL  .F               613:   DEPTH LOGGER
 BLI .F               607:   BOTTOM LOG INTERVAL
 TLI .F                40:   TOP LOG INTERVAL
 BS  .IN            7.875:   BIT SIZE
 BSD .F               616:   BIT SIZE AT DEPTH
 DFT .                KCL:   DRILLING FLUID TYPE
 DFD .                8.7:   DRILLING FLUID DENSITY
 DFV .                 33:   DRILLING FLUID VISCOSITY
 DFPH.                  9:   DRILLING FLUID PH
 DFL .                  5:   DRILLING FLUID LOSS
 MSS .            MUD PIT:   MUD SAMPLE SOURCE
 RMS .OHMM            .14:   RESISTIVITY MUD SAMPLE
 MST .F                65:   MUD SAMPLE TEMPERATURE
 RMF .OHMM            2.1:   RESISTIVITY MUD FILTRATE SAMPLE
 MFST.F                65:   MUD FILTRATE SAMPLE TEMPERATURE
 RMC .OHMM            .32:   RESISTIVITY MUD CAKE
 MCST.F                65:   MUD CAKE SAMPLE TEMPERATURE
 MFSS.               MEAS:   MUD FILTRATE SAMPLE SOURCE
 TCS .HRS               2:   TIME CURCULATED STOPPED
 LUN .               2958:   LOGGING UNIT NUMBER
 LUL .               CASP:   LOGGING UNIT LOCATION
 ENGI.            ROLLINS:   RECORDING ENGINEER
 WITN.              AMEND:   WITNESSED BY
 CLNT.            A2DTECH:   CLIENT CODE
 ORIG.           5" PRINT:   ORIGIN OF DATA
 UWI .       490251068900:   UNIQUE WELL ID
 DICO. A2D Technologies, Inc.:   DIGITIZING COMPANY
~OTHER INFORMATION
~A    DEPT     SPR         IL         SN         CALD       GRD      CORR        DEN       DPHI   
# ...
  410.0000   -10.8424    21.5983    11.5258     9.2366    73.8334     0.0044     2.3626     0.1935
  410.5000   -11.2920    21.1597    11.4900     9.2423    75.4254     0.0144     2.3635     0.1934
  411.0000   -11.6864    20.7325    11.4557     9.2481    77.1852     0.0233     2.3644     0.1878
  411.5000   -11.7264    20.3515    11.4217     9.2538    78.9489     0.0204     2.3655     0.1817
  412.0000   -11.7891    20.2438    11.3878     9.2596    80.7134     0.0168     2.3797     0.1708
  412.5000   -11.8537    20.1330    11.3539     9.2653    82.5055     0.0133     2.3958     0.1667
  413.0000   -11.9183    20.0228    11.3206     9.2711    82.9530     0.0108     2.4067     0.1669
  413.5000   -11.9826    19.9132    11.2990     9.2768    83.1642     0.0105     2.4060     0.1702
  414.0000   -12.0479    19.8042    11.2877     9.2826    83.5676     0.0102     2.4047     0.1683
  414.5000   -12.0232    19.6957    11.2763     9.2883    84.5007     0.0098     2.4034     0.1585
  415.0000   -11.9311    19.5881    11.2650     9.2944    85.4180     0.0094     2.4198     0.1567
  415.5000   -11.8381    19.4555    11.2537     9.2801    85.8166     0.0089     2.4262     0.1595
  416.0000   -11.7450    19.5240    11.2424     9.2577    86.1491     0.0147     2.4195     0.1654
  416.5000   -11.6519    19.6142    11.2312     9.2179    86.5028     0.0222     2.4090     0.1670
  417.0000   -11.5589    19.7048    11.2199     9.1759    86.7170     0.0289     2.4076     0.1667
  417.5000   -11.4658    19.7959    11.2087     9.1533    86.7362     0.0304     2.4083     0.1698
  418.0000   -11.3722    19.8873    11.1975     9.1501    86.1078     0.0318     2.4024     0.1751
  418.5000   -11.2808    19.9792    11.1863     9.1468    84.5956     0.0332     2.3918     0.1790
  419.0000   -11.2767    20.0715    11.1751     9.1436    81.4036     0.0345     2.3873     0.1831
  419.5000   -11.2768    20.1849    11.1639     9.1404    78.2434     0.0445     2.3852     0.1882
  420.0000   -11.2773    20.1724    11.1527     9.1370    76.4423     0.0585     2.3722     0.1874
  420.5000   -11.3152    20.1564    11.1415     9.1236    76.4581     0.0591     2.3720     0.1795
  421.0000   -11.5453    20.1404    11.1304     9.0840    76.6582     0.0589     2.3809     0.1800
  421.5000   -11.7732    20.1243    11.1192     9.0448    77.6645     0.0594     2.3836     0.1845
  422.0000   -12.0005    20.1084    11.1081     9.0053    79.2758     0.0733     2.3790     0.1863
  422.5000   -12.2278    20.0924    11.0943     8.9879    80.8858     0.0880     2.3744     0.1870
  423.0000   -12.4551    20.0764    11.0682     8.9790    82.4921     0.0986     2.3726     0.1851
  423.5000   -12.6824    20.0605    11.0425     8.9703    83.5321     0.0991     2.3746     0.1827
  424.0000   -12.9096    20.0445    11.0167     8.9616    83.6644     0.0979     2.3804     0.1810
  424.5000   -13.1368    20.0286    10.9910     8.9530    83.5970     0.0905     2.3862     0.1728
  425.0000   -13.3536    20.0117    10.9654     8.9462    82.5979     0.0665     2.3919     0.1710
  425.5000   -13.5523    20.0036    10.9398     8.9393    81.5861     0.0414     2.3964     0.1808
  426.0000   -13.6864    19.8018    10.9143     8.9325    80.6927     0.0380     2.3850     0.1957
  426.5000   -13.7163    19.5576    10.8889     8.9256    80.9327     0.0685     2.3556     0.1998
  427.0000   -13.7478    19.3164    10.8635     8.9187    81.6242     0.0829     2.3510     0.1735
  427.5000   -13.7790    19.0781    10.8382     8.9119    82.2955     0.0816     2.3758     0.1642
  428.0000   -13.8100    18.8428    10.8129     8.9050    82.8944     0.0793     2.4069     0.1650
  428.5000   -13.8402    18.5961    10.7877     8.8982    82.9711     0.0771     2.4094     0.1713
  429.0000   -13.8789    18.3439    10.7626     8.8944    83.0465     0.0784     2.4041     0.1726
  429.5000   -14.0967    18.0950    10.7374     8.8984    83.3143     0.0853     2.3985     0.1717
  430.0000   -14.3200    17.8496    10.7124     8.9023    86.1266     0.0932     2.3981     0.1702
  430.5000   -14.5425    17.6074    10.6818     8.9062    89.0818     0.0931     2.4062     0.1582
  431.0000   -14.7647    17.4217    10.6436     8.9101    90.3504     0.0788     2.4143     0.1534
  431.5000   -14.9870    17.4336    10.6055     8.9106    89.9974     0.0544     2.4223     0.1530
  432.0000   -15.2099    17.4528    10.5676     8.8834    89.2955     0.0317     2.4305     0.1564
  432.5000   -15.4349    17.4719    10.5297     8.8559    88.6050     0.0289     2.4137     0.1710
  433.0000   -15.4434    17.4911    10.4921     8.8284    88.5856     0.0290     2.3984     0.1717
  433.5000   -15.4124    17.5103    10.4545     8.8006    88.7125     0.0293     2.3981     0.1727
  434.0000   -15.3807    17.5297    10.4171     8.7960    87.7997     0.0171     2.3991     0.1809
  434.5000   -15.3493    17.5494    10.3798     8.8003    86.3415     0.0087     2.3956     0.1938
  435.0000   -15.3181    17.5678    10.3427     8.8048    85.7070     0.0209     2.3711     0.1994
  435.5000   -15.2878    17.5827    10.3056     8.8093    85.8498     0.0350     2.3522     0.1956
  436.0000   -15.3155    17.3054    10.2688     8.8138    86.0658     0.0431     2.3620     0.1824
  436.5000   -15.4216    17.0852    10.2320     8.8182    86.8621     0.0427     2.3745     0.1739
  437.0000   -15.5266    16.8619    10.1954     8.8227    89.5051     0.0339     2.3871     0.1691
  437.5000   -15.6319    16.6433    10.1589     8.8272    92.0848     0.0253     2.3976     0.1679
  438.0000   -15.7372    16.5280    10.1225     8.8320    92.1619     0.0167     2.4015     0.1667
  438.5000   -15.8424    16.4253    10.0863     8.8194    92.0071     0.0082     2.4053     0.1662
  439.0000   -15.9477    16.3224    10.0502     8.8001    92.1993     0.0058     2.4064     0.1679
  439.5000   -16.0529    16.2201    10.0245     8.7808    92.3843     0.0045     2.4051     0.1694
  440.0000   -16.1582    16.1069    10.0111     8.7614    92.5515     0.0032     2.4036     0.1695
  440.5000   -16.2636    15.9885     9.9978     8.7421    91.0537     0.0019     2.4023     0.1696
  441.0000   -16.3689    15.8710     9.9844     8.7364    88.7499     0.0005     2.4013     0.1697
  441.5000   -16.4675    15.7544     9.9711     8.7443    88.7502    -0.0008     2.4007     0.1730
  442.0000   -16.5099    15.6386     9.9578     8.7522    88.7781    -0.0013     2.3953     0.1774
  442.5000   -16.5498    15.3281     9.9445     8.7602    88.8077    -0.0017     2.3883     0.1721
  443.0000   -16.5891    14.9751     9.9312     8.7681    88.8358    -0.0020     2.3910     0.1649
  443.5000   -16.6267    14.7450     9.9180     8.7761    88.8635    -0.0024     2.4055     0.1594
  444.0000   -16.6867    14.5204     9.9047     8.7841    88.8917    -0.0027     2.4186     0.1554
  444.5000   -17.1164    14.2290     9.8915     8.7918    88.9195    -0.0031     2.4217     0.1556
  445.0000   -17.5411    14.2484     9.8783     8.7776    89.1110    -0.0034     2.4218     0.1559
  445.5000   -17.9610    14.2792     9.8651     8.7675    89.4672    -0.0038     2.4222     0.1562
  446.0000   -18.2682    14.3095     9.8519     8.7599    89.8231    -0.0041     2.4225     0.1566
  446.5000   -18.2332    14.3392     9.8478     8.7524    90.1376    -0.0045     2.4214     0.1591
  447.0000   -18.2041    14.3606     9.8477     8.7449    89.9803    -0.0048     2.4203     0.1624
  447.5000   -18.1754    14.0396     9.8478     8.7374    89.4048    -0.0052     2.4160     0.1643
  448.0000   -18.1468    13.7952     9.8478     8.7299    88.8376    -0.0055     2.4117     0.1646
  448.5000   -18.1178    13.5551     9.8478     8.7224    88.3326    -0.0059     2.4105     0.1625
  449.0000   -18.0879    13.3415     9.8478     8.7149    88.3275    -0.0063     2.4105     0.1601
  449.5000   -18.0753    13.2398     9.8478     8.7075    88.3296    -0.0066     2.4168     0.1552
  450.0000   -18.2902    13.1477     9.8478     8.7000    88.3300    -0.0070     2.4257     0.1526
