~VERSION INFORMATION
 VERS.                2.0:   CWLS LOG ASCII STANDARD - VERSION 2.0
 WRAP.                 NO:   ONE LINE PER DEPTH STEP
~WELL INFORMATION
#MNEM.UNIT      DATA TYPE    INFORMATION
#----------   ------------   ------------------------------
 STRT.F           27.0000:   START DEPTH
 STOP.F          992.0000:   STOP DEPTH
 STEP.F            0.5000:   STEP LENGTH
 NULL.          -999.2500:   NO VALUE
 COMP. FENIX & SCISSON INC:   COMPANY
 WELL. NPR 3  77- S -27 #77-27:   WELL
 FLD .             TEAPOT:   FIELD
 LOC .      S27 T39N R78W:   LOCATION
 CNTY.            NATRONA:   COUNTY
 STAT.            WYOMING:   STATE
 CTRY. UNITED STATES OF AMERICA:   COUNTRY
 SRVC.            Unknown:   SERVICE COMPANY
 DATE.        09-SEP-1978:   LOGDATE
 API .       490251069700:   API NUMBER
~CURVE INFORMATION
#MNEM.UNIT       API CODE    CURVE DESCRIPTION
#----------   ------------   ------------------------------
 DEPT.F                  :   
 SPR .MV     05 010 01 00:   SPONTANEOUS POTENTIAL FROM RES.
 SN  .OHMM   05 040 16 00:   SHORT NORMAL 16"
 ILD .OHMM   05 120 46 00:   INDUCTION LOG DEEP
 CALD.IN     45 280 60 00:   CALIPER
 GRD .GAPI   45 310 01 00:   GAMMA RAY FROM DENSITY LOG
 RHOB.G/C3   45 350 01 00:   BULK DENSITY
 CORR.G/C3   45 356 01 00:   DENSITY CORRECTION
 DPHI.DEC    45 890 12 00:   DENSITY POROSITY SANDSTONE
~PARAMETER INFORMATION
#MNEM.UNIT          VALUE    DESCRIPTION
#----------   ------------   ------------------------------
 PD  .                 GL:   PERMANENT DATUM
 EPD .F              5069:   ELEVATION PERMANENT DATUM
 LMF .                 KB:   LOG MEASURED FROM
 DAPD.F                 4:   FEET ABOVE PERMANENT DATUM
 DMF .                 KB:   DRILLING MEASURED FROM
 EKB .F              5073:   KELLING BUSHING
 EGL .F              5069:   GROUND LEVEL
 DATE.           9-9-1978:   RUN DATE
 RUN .                  1:   RUN NUMBER
 DD  .F               990:   DEPTH DRILLER
 DL  .F               998:   DEPTH LOGGER
 BLI .F               992:   BOTTOM LOG INTERVAL
 TLI .F                50:   TOP LOG INTERVAL
 CS  .IN            8.625:   CASING SIZE
 CBD .F                40:   CASING BOTTOM DRILLER
 BS  .IN            7.875:   BIT SIZE
 BSD .F               990:   BIT SIZE AT DEPTH
 DFT .                KCL:   DRILLING FLUID TYPE
 DFD .                8.7:   DRILLING FLUID DENSITY
 DFV .                 34:   DRILLING FLUID VISCOSITY
 DFPH.                  9:   DRILLING FLUID PH
 DFL .                  8:   DRILLING FLUID LOSS
 MSS .          FLOW LINE:   MUD SAMPLE SOURCE
 RMS .OHMM             .4:   RESISTIVITY MUD SAMPLE
 MST .F                79:   MUD SAMPLE TEMPERATURE
 RMF .OHMM            .12:   RESISTIVITY MUD FILTRATE SAMPLE
 MFST.F                84:   MUD FILTRATE SAMPLE TEMPERATURE
 RMC .OHMM            .34:   RESISTIVITY MUD CAKE
 MCST.F                84:   MUD CAKE SAMPLE TEMPERATURE
 MFSS.               MEAS:   MUD FILTRATE SAMPLE SOURCE
 MCSS.               MEAS:   MUD CAKE SAMPLE SOURCE
 TCS .HRS               3:   TIME CURCULATED STOPPED
 LUN .               2958:   LOGGING UNIT NUMBER
 LUL .               CASP:   LOGGING UNIT LOCATION
 ENGI.             MILLER:   RECORDING ENGINEER
 WITN.              AMEND:   WITNESSED BY
 CLNT.            A2DTECH:   CLIENT CODE
 ORIG.           5" PRINT:   ORIGIN OF DATA
 UWI .       490251069700:   UNIQUE WELL ID
 DICO. A2D Technologies, Inc.:   DIGITIZING COMPANY
~OTHER INFORMATION
~A   DEPT      SPR         SN        ILD       CALD        GRD       RHOB       CORR       DPHI   
# ...
  594.0000   -72.0002     6.9979     7.3330     7.7902   138.4782     2.5209     0.0056     0.0952
  594.5000   -71.8936     7.0080     7.3753     7.7988   136.8887     2.5178     0.0053     0.0922
  595.0000   -71.7868     7.0181     7.4179     7.8073   135.3323     2.5148     0.0050     0.0873
  595.5000   -71.6810     7.0301     7.4607     7.8159   135.2431     2.5161     0.0047     0.0820
  596.0000   -71.6469     7.0204     7.4995     7.8245   135.2764     2.5227     0.0044     0.0846
  596.5000   -71.6217     7.0050     7.4996     7.8336   134.2842     2.5278     0.0041     0.0875
  597.0000   -71.5965     6.9897     7.4764     7.8310   133.2108     2.5258     0.0038     0.0904
  597.5000   -71.5712     6.9743     7.4302     7.8246   132.2158     2.5239     0.0035     0.0924
  598.0000   -71.5458     6.9534     7.3843     7.8180   132.2400     2.5241     0.0032     0.0924
  598.5000   -71.5205     6.9267     7.3387     7.8115   132.2433     2.5292     0.0029     0.0923
  599.0000   -71.4952     6.9001     7.2934     7.8049   132.2516     2.5349     0.0026     0.0920
  599.5000   -71.4698     6.8735     7.2483     7.7984   131.7537     2.5402     0.0023     0.0916
  600.0000   -71.4445     6.8471     7.2036     7.7919   131.0837     2.5338     0.0020     0.0923
  600.5000   -71.4192     6.8208     7.1591     7.7853   132.8429     2.5252     0.0017     0.0933
  601.0000   -71.3938     6.7947     7.1149     7.7788   134.3307     2.5186     0.0016     0.0943
  601.5000   -71.3685     6.7685     7.0710     7.7585   135.4948     2.5189     0.0019     0.0953
  602.0000   -71.3432     6.7425     7.0273     7.7249   137.3974     2.5199     0.0021     0.0964
  602.5000   -71.3178     6.7167     6.9840     7.6912   139.4008     2.5166     0.0024     0.0976
  603.0000   -71.2925     6.6909     6.9408     7.6567   139.8840     2.5130     0.0027     0.0988
  603.5000   -71.2672     6.6652     6.8980     7.6319   139.8084     2.5094     0.0029     0.1001
  604.0000   -71.2418     6.6396     6.8554     7.6070   139.4847     2.5058     0.0032     0.1013
  604.5000   -71.2165     6.6141     6.8131     7.5547   138.0524     2.5022     0.0034     0.1024
  605.0000   -71.1911     6.5922     6.7769     7.4794   135.4052     2.5010     0.0068     0.1028
  605.5000   -71.1658     6.5921     6.7769     7.4126   132.6315     2.5013     0.0101     0.1028
  606.0000   -71.1408     6.6189     6.8140     7.4978   132.1388     2.5032     0.0141     0.1016
  606.5000   -71.1158     6.6550     6.8535     7.6483   137.0905     2.5050     0.0188     0.0994
  607.0000   -71.0875     6.6914     6.8932     7.7787   141.6796     2.5069     0.0234     0.0962
  607.5000   -70.8854     6.7279     6.9331     7.7597   140.6475     2.5087     0.0280     0.0885
  608.0000   -70.3439     6.7646     6.9733     7.7117   139.2125     2.5104     0.0326     0.0807
  608.5000   -69.8175     6.8014     7.0138     7.6652   139.1136     2.5210     0.0345     0.0783
  609.0000   -69.2781     6.8386     7.0544     7.6343   138.3103     2.5334     0.0319     0.0794
  609.5000   -69.2863     6.8759     7.0953     7.6613   136.9976     2.5388     0.0298     0.0804
  610.0000   -69.2839     6.9134     7.1364     7.6943   136.5470     2.5331     0.0419     0.0776
  610.5000   -69.2843     6.9511     7.1619     7.7160   136.6777     2.5343     0.0554     0.0749
  611.0000   -69.2843     6.9764     7.1619     7.6837   136.8349     2.5421     0.0553     0.0750
  611.5000   -69.2843     6.9930     7.1619     7.6304   135.8993     2.5447     0.0356     0.0793
  612.0000   -69.2843     7.0096     7.1619     7.5765   134.2815     2.5385     0.0163     0.0835
  612.5000   -69.2843     7.0262     7.1641     7.5492   134.0526     2.5324     0.0028     0.0878
  613.0000   -69.2843     7.0429     7.1766     7.5408   134.0945     2.5263    -0.0002     0.0921
  613.5000   -69.2843     7.0596     7.1890     7.3522   133.1866     2.5202    -0.0025     0.0954
  614.0000   -69.2843     7.0764     7.2014     7.3191   133.2103     2.5158    -0.0025     0.0964
  614.5000   -69.2843     7.0932     7.2136     7.4370   135.1368     2.5133    -0.0012     0.0972
  615.0000   -69.2845     7.1100     7.2260     7.5604   136.2950     2.5127     0.0048     0.0984
  615.5000   -69.2853     7.1269     7.2872     7.6777   134.9181     2.5142     0.0095     0.1030
  616.0000   -69.2792     7.1438     7.3598     7.6949   133.5594     2.5106     0.0143     0.1107
  616.5000   -69.1388     7.1608     7.4307     7.6805   134.5431     2.4949     0.0191     0.1185
  617.0000   -68.9953     7.1778     7.4225     7.6654   135.9377     2.4801     0.0254     0.1244
  617.5000   -68.8525     7.1948     7.4145     7.6506   135.4954     2.4683     0.0419     0.1163
  618.0000   -68.7100     7.2118     7.4065     7.6358   134.6518     2.4786     0.0593     0.1050
  618.5000   -68.5674     7.2277     7.3986     7.6212   133.8919     2.4915     0.0655     0.0936
  619.0000   -68.4623     7.2160     7.3906     7.6070   134.5406     2.5044     0.0655     0.0907
  619.5000   -68.4043     7.2046     7.3827     7.5908   135.2277     2.5169     0.0614     0.0961
  620.0000   -68.3474     7.1932     7.3748     7.5095   135.3954     2.5111     0.0347     0.1008
  620.5000   -68.2767     7.1818     7.3671     7.2985   135.3183     2.5025     0.0118     0.1012
  621.0000   -67.9529     7.1707     7.3626     7.3169   135.2601     2.5013     0.0058     0.1038
  621.5000   -67.6314     7.1618     7.3626     7.4352   135.6891     2.5011     0.0040     0.1071
  622.0000   -67.3112     7.3518     7.6259     7.5561   137.4348     2.4967     0.0033     0.1103
  622.5000   -66.9912     7.5041     7.8560     7.6782   136.5547     2.4903     0.0055     0.1136
  623.0000   -66.7025     7.6603     8.0729     7.7017   134.4774     2.4840     0.0088     0.1169
  623.5000   -66.6987     7.7241     8.1598     7.6744   132.4867     2.4799     0.0133     0.1176
  624.0000   -66.7023     7.7449     8.1850     7.6466   131.6413     2.4867     0.0269     0.1083
  624.5000   -66.6977     7.7668     8.2103     7.6188   132.9795     2.4980     0.0408     0.0988
  625.0000   -66.4781     7.8263     8.2991     7.5910   134.2956     2.5094     0.0547     0.0893
  625.5000   -65.5633     7.9880     8.3759     7.5620   134.6876     2.5208     0.0687     0.0780
  626.0000   -64.6895     8.1513     8.8335     7.5584   135.4697     2.5322     0.0656     0.0827
  626.5000   -63.8943     8.3056     9.2801     7.5629   136.2777     2.5403     0.0441     0.0904
  627.0000   -63.9111     8.3642     9.7493     7.5676   135.5196     2.5161     0.0233     0.0964
  627.5000   -63.7376     8.4233    10.0700     7.5716   134.0851     2.5085     0.0136     0.0912
  628.0000   -63.1441     8.4828     9.8951     7.5417   132.6535     2.5149     0.0116     0.0870
  628.5000   -62.5524     8.5427     9.7085     7.4328   131.2198     2.5214     0.0127     0.0827
  629.0000   -62.5203     8.6030     9.5261     7.3245   129.8009     2.5279     0.0138     0.0785
  629.5000   -62.5239     8.6637     9.4361     7.2754   128.5513     2.5344     0.0149     0.0742
  630.0000   -62.5249     8.7249    10.3932     7.2746   128.2264     2.5409     0.0161     0.0736
  630.5000   -62.5254     8.7865    11.5676     7.2735   128.2138     2.5471     0.0172     0.0763
  631.0000   -62.5253     8.8518    11.5622     7.3197   129.0522     2.5466     0.0184     0.0822
  631.5000   -62.4913     8.7810    11.6736     7.3890   130.1350     2.5405     0.0195     0.0876
  632.0000   -62.2553     8.7071    10.9757     7.4618   131.1477     2.5343     0.0206     0.0884
  632.5000   -62.0193     8.6336    10.1632     7.4743   129.9759     2.5295     0.0218     0.0871
  633.0000   -61.7777     8.5608    10.1977     7.3633   128.4388     2.5279     0.0228     0.0860
  633.5000   -61.7394     8.4886    10.2588     7.1903   127.4821     2.5263     0.0205     0.0898
  634.0000   -61.7513     8.4171    10.3216     7.2674   127.6719     2.5248     0.0144     0.0960
