~VERSION INFORMATION
 VERS.                2.0:   CWLS LOG ASCII STANDARD - VERSION 2.0
 WRAP.                 NO:   ONE LINE PER DEPTH STEP
~WELL INFORMATION
#MNEM.UNIT      DATA TYPE    INFORMATION
#----------   ------------   ------------------------------
 STRT.F           34.0000:   START DEPTH
 STOP.F          616.0000:   STOP DEPTH
 STEP.F            0.5000:   STEP LENGTH
 NULL.          -999.2500:   NO VALUE
 COMP. FENIX & SCISSON INC:   COMPANY
 WELL. NAVAL PETROLEUM RESERVE 3 S-10 #86-10:   WELL
 FLD .             TEAPOT:   FIELD
 LOC .      S10 T38N R78W:   LOCATION
 CNTY.            NATRONA:   COUNTY
 STAT.            WYOMING:   STATE
 CTRY. UNITED STATES OF AMERICA:   COUNTRY
 SRVC.              Welex:   SERVICE COMPANY
 DATE.        12-APR-1977:   LOGDATE
 API .       490251033800:   API NUMBER
~CURVE INFORMATION
#MNEM.UNIT       API CODE    CURVE DESCRIPTION
#----------   ------------   ------------------------------
 DEPT.F                  :   
 CALD.IN     45 280 60 00:   CALIPER FROM DENSITY LOG
 GRD .GAPI   45 310 01 00:   GAMMA RAY FROM DENSITY LOG
 CORR.G/C3   45 356 01 00:   DENSITY CORRECTION
 DPHI.DEC    45 890 12 00:   DENSITY POROSITY SANDSTONE
 RHOB.G/C3   45 350 01 00:   BULK DENSITY
 SPR .MV     07 010 01 00:   SPONTANEOUS POTENTIAL
 ILD .OHMM   07 120 46 00:   INDUCTION LOG DEEP
 ILM .OHMM   07 120 44 00:   INDUCTION LOG MEDIUM
 SGRD.OHMM   07 221 05 00:   SHALLOW SHORT GUARD RESISTIVITY
~PARAMETER INFORMATION
#MNEM.UNIT          VALUE    DESCRIPTION
#----------   ------------   ------------------------------
 PD  .                 GL:   PERMANENT DATUM
 EPD .F              5240:   ELEVATION PERMANENT DATUM
 LMF .                 KB:   LOG MEASURED FROM
 DAPD.F                 5:   FEET ABOVE PERMANENT DATUM
 DMF .                 KB:   DRILLING MEASURED FROM
 EKB .F              5245:   KELLING BUSHING
 EGL .F              5240:   GROUND LEVEL
 DATE.        12-APR-1977:   RUN DATE
 RUN .                  1:   RUN NUMBER
 DD  .F               625:   DEPTH DRILLER
 DL  .F               617:   DEPTH LOGGER
 BLI .F               615:   BOTTOM LOG INTERVAL
 TLI .F                35:   TOP LOG INTERVAL
 CS  .IN            8.625:   CASING SIZE
 BS  .IN            7.875:   BIT SIZE
 BSD .F               625:   BIT SIZE AT DEPTH
 DFT .           KCL- GEL:   DRILLING FLUID TYPE
 DFD .                8.8:   DRILLING FLUID DENSITY
 BHT .F                68:   BOTTOM HOLE TEMPERATURE
 TCS .HRS            0100:   TIME CURCULATED STOPPED
 MRT .F                68:   MAXIMUM RECORDED TEMPERATURE
 ENGI.        E. CALLAHAN:   RECORDING ENGINEER
 WITN.            R. LYON:   WITNESSED BY
 CLNT.            A2DTECH:   CLIENT CODE
 ORIG.           5" PRINT:   ORIGIN OF DATA
 UWI .       490251033800:   UNIQUE WELL ID
 DICO. A2D Technologies, Inc.:   DIGITIZING COMPANY
~OTHER INFORMATION
~A   DEPT     CALD        GRD       CORR       DPHI         RHOB      SPR        ILD        ILM       SGRD   
# ...
  326.0000     8.1010   128.8719     0.0295     0.1006     2.4806   -70.6587     6.9101     8.1019    11.0224
  326.5000     8.0572   128.7308     0.0266     0.1063     2.4709   -69.8694     6.9561     8.0438    10.7922
  327.0000     8.0281   128.5898     0.0267     0.1116     2.4718   -69.2734     6.8585     7.8221    10.5668
  327.5000     8.0140   128.3022     0.0313     0.1086     2.4801   -68.8623     6.8093     7.6064    10.2748
  328.0000     7.9999   126.5291     0.0329     0.1055     2.4869   -68.8623     6.6216     7.3967    10.0602
  328.5000     8.0008   127.5750     0.0345     0.1016     2.4967   -68.8623     6.4390     7.2427     9.8501
  329.0000     7.9866   129.3627     0.0346     0.0986     2.5050   -69.0250     6.3050     7.1412     9.6444
  329.5000     7.9874   130.2602     0.0317     0.1013     2.4953   -69.4611     6.1312     6.9925     9.3779
  330.0000     7.9881   130.8610     0.0258     0.1088     2.4759   -69.6108     5.9210     6.9424     9.1820
  330.5000     8.0037   131.7585     0.0199     0.1138     2.4647   -69.9102     5.7578     6.8451     9.0527
  331.0000     8.0045   132.3593     0.0230     0.1144     2.4632   -70.0599     5.5990     6.7960     8.8636
  331.5000     8.0200   132.9601     0.0261     0.1144     2.4625   -69.9102     5.4447     6.6086     8.7995
  332.0000     8.0208   134.7478     0.0247     0.1153     2.4595   -69.9102     5.2946     6.4264     8.6157
  332.5000     8.0215   136.3872     0.0187     0.1167     2.4549   -70.0599     5.1486     6.1209     8.4358
  333.0000     8.0224   136.0653     0.0113     0.1224     2.4418   -70.6587     5.0764     5.7896     8.2026
  333.5000     8.0231   134.4540     0.0100     0.1311     2.4313   -71.2575     5.0053     5.5526     7.7047
  334.0000     8.0239   133.4144     0.0154     0.1349     2.4276   -71.4072     5.0390     5.5128     6.5235
  334.5000     8.0246   132.5607     0.0283     0.1262     2.4454   -70.9581     5.1078     5.7449     5.5233
  335.0000     8.0253   131.3811     0.0329     0.1167     2.4725   -70.5090     5.1772     6.2840     7.5386
  335.5000     8.0261   130.4982     0.0345     0.1027     2.4992   -69.9102     5.2843     6.7791     9.3390
  336.0000     8.0268   129.7619     0.0361     0.0914     2.5021   -69.6108     5.4311     7.1136     9.7991
  336.5000     8.0275   129.7710     0.0347     0.0937     2.4991   -69.6108     5.5435     7.3620    10.0707
  337.0000     8.0283   129.9267     0.0348     0.0979     2.4962   -69.9102     5.6975     7.5148    10.1371
  337.5000     8.0290   131.5660     0.0364     0.0982     2.4955   -70.5090     5.8558     7.5649    10.1336
  338.0000     8.0297   132.9087     0.0350     0.0967     2.4956   -71.1078     6.0602     7.7215     9.7856
  338.5000     8.0305   134.8448     0.0351     0.0970     2.4941   -71.4072     6.2286     7.8263     9.5151
  339.0000     8.0312   136.6325     0.0337     0.0999     2.4897   -71.4072     6.4016     7.9338     9.9151
  339.5000     8.0319   137.2333     0.0323     0.1050     2.4815   -71.7066     6.5795     7.9866    10.6218
  340.0000     8.0327   136.3504     0.0264     0.1086     2.4726   -72.4551     6.7156     7.9839    10.9162
  340.5000     8.0334   133.3788     0.0220     0.1121     2.4606   -73.0539     6.8073     7.9817    10.9882
  341.0000     8.0341   133.9911     0.0161     0.1184     2.4495   -73.5030     6.9008     8.0354    10.8334
  341.5000     8.0349   134.2952     0.0102     0.1223     2.4435   -73.6527     6.9467     8.0326     9.4954
  342.0000     8.0356   134.4649     0.0058     0.1208     2.4488   -73.6527     6.9443     7.9750     8.9190
  342.5000     8.0364   134.7552     0.0074     0.1190     2.4534   -73.6527     6.9424     7.9179     9.3584
  343.0000     8.0371   135.0608     0.0076     0.1177     2.4564   -73.6527     6.8926     7.8069    10.0255
  343.5000     8.0379   134.7714     0.0106     0.1174     2.4550   -73.6527     6.7491     7.5916    10.2322
  344.0000     8.0386   135.0754     0.0109     0.1190     2.4536   -73.5030     6.5631     7.4336     9.8127
  344.5000     8.0393   135.5278     0.0141     0.1168     2.4559   -73.5030     6.4264     7.3803     9.8774
  345.0000     8.0401   136.1286     0.0185     0.1143     2.4642   -73.2036     6.2493     7.4295     9.8740
  345.5000     8.0409   137.0262     0.0201     0.1164     2.4643   -73.0539     6.0770     7.3762     9.6011
  346.0000     8.0417   137.1800     0.0172     0.1200     2.4568   -72.9042     5.9094     7.2728     9.4659
  346.5000     8.0424   136.7440     0.0113     0.1245     2.4463   -72.4551     5.7465     6.9751     9.7957
  347.0000     8.0431   136.4528     0.0069     0.1301     2.4357   -72.3054     5.5881     6.5976     9.9288
  347.5000     8.0439   137.0554     0.0085     0.1346     2.4270   -71.8563     5.4340     6.2839     9.7890
  348.0000     8.0446   137.6562     0.0131     0.1361     2.4320   -71.7066     5.3578     6.0267     7.6807
  348.5000     8.0453   137.2184     0.0177     0.1291     2.4519   -71.2575     5.2463     6.0250     5.2114
  349.0000     8.0461   136.6322     0.0253     0.1195     2.4707   -71.2575     5.1017     6.1073     8.1936
  349.5000     8.0468   136.0461     0.0299     0.1090     2.4797   -71.2575     4.9955     6.1911     8.7766
  350.0000     8.0475   135.3116     0.0330     0.1099     2.4754   -71.4380     4.9520     6.2324     8.7731
  350.5000     8.0487   134.5046     0.0332     0.1180     2.4582   -71.8603     4.8558     6.1969     8.9534
  351.0000     8.0647   133.6983     0.0318     0.1242     2.4406   -72.4551     4.7212     6.2421     9.1383
  351.5000     8.0807   132.6602     0.0274     0.1326     2.4215   -72.6286     4.6221     5.9851     9.3261
  352.0000     8.0819   130.7379     0.0185     0.1422     2.4133   -73.0539     4.5282     5.4672     8.8810
  352.5000     8.0682   129.8738     0.0128     0.1454     2.4156   -73.2036     4.4611     5.1701     7.0175
  353.0000     8.0694   129.8902     0.0235     0.1299     2.4460   -73.5030     4.4327     4.9917     4.9643
  353.5000     8.0558   130.0500     0.0282     0.1119     2.4788   -73.5030     4.4623     5.1651     4.6629
  354.0000     8.0569   130.8032     0.0314     0.0908     2.5072   -73.2036     4.5546     5.6099     7.4077
  354.5000     8.0433   131.3991     0.0314     0.0872     2.5058   -73.0539     4.6808     6.0931     8.9246
  355.0000     8.0296   131.4093     0.0315     0.0904     2.4991   -72.9042     4.8779     6.3047     9.2989
  355.5000     8.0309   131.2713     0.0299     0.0955     2.4917   -72.6048     5.1899     6.5237     9.3606
  356.0000     8.0320   131.7389     0.0195     0.1030     2.4805   -72.3054     5.5219     6.7503     9.3559
  356.5000     8.0332   132.3309     0.0170     0.1056     2.4790   -72.0060     5.7944     6.9365     9.3522
  357.0000     8.0195   132.8002     0.0218     0.1032     2.4896   -71.7066     5.9143     7.0299     9.4142
  357.5000     8.0208   133.4050     0.0263     0.1002     2.4919   -71.2575     5.9951     7.0265     9.4095
  358.0000     8.0220   134.0257     0.0264     0.1002     2.4875   -71.1078     5.8703     7.0231     9.3409
  358.5000     8.0231   135.0766     0.0266     0.1109     2.4718   -70.8084     5.6691     7.0197     9.3371
  359.0000     8.0243   135.9614     0.0220     0.1178     2.4516   -70.6587     5.4748     6.9198     9.3991
  359.5000     8.0255   136.3991     0.0131     0.1277     2.4329   -70.6587     5.2507     6.7275     9.7248
  360.0000     8.0269   136.4095     0.0271     0.1318     2.4322   -70.6587     5.0707     6.4506     9.7209
  360.5000     8.0133   136.0608     0.0272     0.1324     2.4360   -70.9581     4.9310     5.8517     7.8910
  361.0000     8.0145   134.7113     0.0258     0.1237     2.4541   -71.1078     4.8283     5.6498     6.2491
  361.5000     8.0157   132.6632     0.0215     0.1123     2.4744   -71.2575     4.7606     5.5310     5.2639
  362.0000     8.0168   131.0385     0.0201     0.0990     2.4887   -71.2575     4.7927     5.9247     8.5363
