~VERSION INFORMATION
 VERS.                2.0:   CWLS LOG ASCII STANDARD - VERSION 2.0
 WRAP.                 NO:   ONE LINE PER DEPTH STEP
~WELL INFORMATION
#MNEM.UNIT      DATA TYPE    INFORMATION
#----------   ------------   ------------------------------
 STRT.F           28.0000:   START DEPTH
 STOP.F          563.0000:   STOP DEPTH
 STEP.F            0.1000:   STEP LENGTH
 NULL.          -999.2500:   NO VALUE
 COMP.       F D SERV INC:   COMPANY
 WELL.    SX-3 62-4 #62-3:   WELL
 FLD .          N.P.R. #3:   FIELD
 LOC .       S3 T38N R78W:   LOCATION
 CNTY.            NATRONA:   COUNTY
 STAT.            WYOMING:   STATE
 CTRY. UNITED STATES OF AMERICA:   COUNTRY
 SRVC.     Atlas Wireline:   SERVICE COMPANY
 DATE.        03-MAY-1992:   LOGDATE
 API .       490252252100:   API NUMBER
~CURVE INFORMATION
#MNEM.UNIT       API CODE    CURVE DESCRIPTION
#----------   ------------   ------------------------------
 DEPT.F                  :   
 RILD.OHMM   07 120 46 00:   INDUCTION LOG DEEP RESISTIVITY
 RILM.OHMM   07 120 44 00:   INDUCTION LOG MEDIUM RESISTIVITY
 CALD.IN     45 280 60 00:   CALIPER FROM DENSITY LOG
 CORR.G/C3   45 356 01 00:   DENSITY CORRECTION
 DEN .G/C3   45 350 01 00:   COMPENSATED BULK DENSTIY
 GRD .GAPI   45 310 01 00:   GAMMA RAY FROM DENSITY LOG
 PORD.DEC    45 890 12 00:   POROSITY DENSITY SANDSTONE
~PARAMETER INFORMATION
#MNEM.UNIT          VALUE    DESCRIPTION
#----------   ------------   ------------------------------
 PD  .                 GL:   PERMANENT DATUM
 EPD .F              5156:   ELEVATION PERMANENT DATUM
 LMF .                 KB:   LOG MEASURED FROM
 DAPD.F                 5:   FEET ABOVE PERMANENT DATUM
 DMF .                 KB:   DRILLING MEASURED FROM
 EKB .F              5161:   KELLING BUSHING
 EGL .F              5156:   GROUND LEVEL
 DATE.        03-MAY-1992:   RUN DATE
 RUN .                  1:   RUN NUMBER
 DD  .F               565:   DEPTH DRILLER
 DL  .F               566:   DEPTH LOGGER
 BLI .F               564:   BOTTOM LOG INTERVAL
 TLI .F                50:   TOP LOG INTERVAL
 CS  .IN            8.625:   CASING SIZE
 CBD .F                49:   CASING BOTTOM DRILLER
 CBL .F                50:   CASING BOTTOM LOGGER
 BS  .IN            7.875:   BIT SIZE
 BSD .F               565:   BIT SIZE AT DEPTH
 DFT .        AIR DRILLED:   DRILLING FLUID TYPE
 LUN .             HL 632:   LOGGING UNIT NUMBER
 LUL .           RK. SPGS:   LOGGING UNIT LOCATION
 ENGI.               RALL:   RECORDING ENGINEER
 WITN.             STRONG:   WITNESSED BY
 CLNT.            A2DTECH:   CLIENT CODE
 ORIG.           5" PRINT:   ORIGIN OF DATA
 UWI .       490252252100:   UNIQUE WELL ID
 DICO. A2D Technologies, Inc.:   DIGITIZING COMPANY
~OTHER INFORMATION
~A   DEPT     RILD       RILM       CALD       CORR        DEN        GRD       PORD   
# ...
  382.9000     7.2669     7.7350     8.2199     0.0091     2.5439   170.1711     0.0641
  383.0000     7.2673     7.7346     8.2259     0.0105     2.5439   170.1689     0.0641
  383.1000     7.3168     7.7343     8.2258     0.0105     2.5439   170.1665     0.0641
  383.2000     7.3166     7.7340     8.2257     0.0097     2.5438   170.2968     0.0641
  383.3000     7.3163     7.7337     8.2256     0.0085     2.5438   170.6304     0.0641
  383.4000     7.3328     7.7333     8.2372     0.0075     2.5437   171.1327     0.0642
  383.5000     7.3666     7.7330     8.2405     0.0074     2.5431   171.6650     0.0645
  383.6000     7.3663     7.7327     8.2404     0.0060     2.5431   172.3747     0.0647
  383.7000     7.3660     7.7324     8.2403     0.0060     2.5425   172.9414     0.0653
  383.8000     7.3989     7.7321     8.2402     0.0060     2.5419   173.4437     0.0653
  383.9000     7.4166     7.7317     8.2401     0.0054     2.5412   173.9461     0.0655
  384.0000     7.4163     7.7314     8.2520     0.0038     2.5408   174.4486     0.0657
  384.1000     7.4160     7.7311     8.2549     0.0014     2.5408   174.9688     0.0658
  384.2000     7.4157     7.7308     8.2549     0.0000     2.5408   175.4532     0.0660
  384.3000     7.4154     7.7304     8.2548    -0.0011     2.5402   175.9556     0.0663
  384.4000     7.4151     7.7301     8.2547    -0.0015     2.5400   176.3131     0.0663
  384.5000     7.4147     7.7298     8.2546    -0.0021     2.5400   176.6586     0.0663
  384.6000     7.4144     7.7294     8.2545    -0.0034     2.5400   177.0689     0.0663
  384.7000     7.4141     7.7292     8.2544    -0.0045     2.5400   176.7644     0.0664
  384.8000     7.4138     7.7288     8.2469    -0.0045     2.5400   176.5126     0.0666
  384.9000     7.4135     7.7285     8.2392    -0.0045     2.5399   176.2578     0.0666
  385.0000     7.4132     7.7282     8.2391    -0.0045     2.5399   176.0030     0.0666
  385.1000     7.4129     7.7279     8.2390    -0.0045     2.5399   175.6467     0.0666
  385.2000     7.4126     7.7720     8.2389    -0.0045     2.5399   175.1918     0.0666
  385.3000     7.4123     7.7810     8.2388    -0.0045     2.5399   174.9369     0.0666
  385.4000     7.4119     7.7807     8.2387    -0.0045     2.5399   174.6355     0.0666
  385.5000     7.4117     7.7804     8.2334    -0.0033     2.5399   174.4274     0.0666
  385.6000     7.4114     7.7800     8.2235    -0.0030     2.5394   174.0157     0.0666
  385.7000     7.4110     7.7797     8.2234    -0.0023     2.5391   173.9388     0.0666
  385.8000     7.4228     7.7794     8.2233    -0.0015     2.5391   174.4411     0.0667
  385.9000     7.4620     7.7791     8.2232    -0.0015     2.5391   174.9526     0.0669
  386.0000     7.4617     7.7787     8.2232    -0.0015     2.5391   175.8277     0.0669
  386.1000     7.4614     7.7784     8.2231    -0.0003     2.5391   176.6743     0.0669
  386.2000     7.4611     7.7781     8.2230     0.0000     2.5391   177.5185     0.0669
  386.3000     7.4608     7.7778     8.2229     0.0000     2.5391   178.1597     0.0669
  386.4000     7.4714     7.7774     8.2228     0.0000     2.5391   178.6620     0.0669
  386.5000     7.5121     7.7771     8.2227     0.0000     2.5391   179.1492     0.0669
  386.6000     7.5117     7.7768     8.2226     0.0000     2.5391   179.4332     0.0669
  386.7000     7.5114     7.7765     8.2225     0.0000     2.5391   179.4311     0.0669
  386.8000     7.5111     7.7704     8.2224     0.0000     2.5385   179.2597     0.0669
  386.9000     7.5108     7.7221     8.2223     0.0000     2.5383   179.0049     0.0671
  387.0000     7.5105     7.7218     8.2222     0.0005     2.5380   178.7501     0.0672
  387.1000     7.5102     7.7214     8.2222     0.0015     2.5375   178.4532     0.0672
  387.2000     7.5098     7.7211     8.2221     0.0015     2.5375   177.6088     0.0672
  387.3000     7.5096     7.7208     8.2220     0.0015     2.5375   177.1581     0.0675
  387.4000     7.5092     7.7205     8.2219     0.0015     2.5369   176.4759     0.0677
  387.5000     7.5089     7.7201     8.2218     0.0015     2.5363   175.8421     0.0680
  387.6000     7.5086     7.7198     8.2217     0.0015     2.5357   175.3350     0.0685
  387.7000     7.5083     7.7195     8.2216     0.0012     2.5350   174.8549     0.0690
  387.8000     7.5080     7.6975     8.2215     0.0000     2.5343   174.5778     0.0695
  387.9000     7.5077     7.6655     8.2214     0.0000     2.5329   174.5756     0.0700
  388.0000     7.4825     7.6652     8.2254     0.0000     2.5323   174.5732     0.0705
  388.1000     7.4392     7.6648     8.2363    -0.0008     2.5312   174.7025     0.0710
  388.2000     7.4033     7.6646     8.2362    -0.0015     2.5303   174.9524     0.0713
  388.3000     7.4030     7.6643     8.2361    -0.0015     2.5295   175.2024     0.0717
  388.4000     7.3619     7.6434     8.2360    -0.0015     2.5283   175.4683     0.0722
  388.5000     7.3513     7.6106     8.2359    -0.0015     2.5276   175.9386     0.0727
  388.6000     7.3509     7.6103     8.2359    -0.0005     2.5264   176.0670     0.0729
  388.7000     7.3506     7.6100     8.2358     0.0000     2.5251   176.2023     0.0735
  388.8000     7.3562     7.6097     8.2357     0.0006     2.5242   176.3638     0.0747
  388.9000     7.4012     7.6378     8.2356     0.0018     2.5233   176.4006     0.0762
  389.0000     7.4009     7.6620     8.2355     0.0031     2.5221   176.6605     0.0778
  389.1000     7.4006     7.6617     8.2354     0.0045     2.5208   176.6582     0.0800
  389.2000     7.3955     7.6614     8.2353     0.0056     2.5202   176.6558     0.0809
  389.3000     7.3861     7.6610     8.2352     0.0060     2.5195   176.7972     0.0814
  389.4000     7.3767     7.6607     8.2351     0.0066     2.5193   176.9527     0.0815
  389.5000     7.3673     7.6880     8.2350     0.0075     2.5193   176.9502     0.0814
  389.6000     7.3579     7.7134     8.2349     0.0075     2.5194   176.9478     0.0810
  389.7000     7.3475     7.7131     8.2349     0.0075     2.5200   176.9454     0.0800
  389.8000     7.3852     7.7128     8.2348     0.0064     2.5207   176.7439     0.0793
  389.9000     7.3981     7.7661     8.2347     0.0052     2.5213   176.4891     0.0785
  390.0000     7.4184     7.7658     8.2346     0.0033     2.5227   176.2343     0.0776
  390.1000     7.4609     7.7923     8.2194     0.0012     2.5257   175.8769     0.0766
  390.2000     7.5005     7.8192     8.2194     0.0000     2.5298   175.1175     0.0756
  390.3000     7.5001     7.8274     8.2193     0.0000     2.5329   174.2155     0.0746
  390.4000     7.5373     7.8730     8.2192    -0.0011     2.5350   173.5983     0.0736
  390.5000     7.5805     7.9174     8.2191    -0.0015     2.5366   172.8387     0.0726
  390.6000     7.6040     7.9628     8.2190    -0.0009     2.5381   171.9724     0.0715
  390.7000     7.6146     8.0084     8.2189     0.0000     2.5394   170.9604     0.0706
  390.8000     7.6581     8.0543     8.2188     0.0000     2.5404   169.9324     0.0699
  390.9000     7.7092     8.1004     8.2187     0.0000     2.5411   168.1679     0.0691
  391.0000     7.7089     8.1487     8.2186     0.0011     2.5425   167.3213     0.0684
  391.1000     7.7086     8.1936     8.2186     0.0033     2.5436   166.4713     0.0678
  391.2000     7.7083     8.2406     8.2185     0.0052     2.5444   165.5991     0.0672
  391.3000     7.7177     8.2615     8.2184     0.0060     2.5451   164.6504     0.0665
  391.4000     7.7613     8.2612     8.2183     0.0060     2.5457   163.9189     0.0659
  391.5000     7.7609     8.2675     8.2182     0.0060     2.5463   163.6286     0.0649
  391.6000     7.7606     8.3180     8.2181     0.0060     2.5470   163.4094     0.0644
  391.7000     7.7603     8.3626     8.2180     0.0069     2.5476   163.1546     0.0639
  391.8000     7.7600     8.3752     8.2179     0.0069     2.5477   162.8997     0.0634
  391.9000     7.7597     8.3748     8.2178     0.0060     2.5481   162.6449     0.0629
