~VERSION INFORMATION
 VERS.                2.0:   CWLS LOG ASCII STANDARD - VERSION 2.0
 WRAP.                 NO:   ONE LINE PER DEPTH STEP
~WELL INFORMATION
#MNEM.UNIT      DATA TYPE    INFORMATION
#----------   ------------   ------------------------------
 STRT.F           18.0000:   START DEPTH
 STOP.F          449.0000:   STOP DEPTH
 STEP.F            0.5000:   STEP LENGTH
 NULL.          -999.2500:   NO VALUE
 COMP.   LAWRENCE-ALLISON:   COMPANY
 WELL. NPR 3 #51-46SX10OB4:   WELL
 FLD .             TEAPOT:   FIELD
 LOC .      S10 T38N R78W:   LOCATION
 CNTY.            NATRONA:   COUNTY
 STAT.            WYOMING:   STATE
 CTRY. UNITED STATES OF AMERICA:   COUNTRY
 SRVC.      Dresser Atlas:   SERVICE COMPANY
 DATE.        19-NOV-1984:   LOGDATE
 API .       490251100700:   API NUMBER
~CURVE INFORMATION
#MNEM.UNIT       API CODE    CURVE DESCRIPTION
#----------   ------------   ------------------------------
 DEPT.F                  :   
 AC  .US/F   60 520 00 00:   ACCOUSTIC
 PORD.DEC    45 890 12 00:   POROSITY DENSITY SANDSTONE
 CNC .DEC    42 890 03 00:   NEUTRON POROSITY SANDSTONE
 CALD.IN     45 280 60 00:   CALIPER FROM DENSITY
 CORR.G/C3   45 356 01 00:   DENSITY CORRECTION
 DEN .G/C3   45 350 01 00:   COMPENSATED BULK DENSTIY
 GRD .GAPI   45 310 01 00:   GAMMA RAY FROM DENSITY LOG
~PARAMETER INFORMATION
#MNEM.UNIT          VALUE    DESCRIPTION
#----------   ------------   ------------------------------
 PD  .                 GL:   PERMANENT DATUM
 EPD .F              5163:   ELEVATION PERMANENT DATUM
 LMF .                 GL:   LOG MEASURED FROM
 DMF .                 GL:   DRILLING MEASURED FROM
 EGL .F              5163:   GROUND LEVEL
 DATE.        19-DEC-1984:   RUN DATE
 RUN .                  1:   RUN NUMBER
 DD  .F               450:   DEPTH DRILLER
 DL  .F               451:   DEPTH LOGGER
 BLI .F               449:   BOTTOM LOG INTERVAL
 TLI .F                20:   TOP LOG INTERVAL
 CS  .IN            8.625:   CASING SIZE
 CBD .F                20:   CASING BOTTOM DRILLER
 CBL .F                20:   CASING BOTTOM LOGGER
 BS  .IN             6.25:   BIT SIZE
 BSD .F               450:   BIT SIZE AT DEPTH
 DFT .          KCL WATER:   DRILLING FLUID TYPE
 MSS .            MUDTANK:   MUD SAMPLE SOURCE
 RMS .OHMM          0.146:   RESISTIVITY MUD SAMPLE
 MST .F               100:   MUD SAMPLE TEMPERATURE
 RMF .OHMM          0.110:   RESISTIVITY MUD FILTRATE SAMPLE
 MFST.F               100:   MUD FILTRATE SAMPLE TEMPERATURE
 RMC .OHMM          0.183:   RESISTIVITY MUD CAKE
 MCST.F               100:   MUD CAKE SAMPLE TEMPERATURE
 MFSS.               CALC:   MUD FILTRATE SAMPLE SOURCE
 MCSS.               CALC:   MUD CAKE SAMPLE SOURCE
 TCS .HRS               2:   TIME CURCULATED STOPPED
 MRT .F               100:   MAXIMUM RECORDED TEMPERATURE
 LUN .               6270:   LOGGING UNIT NUMBER
 ENGI.        TOM GAUGHAN:   RECORDING ENGINEER
 WITN.              LUERS:   WITNESSED BY
 CLNT.            A2DTECH:   CLIENT CODE
 ORIG.           5" PRINT:   ORIGIN OF DATA
 UWI .       490251100700:   UNIQUE WELL ID
 DICO. A2D Technologies, Inc.:   DIGITIZING COMPANY
~OTHER INFORMATION
~A   DEPT        AC      PORD        CNC       CALD       CORR        DEN        GRD   
# ...
  109.0000   103.3779     0.1315     0.2890     6.4451     0.0281     2.4596    96.4902
  109.5000   102.6175     0.1291     0.2921     6.4444     0.0417     2.4648    94.9766
  110.0000   100.7408     0.1276     0.2870     6.4436     0.0552     2.4671    93.0113
  110.5000   100.8296     0.1270     0.2815     6.4278     0.0445     2.4685    92.7026
  111.0000   101.6258     0.1212     0.2773     6.4271     0.0430     2.4783    92.6951
  111.5000   103.1116     0.1145     0.2740     6.4263     0.0474     2.4889    92.9888
  112.0000   104.0645     0.1118     0.2861     6.4256     0.0549     2.4904    93.1319
  112.5000   104.5456     0.1185     0.3018     6.4273     0.0594     2.4820    93.5762
  113.0000   104.4741     0.1240     0.3088     6.4391     0.0578     2.4721    94.3217
  113.5000   104.4049     0.1295     0.3012     6.4382     0.0532     2.4652    97.4768
  114.0000   104.5739     0.1286     0.2860     6.4374     0.0380     2.4636   101.8368
  114.5000   104.7406     0.1261     0.2843     6.4367     0.0288     2.4681   102.1324
  115.0000   105.0645     0.1265     0.2872     6.4512     0.0303     2.4696   100.3158
  115.5000   105.4670     0.1277     0.2995     6.4352     0.0332     2.4665    99.1034
  116.0000   106.0267     0.1274     0.2943     6.4497     0.0407     2.4664    98.7947
  116.5000   106.5865     0.1256     0.2717     6.4487     0.0482     2.4687    98.9378
  117.0000   106.9890     0.1259     0.2645     6.4480     0.0496     2.4678    99.3821
  117.5000   107.3915     0.1293     0.2648     6.4472     0.0420     2.4640    99.9770
  118.0000   107.9513     0.1317     0.2832     6.4465     0.0253     2.4609    98.7647
  118.5000   107.8035     0.1298     0.2997     6.4458     0.0055     2.4609    96.7994
  119.0000   107.6533     0.1277     0.3198     6.4450     0.0024     2.4646    94.2316
  119.5000   107.1148     0.1260     0.3503     6.4595     0.0220     2.4691    92.2663
  120.0000   106.7288     0.1275     0.3524     6.4585     0.0340     2.4675    92.2588
  120.5000   106.4237     0.1296     0.3386     6.4428     0.0249     2.4644    93.4561
  121.0000   106.3546     0.1306     0.3229     6.4420     0.0172     2.4629    94.5028
  121.5000   106.4450     0.1297     0.3090     6.4413     0.0187     2.4636    95.5495
  122.0000   106.2972     0.1285     0.3013     6.4405     0.0262     2.4658    96.4456
  122.5000   106.1470     0.1273     0.3005     6.4398     0.0321     2.4688    97.9442
  123.0000   105.8443     0.1254     0.2996     6.4390     0.0366     2.4718    99.7439
  123.5000   105.8538     0.1236     0.3048     6.4383     0.0365     2.4725    99.8931
  124.0000   105.5487     0.1249     0.2954     6.4375     0.0228     2.4709    98.6747
  124.5000   105.3223     0.1261     0.2961     6.4368     0.0207     2.4701    98.6652
  125.0000   105.0959     0.1252     0.3018     6.4360     0.0484     2.4700    99.2621
  125.5000   104.9458     0.1307     0.2997     6.4353     0.0665     2.4662    98.8007
  126.0000   105.2720     0.1358     0.2888     6.4498     0.0588     2.4517    98.6446
  126.5000   105.9104     0.1437     0.2895     6.4488     0.0346     2.4350    99.8539
  127.0000   106.5487     0.1474     0.2916     6.4330    -0.0275     2.4357   101.6737
  127.5000   107.0299     0.1468     0.2907     6.4475    -0.0280     2.4417   104.9774
  128.0000   107.2752     0.1410     0.2913     6.4315    -0.0171     2.4477   107.2108
  128.5000   107.3632     0.1392     0.3079     6.4308    -0.0066     2.4492   106.9985
  129.0000   107.5299     0.1392     0.3061     6.4300     0.0009     2.4499   105.0110
  129.5000   107.8538     0.1383     0.2980     6.4293     0.0175     2.4536   101.5316
  130.0000   109.4355     0.1348     0.3022     6.4285     0.0431     2.4619   100.2412
  130.5000   111.9607     0.1283     0.3180     6.4429     0.0521     2.4664   101.3318
  131.0000   114.5645     0.1301     0.3388     6.4421     0.0278     2.4610   102.0334
  131.5000   115.9104     0.1359     0.3415     6.4413     0.0157     2.4525   101.1682
  132.0000   116.3129     0.1469     0.3189     6.4556     0.0201     2.4340    97.8113
  132.5000   114.6714     0.1575     0.3114     6.4549     0.0261     2.4136    98.8464
  133.0000   111.2217     0.1712     0.3159     6.4692     0.0306     2.3966   101.2485
  133.5000   109.2657     0.1828     0.3349     6.4684     0.0365     2.3776   101.5441
  134.0000   107.3884     0.1827     0.3265     6.4827     0.0471     2.3712    99.5769
  134.5000   106.3758     0.1672     0.3126     6.4820     0.0121     2.3891   100.0212
  135.0000   105.5204     0.1500     0.3002     6.4662     0.0075     2.4213   100.3168
  135.5000   104.8223     0.1423     0.3036     6.4654    -0.0002     2.4367   100.4599
  136.0000   104.5149     0.1394     0.3042     6.4647    -0.0092     2.4438   100.2999
  136.5000   104.8412     0.1406     0.3048     6.4639     0.0047     2.4445   100.1418
  137.0000   104.9292     0.1422     0.3060     6.4632     0.0226     2.4414    98.6282
  137.5000   105.2531     0.1437     0.3107     6.4624     0.0284     2.4391    98.0183
  138.0000   104.9481     0.1458     0.3227     6.4617     0.0283     2.4368   100.1193
  138.5000   104.8766     0.1455     0.3243     6.4457     0.0249     2.4367   101.1660
  139.0000   104.8884     0.1425     0.3260     6.4299     0.0206     2.4397   101.4615
  139.5000   104.5833     0.1398     0.3266     6.4141     0.0205     2.4442   101.6028
  140.0000   104.2759     0.1368     0.3245     6.4134     0.0219     2.4487   102.6495
  140.5000   103.6588     0.1338     0.3152     6.4126     0.0236     2.4555   103.2463
  141.0000   103.1179     0.1295     0.3011     6.4119     0.0278     2.4638   102.0321
  141.5000   102.6557     0.1223     0.2913     6.4112     0.0273     2.4728    99.6149
  142.0000   102.4269     0.1211     0.2720     6.4256     0.0060     2.4766    99.9086
  142.5000   102.7531     0.1217     0.2672     6.4247     0.0049     2.4758   101.4071
  143.0000   102.8412     0.1213     0.2760     6.4239     0.0269     2.4772   101.5521
  143.5000   102.7697     0.1192     0.2953     6.4384     0.0365     2.4802   101.2415
  144.0000   102.4646     0.1159     0.2977     6.4527     0.0259     2.4847   100.7822
  144.5000   102.0047     0.1147     0.2829     6.4670     0.0182     2.4877    99.8711
  145.0000   102.0928     0.1187     0.2745     6.4661     0.0121     2.4884    99.2612
  145.5000   102.2594     0.1220     0.2911     6.4653    -0.0061     2.4747   100.6091
  146.0000   102.5833     0.1260     0.3174     6.4646    -0.0032     2.4678   101.6577
  146.5000   102.9072     0.1263     0.3078     6.4638     0.0103     2.4708   101.6483
  147.0000   103.0739     0.1221     0.2999     6.4631     0.0209     2.4760   102.0926
  147.5000   102.8475     0.1175     0.2993     6.4623     0.0284     2.4828   104.6453
  148.0000   102.3066     0.1148     0.2975     6.4768     0.0374     2.4873   105.5433
  148.5000   101.8443     0.1188     0.3051     6.4610     0.0464     2.4842    99.0580
  149.0000   101.4583     0.1224     0.2994     6.4753     0.0402     2.4773    98.1469
  149.5000   102.0204     0.1227     0.2800     6.4744     0.0144     2.4750    98.4425
  150.0000   102.8947     0.1215     0.2653     6.4737    -0.0008     2.4770    98.0895
  150.5000   102.9827     0.1213     0.2783     6.4729     0.0037     2.4757    95.0828
  151.0000   102.9112     0.1296     0.2937     6.4722     0.0129     2.4642    93.2821
  151.5000   102.6871     0.1359     0.2863     6.4714     0.0250     2.4536    92.5301
  152.0000   104.2689     0.1339     0.2819     6.4707     0.0387     2.4511    92.0904
  152.5000   106.0079     0.1291     0.2956     6.4698     0.0502     2.4596    92.8539
  153.0000   108.2186     0.1267     0.3112     6.4690     0.0273     2.4686    98.4058
  153.5000   108.9355     0.1262     0.3079     6.4683     0.0015     2.4694   102.3169
  154.0000   109.5739     0.1341     0.2977     6.4675    -0.0167     2.4556   103.3667
