~VERSION INFORMATION
 VERS.                2.0:   CWLS LOG ASCII STANDARD - VERSION 2.0
 WRAP.                 NO:   ONE LINE PER DEPTH STEP
~WELL INFORMATION
#MNEM.UNIT      DATA TYPE    INFORMATION
#----------   ------------   ------------------------------
 STRT.F            0.0000:   START DEPTH
 STOP.F          562.0000:   STOP DEPTH
 STEP.F            0.1000:   STEP LENGTH
 NULL.          -999.2500:   NO VALUE
 COMP. BROWN JOHN E&C INC:   COMPANY
 WELL.    73-1 SX-3 #73-3:   WELL
 FLD .             TEAPOT:   FIELD
 LOC .       S3 T38N R78W:   LOCATION
 CNTY.            NATRONA:   COUNTY
 STAT.            WYOMING:   STATE
 CTRY. UNITED STATES OF AMERICA:   COUNTRY
 SRVC.      Western Atlas:   SERVICE COMPANY
 DATE.        23-APR-1992:   LOGDATE
 API .       490252251200:   API NUMBER
~CURVE INFORMATION
#MNEM.UNIT       API CODE    CURVE DESCRIPTION
#----------   ------------   ------------------------------
 DEPT.F                  :   
 GRR .GAPI   07 310 01 00:   GAMMA RAY
 RILD.OHMM   07 120 46 00:   INDUCTION LOG DEEP RESISTIVITY
 RILM.OHMM   07 120 44 00:   INDUCTION LOG MEDIUM RESISTIVITY
 CILD.MMHO   07 110 46 00:   CONDUCTIVITY INDUCTION LOG DEEP
~PARAMETER INFORMATION
#MNEM.UNIT          VALUE    DESCRIPTION
#----------   ------------   ------------------------------
 PD  .                 GL:   PERMANENT DATUM
 EPD .F              5164:   ELEVATION PERMANENT DATUM
 LMF .                 KB:   LOG MEASURED FROM
 DAPD.F                 5:   FEET ABOVE PERMANENT DATUM
 DMF .                 KB:   DRILLING MEASURED FROM
 EKB .F              5169:   KELLING BUSHING
 EDF .F              5168:   DRILLING FLOOR
 EGL .F              5164:   GROUND LEVEL
 DATE.        23-APR-1992:   RUN DATE
 RUN .                  1:   RUN NUMBER
 DD  .F               561:   DEPTH DRILLER
 DL  .F               564:   DEPTH LOGGER
 BLI .F               562:   BOTTOM LOG INTERVAL
 CS  .IN            8.625:   CASING SIZE
 CBD .F                48:   CASING BOTTOM DRILLER
 CBL .F                49:   CASING BOTTOM LOGGER
 BS  .IN            7.875:   BIT SIZE
 BSD .F               561:   BIT SIZE AT DEPTH
 DFT .                AIR:   DRILLING FLUID TYPE
 TCS .HRS               2:   TIME CURCULATED STOPPED
 LUN .           HL- 6272:   LOGGING UNIT NUMBER
 LUL .             CASPER:   LOGGING UNIT LOCATION
 ENGI.            LEBSOCK:   RECORDING ENGINEER
 WITN.        GARY STRONG:   WITNESSED BY
 CLNT.            A2DTECH:   CLIENT CODE
 ORIG.       2", 5" PRINT:   ORIGIN OF DATA
 UWI .       490252251200:   UNIQUE WELL ID
 DICO. A2D Technologies, Inc.:   DIGITIZING COMPANY
~OTHER INFORMATION
~A    DEPT      GRR      RILD       RILM       CILD   
# ...
  350.4000   145.4545     6.3688     6.7345   154.6184
  350.5000   145.6565     6.3808     6.7345   154.6229
  350.6000   146.1817     6.4134     6.7345   154.6274
  350.7000   146.8282     6.4134     6.7592   154.6319
  350.8000   147.3130     6.4418     6.7816   154.6365
  350.9000   147.8788     6.4583     6.7816   154.6410
  351.0000   147.8788     6.4583     6.7816   154.6455
  351.1000   148.0201     6.4583     6.7674   154.6501
  351.2000   148.1818     6.4583     6.7509   154.6546
  351.3000   148.1616     6.4583     6.7369   154.6591
  351.4000   147.8788     6.4596     6.7371   154.6637
  351.5000   147.6768     6.4597     6.7372   154.6682
  351.6000   147.2931     6.4598     6.7625   154.6727
  351.7000   146.8889     6.4599     6.7849   154.6773
  351.8000   146.6062     6.4599     6.7850   154.6819
  351.9000   145.7576     6.4600     6.7852   154.6863
  352.0000   145.5556     6.4601     6.7502   154.6908
  352.1000   145.4545     6.4602     6.7384   154.6958
  352.2000   145.4545     6.4307     6.6891   154.9166
  352.3000   145.4545     6.3949     6.5919   155.1652
  352.4000   145.4545     6.3593     6.5535   155.4138
  352.5000   145.6565     6.3268     6.5188   155.6624
  352.6000   145.7576     6.3269     6.4568   155.9110
  352.7000   145.8383     6.2681     6.4016   156.1595
  352.8000   146.0807     6.2187     6.3581   156.4082
  352.9000   146.3636     6.1841     6.2857   156.6568
  353.0000   146.1617     6.1462     6.2515   156.9055
  353.1000   145.9193     6.0679     6.1912   157.4563
  353.2000   145.6768     6.0390     6.1223   158.1929
  353.3000   145.3940     6.0054     6.0625   158.9296
  353.4000   144.5455     5.9719     6.0287   159.9247
  353.5000   144.1415     5.9348     5.9951   161.1499
  353.6000   143.6567     5.8602     5.9365   162.3752
  353.7000   143.2525     5.8318     5.8874   163.8150
  353.8000   143.0303     5.7993     5.8546   165.5280
  353.9000   143.0303     5.7549     5.8220   167.2410
  354.0000   143.0303     5.6992     5.7896   168.8686
  354.1000   143.0303     5.6993     5.7574   170.3375
  354.2000   143.0303     5.6712     5.7253   171.8064
  354.3000   143.0908     5.6396     5.6935   173.3389
  354.4000   143.9394     5.5959     5.6617   175.0525
  354.5000   144.9492     5.5382     5.6242   176.7660
  354.6000   146.5854     5.5043     5.5989   178.3541
  354.7000   148.2018     5.5044     5.5854   179.3348
  354.8000   149.1715     5.4842     5.5755   180.3155
  354.9000   150.3030     5.4412     5.5469   181.2567
  355.0000   151.3129     5.3906     5.5471   181.7495
  355.1000   152.3837     5.3907     5.5472   182.2423
  355.2000   153.4200     5.3631     5.5290   182.7391
  355.3000   154.3526     5.3534     5.5090   183.2278
  355.4000   154.8615     5.3406     5.5059   183.7205
  355.5000   155.6897     5.3054     5.4709   184.2614
  355.6000   156.3132     5.2427     5.4710   184.7059
  355.7000   156.8900     5.2428     5.4712   185.1988
  355.8000   157.4636     5.2428     5.4600   185.7837
  355.9000   158.1280     5.2298     5.4335   186.1842
  356.0000   158.3975     5.2065     5.4337   186.6769
  356.1000   158.8251     5.2066     5.4338   187.1695
  356.2000   159.1539     5.2067     5.4339   187.4857
  356.3000   159.3955     5.2067     5.4341   187.7344
  356.4000   159.6001     5.1933     5.4389   187.9830
  356.5000   159.5993     5.1706     5.4725   188.0770
  356.6000   159.5988     5.1707     5.5288   188.0815
  356.7000   159.4372     5.1708     5.5497   188.0860
  356.8000   159.0925     5.1709     5.5629   188.2232
  356.9000   158.6076     5.1709     5.5888   188.4718
  357.0000   158.0903     5.1643     5.5890   188.7205
  357.1000   157.1853     5.1351     5.6481   189.0799
  357.2000   156.3832     5.1069     5.6898   189.5727
  357.3000   155.7641     5.0996     5.7077   190.0655
  357.4000   155.1814     5.0855     5.7078   190.3801
  357.5000   154.1717     5.0642     5.7080   190.3846
  357.6000   153.4747     5.0643     5.7082   190.3891
  357.7000   152.5744     5.0360     5.7083   190.4608
  357.8000   151.4912     4.9869     5.7085   190.7095
  357.9000   150.2246     4.9596     5.7086   190.9581
  358.0000   148.7470     4.9597     5.7088   191.2068
  358.1000   146.8404     4.9592     5.7090   191.4554
  358.2000   144.9028     4.9316     5.6387   191.7040
  358.3000   143.3253     4.9254     5.5755   191.9994
  358.4000   142.2361     4.9254     5.5290   192.7361
  358.5000   141.5132     4.9255     5.4369   193.4728
  358.6000   141.2704     4.9256     5.3765   194.2110
  358.7000   141.2127     4.9257     5.3167   195.1918
  358.8000   141.3382     4.9258     5.2728   196.1726
  358.9000   141.6467     4.9258     5.2273   197.2357
  359.0000   142.1384     4.9342     5.1420   197.6872
  359.1000   142.8642     4.9604     5.1134   198.1799
  359.2000   143.7809     4.9605     5.1075   198.7579
  359.3000   144.6172     4.9606     5.0920   199.1655
  359.4000   145.4165     4.9606     5.0552   199.6583
  359.5000   146.3564     4.9607     5.0021   200.1510
  359.6000   146.9300     4.9608     5.0023   200.2835
  359.7000   147.1266     4.9609     5.0024   200.2881
  359.8000   147.2301     4.9610     5.0025   200.2926
  359.9000   147.2295     4.9771     5.0027   200.1390
  360.0000   147.2289     4.9958     5.0028   199.8994
  360.1000   147.2282     4.9959     5.0029   199.6599
  360.2000   147.2277     4.9960     5.0030   199.2841
  360.3000   147.0829     5.0196     5.0032   198.8005
  360.4000   146.9253     5.0310     5.0034   198.3169
  360.5000   146.8724     5.0311     5.0066   197.9475
  360.6000   146.3216     5.0312     5.0387   197.7079
  360.7000   146.3211     5.0313     5.0633   197.4683
  360.8000   146.3205     5.0314     5.0742   197.2287
  360.9000   146.2287     5.0314     5.0851   196.9892
  361.0000   146.0181     5.0315     5.1100   196.7497
  361.1000   146.3186     5.0316     5.1102   196.4396
  361.2000   146.3181     5.0316     5.1103   195.9559
  361.3000   146.3175     5.0317     5.1105   195.4721
  361.4000   146.4140     5.0318     5.1221   195.0372
  361.5000   146.6558     5.0318     5.1465   194.7976
  361.6000   146.9180     5.0319     5.1467   194.5581
  361.7000   146.9175     5.0320     5.1733   194.3185
  361.8000   146.9169     5.0321     5.2222   194.0790
  361.9000   146.9163     5.0322     5.2686   193.8394
  362.0000   146.9157     5.0322     5.2929   193.5950
  362.1000   146.9150     5.0366     5.2931   193.1112
  362.2000   146.9145     5.0676     5.3494   192.6275
  362.3000   146.7456     5.0934     5.3888   192.1104
  362.4000   146.5028     5.1412     5.4055   191.8874
  362.5000   146.2601     5.1871     5.4120   191.6479
  362.6000   146.0084     5.2163     5.4437   191.3703
  362.7000   145.7744     5.2479     5.5330   190.3475
  362.8000   145.5317     5.3026     5.5816   189.1314
  362.9000   145.2890     5.3421     5.6283   187.9152
  363.0000   144.9901     5.3852     5.6844   186.1487
  363.1000   144.4994     5.4459     5.7169   184.2007
  363.2000   143.0633     5.5109     5.7810   182.2526
  363.3000   141.6093     5.5401     5.8464   179.8193
  363.4000   140.5193     5.5931     5.8958   177.1383
  363.5000   139.9789     5.6419     5.9291   174.4573
  363.6000   139.9815     5.6737     5.9631   172.4762
  363.7000   140.2230     5.7070     6.0306   171.0164
  363.8000   140.8372     5.7687     6.0463   169.5566
  363.9000   141.5633     5.8105     6.0644   168.2146
  364.0000   142.4257     5.8432     6.0890   166.9989
  364.1000   143.6451     5.8833     6.0918   165.7831
  364.2000   145.0970     5.9514     6.1607   164.5671
  364.3000   146.5500     5.9841     6.2027   163.3509
  364.4000   148.0028     6.0177     6.2185   162.1347
  364.5000   149.2320     6.0680     6.2294   161.2154
  364.6000   149.9273     6.1282     6.2624   160.9758
  364.7000   150.2125     6.1631     6.2626   160.7363
  364.8000   150.4105     6.1632     6.2917   160.5490
  364.9000   150.5127     6.1633     6.3272   160.5535
