~VERSION INFORMATION
 VERS.                2.0:   CWLS LOG ASCII STANDARD - VERSION 2.0
 WRAP.                 NO:   ONE LINE PER DEPTH STEP
~WELL INFORMATION
#MNEM.UNIT      DATA TYPE    INFORMATION
#----------   ------------   ------------------------------
 STRT.F           28.0000:   START DEPTH
 STOP.F          468.0000:   STOP DEPTH
 STEP.F            0.5000:   STEP LENGTH
 NULL.          -999.2500:   NO VALUE
 COMP. FENIX & SCISSON INC:   COMPANY
 WELL. NAVAL PETROLEUM RESERVE 3 SX3F #35-3:   WELL
 FLD .             TEAPOT:   FIELD
 LOC .       S3 T38N R78W:   LOCATION
 CNTY.            NATRONA:   COUNTY
 STAT.            WYOMING:   STATE
 CTRY. UNITED STATES OF AMERICA:   COUNTRY
 SRVC.              Welex:   SERVICE COMPANY
 DATE.        07-JUL-1980:   LOGDATE
 API .       490251081700:   API NUMBER
~CURVE INFORMATION
#MNEM.UNIT       API CODE    CURVE DESCRIPTION
#----------   ------------   ------------------------------
 DEPT.F                  :   
 CORR.G/C3   45 356 01 00:   DENSITY CORRECTION
 RHOB.G/C3   45 350 01 00:   BULK DENSITY
 CALD.IN     45 280 60 00:   CALIPER
 GRD .GAPI   45 310 01 00:   GAMMA RAY FROM DENSITY LOG
 DPHI.DEC    45 890 12 00:   DENSITY POROSITY SANDSTONE
~PARAMETER INFORMATION
#MNEM.UNIT          VALUE    DESCRIPTION
#----------   ------------   ------------------------------
 PD  .                 GL:   PERMANENT DATUM
 EPD .F              5162:   ELEVATION PERMANENT DATUM
 LMF .                 KB:   LOG MEASURED FROM
 DAPD.F                 5:   FEET ABOVE PERMANENT DATUM
 DMF .                 KB:   DRILLING MEASURED FROM
 EKB .F              5167:   KELLING BUSHING
 EGL .F              5162:   GROUND LEVEL
 DATE.             7-7-80:   RUN DATE
 RUN .                  1:   RUN NUMBER
 DD  .F               470:   DEPTH DRILLER
 DL  .F               470:   DEPTH LOGGER
 BLI .F               468:   BOTTOM LOG INTERVAL
 TLI .F                30:   TOP LOG INTERVAL
 BS  .IN             6.25:   BIT SIZE
 BSD .F               470:   BIT SIZE AT DEPTH
 DFT .        ARI DRILLED:   DRILLING FLUID TYPE
 TCS .HRS             1.5:   TIME CURCULATED STOPPED
 MRT .F                74:   MAXIMUM RECORDED TEMPERATURE
 ENGI.            TOTHILL:   RECORDING ENGINEER
 WITN.             AMENDS:   WITNESSED BY
 CLNT.            A2DTECH:   CLIENT CODE
 ORIG.           5" PRINT:   ORIGIN OF DATA
 UWI .       490251081700:   UNIQUE WELL ID
 DICO. A2D Technologies, Inc.:   DIGITIZING COMPANY
~OTHER INFORMATION
~A   DEPT      CORR        RHOB       CALD       GRD        DPHI 
# ...
  150.0000     0.0564     2.4655     6.0716   114.3597     0.1267
  150.5000     0.0654     2.4695     6.0819   110.8262     0.1236
  151.0000     0.0754     2.4758     6.0920   109.7461     0.1197
  151.5000     0.0825     2.4804     6.1013   111.0014     0.1169
  152.0000     0.0784     2.4783     6.1012   110.5602     0.1199
  152.5000     0.0709     2.4696     6.0916   111.9354     0.1241
  153.0000     0.0699     2.4695     6.0785   112.0516     0.1254
  153.5000     0.0760     2.4655     6.0652   111.1462     0.1222
  154.0000     0.0701     2.4590     6.0520   111.9936     0.1292
  154.5000     0.0717     2.4557     6.0425   114.3866     0.1327
  155.0000     0.0772     2.4618     6.0621   115.3261     0.1262
  155.5000     0.0722     2.4572     6.0710   115.3227     0.1313
  156.0000     0.0654     2.4518     6.0804   117.0568     0.1347
  156.5000     0.0710     2.4597     6.0719   117.0909     0.1267
  157.0000     0.0851     2.4684     6.0549   116.1971     0.1225
  157.5000     0.0925     2.4715     6.0405   116.0105     0.1227
  158.0000     0.0976     2.4732     6.0752   116.1270     0.1197
  158.5000     0.1084     2.4807     6.1009   114.6557     0.1160
  159.0000     0.1201     2.4858     6.0855   114.3546     0.1122
  159.5000     0.1303     2.4871     6.0595   114.9775     0.1148
  160.0000     0.1244     2.4801     6.0371   115.8376     0.1157
  160.5000     0.1103     2.4730     6.0150   116.7574     0.1224
  161.0000     0.1015     2.4653     6.0040   117.3783     0.1258
  161.5000     0.0993     2.4652     6.0171   116.9881     0.1254
  162.0000     0.0972     2.4660     6.0297   115.7858     0.1274
  162.5000     0.0864     2.4618     6.0407   113.9172     0.1304
  163.0000     0.0742     2.4576     6.0405   113.9651     0.1319
  163.5000     0.0818     2.4576     6.0404   112.9767     0.1290
  164.0000     0.0943     2.4634     6.0404   113.0591     0.1258
  164.5000     0.0796     2.4625     6.0404   113.4891     0.1280
  165.0000     0.0724     2.4598     6.0404   113.9341     0.1303
  165.5000     0.0692     2.4568     6.0403   113.3997     0.1328
  166.0000     0.0587     2.4468     6.0408   112.6538     0.1381
  166.5000     0.0472     2.4367     6.0608   113.6128     0.1435
  167.0000     0.0377     2.4265     6.0823   114.7141     0.1485
  167.5000     0.0345     2.4218     6.1037   112.0101     0.1522
  168.0000     0.0357     2.4187     6.1212   111.9548     0.1547
  168.5000     0.0415     2.4139     6.1015   113.3283     0.1572
  169.0000     0.0541     2.4125     6.0818   114.8958     0.1597
  169.5000     0.0669     2.4081     6.0917   115.6250     0.1605
  170.0000     0.0900     2.4141     6.1017   113.4773     0.1561
  170.5000     0.1123     2.4287     6.0795   112.4876     0.1477
  171.0000     0.1176     2.4437     6.0518   113.3302     0.1396
  171.5000     0.1221     2.4430     6.0406   112.5395     0.1379
  172.0000     0.1269     2.4457     6.0404   113.4251     0.1382
  172.5000     0.1092     2.4382     6.0404   114.3296     0.1406
  173.0000     0.1001     2.4424     6.0404   113.1390     0.1401
  173.5000     0.1033     2.4499     6.0404   111.9113     0.1356
  174.0000     0.1069     2.4486     6.0404   113.8485     0.1345
  174.5000     0.1164     2.4551     6.0404   115.3868     0.1297
  175.0000     0.1188     2.4660     6.0404   114.0114     0.1258
  175.5000     0.1107     2.4596     6.0404   114.7546     0.1283
  176.0000     0.1068     2.4622     6.0403   116.2352     0.1267
  176.5000     0.1043     2.4666     6.0462   112.1170     0.1242
  177.0000     0.0911     2.4555     6.0556   113.2213     0.1327
  177.5000     0.0792     2.4548     6.0651   114.4720     0.1293
  178.0000     0.0937     2.4664     6.0746   113.9925     0.1254
  178.5000     0.1097     2.4655     6.0842   115.3202     0.1243
  179.0000     0.1094     2.4667     6.0936   114.7634     0.1250
  179.5000     0.1025     2.4606     6.0977   115.0922     0.1287
  180.0000     0.1034     2.4693     6.0787   114.3182     0.1227
  180.5000     0.1143     2.4787     6.0602   113.9153     0.1177
  181.0000     0.1147     2.4857     6.0417   114.8443     0.1145
  181.5000     0.1160     2.4853     6.0231   115.5304     0.1137
  182.0000     0.1238     2.4883     6.0221   115.3984     0.1124
  182.5000     0.1263     2.4880     6.0318   116.3882     0.1097
  183.0000     0.1097     2.4848     6.0413   117.2166     0.1157
  183.5000     0.1182     2.4896     6.0508   116.1028     0.1105
  184.0000     0.1081     2.4884     6.0603   115.4986     0.1093
  184.5000     0.0919     2.4814     6.0698   115.7279     0.1190
  185.0000     0.0764     2.4743     6.0793   115.9123     0.1212
  185.5000     0.0609     2.4736     6.0751   116.5782     0.1214
  186.0000     0.0647     2.4768     6.0618   117.3286     0.1190
  186.5000     0.0706     2.4729     6.0486   117.5669     0.1229
  187.0000     0.0745     2.4753     6.0353   115.8723     0.1220
  187.5000     0.0714     2.4666     6.0219   114.1666     0.1256
  188.0000     0.0623     2.4546     6.0273   112.4518     0.1306
  188.5000     0.0628     2.4533     6.0357   110.7359     0.1302
  189.0000     0.0673     2.4609     6.0442   110.4652     0.1278
  189.5000     0.0720     2.4539     6.0526   111.7993     0.1313
  190.0000     0.0683     2.4466     6.0610   113.3205     0.1366
  190.5000     0.0640     2.4393     6.0729   114.1159     0.1412
  191.0000     0.0628     2.4317     6.0847   113.4301     0.1458
  191.5000     0.0627     2.4239     6.0964   112.7520     0.1509
  192.0000     0.0650     2.4156     6.1081   112.0730     0.1559
  192.5000     0.0735     2.4163     6.1198   111.3907     0.1554
  193.0000     0.0820     2.4094     6.1192   110.9232     0.1612
  193.5000     0.0708     2.3923     6.1167   110.4835     0.1706
  194.0000     0.0579     2.3749     6.1143   109.2711     0.1800
  194.5000     0.0449     2.3573     6.1119   107.2589     0.1900
  195.0000     0.0524     2.3544     6.1095   108.0524     0.1911
  195.5000     0.0669     2.3576     6.1071   108.6073     0.1898
  196.0000     0.0686     2.3628     6.1047   108.6523     0.1868
  196.5000     0.0940     2.3828     6.1023   112.1250     0.1735
  197.0000     0.1000     2.4038     6.0998   116.3250     0.1591
  197.5000     0.0966     2.4091     6.0974   119.9665     0.1568
  198.0000     0.1015     2.4199     6.0950   120.2448     0.1520
  198.5000     0.1111     2.4343     6.0926   119.1608     0.1461
  199.0000     0.1207     2.4457     6.0902   118.0026     0.1364
  199.5000     0.1303     2.4574     6.0878   117.4110     0.1196
  200.0000     0.1398     2.4690     6.0854   118.4788     0.1180
  200.5000     0.1402     2.4767     6.0830   118.8470     0.1201
  201.0000     0.1380     2.4703     6.0801   119.0153     0.1230
  201.5000     0.1358     2.4717     6.0729   120.6863     0.1236
  202.0000     0.1269     2.4661     6.0657   123.4401     0.1246
  202.5000     0.1106     2.4668     6.0605   126.1746     0.1258
  203.0000     0.1045     2.4645     6.0627   126.5825     0.1273
  203.5000     0.1013     2.4608     6.0703   126.7309     0.1288
  204.0000     0.0973     2.4570     6.0778   126.9472     0.1303
  204.5000     0.0910     2.4530     6.0853   127.6988     0.1319
  205.0000     0.0838     2.4513     6.0928   129.0507     0.1336
  205.5000     0.0745     2.4495     6.1002   130.9911     0.1354
  206.0000     0.0646     2.4472     6.1010   132.8656     0.1372
  206.5000     0.0566     2.4424     6.1010   131.7136     0.1391
  207.0000     0.0482     2.4373     6.1010   129.2795     0.1420
  207.5000     0.0399     2.4321     6.1010   126.4097     0.1456
  208.0000     0.0354     2.4326     6.1010   123.7215     0.1460
  208.5000     0.0456     2.4452     6.1010   122.4918     0.1370
  209.0000     0.0557     2.4563     6.1010   121.3920     0.1306
  209.5000     0.0648     2.4547     6.1010   122.7290     0.1320
  210.0000     0.0566     2.4511     6.0976   124.6074     0.1336
  210.5000     0.0556     2.4582     6.0855   126.4697     0.1279
