~VERSION INFORMATION
 VERS.                2.0:   CWLS LOG ASCII STANDARD - VERSION 2.0
 WRAP.                 NO:   ONE LINE PER DEPTH STEP
~WELL INFORMATION
#MNEM.UNIT      DATA TYPE    INFORMATION
#----------   ------------   ------------------------------
 STRT.F         1378.5000:   START DEPTH
 STOP.F         2344.0000:   STOP DEPTH
 STEP.F            0.5000:   STEP LENGTH
 NULL.          -999.2500:   NO VALUE
 COMP. BROWN JOHN E&C INC:   COMPANY
 WELL. NAVAL PETROLEUM RESERVE 3 STX- #26-10:   WELL
 FLD .             TEAPOT:   FIELD
 LOC .      S10 T38N R78W:   LOCATION
 CNTY.            NATRONA:   COUNTY
 STAT.            WYOMING:   STATE
 CTRY. UNITED STATES OF AMERICA:   COUNTRY
 SRVC.            Unknown:   SERVICE COMPANY
 DATE.        22-MAY-1991:   LOGDATE
 API .       490251107400:   API NUMBER
~CURVE INFORMATION
#MNEM.UNIT       API CODE    CURVE DESCRIPTION
#----------   ------------   ------------------------------
 DEPT.F                  :   
 ROP .MIN/FT 91 810 01 00:   RATE OF DRILLING PENETRATION
 TGAS.UNITS  91 830 01 00:   TOTAL GAS FROM HOTWIRE
~PARAMETER INFORMATION
#MNEM.UNIT          VALUE    DESCRIPTION
#----------   ------------   ------------------------------
 EKB .F              5231:   KELLING BUSHING
 EGL .F              5221:   GROUND LEVEL
 DATE.            5-22-91:   RUN DATE
 DD  .F              2343:   DEPTH DRILLER
 BLI .F              2343:   BOTTOM LOG INTERVAL
 TLI .F              1378:   TOP LOG INTERVAL
 CS  .IN            8.625:   CASING SIZE
 CBD .F               709:   CASING BOTTOM DRILLER
 TCS .HRS            0030:   TIME CURCULATED STOPPED
 TLAB.HRS            0415:   TIME LOGGER AT BOTTOM
 ENGI.              TOWER:   RECORDING ENGINEER
 WITN.               HUSK:   WITNESSED BY
 CLNT.            A2DTECH:   CLIENT CODE
 ORIG.           5" PRINT:   ORIGIN OF DATA
 UWI .       490251107400:   UNIQUE WELL ID
 DICO. A2D Technologies, Inc.:   DIGITIZING COMPANY
~OTHER INFORMATION
~A  DEPT         ROP       TGAS 
# ...
 2229.0000     0.7173    48.7504
 2229.5000     0.7561    48.7761
 2230.0000     0.7965    48.8019
 2230.5000     0.7997    48.8277
 2231.0000     0.8031    48.8535
 2231.5000     0.8065    48.8792
 2232.0000     0.7860    48.9050
 2232.5000     0.7538    48.9308
 2233.0000     0.7322    48.9566
 2233.5000     0.6952    48.9823
 2234.0000     0.6675    49.0081
 2234.5000     0.6609    49.0339
 2235.0000     0.6461    49.0597
 2235.5000     0.6354    49.0854
 2236.0000     0.6247    49.1112
 2236.5000     0.6248    49.1370
 2237.0000     0.6249    49.1628
 2237.5000     0.6033    49.1885
 2238.0000     0.6035    49.2143
 2238.5000     0.5927    49.2401
 2239.0000     0.5712    49.2659
 2239.5000     0.5605    49.2917
 2240.0000     0.5606    49.3174
 2240.5000     0.5607    49.3432
 2241.0000     0.5608    49.3690
 2241.5000     0.5609    49.3948
 2242.0000     0.5610    49.4205
 2242.5000     0.5612    49.4463
 2243.0000     0.5721    49.4721
 2243.5000     0.5938    49.4979
 2244.0000     0.6264    49.5236
 2244.5000     0.7131    49.5494
 2245.0000     0.7349    49.5752
 2245.5000     0.7258    49.6010
 2246.0000     0.6377    49.6267
 2246.5000     0.5837    49.6525
 2247.0000     0.5981    49.6783
 2247.5000     0.6332    49.7041
 2248.0000     0.6762    49.7298
 2248.5000     0.6852    49.7556
 2249.0000     0.6491    49.7814
 2249.5000     0.6060    49.8072
 2250.0000     0.5628    49.8329
 2250.5000     0.5232    49.8240
 2251.0000     0.4656    49.7826
 2251.5000     0.4320    49.7413
 2252.0000     0.3900    49.6999
 2252.5000     0.5217    49.6585
 2253.0000     0.6674    49.6171
 2253.5000     0.8132    49.5758
 2254.0000     0.9632    49.5344
 2254.5000     0.9556    49.4930
 2255.0000     0.9477    49.4516
 2255.5000     0.9293    49.4103
 2256.0000     0.8718    49.3689
 2256.5000     0.8144    49.3275
 2257.0000     0.7569    49.2861
 2257.5000     0.6995    49.2448
 2258.0000     0.6420    49.2034
 2258.5000     0.6384    49.1620
 2259.0000     0.7403    49.1206
 2259.5000     0.8421    49.0793
 2260.0000     0.9307    49.0379
 2260.5000     0.9307    48.9965
 2261.0000     0.9307    48.9551
 2261.5000     0.8121    48.9138
 2262.0000     0.8139    48.8724
 2262.5000     0.8158    48.8310
 2263.0000     0.8176    48.7896
 2263.5000     0.8195    48.7483
 2264.0000     0.8213    54.5455
 2264.5000     0.7934    58.7150
 2265.0000     0.7149    82.6896
 2265.5000     0.6364   148.8179
 2266.0000     0.5579   307.3427
 2266.5000     0.5123   325.1748
 2267.0000     0.5736   327.7356
 2267.5000     0.6117   329.8127
 2268.0000     0.6494   331.4685
 2268.5000     0.6385   332.5175
 2269.0000     0.6162   332.5175
 2269.5000     0.5736   332.5175
 2270.0000     0.5195   332.5175
 2270.5000     0.4870   332.5175
 2271.0000     0.5011   332.5175
 2271.5000     0.5630   332.5175
 2272.0000     0.5844   332.5175
 2272.5000     0.6081   332.5175
 2273.0000     0.6214   333.5664
 2273.5000     0.6277   334.6154
 2274.0000     0.6277   334.6154
 2274.5000     0.6277   334.6154
 2275.0000     0.6277   334.6154
 2275.5000     0.6476   333.5664
 2276.0000     0.6710   333.5664
 2276.5000     0.7024   333.5664
 2277.0000     0.7359   333.5664
 2277.5000     0.7661   333.5664
 2278.0000     0.8009   334.6154
 2278.5000     0.8102   335.6643
 2279.0000     0.8052   335.6643
 2279.5000     0.8009   334.6154
 2280.0000     0.7786   334.6154
 2280.5000     0.7359   333.5664
 2281.0000     0.6926   333.5664
 2281.5000     0.6704   334.6154
 2282.0000     0.6277   334.6154
 2282.5000     0.6098   334.3119
 2283.0000     0.5888   333.5664
 2283.5000     0.5677   332.5175
 2284.0000     0.5628   330.8421
 2284.5000     0.5852   328.9862
 2285.0000     0.6277   328.1794
 2285.5000     0.6385   326.2238
 2286.0000     0.6494   325.1748
 2286.5000     0.6385   324.1259
 2287.0000     0.6494   323.0769
 2287.5000     0.6431   322.0280
 2288.0000     0.6277   320.9790
 2288.5000     0.6494   319.3839
 2289.0000     0.6710   317.5278
 2289.5000     0.6926   315.6718
 2290.0000     0.7194   312.5874
 2290.5000     0.7359   311.5385
 2291.0000     0.7359   310.1045
 2291.5000     0.7359   308.3916
 2292.0000     0.7359   307.3427
 2292.5000     0.7143   306.2937
 2293.0000     0.6989   303.7298
 2293.5000     0.6602   302.6990
 2294.0000     0.6226   300.0000
 2294.5000     0.5844   296.8531
 2295.0000     0.5519   294.2081
 2295.5000     0.5195   292.3521
 2296.0000     0.4978   290.4343
 2296.5000     0.4978   286.3636
 2297.0000     0.4978   285.1082
 2297.5000     0.4978   282.8309
 2298.0000     0.4870   278.8770
 2298.5000     0.4762   276.9231
 2299.0000     0.4802   273.7762
 2299.5000     0.4870   271.2114
 2300.0000     0.4870   268.0818
 2300.5000     0.4889   264.3357
 2301.0000     0.4918   260.1399
 2301.5000     0.4946   255.8978
 2302.0000     0.4974   251.8806
 2302.5000     0.5003   248.4110
 2303.0000     0.5031   244.4056
 2303.5000     0.5060   241.0504
 2304.0000     0.5088   237.3383
 2304.5000     0.5116   233.6262
 2305.0000     0.5145   229.7203
 2305.5000     0.5173   225.5245
 2306.0000     0.5202   222.9592
 2306.5000     0.5230   220.0542
 2307.0000     0.5258   218.1818
 2307.5000     0.5287   215.0350
 2308.0000     0.5315   211.8401
 2308.5000     0.5344   209.1773
 2309.0000     0.5372   206.6434
 2309.5000     0.5400   206.6434
 2310.0000     0.5264   206.6434
 2310.5000     0.5026   206.6434
 2311.0000     0.4788   206.6434
 2311.5000     0.4550   205.5944
 2312.0000     0.4329   205.5944
 2312.5000     0.5195   204.5455
 2313.0000     0.6002   204.3190
 2313.5000     0.6808   203.4965
 2314.0000     0.7468   203.4965
 2314.5000     0.7359   203.4965
 2315.0000     0.6899   203.4965
 2315.5000     0.6277   203.4965
 2316.0000     0.5195   203.4965
 2316.5000     0.5359   203.4965
 2317.0000     0.5736   203.8845
 2317.5000     0.6277   204.5455
 2318.0000     0.6385   205.5944
 2318.5000     0.6385   205.5944
 2319.0000     0.6419   206.6434
 2319.5000     0.6468   207.9197
 2320.0000     0.6517   209.7902
 2320.5000     0.6566   210.8392
 2321.0000     0.6614   214.0367
 2321.5000     0.6663   217.7488
 2322.0000     0.6795   222.5099
 2322.5000     0.7468   227.6224
 2323.0000     0.7359   229.9333
 2323.5000     0.7386   232.5961
 2324.0000     0.7468   236.1609
 2324.5000     0.7143   238.1119
 2325.0000     0.6818   239.1608
 2325.5000     0.6494   240.2098
 2326.0000     0.6318   240.2098
 2326.5000     0.6104   240.2098
 2327.0000     0.5952   241.2587
 2327.5000     0.6169   242.8584
 2328.0000     0.6277   243.6655
 2328.5000     0.6277   244.4056
 2329.0000     0.6494   244.4056
 2329.5000     0.6748   244.4056
 2330.0000     0.6926   244.4056
 2330.5000     0.7035   244.4056
 2331.0000     0.7035   244.4056
 2331.5000     0.7003   243.3566
 2332.0000     0.6926   243.3566
 2332.5000     0.6710   243.3566
 2333.0000     0.6608   243.3566
 2333.5000     0.6277   242.3077
 2334.0000     0.6045   242.3077
 2334.5000     0.5628   241.9985
 2335.0000     0.5285   241.2587
 2335.5000     0.4762   241.2587
 2336.0000     0.4113   241.2587
 2336.5000     0.3896   240.8683
 2337.0000     0.4113   240.2098
 2337.5000     0.4437   240.2098
 2338.0000     0.5195   240.2098
 2338.5000     0.6169   240.2098
 2339.0000     0.6514   240.2098
 2339.5000     0.6710   240.2098
 2340.0000     0.6960   239.1608
 2340.5000     0.7143   237.5598
 2341.0000     0.7168   236.7529
 2341.5000     0.7228   236.0140
 2342.0000     0.7209   236.0140
 2342.5000     0.7118   236.6472
 2343.0000     0.7027   238.5032
 2343.5000     0.6926  -999.2500
 2344.0000     0.6621  -999.2500
