~VERSION INFORMATION
 VERS.                2.0:   CWLS LOG ASCII STANDARD - VERSION 2.0
 WRAP.                 NO:   ONE LINE PER DEPTH STEP
~WELL INFORMATION
#MNEM.UNIT      DATA TYPE    INFORMATION
#----------   ------------   ------------------------------
 STRT.F          534.0000:   START DEPTH
 STOP.F         1820.0000:   STOP DEPTH
 STEP.F            0.5000:   STEP LENGTH
 NULL.          -999.2500:   NO VALUE
 COMP.   FLUOR DANIEL INC:   COMPANY
 WELL. NAVAL PETROLEUM RESERVE 3 X-29 #45-29:   WELL
 FLD .             TEAPOT:   FIELD
 LOC .      S29 T39N R78W:   LOCATION
 CNTY.            NATRONA:   COUNTY
 STAT.            WYOMING:   STATE
 CTRY. UNITED STATES OF AMERICA:   COUNTRY
 SRVC.            Unknown:   SERVICE COMPANY
 DATE.        30-SEP-1994:   LOGDATE
 API .       490252265100:   API NUMBER
~CURVE INFORMATION
#MNEM.UNIT       API CODE    CURVE DESCRIPTION
#----------   ------------   ------------------------------
 DEPT.F                  :   
 ROP .FT/HR  91 810 01 00:   RAT OF DRILLING PENETRATION
 TGAS.TC/CC  91 830 01 00:   TOTAL GAS UNIT
~PARAMETER INFORMATION
#MNEM.UNIT          VALUE    DESCRIPTION
#----------   ------------   ------------------------------
 EKB .F              5023:   KELLING BUSHING
 EGL .F              5013:   GROUND LEVEL
 DATE.        30-SEP-1994:   RUN DATE
 RUN .                  1:   RUN NUMBER
 BLI .F              1820:   BOTTOM LOG INTERVAL
 TLI .F               540:   TOP LOG INTERVAL
 WITN.     C.TOWER/R.HUSK:   WITNESSED BY
 CLNT.            A2DTECH:   CLIENT CODE
 ORIG.           5" PRINT:   ORIGIN OF DATA
 UWI .       490252265100:   UNIQUE WELL ID
 DICO. A2D Technologies, Inc.:   DIGITIZING COMPANY
~OTHER INFORMATION
~A   DEPT        ROP       TGAS 
# ...
 1141.5000     0.4193     4.7444
 1142.0000     0.4184     5.3051
 1142.5000     0.4176     6.2440
 1143.0000     0.4262     6.9939
 1143.5000     0.4252     7.5662
 1144.0000     0.4149     7.7372
 1144.5000     0.4142     7.5400
 1145.0000     0.4133     6.3991
 1145.5000     0.4219     5.6363
 1146.0000     0.4211     4.8735
 1146.5000     0.4202     4.6780
 1147.0000     0.4194     4.6715
 1147.5000     0.4184     4.6650
 1148.0000     0.4177     4.6585
 1148.5000     0.4169     4.4630
 1149.0000     0.4160     4.6456
 1149.5000     0.4151     4.8282
 1150.0000     0.4096     4.6324
 1150.5000     0.4040     4.6245
 1151.0000     0.4125     4.6180
 1151.5000     0.4116     4.4225
 1152.0000     0.4204     4.0379
 1152.5000     0.4288     4.0314
 1153.0000     0.4469     4.0249
 1153.5000     0.4743     4.0184
 1154.0000     0.5111     4.0119
 1154.5000     0.5101     4.0056
 1155.0000     0.4999     3.9989
 1155.5000     0.4990     3.9923
 1156.0000     0.5078     3.7953
 1156.5000     0.5068     3.7888
 1157.0000     0.5060     3.5933
 1157.5000     0.5209     3.5868
 1158.0000     0.5326     3.5803
 1158.5000     0.5316     3.7645
 1159.0000     0.5308     3.7564
 1159.5000     0.5205     3.9390
 1160.0000     0.5197     3.9326
 1160.5000     0.5189     3.9261
 1161.0000     0.5181     3.7305
 1161.5000     0.5267     3.5348
 1162.0000     0.5256     3.5269
 1162.5000     0.5248     3.7095
 1163.0000     0.5146     3.8937
 1163.5000     0.5138     4.0747
 1164.0000     0.5035     4.2580
 1164.5000     0.4933     4.2502
 1165.0000     0.4925     4.0552
 1165.5000     0.4822     3.8600
 1166.0000     0.4812     3.8532
 1166.5000     0.4900     3.6576
 1167.0000     0.4890     3.4512
 1167.5000     0.4882     3.0772
 1168.0000     0.4873     3.0693
 1168.5000     0.4865     3.2530
 1169.0000     0.4857     3.4361
 1169.5000     0.4847     3.4280
 1170.0000     0.4840     3.4216
 1170.5000     0.4830     3.0369
 1171.0000     0.4823     3.0305
 1171.5000     0.4815     3.0240
 1172.0000     0.4806     2.8284
 1172.5000     0.4798     3.0110
 1173.0000     0.4789     3.0044
 1173.5000     0.4779     2.9978
 1174.0000     0.4772     3.3681
 1174.5000     0.4764     3.3627
 1175.0000     0.4754     3.3561
 1175.5000     0.4746     3.3495
 1176.0000     0.4738     3.3429
 1176.5000     0.4763     3.3362
 1177.0000     0.4816     3.3292
 1177.5000     0.4900     3.1337
 1178.0000     0.4893     3.1272
 1178.5000     0.4883     3.3098
 1179.0000     0.4969     3.3032
 1179.5000     0.4961     3.2622
 1180.0000     0.4953     3.0997
 1180.5000     0.5039     3.0932
 1181.0000     0.5029     3.0867
 1181.5000     0.5117     3.2709
 1182.0000     0.5167     3.2628
 1182.5000     0.5194     3.2563
 1183.0000     0.4996     3.0608
 1183.5000     0.4988     2.8652
 1184.0000     0.4979     3.0478
 1184.5000     0.4971     3.2304
 1185.0000     0.4962     3.2237
 1185.5000     0.4953     3.2158
 1186.0000     0.4944     3.3996
 1186.5000     0.4937     3.3930
 1187.0000     0.4928     3.5762
 1187.5000     0.4920     3.5681
 1188.0000     0.4912     3.3725
 1188.5000     0.5278     3.3660
 1189.0000     0.5552     3.5502
 1189.5000     0.5640     3.5421
 1190.0000     0.5536     3.5357
 1190.5000     0.5528     3.3302
 1191.0000     0.5520     3.1443
 1191.5000     0.5511     3.3271
 1192.0000     0.5503     3.3190
 1192.5000     0.5493     3.3126
 1193.0000     0.5485     3.4968
 1193.5000     0.5477     3.4887
 1194.0000     0.5374     3.4822
 1194.5000     0.5366     3.4757
 1195.0000     0.5358     3.4692
 1195.5000     0.5349     3.6520
 1196.0000     0.5341     3.6454
 1196.5000     0.5331     3.6388
 1197.0000     0.5372     3.6025
 1197.5000     0.5411     3.4352
 1198.0000     0.5401     3.4287
 1198.5000     0.5393     3.4223
 1199.0000     0.5384     3.4158
 1199.5000     0.5374     3.4093
 1200.0000     0.5367     3.0241
 1200.5000     0.5362     2.8286
 1201.0000     0.5356     2.4440
 1201.5000     0.5351     2.4375
 1202.0000     0.5345     2.4443
 1202.5000     0.5340     2.4518
 1203.0000     0.5334     2.4594
 1203.5000     0.5328     2.4669
 1204.0000     0.5323     2.4745
 1204.5000     0.5317     2.4820
 1205.0000     0.5312     2.4896
 1205.5000     0.5306     2.4972
 1206.0000     0.5300     2.5047
 1206.5000     0.5295     2.5123
 1207.0000     0.5289     2.5198
 1207.5000     0.5284     2.5274
 1208.0000     0.5278     2.5349
 1208.5000     0.5273     2.5425
 1209.0000     0.5267     2.5500
 1209.5000     0.5261     2.5576
 1210.0000     0.5256     2.5651
 1210.5000     0.5250     2.5727
 1211.0000     0.5245     2.5802
 1211.5000     0.5239     2.5878
 1212.0000     0.5233     2.5953
 1212.5000     0.5228     2.6029
 1213.0000     0.5222     2.6104
 1213.5000     0.5217     2.6180
 1214.0000     0.5211     2.6255
 1214.5000     0.5206     2.6331
 1215.0000     0.5200     2.6406
 1215.5000     0.5194     2.6482
 1216.0000     0.5189     2.6557
 1216.5000     0.5183     2.6633
 1217.0000     0.5178     2.6708
 1217.5000     0.5172     2.6784
 1218.0000     0.5166     2.6859
 1218.5000     0.5161     2.6935
 1219.0000     0.5155     2.7010
 1219.5000     0.5150     2.7086
 1220.0000     0.5144     2.7161
 1220.5000     0.5048     2.7237
 1221.0000     0.4956     2.7312
 1221.5000     0.4836     2.7398
 1222.0000     0.4676     2.5442
 1222.5000     0.4585     2.7285
 1223.0000     0.4589     2.7204
 1223.5000     0.4593     2.9033
 1224.0000     0.4597     2.8965
 1224.5000     0.4601     2.7009
 1225.0000     0.4606     2.6943
 1225.5000     0.4610     2.8771
 1226.0000     0.4614     2.8690
 1226.5000     0.4618     2.8965
 1227.0000     0.4622     3.2358
 1227.5000     0.4626     3.2277
 1228.0000     0.4631     3.2218
 1228.5000     0.4635     3.0257
 1229.0000     0.4639     2.8305
 1229.5000     0.4643     3.0122
 1230.0000     0.4647     3.0063
 1230.5000     0.4652     2.9992
 1231.0000     0.4656     3.0190
 1231.5000     0.4660     3.0402
 1232.0000     0.4664     3.0614
 1232.5000     0.4668     3.0826
 1233.0000     0.4673     3.1038
 1233.5000     0.4677     3.1251
 1234.0000     0.4681     3.1463
 1234.5000     0.4685     3.1675
 1235.0000     0.4689     3.1887
 1235.5000     0.4694     3.2099
 1236.0000     0.4698     3.2311
 1236.5000     0.4702     3.2523
 1237.0000     0.4706     3.2735
 1237.5000     0.4710     3.2947
 1238.0000     0.4715     3.3159
 1238.5000     0.4719     3.3372
 1239.0000     0.4723     3.3584
 1239.5000     0.4727     3.3796
 1240.0000     0.4731     3.4008
 1240.5000     0.4736     3.4220
 1241.0000     0.4740     3.2393
 1241.5000     0.4744     3.4219
 1242.0000     0.4748     3.4138
 1242.5000     0.4752     3.4073
 1243.0000     0.4757     3.4008
 1243.5000     0.4761     3.7725
 1244.0000     0.4765     3.5769
 1244.5000     0.4769     3.3814
 1245.0000     0.4773     3.3749
 1245.5000     0.4778     3.5575
 1246.0000     0.4782     3.5269
 1246.5000     0.4786     3.1648
 1247.0000     0.4790     2.9693
 1247.5000     0.4794     2.7737
 1248.0000     0.4798     2.3891
 1248.5000     0.4803     2.5733
 1249.0000     0.4807     2.5652
 1249.5000     0.4811     2.5591
 1250.0000     0.4815     2.5523
 1250.5000     0.4819     2.5458
 1251.0000     0.4824     2.3502
 1251.5000     0.4828     2.3436
 1252.0000     0.4832     2.3357
 1252.5000     0.4836     2.5183
 1253.0000     0.4840     2.5118
 1253.5000     0.4845     2.5053
 1254.0000     0.4849     2.3098
 1254.5000     0.4853     2.3033
 1255.0000     0.4857     2.2968
 1255.5000     0.4861     2.2903
 1256.0000     0.4866     2.3038
 1256.5000     0.4962     2.3251
 1257.0000     0.4869     2.3465
 1257.5000     0.4871     2.3678
 1258.0000     0.4872     2.3891
 1258.5000     0.4779     2.4104
 1259.0000     0.4757     2.4317
 1259.5000     0.4593     2.4531
 1260.0000     0.4595     2.4744
 1260.5000     0.4597     2.4957
 1261.0000     0.4598     2.5170
 1261.5000     0.4599     2.5384
 1262.0000     0.4601     2.5597
 1262.5000     0.4602     2.5810
