~VERSION INFORMATION
 VERS.                2.0:   CWLS LOG ASCII STANDARD - VERSION 2.0
 WRAP.                 NO:   ONE LINE PER DEPTH STEP
~WELL INFORMATION
#MNEM.UNIT      DATA TYPE    INFORMATION
#----------   ------------   ------------------------------
 STRT.F           40.0000:   START DEPTH
 STOP.F         3444.0000:   STOP DEPTH
 STEP.F            0.5000:   STEP LENGTH
 NULL.          -999.2500:   NO VALUE
 COMP.    FENIX & SCISSON:   COMPANY
 WELL.     13-A-10 #13-10:   WELL
 FLD .            WILDCAT:   FIELD
 LOC .      S10 T38N R78W:   LOCATION
 CNTY.            NATRONA:   COUNTY
 STAT.            WYOMING:   STATE
 CTRY. UNITED STATES OF AMERICA:   COUNTRY
 SRVC.       Schlumberger:   SERVICE COMPANY
 DATE.        08-JUL-1970:   LOGDATE
 API .       490251090300:   API NUMBER
~CURVE INFORMATION
#MNEM.UNIT       API CODE    CURVE DESCRIPTION
#----------   ------------   ------------------------------
 DEPT.F                  :   
 ASN .OHMM   05 041 16 00:   AMPLIFIED SHORT NORMAL 16"
 CILD.MMHO   05 110 46 00:   CONDUCTIVITY INDUCTION LOG DEEP
 ILD .OHMM   05 120 46 00:   INDUCTION LOG DEEP
 SPR .MV     05 010 01 00:   SPONTANEOUS POTENTIAL FROM RES.
 CALD.IN     45 280 60 00:   CALIPER FROM DENSITY
 CORR.G/C3   45 356 01 00:   DENSITY CORRECTION
 DPHI.DEC    45 890 12 00:   DENSITY POROSITY SANDSTONE
 RHOB.G/C3   45 350 01 00:   BULK DENSITY
~PARAMETER INFORMATION
#MNEM.UNIT          VALUE    DESCRIPTION
#----------   ------------   ------------------------------
 PD  .                 GL:   PERMANENT DATUM
 EPD .F              5295:   ELEVATION PERMANENT DATUM
 LMF .                 KB:   LOG MEASURED FROM
 DAPD.F                10:   FEET ABOVE PERMANENT DATUM
 DMF .                 KB:   DRILLING MEASURED FROM
 EKB .F              5305:   KELLING BUSHING
 EGL .F              5295:   GROUND LEVEL
 DATE.        08-JUL-1970:   RUN DATE
 RUN .                  3:   RUN NUMBER
 DD  .F              3450:   DEPTH DRILLER
 DL  .F              3444:   DEPTH LOGGER
 BLI .F              3443:   BOTTOM LOG INTERVAL
 TLI .F              2950:   TOP LOG INTERVAL
 CS  .IN            10.75:   CASING SIZE
 CBD .F               842:   CASING BOTTOM DRILLER
 BS  .IN                9:   BIT SIZE
 BSD .F              3450:   BIT SIZE AT DEPTH
 DFT .      FRESH GEL MUD:   DRILLING FLUID TYPE
 DFD .               10.4:   DRILLING FLUID DENSITY
 DFV .                 43:   DRILLING FLUID VISCOSITY
 DFPH.                7.6:   DRILLING FLUID PH
 DFL .                  8:   DRILLING FLUID LOSS
 MSS .           FLOWLINE:   MUD SAMPLE SOURCE
 RMS .OHMM              2:   RESISTIVITY MUD SAMPLE
 MST .F                85:   MUD SAMPLE TEMPERATURE
 RMF .OHMM            1.6:   RESISTIVITY MUD FILTRATE SAMPLE
 MFST.F                85:   MUD FILTRATE SAMPLE TEMPERATURE
 MFSS.               MEAS:   MUD FILTRATE SAMPLE SOURCE
 RMB .OHMM           1.49:   RESISTIVITY MUD AT BHT
 BHT .F               114:   BOTTOM HOLE TEMPERATURE
 TCS .HRS               3:   TIME CURCULATED STOPPED
 MRT .F               114:   MAXIMUM RECORDED TEMPERATURE
 LUN .               4507:   LOGGING UNIT NUMBER
 LUL .               CSPR:   LOGGING UNIT LOCATION
 ENGI.             TURNER:   RECORDING ENGINEER
 WITN.                MAY:   WITNESSED BY
 CLNT.            A2DTECH:   CLIENT CODE
 ORIG.     2.5", 5" PRINT:   ORIGIN OF DATA
 UWI .       490251090300:   UNIQUE WELL ID
 DICO. A2D Technologies, Inc.:   DIGITIZING COMPANY
~OTHER INFORMATION
~A   DEPT        ASN      CILD         ILD      SPR       CALD       CORR       DPHI       RHOB   
# ...
 3401.5000    15.2205    90.7231    11.1847   -41.7071     8.9052     0.0864     0.1650     2.3887
 3402.0000    15.3687    89.7141    11.1818   -44.7740     8.9048     0.0481     0.1795     2.3706
 3402.5000    15.2183    88.8144    11.3284   -46.7857     8.9195     0.0263     0.1690     2.3473
 3403.0000    15.0679    90.1087    11.3251   -46.7976     8.9190     0.0781     0.1354     2.3977
 3403.5000    15.0034    90.9821    11.1730   -46.5119     8.9336     0.0744     0.1444     2.4189
 3404.0000    14.7671    91.2096    11.0208   -46.5238     8.9331     0.0796     0.1523     2.4060
 3404.5000    14.6166    94.0178    10.8686   -46.5357     8.9478     0.0511     0.1481     2.4054
 3405.0000    14.4663    97.2713    10.7164   -46.7163     8.9472     0.0654     0.1670     2.3736
 3405.5000    14.4652    98.8156    10.5642   -47.8035     8.9468     0.0676     0.1677     2.3834
 3406.0000    14.3149   100.3569    10.4120   -49.5499     8.8259     0.0481     0.1872     2.3495
 3406.5000    14.1646   103.0655    10.4005   -50.7521     8.7953     0.0294     0.1941     2.3322
 3407.0000    14.1634   104.5834    10.2567   -51.6568     8.8703     0.0106     0.1935     2.3285
 3407.5000    14.1623   103.1213    10.1044   -52.5614     8.9171     0.0144     0.2020     2.3260
 3408.0000    14.1015   103.1547    10.0796   -53.1684     8.9446     0.0294     0.1887     2.3393
 3408.5000    13.9349   103.1845     9.9228   -53.7754     8.9591     0.0159     0.2017     2.3149
 3409.0000    13.7110   103.6604     9.7970   -54.3824     8.9739     0.0129     0.2140     2.3006
 3409.5000    13.5607   106.2203     9.6096   -54.6918     8.9885     0.0148     0.2069     2.3187
 3410.0000    13.2611   108.2336     9.4527   -54.7036     9.0030     0.0505     0.1894     2.3465
 3410.5000    13.1108   111.2655     9.1911   -54.7153     9.0026     0.0550     0.1813     2.3480
 3411.0000    12.8036   114.2954     9.1394   -54.4286     9.0021     0.0234     0.2069     2.3246
 3411.5000    12.6373   115.2679     8.8866   -53.8460     9.0016     0.0069     0.2177     2.2976
 3412.0000    12.4706   116.7857     8.8836   -52.9649     9.0011     0.0227     0.1961     2.3280
 3412.5000    12.3601   118.3036     8.8806   -52.3814     9.0007     0.0317     0.1895     2.3427
 3413.0000    12.3590   117.6882     8.8776   -51.7980     9.0003     0.0216     0.1919     2.3374
 3413.5000    12.2084   117.5444     8.8746   -51.2145     8.9998     0.0145     0.1983     2.3216
 3414.0000    12.2073   118.3929     8.8716   -50.6310     8.9994     0.0092     0.1952     2.3306
 3414.5000    12.2062   118.4226     8.8686   -50.3423     8.9990     0.0040     0.2013     2.3253
 3415.0000    12.0559   118.4524     8.7164   -49.7617     9.0136     0.0325     0.1977     2.3213
 3415.5000    11.9019   118.4821     8.7128   -49.4759     9.0282     0.0340     0.1848     2.3442
 3416.0000    11.7354   118.5119     8.5606   -49.4876     9.0428     0.0205     0.1875     2.3531
 3416.5000    11.4556   118.5417     8.5577   -49.1718     9.0423     0.0168     0.1989     2.3306
 3417.0000    11.2530   120.0595     8.4055   -48.9159     9.0419     0.0144     0.2067     2.3155
 3417.5000    11.0864   120.9572     8.4026   -48.8839     9.0414     0.0063     0.2130     2.2997
 3418.0000    10.9199   121.6130     8.2504   -48.5914     9.0410     0.0153     0.2032     2.3095
 3418.5000    10.8539   123.1307     8.2474   -48.2986     9.0404     0.0115     0.2056     2.3185
 3419.0000    10.8529   124.6483     8.0952   -47.6428     9.0400    -0.0005     0.2086     2.3100
 3419.5000    10.8518   126.1659     8.0923   -46.3050     9.0396     0.0116     0.1984     2.3245
 3420.0000    11.0000   126.1954     8.0894   -45.0399     9.0391     0.0102     0.2026     2.3275
 3420.5000    11.1482   127.7130     8.0864   -44.8316     9.0387     0.0101     0.1861     2.3523
 3421.0000    11.1470   127.7425     7.9342   -44.8452     9.0383     0.0386     0.1684     2.3726
 3421.5000    11.0490   127.7720     7.9313   -44.4593     9.0378     0.0086     0.1781     2.3523
 3422.0000    10.7169   127.8016     7.9283   -44.1668     9.0373     0.0093     0.1970     2.3275
 3422.5000    10.3974   128.1998     7.9254   -43.6882     9.0368     0.0139     0.2012     2.3271
 3423.0000    10.2468   127.8571     7.9224   -42.9861     9.0516     0.0176     0.1937     2.3350
 3423.5000    10.3950   124.9139     7.9194   -41.8419     9.0661     0.0011     0.1976     2.3257
 3424.0000    10.8417   121.9672     8.0973   -39.7782     9.1259     0.0004     0.1985     2.3305
 3424.5000    11.4377   117.5325     8.7005   -36.6506     9.2008     0.0087     0.1959     2.3282
 3425.0000    12.2327   111.6096     9.3035   -32.5893     9.2304     0.0211     0.1802     2.3523
 3425.5000    13.5758   105.6867     9.9064   -29.4348     9.2451     0.0259     0.1791     2.3635
 3426.0000    15.9265    99.7639    10.5095   -27.2145     9.2445     0.0357     0.1755     2.3545
 3426.5000    17.3760    93.8410    11.0741   -25.1219     9.2441     0.0304     0.1412     2.3943
 3427.0000    17.7007    87.9181    11.5235   -22.8532     9.2587     0.0507     0.1046     2.4275
 3427.5000    17.2517    83.4834    11.8708   -22.9784     9.2884     0.1581     0.0400     2.5809
 3428.0000    16.6536    80.5367    12.0722   -23.8831     9.2705     0.1258     0.0745     2.5402
 3428.5000    15.6078    83.5424    12.0124   -25.3829     9.0466     0.0860     0.0643     2.5342
 3429.0000    13.8156    88.0362    11.4966   -27.1804     9.0309     0.1236     0.0589     2.5499
 3429.5000    12.1465    92.5300    10.5892   -29.5731     9.0155     0.0688     0.1008     2.5153
 3430.0000    11.2264    98.5119     9.8308   -31.3706     9.0150     0.0177     0.1642     2.3725
 3430.5000    10.8273   104.5438     9.2219   -34.9538     9.0297     0.0155     0.1852     2.3499
 3431.0000    10.6197   110.5260     8.8409   -37.6442     9.0292     0.0342     0.1807     2.3514
 3431.5000    10.3261   113.6315     8.4687   -42.1202     9.0288     0.0283     0.1852     2.3514
 3432.0000     9.9878   118.1726     8.1672   -44.8105     9.0282     0.0132     0.1913     2.3454
 3432.5000     9.9271   122.5947     7.8651   -45.4175     9.0278     0.0129     0.2003     2.3266
 3433.0000     9.8365   125.7726     7.8622   -46.0246     9.0425    -0.0025     0.2084     2.3115
 3433.5000     9.6563   130.1445     7.7100   -46.3339     9.0420     0.0080     0.2111     2.3063
 3434.0000     9.1654   133.1741     7.7070   -46.6433     9.0567     0.0125     0.1823     2.3266
 3434.5000     8.7800   136.2062     7.5548   -46.6551     9.0562     0.0148     0.1742     2.3664
 3435.0000     8.6754   135.7641     7.5519   -46.3690     9.0557     0.0170     0.1884     2.3463
 3435.5000     8.3829   133.0628     7.5490   -46.0833     9.0552     0.0208     0.1974     2.3273
 3436.0000     7.9393   133.0952     7.3968   -45.4959     9.0547     0.0193     0.1992     2.3243
 3436.5000     7.6406   134.9353     7.2446   -44.5864     9.0543     0.0176     0.1941     2.3355
 3437.0000     7.4692   137.9665     7.2416   -42.4947     9.0539     0.0148     0.1722     2.3671
 3437.5000     7.3786   140.6250     7.2387   -40.0551     9.0686     0.0238     0.1629     2.3851
 3438.0000     7.3477   140.6547     7.2357   -37.0238     9.0681     0.0253     0.1608     2.3851
 3438.5000     7.3767   140.6845     7.2328   -33.7595     9.0827     0.0208     0.1614     2.3874
 3439.0000     7.4385   140.7143     7.2299   -31.1034     9.1123     0.0359     0.1494     2.4011
 3439.5000     7.4639   140.7441     7.2269   -28.3035     9.1270     0.0140     0.1590     2.3859
 3440.0000     7.4030   140.7738     7.3732   -25.5355     9.1264     0.0269     0.1569     2.3941
 3440.5000     7.0478   140.8036     7.3557   -24.1121     9.1260     0.0261     0.1510     2.4054
 3441.0000     6.4963   140.8333     7.2179   -23.5938     9.1256     0.0239     0.1456     2.4114
 3441.5000     6.3547   140.8631     7.2150   -23.9048     9.1251     0.0179     0.1525     2.4054
