~VERSION INFORMATION
 VERS.                2.0:   CWLS LOG ASCII STANDARD - VERSION 2.0
 WRAP.                 NO:   ONE LINE PER DEPTH STEP
~WELL INFORMATION
#MNEM.UNIT      DATA TYPE    INFORMATION
#----------   ------------   ------------------------------
 STRT.F           19.5000:   START DEPTH
 STOP.F          635.0000:   STOP DEPTH
 STEP.F            0.5000:   STEP LENGTH
 NULL.          -999.2500:   NO VALUE
 COMP. FENIX & SCISSON INC:   COMPANY
 WELL. NPR-3 68-S-34 #3-34:   WELL
 FLD .  TEAPOT DOME NPR-3:   FIELD
 LOC .      S34 T39N R78W:   LOCATION
 CNTY.            NATRONA:   COUNTY
 STAT.            WYOMING:   STATE
 CTRY. UNITED STATES OF AMERICA:   COUNTRY
 SRVC.           BIRDWELL:   SERVICE COMPANY
 DATE.        01-AUG-1978:   LOGDATE
 API .       490251070600:   API NUMBER
~CURVE INFORMATION
#MNEM.UNIT       API CODE    CURVE DESCRIPTION
#----------   ------------   ------------------------------
 DEPT.F                  :   
 SPR .MV     05 010 01 00:   SPONTANEOUS POTENTIAL
 SN  .OHMM   05 040 16 00:   SHORT NORMAL 16'
 ILD .OHMM   05 120 46 00:   INDUCTION LOG DEEP RESISTIVITY
 GRD .GAPI   45 310 01 00:   GAMMA RAY FROM DENSITY LOG
 CALD.IN     45 280 60 00:   CALIPER
 RHOB.G/C3   45 350 01 00:   BULK DENSITY
 DPHI.DEC    45 890 12 00:   DENSITY POROSITY SANDSTONE
 CORR.G/C3   45 356 01 00:   DENSITY CORRECTION
~PARAMETER INFORMATION
#MNEM.UNIT          VALUE    DESCRIPTION
#----------   ------------   ------------------------------
 PD  .                 GL:   PERMANENT DATUM
 EPD .F              5100:   ELEVATION PERMANENT DATUM
 LMF .                 KB:   LOG MEASURED FROM
 DAPD.F                 4:   FEET ABOVE PERMANENT DATUM
 DMF .                 KB:   DRILLING MEASURED FROM
 EKB .F              5104:   KELLING BUSHING
 EGL .F              5100:   GROUND LEVEL
 DATE.           9-1-1978:   RUN DATE
 RUN .                  1:   RUN NUMBER
 DD  .F               635:   DEPTH DRILLER
 DL  .F               635:   DEPTH LOGGER
 BLI .F               629:   BOTTOM LOG INTERVAL
 TLI .F                40:   TOP LOG INTERVAL
 CS  .IN            8.625:   CASING SIZE
 CBD .F                40:   CASING BOTTOM DRILLER
 CBL .F                40:   CASING BOTTOM LOGGER
 BS  .IN            7.875:   BIT SIZE
 BSD .F               635:   BIT SIZE AT DEPTH
 DFT .                KCL:   DRILLING FLUID TYPE
 DFD .                8.6:   DRILLING FLUID DENSITY
 DFV .                 32:   DRILLING FLUID VISCOSITY
 DFPH.                  9:   DRILLING FLUID PH
 DFL .                  7:   DRILLING FLUID LOSS
 MSS .          FLOW LINE:   MUD SAMPLE SOURCE
 RMS .OHMM             .4:   RESISTIVITY MUD SAMPLE
 MST .F                76:   MUD SAMPLE TEMPERATURE
 RMF .OHMM             .3:   RESISTIVITY MUD FILTRATE SAMPLE
 MFST.F                80:   MUD FILTRATE SAMPLE TEMPERATURE
 RMC .OHMM             .4:   RESISTIVITY MUD CAKE
 MCST.F                80:   MUD CAKE SAMPLE TEMPERATURE
 MFSS.               MEAS:   MUD FILTRATE SAMPLE SOURCE
 MCSS.               MEAS:   MUD CAKE SAMPLE SOURCE
 RMB .OHMM            .43:   RESISTIVITY MUD AT BHT
 BHT .F                70:   BOTTOM HOLE TEMPERATURE
 TCS .HRS               3:   TIME CURCULATED STOPPED
 MRT .F                70:   MAXIMUM RECORDED TEMPERATURE
 LUN .               2958:   LOGGING UNIT NUMBER
 LUL .               CASP:   LOGGING UNIT LOCATION
 ENGI.            POINTER:   RECORDING ENGINEER
 WITN.           MCGINLEY:   WITNESSED BY
 CLNT.            A2DTECH:   CLIENT CODE
 ORIG.           5" PRINT:   ORIGIN OF DATA
 UWI .       490251070600:   UNIQUE WELL ID
 DICO. A2D Technologies, Inc.:   DIGITIZING COMPANY
~OTHER INFORMATION
~A   DEPT      SPR         SN        ILD         GRD      CALD       RHOB       DPHI       CORR   
# ...
  100.5000   -22.3618     7.3941     7.1253   121.2117     7.4471     2.4780     0.1274     0.0159
  101.0000   -22.3164     7.4178     7.0981   122.9977     7.4444     2.4720     0.1317     0.0135
  101.5000   -22.2710     7.4416     7.0710   122.6026     7.4418     2.4656     0.1360     0.0111
  102.0000   -22.2257     7.4654     7.0459   116.5927     7.4391     2.4591     0.1372     0.0088
  102.5000   -22.1804     7.4893     7.1678   110.7347     7.4364     2.4582     0.1328     0.0089
  103.0000   -22.1358     7.5142     7.2839   110.4444     7.4338     2.4601     0.1260     0.0119
  103.5000   -22.0899     7.6295     7.3641   114.8540     7.4311     2.4666     0.1260     0.0148
  104.0000   -21.9870     7.6894     7.4354   116.1637     7.4303     2.4733     0.1259     0.0178
  104.5000   -21.6698     7.7497     7.5070   117.6627     7.4307     2.4738     0.1230     0.0208
  105.0000   -21.3608     7.8104     7.5561   119.5145     7.4311     2.4774     0.1204     0.0235
  105.5000   -21.0673     7.8717     7.6157   121.4530     7.4315     2.4847     0.1222     0.0235
  106.0000   -21.1518     7.9334     7.6757   121.3380     7.4320     2.4819     0.1240     0.0235
  106.5000   -21.3784     7.9956     7.7362   118.2159     7.4324     2.4784     0.1206     0.0235
  107.0000   -21.6095     8.0583     7.7972   115.6134     7.4328     2.4801     0.1161     0.0256
  107.5000   -21.6266     8.1472     7.8586   114.7374     7.4332     2.4874     0.1110     0.0308
  108.0000   -21.5870     8.2597     7.9206   117.7199     7.4337     2.4947     0.1104     0.0315
  108.5000   -21.5459     8.3742     7.9830   119.7971     7.4341     2.5012     0.1164     0.0282
  109.0000   -21.5050     8.5454     8.0459   121.7581     7.4345     2.4924     0.1278     0.0220
  109.5000   -21.4548     8.5272     8.1094   118.4164     7.4349     2.4772     0.1366     0.0158
  110.0000   -21.8673     8.4872     8.1622   114.0300     7.4353     2.4620     0.1356     0.0094
  110.5000   -22.3887     8.4485     8.1012   114.3296     7.4358     2.4541     0.1322     0.0110
  111.0000   -22.4569     8.4100     8.0496   113.5751     7.4362     2.4605     0.1286     0.0161
  111.5000   -22.4562     8.3576     7.9982   110.5733     7.4366     2.4676     0.1276     0.0203
  112.0000   -22.4552     8.2910     7.9472   107.3266     7.4370     2.4725     0.1256     0.0223
  112.5000   -22.4553     8.2250     7.8966   111.0980     7.4375     2.4775     0.1180     0.0244
  113.0000   -22.4549     8.1595     7.8461   116.0350     7.4379     2.4846     0.1187     0.0242
  113.5000   -22.4031     8.0875     7.7958   119.0355     7.4383     2.4889     0.1252     0.0215
  114.0000   -22.3449     8.1306     7.7245   121.7683     7.4388     2.4798     0.1307     0.0187
  114.5000   -22.2870     8.1924     7.7718   126.7181     7.4392     2.4696     0.1275     0.0159
  115.0000   -22.2553     8.2548     7.8608   125.3288     7.4396     2.4658     0.1244     0.0158
  115.5000   -22.2555     8.3175     7.9500   123.3720     7.4400     2.4870     0.1038     0.0162
  116.0000   -22.2554     8.3808     8.0135   120.1649     7.4405     2.5085     0.0824     0.0166
  116.5000   -22.2555     8.4445     7.9980   116.2786     7.4409     2.5296     0.0820     0.0170
  117.0000   -22.2556     8.5087     7.9860   108.1096     7.4413     2.5427     0.0865     0.0173
  117.5000   -22.2557     8.5461     7.9741    99.8757     7.4417     2.5329     0.1042     0.0216
  118.0000   -22.2469     8.4458     7.9621    92.1317     7.4422     2.5165     0.1164     0.0269
  118.5000   -22.1850     8.3652     7.9502    97.3234     7.4426     2.4999     0.1218     0.0237
  119.0000   -22.1228     8.2853     7.9383   108.3686     7.4430     2.4845     0.1252     0.0193
  119.5000   -22.0626     8.2062     7.9264   117.2907     7.4434     2.4759     0.1280     0.0149
  120.0000   -22.1594     8.1622     7.9145   116.3900     7.4439     2.4719     0.1308     0.0118
  120.5000   -22.2758     8.1976     7.9026   115.7118     7.4443     2.4692     0.1285     0.0139
  121.0000   -22.3921     8.2222     7.8908   116.3870     7.4447     2.4706     0.1262     0.0159
  121.5000   -22.5081     8.2469     7.8790   117.6534     7.4451     2.4732     0.1222     0.0178
  122.0000   -22.6246     8.2716     7.8681   118.6059     7.4456     2.4762     0.1174     0.0200
  122.5000   -22.7439     8.2965     7.9011   118.8603     7.4460     2.4861     0.1127     0.0229
  123.0000   -22.8380     8.3214     7.9337   119.2202     7.4464     2.4977     0.1100     0.0258
  123.5000   -22.4113     8.3464     7.9664   122.1631     7.4468     2.5014     0.1183     0.0249
  124.0000   -21.9674     8.3715     7.9992   125.0172     7.4473     2.4959     0.1179     0.0192
  124.5000   -21.5336     8.3966     8.0322   123.6023     7.4477     2.4903     0.1165     0.0137
  125.0000   -21.3859     8.4218     8.0657   122.2172     7.4481     2.4892     0.1165     0.0142
  125.5000   -21.7430     8.4470     8.0874   122.5013     7.4485     2.4908     0.1188     0.0149
  126.0000   -22.0406     8.4677     8.0199   120.9621     7.4490     2.4879     0.1169     0.0155
  126.5000   -21.7757     8.3726     7.9690   117.2262     7.4494     2.4869     0.1145     0.0155
  127.0000   -21.5105     8.2926     7.9187   114.9410     7.4498     2.4920     0.1151     0.0172
  127.5000   -21.2500     8.2134     7.8687   115.8189     7.4500     2.4924     0.1147     0.0224
  128.0000   -21.0615     8.1350     7.8190   116.6408     7.4500     2.4931     0.1098     0.0277
  128.5000   -21.1009     8.0573     7.7696   117.4635     7.4500     2.4989     0.1087     0.0281
  129.0000   -21.1352     7.9803     7.7205   117.4183     7.4500     2.5048     0.1105     0.0261
  129.5000   -21.1696     7.8676     7.6717   116.4236     7.4500     2.5034     0.1197     0.0240
  130.0000   -21.2038     7.8762     7.6233   115.4317     7.4500     2.4903     0.1288     0.0190
  130.5000   -21.2381     7.8931     7.5790   114.4271     7.4500     2.4772     0.1307     0.0131
  131.0000   -21.2723     7.9099     7.5547   113.5331     7.4500     2.4652     0.1298     0.0119
  131.5000   -21.3065     7.9268     7.5302   114.2260     7.4500     2.4685     0.1252     0.0106
  132.0000   -21.3407     7.9437     7.5059   116.8021     7.4500     2.4737     0.1214     0.0093
  132.5000   -21.3751     7.9607     7.4816   119.5804     7.4500     2.4791     0.1275     0.0080
  133.0000   -21.4091     7.9777     7.4573   121.4146     7.4500     2.4797     0.1325     0.0067
  133.5000   -21.4445     7.9947     7.4332   122.6158     7.4500     2.4691     0.1368     0.0056
  134.0000   -21.3632     8.0135     7.4092   125.2403     7.4500     2.4583     0.1363     0.0085
  134.5000   -21.2099     7.9511     7.3852   127.3986     7.4500     2.4576     0.1358     0.0114
  135.0000   -21.0550     7.8820     7.3613   124.5181     7.4500     2.4584     0.1350     0.0143
  135.5000   -20.9001     7.8136     7.3374   119.2851     7.4500     2.4592     0.1335     0.0172
  136.0000   -20.7461     7.7242     7.3137   114.2460     7.4500     2.4598     0.1320     0.0198
  136.5000   -20.6581     7.7929     7.2898   115.1360     7.4500     2.4644     0.1303     0.0209
  137.0000   -20.6587     7.8946     7.2664   115.8394     7.4500     2.4692     0.1272     0.0220
  137.5000   -20.6586     7.9976     7.2429   115.2000     7.4500     2.4697     0.1240     0.0231
  138.0000   -20.6587     8.1020     7.4442   114.5639     7.4500     2.4735     0.1220     0.0286
  138.5000   -20.6587     8.2078     7.6512   113.9234     7.4500     2.4797     0.1200     0.0353
  139.0000   -20.6587     8.3151     7.8639   113.6449     7.4500     2.4874     0.1123     0.0422
  139.5000   -20.6587     8.4234     8.0875   113.5555     7.4500     2.4973     0.1053     0.0491
  140.0000   -20.6587     8.5007     8.1893   113.5899     7.4500     2.5071     0.1020     0.0419
  140.5000   -20.6587     8.5826     8.2947   114.2931     7.4500     2.5172     0.1008     0.0334
