~VERSION INFORMATION
 VERS.                2.0:   CWLS LOG ASCII STANDARD - VERSION 2.0
 WRAP.                 NO:   ONE LINE PER DEPTH STEP
~WELL INFORMATION
#MNEM.UNIT      DATA TYPE    INFORMATION
#----------   ------------   ------------------------------
 STRT.F         1160.0000:   START DEPTH
 STOP.F         2086.0000:   STOP DEPTH
 STEP.F            0.5000:   STEP LENGTH
 NULL.          -999.2500:   NO VALUE
 COMP. LAWRENCE/ALLISON INC:   COMPANY
 WELL.      17 STX #27-27:   WELL
 FLD .             TEAPOT:   FIELD
 LOC .      S27 T39N R78W:   LOCATION
 CNTY.            NATRONA:   COUNTY
 STAT.            WYOMING:   STATE
 CTRY. UNITED STATES OF AMERICA:   COUNTRY
 SRVC.            Unknown:   SERVICE COMPANY
 DATE.        09-JUN-1991:   LOGDATE
 API .       490251118200:   API NUMBER
~CURVE INFORMATION
#MNEM.UNIT       API CODE    CURVE DESCRIPTION
#----------   ------------   ------------------------------
 DEPT.F                  :   
 ROP .MIN/FT 91 810 01 00:   RAT OF DRILLING PENETRATION
 TGAS.UNITS  91 830 01 00:   TOTAL GAS UNIT
~PARAMETER INFORMATION
#MNEM.UNIT          VALUE    DESCRIPTION
#----------   ------------   ------------------------------
 EKB .F              5078:   KELLING BUSHING
 EGL .F              5068:   GROUND LEVEL
 DATE.         9-JUN-1991:   RUN DATE
 RUN .                  1:   RUN NUMBER
 BLI .F              2120:   BOTTOM LOG INTERVAL
 TLI .F              1160:   TOP LOG INTERVAL
 CLNT.            A2DTECH:   CLIENT CODE
 ORIG.           5" PRINT:   ORIGIN OF DATA
 UWI .       490251118200:   UNIQUE WELL ID
 DICO. A2D Technologies, Inc.:   DIGITIZING COMPANY
~OTHER INFORMATION
~A  DEPT         ROP      TGAS  
# ...
 2010.5000     0.5370    39.8954
 2011.0000     0.5374    39.9024
 2011.5000     0.5378    39.9093
 2012.0000     0.5382    39.9163
 2012.5000     0.5370    39.9233
 2013.0000     0.5014    39.9303
 2013.5000     0.4829    39.9372
 2014.0000     0.4738    39.9442
 2014.5000     0.4648    39.9512
 2015.0000     0.4936    39.9582
 2015.5000     0.5034    39.9651
 2016.0000     0.5321    39.9721
 2016.5000     0.5514    39.9791
 2017.0000     0.5801    39.9861
 2017.5000     0.6088    39.9930
 2018.0000     0.6186    40.0000
 2018.5000     0.6096    40.0070
 2019.0000     0.6100    40.0140
 2019.5000     0.6104    40.0209
 2020.0000     0.6108    40.0279
 2020.5000     0.6018    39.9998
 2021.0000     0.6118    39.9235
 2021.5000     0.6122    39.8472
 2022.0000     0.6220    39.7709
 2022.5000     0.6413    39.6946
 2023.0000     0.6606    39.6183
 2023.5000     0.6610    39.5420
 2024.0000     0.6708    39.4657
 2024.5000     0.6712    39.3894
 2025.0000     0.6810    39.3131
 2025.5000     0.6909    39.2368
 2026.0000     0.6913    39.1605
 2026.5000     0.6917    39.0735
 2027.0000     0.7015    39.0804
 2027.5000     0.7019    40.1334
 2028.0000     0.7118    41.1863
 2028.5000     0.7216    43.2853
 2029.0000     0.7221    45.3842
 2029.5000     0.7130    47.4832
 2030.0000     0.7040    51.6742
 2030.5000     0.6950    51.6811
 2031.0000     0.6765    52.7341
 2031.5000     0.6675    52.7410
 2032.0000     0.6680    53.7922
 2032.5000     0.6684    53.6588
 2033.0000     0.6688    53.5475
 2033.5000     0.6692    53.4362
 2034.0000     0.6696    53.3249
 2034.5000     0.6700    53.2135
 2035.0000     0.6704    53.1022
 2035.5000     0.6519    52.9909
 2036.0000     0.6429    52.8796
 2036.5000     0.6433    52.7683
 2037.0000     0.6343    52.6570
 2037.5000     0.6253    52.5456
 2038.0000     0.6258    52.4343
 2038.5000     0.6262    52.3230
 2039.0000     0.6266    52.2117
 2039.5000     0.6270    52.1004
 2040.0000     0.6368    51.9891
 2040.5000     0.6372    51.8778
 2041.0000     0.6377    51.8271
 2041.5000     0.6381    51.8340
 2042.0000     0.6290    51.8410
 2042.5000     0.6199    51.8480
 2043.0000     0.6015    51.8549
 2043.5000     0.5925    51.8619
 2044.0000     0.5741    51.8689
 2044.5000     0.5650    51.8759
 2045.0000     0.5654    49.7908
 2045.5000     0.5659    45.5787
 2046.0000     0.5758    43.4586
 2046.5000     0.5856    40.2925
 2047.0000     0.6049    38.3122
 2047.5000     0.6430    38.3194
 2048.0000     0.6529    36.2312
 2048.5000     0.6722    36.1745
 2049.0000     0.6820    36.1179
 2049.5000     0.6824    36.0613
 2050.0000     0.6828    36.0046
 2050.5000     0.6455    35.9480
 2051.0000     0.6176    35.8914
 2051.5000     0.5897    35.8348
 2052.0000     0.5712    35.7781
 2052.5000     0.5339    35.7215
 2053.0000     0.5148    35.6649
 2053.5000     0.5052    35.6082
 2054.0000     0.4974    35.5516
 2054.5000     0.4979    35.4950
 2055.0000     0.4983    35.4384
 2055.5000     0.4987    35.3817
 2056.0000     0.4991    35.3251
 2056.5000     0.5090    35.3068
 2057.0000     0.5188    35.3138
 2057.5000     0.5664    35.3208
 2058.0000     0.6045    35.3278
 2058.5000     0.6144    35.3347
 2059.0000     0.6148    35.3417
 2059.5000     0.6152    35.3487
 2060.0000     0.6156    35.3556
 2060.5000     0.6537    35.3626
 2061.0000     0.6828    35.3696
 2061.5000     0.6923    35.3766
 2062.0000     0.7021    35.3835
 2062.5000     0.7026    35.3905
 2063.0000     0.7030    35.3975
 2063.5000     0.7034    35.4045
 2064.0000     0.7038    35.4114
 2064.5000     0.7042    35.4184
 2065.0000     0.7046    35.4254
 2065.5000     0.7334    35.4324
 2066.0000     0.7526    35.4393
 2066.5000     0.7625    35.4463
 2067.0000     0.7534    35.4548
 2067.5000     0.7350    35.5094
 2068.0000     0.6977    35.5639
 2068.5000     0.6603    35.6185
 2069.0000     0.6135    35.6731
 2069.5000     0.5568    35.7276
 2070.0000     0.5283    35.7822
 2070.5000     0.5110    35.8367
 2071.0000     0.5115    35.8913
 2071.5000     0.5119    35.9458
 2072.0000     0.5123    36.0004
 2072.5000     0.5505    36.0550
 2073.0000     0.5886    36.1095
 2073.5000     0.6362    36.1641
 2074.0000     0.6649    36.2186
 2074.5000     0.6370    36.2732
 2075.0000     0.6279    36.3277
 2075.5000     0.6001    36.3823
 2076.0000     0.5816    36.4368
 2076.5000     0.5537    36.4914
 2077.0000     0.5258    36.5460
 2077.5000     0.4977    36.6005
 2078.0000     0.4795    36.6541
 2078.5000     0.4908    36.6597
 2079.0000     0.5370    36.6667
 2079.5000     0.5751    36.6736
 2080.0000     0.6038    36.6806
 2080.5000     0.6042    36.6876
 2081.0000     0.5951    36.6946
 2081.5000     0.5956    36.7015
 2082.0000     0.5960    36.7085
 2082.5000     0.6247    36.7155
 2083.0000     0.6629    36.7225
 2083.5000     0.6916    36.7294
 2084.0000     0.7109    36.7364
 2084.5000     0.7301    36.7434
 2085.0000     0.7581    36.7504
 2085.5000     0.7626    36.7573
 2086.0000     0.7682    36.7643
