~VERSION INFORMATION
 VERS.                2.0:   CWLS LOG ASCII STANDARD - VERSION 2.0
 WRAP.                 NO:   ONE LINE PER DEPTH STEP
~WELL INFORMATION
#MNEM.UNIT      DATA TYPE    INFORMATION
#----------   ------------   ------------------------------
 STRT.F            0.0000:   START DEPTH
 STOP.F         4535.0000:   STOP DEPTH
 STEP.F            0.5000:   STEP LENGTH
 NULL.          -999.2500:   NO VALUE
 COMP. LAWRENCE - ALLISON & ASSOCIATES:   COMPANY
 WELL.    NPR ##3 56-X-15:   WELL
 FLD .   TEAPOT NAVAL RES:   FIELD
 LOC .      S15 T38N R78W:   LOCATION
 CNTY.            NATRONA:   COUNTY
 STAT.            WYOMING:   STATE
 CTRY. UNITED STATES OF AMERICA:   COUNTRY
 SRVC.      Dresser Atlas:   SERVICE COMPANY
 DATE.        03-MAY-1984:   LOGDATE
 API .       490251095900:   API NUMBER
~CURVE INFORMATION
#MNEM.UNIT       API CODE    CURVE DESCRIPTION
#----------   ------------   ------------------------------
 DEPT.F                  :   
 CORR.G/C3   45 356 01 00:   DENSITY CORRECTION
 DEN .G/C3   45 350 01 00:   COMPENSATED BULK DENSTIY
 PORD.DEC    45 890 12 00:   POROSITY DENSITY SANDSTONE
 CNC .DEC    42 890 03 00:   NEUTRON POROSITY SANDSTONE
 GRR .GAPI   07 310 01 00:   GAMMA RAY
 CALR.IN     07 280 01 00:   CALIPER FROM RESISTIVITY
 SPR .MV     07 010 01 00:   SPONTANEOUS POTENTIAL
 RILD.OHMM   07 120 46 00:   INDUCTION LOG DEEP RESISTIVITY
 RILM.OHMM   07 120 44 00:   INDUCTION LOG MEDIUM RESISTIVITY
 RFOC.OHMM   07 220 04 00:   RESISTIVITY FOCUSED LOG
 AC  .US/F   60 520 00 00:   ACCOUSTIC
~PARAMETER INFORMATION
#MNEM.UNIT          VALUE    DESCRIPTION
#----------   ------------   ------------------------------
 PD  .                 GL:   PERMANENT DATUM
 EPD .F              5326:   ELEVATION PERMANENT DATUM
 LMF .                 KB:   LOG MEASURED FROM
 DAPD.F                12:   FEET ABOVE PERMANENT DATUM
 DMF .                 KB:   DRILLING MEASURED FROM
 EKB .F              5338:   KELLING BUSHING
 EDF .F              5337:   DRILLING FLOOR
 EGL .F              5326:   GROUND LEVEL
 DATE.        03-MAY-1984:   RUN DATE
 RUN .                  1:   RUN NUMBER
 DD  .F              4547:   DEPTH DRILLER
 DL  .F              4539:   DEPTH LOGGER
 BLI .F              4536:   BOTTOM LOG INTERVAL
 CS  .IN            8.625:   CASING SIZE
 CBD .F              1027:   CASING BOTTOM DRILLER
 CBL .F              1021:   CASING BOTTOM LOGGER
 BS  .IN            7.875:   BIT SIZE
 BSD .F              4547:   BIT SIZE AT DEPTH
 DFT .            KCL GEL:   DRILLING FLUID TYPE
 DFD .                9.1:   DRILLING FLUID DENSITY
 DFV .                 44:   DRILLING FLUID VISCOSITY
 DFPH.                  8:   DRILLING FLUID PH
 DFL .               14.5:   DRILLING FLUID LOSS
 MSS .           MUD TANK:   MUD SAMPLE SOURCE
 RMS .OHMM           0.56:   RESISTIVITY MUD SAMPLE
 MST .F                73:   MUD SAMPLE TEMPERATURE
 RMF .OHMM           0.42:   RESISTIVITY MUD FILTRATE SAMPLE
 MFST.F                73:   MUD FILTRATE SAMPLE TEMPERATURE
 RMC .OHMM           0.71:   RESISTIVITY MUD CAKE
 MCST.F                73:   MUD CAKE SAMPLE TEMPERATURE
 MFSS.               MEAS:   MUD FILTRATE SAMPLE SOURCE
 MCSS.               CALC:   MUD CAKE SAMPLE SOURCE
 RMB .OHMM           0.29:   RESISTIVITY MUD AT BHT
 BHT .F               141:   BOTTOM HOLE TEMPERATURE
 TCS .HRS             3.5:   TIME CURCULATED STOPPED
 MRT .F               125:   MAXIMUM RECORDED TEMPERATURE
 LUN .               6302:   LOGGING UNIT NUMBER
 LUL .               CODY:   LOGGING UNIT LOCATION
 ENGI.              GETTY:   RECORDING ENGINEER
 WITN.           JENNINGS:   WITNESSED BY
 CLNT.            A2DTECH:   CLIENT CODE
 ORIG.           5" PRINT:   ORIGIN OF DATA
 UWI .       490251095900:   UNIQUE WELL ID
 DICO. A2D Technologies, Inc.:   DIGITIZING COMPANY
~OTHER INFORMATION
~A    DEPT    CORR        DEN       PORD        CNC        GRR       CALR        SPR       RILD       RILM       RFOC         AC   
# ...
 1494.5000  -999.2500  -999.2500  -999.2500  -999.2500    82.0976     9.2031   -17.4668     9.9439     9.2080     8.7174  -999.2500
 1495.0000  -999.2500  -999.2500  -999.2500  -999.2500    81.2060     9.2331   -17.6124     9.9404     9.2060     8.9477  -999.2500
 1495.5000  -999.2500  -999.2500  -999.2500  -999.2500    80.6126     9.2481   -17.9082     9.9370     9.1404     8.7526  -999.2500
 1496.0000  -999.2500  -999.2500  -999.2500  -999.2500    80.9289     9.2632   -18.2042     9.9335     9.1385     8.6398  -999.2500
 1496.5000  -999.2500  -999.2500  -999.2500  -999.2500    81.8445     9.2632   -18.6502     9.9301     9.2004     8.5788  -999.2500
 1497.0000  -999.2500  -999.2500  -999.2500  -999.2500    83.0614     9.2632   -19.2461     9.9400     9.1984     8.5774  -999.2500
 1497.5000  -999.2500  -999.2500  -999.2500  -999.2500    83.8031     9.2632   -19.3919    10.0624     9.2606     8.5762  -999.2500
 1498.0000  -999.2500  -999.2500  -999.2500  -999.2500    84.6802     9.2481   -19.6877    10.1998     9.2587     8.4567  -999.2500
 1498.5000  -999.2500  -999.2500  -999.2500  -999.2500    85.5497     9.2481   -19.6831    10.2675     9.3862     8.5739  -999.2500
 1499.0000  -999.2500  -999.2500  -999.2500  -999.2500    84.6127     9.2331   -19.5285    10.4068     9.5819     8.9375  -999.2500
 1499.5000  -999.2500  -999.2500  -999.2500  -999.2500    82.4838     9.2180   -19.3739    10.4758     9.7139     8.9989  -999.2500
 1500.0000  -999.2500  -999.2500  -999.2500  -999.2500    81.5617     9.2173   -19.2192    10.5454     9.6447     9.0653  -999.2500
 1500.5000  -999.2500  -999.2500  -999.2500  -999.2500    81.2244     9.2078   -19.0675    10.5425     9.6682     9.1249  -999.2500
 1501.0000  -999.2500  -999.2500  -999.2500  -999.2500    80.8945     9.2033   -19.2161    10.6139     9.6916     9.1832  -999.2500
 1501.5000  -999.2500  -999.2500  -999.2500  -999.2500    80.8646     9.2035   -19.2146    10.6851     9.7061     9.1812  -999.2500
 1502.0000  -999.2500  -999.2500  -999.2500  -999.2500    83.5332     9.1886   -19.2131    10.7567     9.7036     9.1793  -999.2500
 1502.5000  -999.2500  -999.2500  -999.2500  -999.2500    86.5017     9.1888   -19.2117    10.6785     9.7016     9.1135  -999.2500
 1503.0000  -999.2500  -999.2500  -999.2500  -999.2500    89.1704     9.1588   -19.2102    10.5280     9.6996     8.9859  -999.2500
 1503.5000  -999.2500  -999.2500  -999.2500  -999.2500    90.9470     9.1439   -18.9084    10.4522     9.7657     8.9219  -999.2500
 1504.0000  -999.2500  -999.2500  -999.2500  -999.2500    88.8106     9.1290   -18.6066    10.3768     9.8317     8.9201  -999.2500
 1504.5000  -999.2500  -999.2500  -999.2500  -999.2500    87.8811     9.1292   -18.1547    10.2306     9.8292     8.9182  -999.2500
 1505.0000  -999.2500  -999.2500  -999.2500  -999.2500    90.2499     9.1293   -18.0030    10.1569     9.7591     8.9164  -999.2500
 1505.5000  -999.2500  -999.2500  -999.2500  -999.2500    92.9185     9.1295   -18.0015    10.0837     9.5559     8.7307  -999.2500
 1506.0000  -999.2500  -999.2500  -999.2500  -999.2500    90.1899     9.1146   -18.1502    10.0810     9.3569     8.6689  -999.2500
 1506.5000  -999.2500  -999.2500  -999.2500  -999.2500    88.0610     9.0997   -18.1486    10.0782     9.2259     9.1619  -999.2500
 1507.0000  -999.2500  -999.2500  -999.2500  -999.2500    88.0310     9.0999   -18.1471    10.0754     9.0968     8.9711  -999.2500
 1507.5000  -999.2500  -999.2500  -999.2500  -999.2500    88.0010     9.1000   -17.9952    10.0726     9.0319     8.6032  -999.2500
 1508.0000  -999.2500  -999.2500  -999.2500  -999.2500    84.0730     9.1002   -17.9937    10.0699     9.0301     8.4240  -999.2500
 1508.5000  -999.2500  -999.2500  -999.2500  -999.2500    74.4478     9.1153   -17.9922    10.0671     9.0991     8.5401  -999.2500
 1509.0000  -999.2500  -999.2500  -999.2500  -999.2500    76.5167     9.1005   -17.9907    10.1346     9.2275     8.7789  -999.2500
 1509.5000  -999.2500  -999.2500  -999.2500  -999.2500    80.9845     9.0856   -18.1398    10.3454     9.4737     8.8999  -999.2500
 1510.0000  -999.2500  -999.2500  -999.2500  -999.2500    83.4298     9.0847   -18.2884    10.4148     9.6042     8.9601  -999.2500
 1510.5000  -999.2500  -999.2500  -999.2500  -999.2500    84.2505     9.1009   -18.1364    10.4846     9.6022     8.9582  -999.2500
 1511.0000  -999.2500  -999.2500  -999.2500  -999.2500    82.7185     9.1161   -17.9848    10.5542     9.5338     8.9564  -999.2500
 1511.5000  -999.2500  -999.2500  -999.2500  -999.2500    80.2627     9.1173   -17.9833    10.5512     9.4659     8.9545  -999.2500
 1512.0000  -999.2500  -999.2500  -999.2500  -999.2500    80.0303     9.1314   -17.9818    10.5483     9.4639     8.9526  -999.2500
 1512.5000  -999.2500  -999.2500  -999.2500  -999.2500    83.9191     9.1316   -17.9803    10.5454     9.5284     8.8888  -999.2500
 1513.0000  -999.2500  -999.2500  -999.2500  -999.2500    88.7093     9.1318   -17.8287    10.4694     9.5259     8.7033  -999.2500
 1513.5000  -999.2500  -999.2500  -999.2500  -999.2500    91.7003     9.1319   -17.6770    10.3219     9.4581     8.6413  -999.2500
 1514.0000  -999.2500  -999.2500  -999.2500  -999.2500    92.2945     9.1321   -17.6756    10.1765     9.3257     8.7002  -999.2500
 1514.5000  -999.2500  -999.2500  -999.2500  -999.2500    89.5865     9.1322   -17.5239    10.0332     9.1315     8.8196  -999.2500
 1515.0000  -999.2500  -999.2500  -999.2500  -999.2500    86.2808     9.1324   -17.3723     9.8232     9.0036     8.8178  -999.2500
 1515.5000  -999.2500  -999.2500  -999.2500  -999.2500    83.5747     9.1325   -16.9203     9.7525     8.9395     8.6944  -999.2500
 1516.0000  -999.2500  -999.2500  -999.2500  -999.2500    83.2693     9.1327   -16.7687     9.7498     8.8758     8.4544  -999.2500
 1516.5000  -999.2500  -999.2500  -999.2500  -999.2500    85.9587     9.1328   -16.4669     9.6124     8.8125     8.2783  -999.2500
 1517.0000  -999.2500  -999.2500  -999.2500  -999.2500    85.0517     9.1329   -16.4654     9.6098     8.8107     8.2766  -999.2500
 1517.5000  -999.2500  -999.2500  -999.2500  -999.2500    82.6455     9.1331   -16.4639     9.5405     8.7479     8.2749  -999.2500
 1518.0000  -999.2500  -999.2500  -999.2500  -999.2500    82.0384     9.1483   -16.4625     9.4061     8.6856     8.3309  -999.2500
 1518.5000  -999.2500  -999.2500  -999.2500  -999.2500    81.1314     9.1484   -16.3108     9.2093     8.6201     8.3292  -999.2500
 1519.0000  -999.2500  -999.2500  -999.2500  -999.2500    80.2244     9.1486   -16.3093     9.0166     8.5622     8.3275  -999.2500
 1519.5000  -999.2500  -999.2500  -999.2500  -999.2500    80.8167     9.1487   -16.3078     8.9516     8.5604     8.3257  -999.2500
 1520.0000  -999.2500  -999.2500  -999.2500  -999.2500    84.1076     9.1338   -16.6267     8.8871     8.4990     8.2664  -999.2500
 1520.5000  -999.2500  -999.2500  -999.2500  -999.2500    86.1994     9.1340   -16.9055     8.8847     8.4973     8.2075  -999.2500
 1521.0000  -999.2500  -999.2500  -999.2500  -999.2500    86.1917     9.1341   -17.2043     8.8822     8.4367     8.1490  -999.2500
 1521.5000  -999.2500  -999.2500  -999.2500  -999.2500    86.1843     9.1343   -17.3529     8.8798     8.4350     8.1473  -999.2500
 1522.0000  -999.2500  -999.2500  -999.2500  -999.2500    86.1769     9.1344   -17.2009     8.9393     8.4332     8.1456  -999.2500
 1522.5000  -999.2500  -999.2500  -999.2500  -999.2500    86.1694     9.1346   -16.8991     8.9368     8.4315     8.1439  -999.2500
 1523.0000  -999.2500  -999.2500  -999.2500  -999.2500    87.4116     9.1347   -16.7475     8.9343     8.4298     8.1422  -999.2500
 1523.5000  -999.2500  -999.2500  -999.2500  -999.2500    90.4270     9.1349   -16.7460     8.9943     8.4872     8.0839  -999.2500
 1524.0000  -999.2500  -999.2500  -999.2500  -999.2500    92.1442     9.1351   -17.0448     8.9912     8.4850     8.1385  -999.2500
 1524.5000  -999.2500  -999.2500  -999.2500  -999.2500    89.1365     9.1201   -17.3436     8.9887     8.4833     8.4831  -999.2500
