~VERSION INFORMATION
 VERS.                2.0:   CWLS LOG ASCII STANDARD - VERSION 2.0
 WRAP.                 NO:   ONE LINE PER DEPTH STEP
~WELL INFORMATION
#MNEM.UNIT      DATA TYPE    INFORMATION
#----------   ------------   ------------------------------
 STRT.F           20.0000:   START DEPTH
 STOP.F          698.0000:   STOP DEPTH
 STEP.F            0.5000:   STEP LENGTH
 NULL.          -999.2500:   NO VALUE
 COMP. FENIX & SCISSON INC:   COMPANY
 WELL.    52 SX 34 #52-34:   WELL
 FLD .             TEAPOT:   FIELD
 LOC .      S34 T39N R78W:   LOCATION
 CNTY.            NATRONA:   COUNTY
 STAT.            WYOMING:   STATE
 CTRY. UNITED STATES OF AMERICA:   COUNTRY
 SRVC.            Unknown:   SERVICE COMPANY
 DATE.        26-JAN-1979:   LOGDATE
 API .       490251077100:   API NUMBER
~CURVE INFORMATION
#MNEM.UNIT       API CODE    CURVE DESCRIPTION
#----------   ------------   ------------------------------
 DEPT.F                  :   
 SPR .MV     05 010 01 00:   SPONTANEOUS POTENTIAL FROM RES.
 CALD.IN     45 280 60 00:   CALIPER
 GRD .GAPI   45 310 01 00:   GAMMA RAY FROM DENSITY LOG
 CORR.G/C3   45 356 01 00:   DENSITY CORRECTION
 RHOB.G/C3   45 350 01 00:   BULK DENSITY
 ILD .OHMM   05 120 46 00:   INDUCTION LOG DEEP
 SN  .OHMM   05 040 16 00:   SHORT NORMAL 16"
 DPHI.DEC    45 890 12 00:   DENSITY POROSITY SANDSTONE
~PARAMETER INFORMATION
#MNEM.UNIT          VALUE    DESCRIPTION
#----------   ------------   ------------------------------
 PD  .                 GL:   PERMANENT DATUM
 EPD .F              5072:   ELEVATION PERMANENT DATUM
 LMF .                 KB:   LOG MEASURED FROM
 DAPD.F                 4:   FEET ABOVE PERMANENT DATUM
 DMF .                 KB:   DRILLING MEASURED FROM
 EKB .F              5076:   KELLING BUSHING
 EGL .F              5072:   GROUND LEVEL
 DATE.            1-26-79:   RUN DATE
 RUN .                  1:   RUN NUMBER
 DD  .F               688:   DEPTH DRILLER
 DL  .F               698:   DEPTH LOGGER
 BLI .F               691:   BOTTOM LOG INTERVAL
 TLI .F                30:   TOP LOG INTERVAL
 CS  .IN            8.625:   CASING SIZE
 CBD .F                40:   CASING BOTTOM DRILLER
 CBL .F                20:   CASING BOTTOM LOGGER
 BS  .IN            7.875:   BIT SIZE
 BSD .F               688:   BIT SIZE AT DEPTH
 DFT .                KCL:   DRILLING FLUID TYPE
 DFD .                8.9:   DRILLING FLUID DENSITY
 DFV .                 39:   DRILLING FLUID VISCOSITY
 DFPH.                 10:   DRILLING FLUID PH
 DFL .                 10:   DRILLING FLUID LOSS
 MSS .           FLOWLINE:   MUD SAMPLE SOURCE
 RMS .OHMM             .3:   RESISTIVITY MUD SAMPLE
 MST .F                60:   MUD SAMPLE TEMPERATURE
 RMF .OHMM            .22:   RESISTIVITY MUD FILTRATE SAMPLE
 MFST.F                66:   MUD FILTRATE SAMPLE TEMPERATURE
 MFSS.           MEASURED:   MUD FILTRATE SAMPLE SOURCE
 MCSS.           MEASURED:   MUD CAKE SAMPLE SOURCE
 RMB .OHMM            .25:   RESISTIVITY MUD AT BHT
 BHT .F                70:   BOTTOM HOLE TEMPERATURE
 TCS .HRS               7:   TIME CURCULATED STOPPED
 MRT .F                70:   MAXIMUM RECORDED TEMPERATURE
 LUN .               3006:   LOGGING UNIT NUMBER
 LUL .             CASPER:   LOGGING UNIT LOCATION
 ENGI.            ROLLINS:   RECORDING ENGINEER
 WITN.              AMEND:   WITNESSED BY
 CLNT.            A2DTECH:   CLIENT CODE
 ORIG.       2", 5" PRINT:   ORIGIN OF DATA
 UWI .       490251077100:   UNIQUE WELL ID
 DICO. A2D Technologies, Inc.:   DIGITIZING COMPANY
~OTHER INFORMATION
~A   DEPT      SPR         CALD       GRD      CORR       RHOB        ILD         SN       DPHI   
# ...
  384.5000   -49.2069     8.1976    98.8455     0.0245     2.4489     6.2180     6.5257     0.1362
  385.0000   -49.2028     8.1968    96.5644     0.0261     2.4478     6.0958     6.4274     0.1367
  385.5000   -49.1987     8.1960    94.9364     0.0274     2.4497     5.9760     6.2881     0.1373
  386.0000   -49.1946     8.1953    93.8100     0.0268     2.4484     5.9392     6.2881     0.1378
  386.5000   -49.1905     8.1945    93.5966     0.0262     2.4459     5.9285     6.2881     0.1357
  387.0000   -49.1864     8.1937    93.5449     0.0257     2.4510     5.9173     6.2881     0.1280
  387.5000   -49.1823     8.1929    93.6854     0.0205     2.4618     5.9061     6.2881     0.1245
  388.0000   -49.1782     8.1922    96.6964     0.0133     2.4700     5.8949     6.3465     0.1229
  388.5000   -49.1740     8.1909    99.1573     0.0073     2.4749     5.9912     6.4151     0.1211
  389.0000   -49.1722     8.1890    98.2835     0.0075     2.4802     6.1039     6.4789     0.1247
  389.5000   -49.1722     8.1872    98.4957     0.0075     2.4704     6.2187     6.5434     0.1312
  390.0000   -49.1722     8.1853    98.7682     0.0075     2.4582     6.4056     6.6472     0.1391
  390.5000   -49.1722     8.1834    97.8457     0.0075     2.4478     6.3958     6.6424     0.1410
  391.0000   -49.1722     8.1815    95.2401     0.0075     2.4412     6.3721     6.6308     0.1436
  391.5000   -49.1722     8.1797    93.5416     0.0075     2.4351     6.3484     6.6192     0.1444
  392.0000   -49.1722     8.1778    94.2173     0.0075     2.4300     6.3249     6.6076     0.1440
  392.5000   -49.1722     8.1759    94.8218     0.0075     2.4323     6.3014     6.5960     0.1436
  393.0000   -49.1722     8.1740    95.3082     0.0073     2.4349     6.2780     6.5845     0.1464
  393.5000   -49.1722     8.1722    97.1227     0.0128     2.4291     6.2547     6.5730     0.1509
  394.0000   -49.1722     8.1703    98.5880     0.0192     2.4220     6.2315     6.5615     0.1561
  394.5000   -49.1722     8.1684    99.9713     0.0235     2.4142     6.2084     6.5504     0.1618
  395.0000   -49.1722     8.1665   100.0176     0.0232     2.4017     6.1853     6.5386     0.1726
  395.5000   -49.1722     8.1646    97.8693     0.0230     2.3755     6.1186     6.5234     0.1835
  396.0000   -49.1722     8.1628    96.3064     0.0228     2.3679     6.0003     6.5253     0.1792
  396.5000   -49.1722     8.1609    95.4074     0.0225     2.3812     5.8844     6.1693     0.1633
  397.0000   -49.1722     8.1590    94.5057     0.0223     2.4152     5.6358     5.9272     0.1473
  397.5000   -49.1722     8.1571    94.5088     0.0221     2.4507     5.3152     5.7152     0.1316
  398.0000   -49.1722     8.1553    93.3126     0.0219     2.4574     5.0130     5.5081     0.1326
  398.5000   -49.1722     8.1534    92.6138     0.0217     2.4556     4.9345     5.3066     0.1336
  399.0000   -49.1722     8.1524    96.8010     0.0214     2.4539     4.9233     5.1650     0.1315
  399.5000   -49.1722     8.1533   101.7330     0.0189     2.4599     4.9121     5.1290     0.1258
  400.0000   -49.1722     8.1541   104.2532     0.0175     2.4711     4.8966     5.0805     0.1208
  400.5000   -49.1721     8.1549   104.1322     0.0175     2.4764     4.9517     5.1641     0.1221
  401.0000   -49.1721     8.1557   103.9972     0.0175     2.4755     5.0648     5.3251     0.1234
  401.5000   -49.1725     8.1565   103.7829     0.0175     2.4742     5.3205     5.7422     0.1248
  402.0000   -49.1732     8.1573   101.7268     0.0175     2.4704     5.7833     6.1650     0.1261
  402.5000   -49.2678     8.1581   100.2206     0.0175     2.4664     6.2863     6.5631     0.1274
  403.0000   -49.5155     8.1589   101.3968     0.0176     2.4639     6.5274     6.7736     0.1287
  403.5000   -49.6111     8.1597   102.7095     0.0147     2.4632     6.6881     6.9404     0.1272
  404.0000   -49.6676     8.1605    99.1831     0.0112     2.4669     6.8344     7.0949     0.1235
  404.5000   -49.7230     8.1613    99.2825     0.0077     2.4737     6.8344     7.1196     0.1191
  405.0000   -49.7784     8.1621    99.7779     0.0083     2.4775     6.8344     7.1444     0.1191
  405.5000   -49.8344     8.1629    99.3661     0.0092     2.4787     6.8344     7.1943     0.1194
  406.0000   -49.8915     8.1637    95.3068     0.0101     2.4797     6.9149     7.2760     0.1207
  406.5000   -49.9397     8.1645    92.4734     0.0110     2.4782     6.9934     7.2919     0.1234
  407.0000   -50.1804     8.1653    95.8452     0.0115     2.4712     7.0424     7.3043     0.1259
  407.5000   -50.1668     8.1661   100.4090     0.0108     2.4663     7.0696     7.3259     0.1253
  408.0000   -50.1831     8.1669    99.8355     0.0100     2.4692     7.0968     7.3475     0.1237
  408.5000   -50.2030     8.1677    97.7656     0.0093     2.4718     7.1241     7.3691     0.1233
  409.0000   -50.2221     8.1685    99.0735     0.0087     2.4726     7.1516     7.3909     0.1244
  409.5000   -50.2412     8.1693   100.2055     0.0080     2.4705     7.1791     7.4127     0.1251
  410.0000   -50.2602     8.1701    97.8838     0.0072     2.4684     7.2068     7.4346     0.1250
  410.5000   -50.2793     8.1709    99.0087     0.0066     2.4684     7.2345     7.4566     0.1249
  411.0000   -50.2983     8.1718   101.7516     0.0059     2.4691     7.2624     7.4788     0.1248
  411.5000   -50.3172     8.1719   101.4716     0.0059     2.4698     7.2919     7.4972     0.1247
  412.0000   -50.3360     8.1719   102.4975     0.0067     2.4696     7.2490     7.4583     0.1256
  412.5000   -50.3572     8.1719   102.8846     0.0077     2.4692     7.2040     7.4247     0.1275
  413.0000   -50.4185     8.1719   106.2173     0.0131     2.4688     7.1592     7.3912     0.1293
  413.5000   -50.6080     8.1719   106.8897     0.0185     2.4653     7.1147     7.3579     0.1312
  414.0000   -50.7905     8.1719   103.9546     0.0195     2.4547     7.0704     7.3246     0.1323
  414.5000   -50.9574     8.1719   102.3718     0.0195     2.4525     7.0267     7.2917     0.1327
  415.0000   -50.9610     8.1719   104.2760     0.0195     2.4532     6.9388     7.2005     0.1330
  415.5000   -50.9604     8.1719   105.5112     0.0195     2.4540     6.8527     7.1108     0.1367
  416.0000   -50.9602     8.1719   103.4895     0.0195     2.4478     6.7679     7.0221     0.1404
  416.5000   -50.9603     8.1719   102.4581     0.0195     2.4413     6.6582     6.9082     0.1417
  417.0000   -50.9603     8.1719   100.9948     0.0195     2.4356     6.4957     6.7400     0.1427
  417.5000   -50.9604     8.1719   100.4113     0.0195     2.4257     6.3369     6.5760     0.1533
  418.0000   -50.9598     8.1720   100.5927     0.0194     2.4095     6.1827     6.4159     0.1648
  418.5000   -50.9571     8.1706   100.2410     0.0216     2.3937     6.0322     6.2598     0.1759
  419.0000   -50.9642     8.1687    99.6115     0.0292     2.3710     5.8212     6.0408     0.1996
  419.5000   -50.7230     8.1669   101.5789     0.0429     2.3345     5.6029     5.8143     0.2272
  420.0000   -49.0019     8.1650   100.8835     0.0451     2.2837     5.3797     5.5870     0.2549
  420.5000   -46.5598     8.1631    97.0018     0.0439     2.2331     5.0907     5.3162     0.2711
  421.0000   -46.5692     8.1612    96.6890     0.0347     2.2044     4.7992     5.0822     0.2804
  421.5000   -46.5418     8.1594    93.0127     0.0191     2.1991     4.5060     4.6760     0.2769
  422.0000   -46.5039     8.1575    88.7767     0.0129     2.2279     3.7634     4.2123     0.2639
  422.5000   -46.4677     8.1556    87.5069     0.0103     2.2832     3.1802     3.8205     0.2152
  423.0000   -46.4313     8.1538    89.3353     0.0055     2.3329     2.8259     3.4651     0.1847
  423.5000   -46.3960     8.1532    98.3603     0.0063     2.3763     2.5398     3.1428     0.1665
  424.0000   -46.4845     8.1605   107.8760     0.0070     2.4194     2.3790     2.8505     0.1502
  424.5000   -46.5867     8.1679   114.2163     0.0076     2.4358     2.3983     2.5149     0.1372
