~VERSION INFORMATION
 VERS.                2.0:   CWLS LOG ASCII STANDARD - VERSION 2.0
 WRAP.                 NO:   ONE LINE PER DEPTH STEP
~WELL INFORMATION
#MNEM.UNIT      DATA TYPE    INFORMATION
#----------   ------------   ------------------------------
 STRT.F            4.0000:   START DEPTH
 STOP.F          528.0000:   STOP DEPTH
 STEP.F            0.1000:   STEP LENGTH
 NULL.          -999.2500:   NO VALUE
 COMP. BROWN JOHN E&C INC:   COMPANY
 WELL.    84-1 SHX- #84-3:   WELL
 FLD .        TEAPOT DOME:   FIELD
 LOC .       S3 T38N R78W:   LOCATION
 CNTY.            NATRONA:   COUNTY
 STAT.            WYOMING:   STATE
 CTRY. UNITED STATES OF AMERICA:   COUNTRY
 SRVC.     Atlas Wireline:   SERVICE COMPANY
 DATE.        18-JAN-1992:   LOGDATE
 API .       490252249900:   API NUMBER
~CURVE INFORMATION
#MNEM.UNIT       API CODE    CURVE DESCRIPTION
#----------   ------------   ------------------------------
 DEPT.F                  :   
 GRR .GAPI   07 310 01 00:   GAMMA RAY
 RILD.OHMM   07 120 46 00:   INDUCTION LOG DEEP RESISTIVITY
 RILM.OHMM   07 120 44 00:   INDUCTION LOG MEDIUM RESISTIVITY
~PARAMETER INFORMATION
#MNEM.UNIT          VALUE    DESCRIPTION
#----------   ------------   ------------------------------
 PD  .                 GL:   PERMANENT DATUM
 EPD .F              5147:   ELEVATION PERMANENT DATUM
 LMF .                 KB:   LOG MEASURED FROM
 DAPD.F                10:   FEET ABOVE PERMANENT DATUM
 DMF .                 KB:   DRILLING MEASURED FROM
 EKB .F              5157:   KELLING BUSHING
 EDF .F              5156:   DRILLING FLOOR
 EGL .F              5147:   GROUND LEVEL
 DATE.        18-JAN-1992:   RUN DATE
 RUN .                  1:   RUN NUMBER
 DD  .F               842:   DEPTH DRILLER
 DL  .F               837:   DEPTH LOGGER
 BLI .F               835:   BOTTOM LOG INTERVAL
 TLI .F                 4:   TOP LOG INTERVAL
 CS  .IN            8.625:   CASING SIZE
 CBD .F                39:   CASING BOTTOM DRILLER
 CBL .F                56:   CASING BOTTOM LOGGER
 BS  .IN             8.75:   BIT SIZE
 BSD .F               842:   BIT SIZE AT DEPTH
 DFT .                AIR:   DRILLING FLUID TYPE
 LUN .           HL- 6272:   LOGGING UNIT NUMBER
 LUL .             CASPER:   LOGGING UNIT LOCATION
 ENGI.       P. RASMUSSEN:   RECORDING ENGINEER
 WITN.          G. STRONG:   WITNESSED BY
 CLNT.            A2DTECH:   CLIENT CODE
 ORIG.           5" PRINT:   ORIGIN OF DATA
 UWI .       490252249900:   UNIQUE WELL ID
 DICO. A2D Technologies, Inc.:   DIGITIZING COMPANY
~OTHER INFORMATION
~A    DEPT      GRR      RILD       RILM   
# ...
  386.2000    93.8146    20.6013    21.9023
  386.3000    95.1843    20.3582    21.7917
  386.4000    96.4246    20.0286    21.5872
  386.5000    97.6646    19.7714    21.3431
  386.6000    98.9056    19.5476    21.1261
  386.7000    99.5534    19.3870    21.0034
  386.8000   100.1913    19.3808    20.7713
  386.9000   100.7661    19.2513    20.6239
  387.0000   101.0429    19.3414    20.5067
  387.1000   101.5958    19.3849    20.3902
  387.2000   102.0365    19.3843    20.2742
  387.3000   102.3694    19.3838    20.1408
  387.4000   102.5108    19.3832    20.0445
  387.5000   102.5114    19.3827    19.9306
  387.6000   102.5120    19.6541    19.8174
  387.7000   102.7550    19.6536    19.7047
  387.8000   102.8176    19.5808    19.5850
  387.9000   102.8182    19.5161    19.4813
  388.0000   102.8918    19.4938    19.4481
  388.1000   103.1239    19.3794    19.3952
  388.2000   103.1246    19.3789    19.2579
  388.3000   103.1251    19.2969    19.0422
  388.4000   103.2775    19.1870    18.9340
  388.5000   103.4307    19.0778    18.8265
  388.6000   103.3924    18.9760    18.7195
  388.7000   103.1276    19.1080    18.6488
  388.8000   102.4366    19.1076    18.6364
  388.9000   101.5190    19.1071    18.5183
  389.0000   100.5275    19.1483    18.6110
  389.1000    99.5975    19.2396    18.6467
  389.2000    98.8490    19.2390    18.6917
  389.3000    97.8580    19.2385    18.7759
  389.4000    96.8665    19.1612    18.7754
  389.5000    96.1553    19.1038    18.8789
  389.6000    95.7435    19.1033    18.9055
  389.7000    95.4687    19.1000    18.9608
  389.8000    94.9151    18.9913    19.0365
  389.9000    94.6969    18.9691    19.0429
  390.0000    94.4495    18.9071    19.1684
  390.1000    94.2021    18.8363    19.1679
  390.2000    94.0042    18.8358    19.2338
  390.3000    94.0049    18.8352    19.3008
  390.4000    94.0055    18.7395    19.3002
  390.5000    94.0061    18.7035    19.2996
  390.6000    94.0067    18.7030    19.2991
  390.7000    94.0792    18.7025    19.2986
  390.8000    94.3277    18.7019    19.3498
  390.9000    94.6175    18.7014    19.4324
  391.0000    94.8249    18.7009    19.4318
  391.1000    95.0736    18.7003    19.4312
  391.2000    95.4165    18.6999    19.4307
  391.3000    95.9129    18.6994    19.4302
  391.4000    96.4469    18.6987    19.4296
  391.5000    96.9061    18.6983    19.4408
  391.6000    97.4027    18.7647    19.5642
  391.7000    97.7829    18.8280    19.5637
  391.8000    97.9714    18.8274    19.5632
  391.9000    97.9757    18.8269    19.6099
  392.0000    98.2242    18.8264    19.6989
  392.1000    98.2776    18.8258    19.6982
  392.2000    98.2782    18.8785    19.6976
  392.3000    98.3612    18.9564    19.6971
  392.4000    98.5839    18.9604    19.7542
  392.5000    98.5845    19.0878    19.8336
  392.6000    98.5851    19.1761    19.8331
  392.7000    98.5857    19.2203    19.8324
  392.8000    98.5863    19.2594    19.8319
  392.9000    98.5869    19.3536    19.8314
  393.0000    98.5875    19.3530    19.8733
  393.1000    98.5881    19.3525    19.9689
  393.2000    98.4053    19.4273    19.9682
  393.3000    98.0309    19.4867    19.9678
  393.4000    97.6060    19.5117    20.0461
  393.5000    97.3446    19.6222    20.1595
  393.6000    96.7648    19.7336    20.2735
  393.7000    96.5595    19.7579    20.3882
  393.8000    96.3121    19.7574    20.5037
  393.9000    95.8788    19.7934    20.5282
  394.0000    95.2086    19.8944    20.6580
  394.1000    94.9413    19.8938    20.8538
  394.2000    94.7138    19.8933    20.9718
  394.3000    94.8097    19.8927    21.1054
  394.4000    95.1737    19.8922    21.2098
  394.5000    95.6114    19.9134    21.4086
  394.6000    95.8600    20.0301    21.6005
  394.7000    96.1085    20.0295    21.6992
  394.8000    96.3571    20.0290    21.6984
  394.9000    96.4682    20.0870    21.8168
  395.0000    96.4688    20.2008    21.8488
  395.1000    96.4446    20.3084    21.9115
  395.2000    96.1657    20.3077    22.0355
  395.3000    96.1662    20.3072    22.1601
  395.4000    96.0070    20.3769    22.3073
  395.5000    95.7596    20.4481    22.5173
  395.6000    95.4650    20.4475    22.6961
  395.7000    94.9510    20.4469    22.7764
  395.8000    94.4743    20.4464    22.7757
  395.9000    93.6139    20.5274    22.7750
  396.0000    91.8667    20.5881    22.7744
  396.1000    90.0134    20.5876    22.7738
  396.2000    89.7661    20.5894    22.6548
  396.3000    89.4753    20.7063    22.4280
  396.4000    89.2713    20.7297    22.3012
  396.5000    89.1720    20.7963    22.3006
  396.6000    89.1726    20.8735    22.2018
  396.7000    89.1732    20.8729    22.1446
  396.8000    89.1739    20.8723    22.1035
  396.9000    89.4014    20.8718    21.9898
  397.0000    89.8205    20.9500    21.9891
  397.1000    90.2030    21.0166    21.8805
  397.2000    90.5091    21.0160    21.8354
  397.3000    91.0058    21.0153    21.7837
  397.4000    91.5022    21.0147    21.6827
  397.5000    91.9989    21.0142    21.6821
  397.6000    92.4955    21.0136    21.6816
  397.7000    92.9122    21.0130    21.6809
  397.8000    93.1844    21.0125    21.6803
  397.9000    93.7468    21.0118    21.6797
  398.0000    94.1776    20.9102    21.6730
  398.1000    94.6740    20.8648    21.5280
  398.2000    95.1706    20.8642    21.5275
  398.3000    95.6674    20.8434    21.5269
  398.4000    96.1851    20.7182    21.4817
  398.5000    96.6605    20.7177    21.3764
  398.6000    96.9762    20.6329    21.3757
  398.7000    97.2248    20.5726    21.2651
  398.8000    97.4734    20.5412    21.1442
  398.9000    97.7221    20.4287    21.0784
  399.0000    98.0153    20.4280    21.0506
  399.1000    98.0158    20.4275    20.9306
  399.2000    98.1633    20.3593    20.6943
  399.3000    98.3214    20.2846    20.5501
  399.4000    98.3221    20.2536    20.4334
  399.5000    98.3227    20.0027    20.3172
  399.6000    98.3233    20.0023    20.2122
  399.7000    98.3239    19.9247    20.2116
  399.8000    98.3245    19.8113    20.1124
  399.9000    98.2686    19.6835    20.0703
  400.0000    98.0213    19.5057    20.0320
  400.1000    97.7740    19.3280    19.9390
  400.2000    97.3342    19.1502    19.8461
  400.3000    96.8376    18.9724    19.7531
  400.4000    96.3410    18.7813    19.6538
  400.5000    95.8443    18.6819    19.6536
  400.6000    95.2816    18.6494    19.6192
  400.7000    94.8511    18.5978    19.5167
  400.8000    94.1953    18.4913    19.5164
  400.9000    93.3476    18.3853    19.4203
  401.0000    92.4953    18.2604    19.2393
  401.1000    92.2374    18.1755    19.0208
  401.2000    91.7602    18.0715    18.8046
  401.3000    91.6286    17.9680    18.5868
  401.4000    91.6286    17.8652    18.4829
  401.5000    91.6986    17.7549    18.3776
  401.6000    91.9330    17.7542    18.3291
  401.7000    91.9330    17.6830    18.2955
  401.8000    91.9330    17.6295    18.2014
  401.9000    92.0826    17.6033    18.2011
  402.0000    92.2374    17.5057    18.2009
  402.1000    92.2744    17.5048    18.1325
  402.2000    92.5419    17.4237    18.0741
  402.3000    92.9998    17.3820    18.0738
  402.4000    93.3235    17.3452    18.0736
  402.5000    93.8052    17.2598    18.0734
  402.6000    94.4894    17.2590    17.9934
  402.7000    94.9814    17.2584    17.9475
  402.8000    95.2297    17.2577    17.9472
  402.9000    95.6741    17.2570    17.9470
  403.0000    96.0303    17.2562    17.9467
  403.1000    96.1948    17.2555    17.9465
  403.2000    96.2224    17.2546    17.8775
  403.3000    96.4992    17.1749    17.8215
  403.4000    96.4992    17.1336    17.8212
  403.5000    96.3358    17.1684    17.8210
  403.6000    96.0876    17.2520    17.8208
  403.7000    95.8395    17.2511    17.8205
  403.8000    95.5860    17.2504    17.7624
  403.9000    95.3431    17.2497    17.6964
  404.0000    95.0949    17.2490    17.6962
  404.1000    94.8467    17.2483    17.6959
  404.2000    94.6728    17.2476    17.6957
  404.3000    94.6728    17.2467    17.6261
