~VERSION INFORMATION
 VERS.                2.0:   CWLS LOG ASCII STANDARD - VERSION 2.0
 WRAP.                 NO:   ONE LINE PER DEPTH STEP
~WELL INFORMATION
#MNEM.UNIT      DATA TYPE    INFORMATION
#----------   ------------   ------------------------------
 STRT.F         1420.5000:   START DEPTH
 STOP.F         2187.0000:   STOP DEPTH
 STEP.F            0.5000:   STEP LENGTH
 NULL.          -999.2500:   NO VALUE
 COMP. LAWRENCE/ALLISON INC:   COMPANY
 WELL.      22-2 STX #3-3:   WELL
 FLD .            WILDCAT:   FIELD
 LOC .       S3 T38N R78W:   LOCATION
 CNTY.            NATRONA:   COUNTY
 STAT.            WYOMING:   STATE
 CTRY. UNITED STATES OF AMERICA:   COUNTRY
 SRVC.            Unknown:   SERVICE COMPANY
 DATE.        10-JUN-1991:   LOGDATE
 API .       490251103400:   API NUMBER
~CURVE INFORMATION
#MNEM.UNIT       API CODE    CURVE DESCRIPTION
#----------   ------------   ------------------------------
 DEPT.F                  :   
 ROP .MIN/FT 91 810 01 00:   RATE OF DRILLING PENETRATION
 TGAS.UNITS  91 830 01 00:   TOTAL GAS
~PARAMETER INFORMATION
#MNEM.UNIT          VALUE    DESCRIPTION
#----------   ------------   ------------------------------
 EKB .F              5218:   KELLING BUSHING
 EGL .F              5208:   GROUND LEVEL
 DATE.            6-10-91:   RUN DATE
 BLI .F              2187:   BOTTOM LOG INTERVAL
 TLI .F              1420:   TOP LOG INTERVAL
 CS  .IN            8.625:   CASING SIZE
 CBD .F               562:   CASING BOTTOM DRILLER
 TLAB.HRS            0030:   TIME LOGGER AT BOTTOM
 ENGI.              TOWER:   RECORDING ENGINEER
 WITN.               HUSK:   WITNESSED BY
 CLNT.            A2DTECH:   CLIENT CODE
 ORIG.           5" PRINT:   ORIGIN OF DATA
 UWI .       490251103400:   UNIQUE WELL ID
 DICO. A2D Technologies, Inc.:   DIGITIZING COMPANY
~OTHER INFORMATION
~A  DEPT         ROP      TGAS  
# ...
 1785.0000     0.7296     0.3980
 1785.5000     0.7815     0.3847
 1786.0000     0.8111     0.3702
 1786.5000     0.8244     0.3582
 1787.0000     0.8249     0.3449
 1787.5000     0.8255     0.3317
 1788.0000     0.8261     0.3176
 1788.5000     0.8265     0.3026
 1789.0000     0.8033     0.2919
 1789.5000     0.7018     0.2786
 1790.0000     0.6604     0.2651
 1790.5000     0.6504     0.2500
 1791.0000     0.6509     0.2388
 1791.5000     0.6515     0.2255
 1792.0000     0.6520     0.2123
 1792.5000     0.6462     0.1975
 1793.0000     0.6426     0.1857
 1793.5000     0.6431     0.1725
 1794.0000     0.6541     0.1592
 1794.5000     0.6547     0.1449
 1795.0000     0.6598     0.1327
 1795.5000     0.6812     0.1194
 1796.0000     0.7191     0.1061
 1796.5000     0.7511     0.0923
 1797.0000     0.7731     0.0773
 1797.5000     0.7940     0.0663
 1798.0000     0.7945     0.0531
 1798.5000     0.7951     0.0397
 1799.0000     0.7956     0.0247
 1799.5000     0.7961     0.0133
 1800.0000     0.7938     0.0011
 1800.5000     0.7549     0.0133
 1801.0000     0.7550     0.0265
 1801.5000     0.7418     0.0398
 1802.0000     0.7238     0.0000
 1802.5000     0.7239     0.0000
 1803.0000     0.7241     0.0000
 1803.5000     0.7242     0.0000
 1804.0000     0.7243     0.0000
 1804.5000     0.7245     0.0000
 1805.0000     0.7186     0.0000
 1805.5000     0.6898     0.0000
 1806.0000     0.6697     0.0000
 1806.5000     0.6306     0.0000
 1807.0000     0.5993     0.0000
 1807.5000     0.5994     0.0000
 1808.0000     0.6008     0.0000
 1808.5000     0.6417     0.0000
 1809.0000     0.6720     0.0000
 1809.5000     0.7129     0.0000
 1810.0000     0.7394     0.0000
 1810.5000     0.7680     0.0000
 1811.0000     0.7681     0.0000
 1811.5000     0.7726     0.0000
 1812.0000     0.7806     0.0000
 1812.5000     0.7894     0.0000
 1813.0000     0.8106     0.0000
 1813.5000     0.8409     0.0000
 1814.0000     0.8653     0.0000
 1814.5000     0.8843     0.0000
 1815.0000     0.8949     0.0000
 1815.5000     0.8950     0.0000
 1816.0000     0.8952     0.0000
 1816.5000     0.8953     0.0000
 1817.0000     0.8535     0.0000
 1817.5000     0.8274     0.0000
 1818.0000     0.7750     0.0000
 1818.5000     0.7280     0.0000
 1819.0000     0.6968     0.0000
 1819.5000     0.6649     0.0000
 1820.0000     0.6551     0.0000
 1820.5000     0.6557     0.0000
 1821.0000     0.6764     0.0000
 1821.5000     0.6928     0.0000
 1822.0000     0.7147     0.0000
 1822.5000     0.7412     0.0000
 1823.0000     0.7712     0.0000
 1823.5000     0.7775     0.0000
 1824.0000     0.7960     0.0000
 1824.5000     0.8031     0.0000
 1825.0000     0.7822     0.0000
 1825.5000     0.7316     0.0000
 1826.0000     0.6660     0.0000
 1826.5000     0.6359     0.0000
 1827.0000     0.6465     0.0000
 1827.5000     0.6466     0.0000
 1828.0000     0.6468     0.0000
 1828.5000     0.6469     0.0000
 1829.0000     0.6470     0.0000
 1829.5000     0.6472     0.0000
 1830.0000     0.6622     0.0000
 1830.5000     0.6808     0.0000
 1831.0000     0.6895     0.0000
 1831.5000     0.7001     0.0000
 1832.0000     0.7260     0.0000
 1832.5000     0.7318     0.0000
 1833.0000     0.7424     0.0000
 1833.5000     0.7530     0.0000
 1834.0000     0.7582     0.0000
 1834.5000     0.7638     0.0000
 1835.0000     0.7639     0.0000
 1835.5000     0.7640     0.0000
 1836.0000     0.7746     0.0000
 1836.5000     0.7748     0.0000
 1837.0000     0.7749     0.0000
 1837.5000     0.7750     0.0000
 1838.0000     0.7752     0.0000
 1838.5000     0.7753     0.0000
 1839.0000     0.7754     0.0000
 1839.5000     0.7756     0.0000
 1840.0000     0.7263     0.0000
 1840.5000     0.7024     0.0000
 1841.0000     0.6631     0.0000
 1841.5000     0.6394     0.0000
 1842.0000     0.6499     0.0000
 1842.5000     0.6670     0.0000
 1843.0000     0.6790     0.0000
 1843.5000     0.7143     0.0000
 1844.0000     0.7442     0.0000
 1844.5000     0.7652     0.0000
 1845.0000     0.7905     0.0000
 1845.5000     0.7966     0.0000
 1846.0000     0.7652     0.0000
 1846.5000     0.7128     0.0000
 1847.0000     0.6887     0.0000
 1847.5000     0.6374     0.0000
 1848.0000     0.5975     0.0000
 1848.5000     0.5870     0.0000
 1849.0000     0.5975     0.0000
 1849.5000     0.5975     0.0000
 1850.0000     0.6080     0.0000
 1850.5000     0.6604     0.0000
 1851.0000     0.6858     0.0000
 1851.5000     0.7152     0.0000
 1852.0000     0.7338     0.0000
 1852.5000     0.7128     0.0000
 1853.0000     0.6814     0.0000
 1853.5000     0.6446     0.0000
 1854.0000     0.6183     0.0000
 1854.5000     0.5975     0.0000
 1855.0000     0.6188     0.0000
 1855.5000     0.6318     0.0000
 1856.0000     0.6502     0.0000
 1856.5000     0.6394     0.0000
 1857.0000     0.6176     0.0000
 1857.5000     0.5870     0.0000
 1858.0000     0.5755     0.0000
 1858.5000     0.5451     0.0000
 1859.0000     0.5077     0.0000
 1859.5000     0.4860     0.0000
 1860.0000     0.4612     0.0000
 1860.5000     0.4717     0.0000
 1861.0000     0.5215     0.0000
 1861.5000     0.5942     0.0000
 1862.0000     0.7111     0.0000
 1862.5000     0.8805     0.0000
 1863.0000     0.9183     0.0000
 1863.5000     0.9187     0.0000
 1864.0000     0.8605     0.0000
 1864.5000     0.7233     0.0000
 1865.0000     0.6827     0.0000
 1865.5000     0.6669     0.0000
 1866.0000     0.6394     0.0000
 1866.5000     0.6289     0.0000
 1867.0000     0.6289     0.0000
 1867.5000     0.6289     0.0000
 1868.0000     0.6289     0.0000
 1868.5000     0.6289     1.4063
 1869.0000     0.6394     1.9420
 1869.5000     0.6543     1.8968
 1870.0000     0.6765     1.8517
 1870.5000     0.7233     1.8175
 1871.0000     0.7757     1.7777
 1871.5000     0.8165     1.7379
 1872.0000     0.8407     1.6936
 1872.5000     0.8700     1.6583
 1873.0000     0.8700     3.0248
 1873.5000     0.8749     3.7941
 1874.0000     0.8805     4.7229
 1874.5000     0.8805     4.6831
 1875.0000     0.8805     4.6433
 1875.5000     0.8805     4.6035
 1876.0000     0.8700     4.5614
 1876.5000     0.8700     4.5163
 1877.0000     0.8281     4.0331
 1877.5000     0.7860     3.3830
 1878.0000     0.7547     3.3420
 1878.5000     0.7652     2.2355
 1879.0000     0.7547     1.1409
 1879.5000     0.7325     0.0398
 1880.0000     0.6933     0.0000
 1880.5000     0.6700    10.4895
 1881.0000     0.6289    10.4895
 1881.5000     0.6289    10.4895
 1882.0000     0.6418    10.4895
 1882.5000     0.6617    10.4895
 1883.0000     0.6515    10.4895
 1883.5000     0.6622    10.4895
 1884.0000     0.6662    10.4895
 1884.5000     0.6732    10.4895
 1885.0000     0.6840    11.4186
 1885.5000     0.6842    10.4895
 1886.0000     0.6909    10.4895
 1886.5000     0.6847    10.4895
 1887.0000     0.6641    10.4895
 1887.5000     0.5910     9.8153
 1888.0000     0.5313     8.2354
 1888.5000     0.4761     4.1958
 1889.0000     0.4974     2.9789
 1889.5000     0.5186     2.0979
 1890.0000     0.5698     4.3754
 1890.5000     0.6263     8.3916
 1891.0000     0.6347    11.7301
 1891.5000     0.6350    19.6038
 1892.0000     0.6352    28.6992
 1892.5000     0.6355    58.7413
 1893.0000     0.6357   119.7025
 1893.5000     0.6465   206.5289
 1894.0000     0.6685   332.3339
 1894.5000     0.7420   490.9091
 1895.0000     0.8603   508.1719
 1895.5000     0.9620   511.1179
 1896.0000     1.0162   506.9379
 1896.5000     1.0464   493.0070
 1897.0000     1.0343   478.0533
 1897.5000     0.9945   463.8599
 1898.0000     0.9547   445.7508
 1898.5000     0.9206   427.9720
 1899.0000     0.8760   403.9301
 1899.5000     0.8174   380.2870
 1900.0000     0.7764   351.2473
 1900.5000     0.7361   302.0979
 1901.0000     0.6995   268.1338
 1901.5000     0.6717   245.8540
 1902.0000     0.6405   222.5311
 1902.5000     0.6152   201.3986
 1903.0000     0.5990   178.3217
 1903.5000     0.6098   162.6345
 1904.0000     0.6416   143.0182
 1904.5000     0.6671   121.6783
 1905.0000     0.6993    94.4056
 1905.5000     0.7366    75.5882
 1906.0000     0.7684    51.3326
