~VERSION INFORMATION
 VERS.                2.0:   CWLS LOG ASCII STANDARD - VERSION 2.0
 WRAP.                 NO:   ONE LINE PER DEPTH STEP
~WELL INFORMATION
#MNEM.UNIT      DATA TYPE    INFORMATION
#----------   ------------   ------------------------------
 STRT.F            0.0000:   START DEPTH
 STOP.F          652.0000:   STOP DEPTH
 STEP.F            0.5000:   STEP LENGTH
 NULL.          -999.2500:   NO VALUE
 COMP.   FLUOR DANIEL INC:   COMPANY
 WELL.   68-1 X 34 #68-34:   WELL
 FLD .             TEAPOT:   FIELD
 LOC .      S34 T39N R78W:   LOCATION
 CNTY.            NATRONA:   COUNTY
 STAT.            WYOMING:   STATE
 CTRY. UNITED STATES OF AMERICA:   COUNTRY
 SRVC.      Western Atlas:   SERVICE COMPANY
 DATE.        08-APR-1995:   LOGDATE
 API .       490252269900:   API NUMBER
~CURVE INFORMATION
#MNEM.UNIT       API CODE    CURVE DESCRIPTION
#----------   ------------   ------------------------------
 DEPT.F                  :   
 GRR .GAPI   07 310 01 00:   GAMMA RAY
 RILD.OHMM   07 120 46 00:   INDUCTION LOG DEEP RESISTIVITY
 RILM.OHMM   07 120 44 00:   RESITIVITY LONG MEDIUM
~PARAMETER INFORMATION
#MNEM.UNIT          VALUE    DESCRIPTION
#----------   ------------   ------------------------------
 PD  .                 GL:   PERMANENT DATUM
 EPD .F              5106:   ELEVATION PERMANENT DATUM
 LMF .                 KB:   LOG MEASURED FROM
 DAPD.F                10:   FEET ABOVE PERMANENT DATUM
 DMF .                 KB:   DRILLING MEASURED FROM
 EKB .F              5116:   KELLING BUSHING
 EDF .F              5115:   DRILLING FLOOR
 EGL .F              5106:   GROUND LEVEL
 DATE.        08-APR-1995:   RUN DATE
 RUN .                  1:   RUN NUMBER
 DD  .F               660:   DEPTH DRILLER
 DL  .F               660:   DEPTH LOGGER
 BLI .F               652:   BOTTOM LOG INTERVAL
 TLI .F                54:   TOP LOG INTERVAL
 CS  .IN            9.625:   CASING SIZE
 CBD .F                53:   CASING BOTTOM DRILLER
 CBL .F                54:   CASING BOTTOM LOGGER
 BS  .IN             8.75:   BIT SIZE
 BSD .F               660:   BIT SIZE AT DEPTH
 DFT .                AIR:   DRILLING FLUID TYPE
 MRT .F                90:   MAXIMUM RECORDED TEMPERATURE
 LUN .            HL 6530:   LOGGING UNIT NUMBER
 LUL .             CASPER:   LOGGING UNIT LOCATION
 ENGI.      PAT RASMUSSEN:   RECORDING ENGINEER
 WITN.        GARY STRONG:   WITNESSED BY
 CLNT.            A2DTECH:   CLIENT CODE
 ORIG.           5" PRINT:   ORIGIN OF DATA
 UWI .       490252269900:   UNIQUE WELL ID
 DICO. A2D Technologies, Inc.:   DIGITIZING COMPANY
~OTHER INFORMATION
~A    DEPT      GRR      RILD       RILM   
# ...
  273.0000   122.2193    11.7586    12.0490
  273.5000   120.7261    11.6812    11.9314
  274.0000   118.9279    11.6044    11.7696
  274.5000   120.1415    11.4494    11.6105
  275.0000   121.3551    11.2956    11.3740
  275.5000   121.6623    11.2213    11.1429
  276.0000   117.4623    11.1475    11.0676
  276.5000   117.1509    11.0742    10.9939
  277.0000   119.8874    11.0022    10.9966
  277.5000   125.0087    11.0067    10.9223
  278.0000   125.9194    11.0103    11.0009
  278.5000   125.3264    11.0138    11.0030
  279.0000   122.3295    11.0175    11.0822
  279.5000   118.7289    11.0219    11.1613
  280.0000   116.9308    11.0255    11.2411
  280.5000   116.6406    11.0291    11.3264
  281.0000   113.0422    11.0328    11.4821
  281.5000   112.4471    10.9601    11.5642
  282.0000   112.1569    10.9645    11.4077
  282.5000   111.5639    10.8923    11.1753
  283.0000   112.4767    10.7461    10.7226
  283.5000   113.9890    10.6026    10.5042
  284.0000   121.5162    10.4601    10.3617
  284.5000   125.7483    10.3196    10.2922
  285.0000   124.8436    10.1818    10.2232
  285.5000   123.3483    10.1148    10.1530
  286.0000   122.1538     9.9781    10.0174
  286.5000   120.0361     9.8449     9.8820
  287.0000   119.1632     9.7126     9.8839
  287.5000   120.3768     9.6487     9.7499
  288.0000   120.9868     9.6527     9.6849
  288.5000   120.0930     9.5892     9.6868
  289.0000   118.5999     9.4604     9.5554
  289.5000   117.1025     9.3989     9.4258
  290.0000   118.3161     9.4019     9.2980
  290.5000   117.3854     9.3363     9.3003
  291.0000   114.1246     9.2787     9.3667
  291.5000   114.7346     9.3469     9.4341
  292.0000   116.5476     9.4149     9.5015
  292.5000   118.0620     9.4181     9.5034
  293.0000   116.8674     9.4218     9.5052
  293.5000   116.5730     9.4249     9.4419
  294.0000   118.3881     9.4280     9.4438
  294.5000   122.0078     9.4220     9.4456
  295.0000   122.3149     9.3043     9.3823
  295.5000   120.5210     9.2431     9.2555
  296.0000   116.3188     9.1196     9.1299
  296.5000   116.3295     8.9358     9.0061
  297.0000   116.0372     8.8763     8.8787
  297.5000   114.5420     8.6966     8.5245
  298.0000   115.4527     8.5213     8.3508
  298.5000   116.9670     8.1778     8.0682
  299.0000   117.2763     7.9570     7.7951
  299.5000   117.5855     7.7953     7.7429
  300.0000   121.5038     7.6381     7.6909
  300.5000   122.7174     7.5878     7.7463
  301.0000   120.7674     7.5909     7.8020
  301.5000   117.0391     7.7532     7.8835
  302.0000   117.6546     7.8096     8.0310
  302.5000   119.1758     7.9211     8.0900
  303.0000   121.8966     8.0349     8.2067
  303.5000   123.7151     8.2061     8.2099
  304.0000   125.2331     8.2088     8.2702
  304.5000   125.5511     8.2114     8.2742
  305.0000   127.3696     8.2713     8.2774
  305.5000   130.0903     8.3320     8.3961
  306.0000   130.1078     8.4509     8.4578
  306.5000   129.2196     8.4537     8.5798
  307.0000   126.2260     8.5159     8.7029
  307.5000   125.3378     8.6374     8.7667
  308.0000   125.6560     8.7607     8.9551
  308.5000   124.7677     8.9534     9.0208
  309.0000   122.9374     9.0760     9.0871
  309.5000   120.5887     9.0789     9.0906
  310.0000   119.7004     9.0819     9.1582
  310.5000   119.4135     9.0228     9.0976
  311.0000   119.7319     9.0258     9.0392
  311.5000   121.5504     8.9664     8.7966
  312.0000   123.3689     8.7242     8.6789
  312.5000   123.0821     8.4893     8.5629
  313.0000   124.3026     8.3746     8.4484
  313.5000   130.3316     8.3201     8.3933
  314.0000   133.6541     8.2654     8.3974
  314.5000   132.4684     8.2688     8.4007
  315.0000   125.2643     8.2714     8.4047
  315.5000   121.9700     8.3316     8.4080
  316.0000   121.6833     8.3350     8.4113
  316.5000   122.3023     8.3377     8.3850
  317.0000   125.9253     8.3404     8.3597
  317.5000   126.5443     8.3432     8.3634
  318.0000   126.8590     8.3464     8.3670
  318.5000   127.7753     8.3492     8.3711
  319.0000   129.6140     8.1801     8.3743
  319.5000   129.3105     8.0702     8.3189
  320.0000   126.9150     8.0171     8.2085
  320.5000   129.9400     7.9650     8.0436
  321.0000   134.4687     7.9677     7.9904
  321.5000   133.8812     7.9152     7.9384
  322.0000   128.1809     7.9184     7.8874
  322.5000   120.6796     7.8662     7.7827
  323.0000   120.3893     7.7070     7.7857
  323.5000   119.8053     7.5516     7.7350
  324.0000   119.2178     7.3471     7.5273
  324.5000   119.2353     7.1467     7.1244
  325.0000   119.5500     6.8611     6.7431
  325.5000   120.1655     6.5840     6.4162
  326.0000   130.1078     6.1881     6.0831
  326.5000   130.7198     6.1050     6.0854
  327.0000   127.4290     6.1499     6.0878
  327.5000   125.6385     6.1947     6.1757
  328.0000   125.9568     6.2403     6.3516
  328.5000   124.4670     6.4176     6.7627
  329.0000   123.8795     6.6000     6.9122
  329.5000   124.4985     6.8347     7.0071
  330.0000   127.5200     7.0844     7.1570
  330.5000   128.7370     7.3301     7.4120
  331.0000   129.6567     7.4864     7.5712
  331.5000   129.6707     7.5409     7.7332
  332.0000   129.3839     7.5439     7.7362
  332.5000   123.9879     7.5464     7.6327
  333.0000   121.8931     7.4961     7.5830
  333.5000   123.1136     7.4427     7.4823
  334.0000   128.2607     7.2966     7.3823
  334.5000   129.1601     7.1986     7.2843
  335.0000   128.8698     7.1518     7.1862
  335.5000   127.0828     7.1048     7.0418
  336.0000   126.7961     6.9609     6.9445
  336.5000   126.8135     6.8200     6.8075
  337.0000   128.0305     6.6340     6.6701
  337.5000   129.2475     6.2379     6.4017
  338.0000   128.9608     5.7027     5.6935
  338.5000   128.6740     5.1062     5.2054
  339.0000   126.8271     4.9683     5.1709
  339.5000   119.6864     5.0397     5.1377
  340.0000   113.3846     5.1471     5.1760
  340.5000   114.3009     5.1846     5.3234
  341.0000   120.6341     5.2956     5.5900
  341.5000   128.7684     5.4461     5.9937
  342.0000   128.8221     5.6790     6.2939
  342.5000   125.1909     6.0574     6.7478
  343.0000   120.9943     6.4375     7.0857
  343.5000   121.3091     6.8537     7.2379
  344.0000   123.7494     7.1468     7.3417
  344.5000   124.3481     7.2998     7.4470
  345.0000   124.0613     7.3022     7.4506
  345.5000   124.0753     7.4064     7.5053
  346.0000   124.3935     7.4604     7.6129
  346.5000   126.2120     7.5674     7.8842
  347.0000   130.7373     7.6754     8.0536
  347.5000   131.0520     7.8391     8.1127
  348.0000   129.2650     8.0069     8.1159
  348.5000   127.4745     8.0651     8.1763
  349.0000   121.7544     8.0677     8.1794
  349.5000   121.1867     8.0704     8.2395
  350.0000   128.1215     8.0736     8.2999
  350.5000   127.8376     8.0762     8.4198
  351.0000   126.6560     8.0788     8.5397
  351.5000   125.1692     8.0821     8.4849
  352.0000   125.1861     8.0283     8.4365
  352.5000   127.3083     8.0353     8.4863
  353.0000   127.0287     8.0613     8.4885
  353.5000   125.5377     8.0873     8.4907
  354.0000   126.4611     8.1133     8.4930
  354.5000   130.1203     8.1393     8.4365
  355.0000   134.3188     8.1652     8.3805
  355.5000   134.6322     8.1912     8.3253
  356.0000   133.1496     8.2132     8.1496
  356.5000   127.4523     8.2153     8.0467
  357.0000   128.0749     8.2180     8.0488
  357.5000   130.1971     8.1629     7.9953
  358.0000   131.1163     7.9971     7.8874
  358.5000   132.7238     7.7796     7.7810
  359.0000   135.9664     7.3642     7.5708
  359.5000   135.0811     6.9691     7.3659
  360.0000   134.4962     6.5952     6.8279
  360.5000   135.1192     6.1935     6.2417
  361.0000   136.0384     5.5886     5.7854
  361.5000   135.7503     5.2161     5.1799
  362.0000   133.6662     4.6702     4.5114
  362.5000   131.5821     3.6830     4.0674
  363.0000   132.2006     3.2150     3.4455
  363.5000   132.5140     2.9594     3.1051
