~VERSION INFORMATION
 VERS.                2.0:   CWLS LOG ASCII STANDARD - VERSION 2.0
 WRAP.                 NO:   ONE LINE PER DEPTH STEP
~WELL INFORMATION
#MNEM.UNIT      DATA TYPE    INFORMATION
#----------   ------------   ------------------------------
 STRT.F           20.0000:   START DEPTH
 STOP.F          710.0000:   STOP DEPTH
 STEP.F            0.5000:   STEP LENGTH
 NULL.          -999.2500:   NO VALUE
 COMP. FENIX & SCISSON INC:   COMPANY
 WELL.     NPR-3 #42SX-34:   WELL
 FLD .             TEAPOT:   FIELD
 LOC .      S34 T39N R78W:   LOCATION
 CNTY.            NATRONA:   COUNTY
 STAT.            WYOMING:   STATE
 CTRY. UNITED STATES OF AMERICA:   COUNTRY
 SRVC.           BIRDWELL:   SERVICE COMPANY
 DATE.        30-AUG-1978:   LOGDATE
 API .       490251070800:   API NUMBER
~CURVE INFORMATION
#MNEM.UNIT       API CODE    CURVE DESCRIPTION
#----------   ------------   ------------------------------
 DEPT.F                  :   
 SPR .MV     05 010 01 00:   SPONTANEOUS POTENTIAL
 SN  .OHMM   05 040 16 00:   SHORT NORMAL 16'
 ILD .OHMM   05 120 46 00:   INDUCTION LOG DEEP RESISTIVITY
 GRD .GAPI   45 310 01 00:   GAMMA RAY FROM DENSITY LOG
 CALD.IN     45 280 60 00:   CALIPER
 RHOB.G/C3   45 350 01 00:   BULK DENSITY
 DPHI.DEC    45 890 12 00:   DENSITY POROSITY SANDSTONE
 CORR.G/C3   45 356 01 00:   DENSITY CORRECTION
~PARAMETER INFORMATION
#MNEM.UNIT          VALUE    DESCRIPTION
#----------   ------------   ------------------------------
 PD  .                 GL:   PERMANENT DATUM
 EPD .F              5079:   ELEVATION PERMANENT DATUM
 LMF .                 KB:   LOG MEASURED FROM
 DAPD.F                 4:   FEET ABOVE PERMANENT DATUM
 DMF .                 KB:   DRILLING MEASURED FROM
 EKB .F              5083:   KELLING BUSHING
 EGL .F              5079:   GROUND LEVEL
 DATE.            8-30-78:   RUN DATE
 RUN .                  1:   RUN NUMBER
 DD  .F               705:   DEPTH DRILLER
 DL  .F               708:   DEPTH LOGGER
 BLI .F               702:   BOTTOM LOG INTERVAL
 TLI .F                50:   TOP LOG INTERVAL
 CS  .IN            8.625:   CASING SIZE
 CBD .F                40:   CASING BOTTOM DRILLER
 CBL .F                40:   CASING BOTTOM LOGGER
 BS  .IN            7.875:   BIT SIZE
 BSD .F               705:   BIT SIZE AT DEPTH
 DFT .                KCL:   DRILLING FLUID TYPE
 DFD .                8.6:   DRILLING FLUID DENSITY
 DFV .                 34:   DRILLING FLUID VISCOSITY
 DFPH.                  9:   DRILLING FLUID PH
 DFL .                7.4:   DRILLING FLUID LOSS
 MSS .           FLOWLINE:   MUD SAMPLE SOURCE
 RMS .OHMM             .3:   RESISTIVITY MUD SAMPLE
 MST .F                80:   MUD SAMPLE TEMPERATURE
 RMF .OHMM             .4:   RESISTIVITY MUD FILTRATE SAMPLE
 MFST.F                80:   MUD FILTRATE SAMPLE TEMPERATURE
 RMC .OHMM             .5:   RESISTIVITY MUD CAKE
 MCST.F                82:   MUD CAKE SAMPLE TEMPERATURE
 MFSS.               MEAS:   MUD FILTRATE SAMPLE SOURCE
 MCSS.               MEAS:   MUD CAKE SAMPLE SOURCE
 RMB .OHMM            .32:   RESISTIVITY MUD AT BHT
 BHT .F                73:   BOTTOM HOLE TEMPERATURE
 TCS .HRS               3:   TIME CURCULATED STOPPED
 MRT .F                73:   MAXIMUM RECORDED TEMPERATURE
 LUN .               3006:   LOGGING UNIT NUMBER
 LUL .               CASP:   LOGGING UNIT LOCATION
 ENGI.            POINTER:   RECORDING ENGINEER
 WITN.              AMEND:   WITNESSED BY
 CLNT.            A2DTECH:   CLIENT CODE
 ORIG.           5" PRINT:   ORIGIN OF DATA
 UWI .       490251070800:   UNIQUE WELL ID
 DICO. A2D Technologies, Inc.:   DIGITIZING COMPANY
~OTHER INFORMATION
~A   DEPT      SPR         SN        ILD         GRD      CALD       RHOB       DPHI       CORR   
# ...
  546.5000   -41.7730    14.4799    15.0859    61.0983     8.6205     2.4196     0.1582     0.0224
  547.0000   -41.9591    14.4706    14.9561    61.6695     8.6311     2.4174     0.1606     0.0230
  547.5000   -42.1431    14.4612    14.8274    63.7165     8.6304     2.4156     0.1630     0.0240
  548.0000   -42.3278    14.4518    14.4887    63.7315     8.6304     2.4138     0.1623     0.0247
  548.5000   -42.5196    14.4424    14.2452    62.8371     8.6302     2.4127     0.1568     0.0256
  549.0000   -42.6151    14.4333    14.0214    65.0786     8.6309     2.4216     0.1514     0.0260
  549.5000   -42.6235    14.4240    13.9647    69.9572     8.6306     2.4373     0.1436     0.0260
  550.0000   -42.6387    14.4148    13.9647    73.3571     8.6277     2.4422     0.1459     0.0260
  550.5000   -42.6553    14.4055    14.0142    71.9626     8.6639     2.4390     0.1500     0.0260
  551.0000   -42.6695    14.3962    14.1327    69.1116     8.7493     2.4349     0.1541     0.0260
  551.5000   -42.6848    14.3869    14.2510    64.3256     8.8285     2.4260     0.1582     0.0260
  552.0000   -42.7000    14.3777    14.3714    64.0371     8.8300     2.4172     0.1622     0.0260
  552.5000   -42.7150    14.3684    14.4928    63.7218     8.8315     2.4094     0.1660     0.0260
  553.0000   -42.7303    14.3592    14.6152    63.5756     8.8354     2.4110     0.1628     0.0269
  553.5000   -42.7456    14.3499    14.7565    63.3893     8.7972     2.4124     0.1582     0.0276
  554.0000   -42.7609    14.3407    14.7567    63.1820     8.7718     2.4179     0.1532     0.0284
  554.5000   -42.7761    14.3315    14.7570    62.9921     8.7518     2.4249     0.1519     0.0291
  555.0000   -42.7914    14.3222    14.7574    63.5039     8.7348     2.4322     0.1506     0.0301
  555.5000   -42.8067    14.3130    14.7570    63.5090     8.7157     2.4352     0.1500     0.0284
  556.0000   -42.8220    14.3038    14.7577    67.0856     8.6970     2.4348     0.1511     0.0250
  556.5000   -42.8372    14.2946    14.7578    68.3278     8.6789     2.4307     0.1540     0.0220
  557.0000   -42.8525    14.2855    14.7569    66.6298     8.6602     2.4267     0.1569     0.0189
  557.5000   -42.8678    14.2763    14.7580    65.4281     8.6406     2.4222     0.1597     0.0151
  558.0000   -42.8831    14.2672    14.7609    66.7120     8.6294     2.4180     0.1626     0.0182
  558.5000   -42.8986    14.2583    14.7150    67.7908     8.6305     2.4154     0.1608     0.0224
  559.0000   -42.9140    14.2488    14.6342    67.9139     8.6304     2.4160     0.1565     0.0243
  559.5000   -42.9293    14.2397    14.5568    66.4731     8.6300     2.4232     0.1522     0.0260
  560.0000   -42.9456    14.2305    14.4798    65.1058     8.6302     2.4342     0.1480     0.0267
  560.5000   -42.9600    14.1934    14.4033    64.5210     8.6312     2.4396     0.1451     0.0271
  561.0000   -42.9761    14.1031    14.3271    66.8134     8.6526     2.4425     0.1429     0.0276
  561.5000   -42.9993    14.0133    14.2514    70.0888     8.6681     2.4458     0.1406     0.0281
  562.0000   -42.9401    13.9239    14.1760    73.4119     8.7037     2.4494     0.1402     0.0286
  562.5000   -42.7448    13.8351    14.1011    75.2683     8.7841     2.4503     0.1414     0.0291
  563.0000   -42.5701    13.7109    14.0265    73.9417     8.8656     2.4475     0.1425     0.0295
  563.5000   -42.3615    13.7436    13.9647    72.8294     8.9155     2.4450     0.1436     0.0299
  564.0000   -42.1606    13.8092    13.9647    73.0185     8.8994     2.4431     0.1436     0.0283
  564.5000   -41.3752    13.8753    13.9647    74.1274     8.8873     2.4431     0.1436     0.0268
  565.0000   -40.6750    13.9419    13.9647    73.6727     8.8752     2.4433     0.1471     0.0253
  565.5000   -39.9381    14.0905    13.9647    72.0292     8.8722     2.4397     0.1500     0.0235
  566.0000   -39.1205    14.5175    14.7190    70.8519     8.8635     2.4221     0.1646     0.0223
  566.5000   -38.0780    14.9576    15.5966    70.7761     8.8469     2.4002     0.1780     0.0225
  567.0000   -37.0390    15.4494    16.4091    70.7092     8.8311     2.3784     0.1913     0.0283
  567.5000   -36.0007    16.1016    17.2743    66.4433     8.8157     2.3567     0.2047     0.0348
  568.0000   -34.9475    16.7814    18.1850    61.0756     8.7991     2.3351     0.2180     0.0434
  568.5000   -33.9164    17.4898    19.1437    55.6589     8.7904     2.3135     0.2261     0.0599
  569.0000   -33.0234    18.2281    20.1530    50.1096     8.7912     2.3027     0.2305     0.0779
  569.5000   -33.0065    18.9976    21.2156    45.0221     8.7912     2.3009     0.2356     0.1009
  570.0000   -32.9868    19.4796    22.3341    40.1549     8.7910     2.2995     0.2283     0.1233
  570.5000   -32.9970    19.5378    23.5116    42.7459     8.7912     2.3095     0.2195     0.1456
  571.0000   -32.9979    19.5961    24.7470    49.0122     8.7913     2.3200     0.2072     0.1682
  571.5000   -32.9965    19.6546    26.1346    48.4590     8.7912     2.3315     0.1886     0.1920
  572.0000   -32.9989    19.7133    25.6430    48.6674     8.7913     2.3690     0.1689     0.1996
  572.5000   -32.9998    19.7722    24.8337    50.1461     8.7917     2.4138     0.1476     0.1905
  573.0000   -33.0008    19.8166    24.1670    52.5100     8.7853     2.4377     0.1573     0.1828
  573.5000   -32.9894    19.6260    23.5182    50.9538     8.7673     2.4310     0.1678     0.1753
  574.0000   -32.9491    19.4069    22.8867    48.8126     8.7498     2.4056     0.1784     0.1674
  574.5000   -32.9095    19.1903    22.2722    51.4981     8.7321     2.3812     0.1889     0.1597
  575.0000   -32.8693    18.9761    21.6743    54.4528     8.7143     2.3656     0.1952     0.1520
  575.5000   -32.8292    18.7642    21.0931    57.8329     8.6966     2.3574     0.1986     0.1442
  576.0000   -32.7891    18.5548    20.5502    58.6025     8.6790     2.3534     0.2012     0.1365
  576.5000   -32.7487    18.4090    20.5705    56.0473     8.6612     2.3522     0.1989     0.1290
  577.0000   -32.7091    18.3203    20.5732    53.7892     8.6434     2.3516     0.1961     0.1209
  577.5000   -32.6684    18.2234    20.5746    51.5560     8.6289     2.3538     0.1933     0.1133
  578.0000   -32.6270    18.1271    20.1763    49.2073     8.6230     2.3596     0.1906     0.0974
  578.5000   -32.6170    18.0374    20.0562    48.4390     8.6169     2.3670     0.1860     0.0824
  579.0000   -32.6827    17.9581    19.9501    48.6598     8.6108     2.3744     0.1879     0.0670
  579.5000   -32.7467    17.8792    19.8446    49.3098     8.6050     2.3670     0.1938     0.0542
  580.0000   -32.8121    17.8005    19.7397    49.9351     8.5991     2.3592     0.1998     0.0529
  580.5000   -32.8761    17.7222    19.6354    53.7069     8.5921     2.3507     0.2057     0.0517
  581.0000   -32.9435    17.6441    19.5315    57.1692     8.5974     2.3420     0.2081     0.0507
  581.5000   -33.0047    17.5664    19.4283    57.1844     8.6135     2.3409     0.2044     0.0479
  582.0000   -33.1139    17.4889    19.3256    55.7572     8.6286     2.3423     0.2054     0.0382
  582.5000   -33.2117    17.4118    19.2234    54.3738     8.6434     2.3399     0.2068     0.0372
  583.0000   -33.3136    17.3351    19.1218    53.0329     8.6587     2.3376     0.2072     0.0360
  583.5000   -33.4142    17.2587    19.0998    54.2984     8.6737     2.3370     0.2077     0.0352
  584.0000   -33.5148    17.1826    18.7512    56.1430     8.6888     2.3370     0.2082     0.0344
  584.5000   -33.6157    17.1069    18.7512    57.9422     8.7038     2.3370     0.2084     0.0333
  585.0000   -33.7168    17.0315    18.7512    55.7523     8.7192     2.3370     0.2084     0.0321
  585.5000   -33.8174    16.9564    18.7512    53.4217     8.7336     2.3369     0.2071     0.0309
  586.0000   -33.9174    16.8817    18.7512    53.6362     8.7500     2.3379     0.2060     0.0298
  586.5000   -34.0206    16.8067    18.7505    55.5453     8.7508     2.3399     0.2049     0.0287
