~VERSION INFORMATION
 VERS.                2.0:   CWLS LOG ASCII STANDARD - VERSION 2.0
 WRAP.                 NO:   ONE LINE PER DEPTH STEP
~WELL INFORMATION
#MNEM.UNIT      DATA TYPE    INFORMATION
#----------   ------------   ------------------------------
 STRT.F           26.0000:   START DEPTH
 STOP.F         1071.0000:   STOP DEPTH
 STEP.F            0.5000:   STEP LENGTH
 NULL.          -999.2500:   NO VALUE
 COMP. FENIX & SCISSON INC:   COMPANY
 WELL.       NRP 3 #61-14:   WELL
 FLD .        TEAPOT DOME:   FIELD
 LOC .      S14 T38N R78W:   LOCATION
 CNTY.            NATRONA:   COUNTY
 STAT.            WYOMING:   STATE
 CTRY. UNITED STATES OF AMERICA:   COUNTRY
 SRVC.            Unknown:   SERVICE COMPANY
 DATE.        09-JAN-1979:   LOGDATE
 API .       490251076300:   API NUMBER
~CURVE INFORMATION
#MNEM.UNIT       API CODE    CURVE DESCRIPTION
#----------   ------------   ------------------------------
 DEPT.F                  :   
 SPR .MV     05 010 01 00:   SPONTANEOUS POTENTIAL FROM RES.
 SN  .OHMM   05 040 16 00:   SHORT NORMAL 16"
 IL  .OHMM   05 120 00 00:   INDUCTION LOG
 CALD.IN     45 280 60 00:   CALIPER
 GRD .GAPI   45 310 01 00:   GAMMA RAY FROM DENSITY LOG
 RHOB.G/C3   45 350 01 00:   BULK DENSITY
 DPHI.DEC    45 890 12 00:   DENSITY POROSITY SANDSTONE
 CORR.G/C3   45 356 01 00:   DENSITY CORRECTION
~PARAMETER INFORMATION
#MNEM.UNIT          VALUE    DESCRIPTION
#----------   ------------   ------------------------------
 PD  .                 GL:   PERMANENT DATUM
 EPD .F              5240:   ELEVATION PERMANENT DATUM
 LMF .                 KB:   LOG MEASURED FROM
 DAPD.F                 4:   FEET ABOVE PERMANENT DATUM
 DMF .                 KB:   DRILLING MEASURED FROM
 EKB .F              5244:   KELLING BUSHING
 EGL .F              5240:   GROUND LEVEL
 DATE.             1-9-79:   RUN DATE
 RUN .                  1:   RUN NUMBER
 DD  .F              1061:   DEPTH DRILLER
 DL  .F              1071:   DEPTH LOGGER
 BLI .F              1064:   BOTTOM LOG INTERVAL
 TLI .F                50:   TOP LOG INTERVAL
 CS  .IN            8.625:   CASING SIZE
 CBD .F                40:   CASING BOTTOM DRILLER
 CBL .F                38:   CASING BOTTOM LOGGER
 BS  .IN            7.875:   BIT SIZE
 BSD .F              1061:   BIT SIZE AT DEPTH
 DFT .                KCL:   DRILLING FLUID TYPE
 DFD .                8.8:   DRILLING FLUID DENSITY
 DFV .                 36:   DRILLING FLUID VISCOSITY
 DFPH.                9.2:   DRILLING FLUID PH
 MSS .           FLOWLINE:   MUD SAMPLE SOURCE
 RMS .OHMM             .3:   RESISTIVITY MUD SAMPLE
 MST .F                58:   MUD SAMPLE TEMPERATURE
 RMF .OHMM             .3:   RESISTIVITY MUD FILTRATE SAMPLE
 MFST.F                58:   MUD FILTRATE SAMPLE TEMPERATURE
 RMC .OHMM            .34:   RESISTIVITY MUD CAKE
 MCST.F                62:   MUD CAKE SAMPLE TEMPERATURE
 MFSS.           MEASURED:   MUD FILTRATE SAMPLE SOURCE
 MCSS.           MEASURED:   MUD CAKE SAMPLE SOURCE
 RMB .OHMM            .29:   RESISTIVITY MUD AT BHT
 BHT .F                61:   BOTTOM HOLE TEMPERATURE
 TCS .HRS               4:   TIME CURCULATED STOPPED
 MRT .F                61:   MAXIMUM RECORDED TEMPERATURE
 LUN .               3006:   LOGGING UNIT NUMBER
 LUL .             CASPER:   LOGGING UNIT LOCATION
 ENGI.            ROLLINS:   RECORDING ENGINEER
 WITN.           DINSMORE:   WITNESSED BY
 CLNT.            A2DTECH:   CLIENT CODE
 ORIG.           5" PRINT:   ORIGIN OF DATA
 UWI .       490251076300:   UNIQUE WELL ID
 DICO. A2D Technologies, Inc.:   DIGITIZING COMPANY
~OTHER INFORMATION
~A   DEPT      SPR         SN         IL       CALD         GRD      RHOB       DPHI       CORR   
# ...
  350.0000   -58.1050     5.2130     5.3690     7.6750   108.3760     2.3950     0.1760     0.1980
  350.5000   -58.3080     5.1930     5.3500     7.6740   108.4680     2.3930     0.1780     0.2190
  351.0000   -58.5100     5.1730     5.3230     7.6720   108.2670     2.3930     0.1780     0.2400
  351.5000   -58.7170     5.1540     5.2960     7.6700   107.1800     2.3930     0.1770     0.2390
  352.0000   -59.0380     5.1340     5.2690     7.6690   107.0110     2.3960     0.1760     0.2300
  352.5000   -59.8030     5.1050     5.2410     7.6670   106.8780     2.4040     0.1640     0.2010
  353.0000   -60.5600     5.0700     5.2140     7.6650   106.8130     2.4170     0.1520     0.1730
  353.5000   -61.3180     5.0360     5.1870     7.6640   107.0540     2.4300     0.1410     0.1460
  354.0000   -62.0870     5.0010     5.1600     7.6620   107.2910     2.4430     0.1370     0.1280
  354.5000   -62.2330     4.9660     5.1330     7.6600   107.5260     2.4500     0.1410     0.1170
  355.0000   -61.8450     4.9320     5.1060     7.6590   107.7630     2.4450     0.1520     0.1170
  355.5000   -61.4220     4.8970     5.0790     7.6570   108.0090     2.4360     0.1630     0.1170
  356.0000   -60.9980     4.8630     5.0510     7.6550   108.4450     2.4180     0.1740     0.1170
  356.5000   -60.5750     4.8280     5.0330     7.6540   109.4590     2.3990     0.1830     0.1180
  357.0000   -60.1510     4.7930     4.9870     7.6520   110.4810     2.3810     0.1830     0.1180
  357.5000   -59.7290     4.7620     4.6370     7.6500   110.6260     2.3730     0.1830     0.1180
  358.0000   -59.3070     4.7180     4.2500     7.6490   105.7980     2.3730     0.1820     0.1230
  358.5000   -59.0020     4.5810     3.8630     7.6500   100.8730     2.3740     0.1810     0.1400
  359.0000   -58.8550     4.3770     3.4760     7.6510    99.7900     2.3740     0.1830     0.1450
  359.5000   -58.7080     4.0330     3.3130     7.6520    97.5380     2.3740     0.1840     0.1390
  360.0000   -58.5610     3.5100     3.1910     7.6530    94.9150     2.3720     0.1980     0.1330
  360.5000   -58.5220     3.1440     3.1440     7.6540    96.9940     2.3550     0.2180     0.1330
  361.0000   -58.6810     3.0650     3.1440     7.6560   102.2610     2.3260     0.2380     0.1290
  361.5000   -58.8370     3.0300     3.1730     7.6570   107.5090     2.2970     0.2450     0.1200
  362.0000   -58.9930     3.0860     3.2620     7.6580   110.1330     2.2840     0.2400     0.1150
  362.5000   -59.1490     3.3190     3.6200     7.6590   109.8110     2.2880     0.2300     0.1160
  363.0000   -59.3050     3.6350     3.9790     7.6600   109.4840     2.3000     0.2190     0.1180
  363.5000   -59.4610     3.9500     4.3370     7.6610   109.1950     2.3160     0.2080     0.1190
  364.0000   -59.6180     4.2650     4.6960     7.6620   109.3190     2.3370     0.1970     0.1210
  364.5000   -59.7740     4.5800     5.0540     7.6630   110.5570     2.3580     0.1890     0.1230
  365.0000   -59.9300     4.8560     5.4130     7.6640   111.9350     2.3700     0.1870     0.1240
  365.5000   -60.0860     5.0300     5.7270     7.6660   112.3020     2.3750     0.1850     0.1260
  366.0000   -60.2430     5.2050     5.8880     7.6670   112.3110     2.3790     0.1830     0.1280
  366.5000   -60.3990     5.3800     5.9290     7.6680   112.3090     2.3840     0.1800     0.1290
  367.0000   -60.5590     5.5550     5.9930     7.6730   111.9140     2.3870     0.1800     0.1290
  367.5000   -60.7680     5.7290     6.0560     7.6930   109.8220     2.3880     0.1800     0.1290
  368.0000   -61.1360     5.8430     6.1200     7.7200   107.0970     2.3900     0.1770     0.1280
  368.5000   -61.4510     5.8640     6.1830     7.7760   105.5350     2.3920     0.1730     0.1280
  369.0000   -61.4530     5.8860     6.2230     7.7870   105.5300     2.3950     0.1700     0.1280
  369.5000   -61.4790     5.9080     6.2230     7.7870   106.0650     2.3980     0.1720     0.1270
  370.0000   -62.0000     5.9300     6.2230     7.7890   107.7700     2.4000     0.1730     0.1270
  370.5000   -62.5120     5.9520     6.2230     7.8560   108.9680     2.4000     0.1700     0.1250
  371.0000   -63.0230     5.9740     6.2230     7.9070   108.8830     2.4010     0.1680     0.1230
  371.5000   -63.5330     5.9980     6.2230     7.9030   108.1520     2.4040     0.1660     0.1220
  372.0000   -64.0230     5.9980     6.2230     7.8990   106.8160     2.4050     0.1640     0.1200
  372.5000   -63.9450     5.9430     6.1520     7.8970   109.2040     2.4060     0.1670     0.1180
  373.0000   -63.8440     5.8030     6.0040     7.8940   112.4900     2.4010     0.1710     0.1160
  373.5000   -63.7440     5.6760     5.8550     7.8900   112.7690     2.3960     0.1740     0.1150
  374.0000   -63.6440     5.5490     5.7070     7.8870   112.6690     2.3900     0.1750     0.1130
  374.5000   -63.5440     5.4210     5.5580     7.8870   110.3430     2.3890     0.1730     0.1110
  375.0000   -63.4440     5.2830     5.4100     7.8880   106.1000     2.3880     0.1750     0.1090
  375.5000   -63.3440     5.1020     5.2470     7.8890   102.5170     2.3880     0.1760     0.1090
  376.0000   -63.2440     4.9210     5.0600     7.8890   103.3660     2.3860     0.1780     0.1090
  376.5000   -63.1440     4.7400     4.8740     7.8900   104.1930     2.3830     0.1790     0.1090
  377.0000   -63.0570     4.5590     4.6870     7.8900   105.5970     2.3810     0.1800     0.1100
  377.5000   -63.2170     4.3780     4.5010     7.8910   108.8330     2.3780     0.1890     0.1100
  378.0000   -63.3810     4.1970     4.3140     7.8920   112.3230     2.3720     0.2030     0.1100
  378.5000   -63.5460     4.0160     4.1850     7.8920   115.9100     2.3490     0.2170     0.1100
  379.0000   -63.7780     3.8510     4.1850     7.8930   115.8130     2.3260     0.2310     0.1100
  379.5000   -64.1320     3.8340     4.1850     7.8930   113.9360     2.3030     0.2370     0.1090
  380.0000   -64.4850     3.8160     4.2210     7.8940   112.1120     2.2950     0.2290     0.1090
  380.5000   -64.8380     3.9740     4.3590     7.8950   110.3080     2.3160     0.2100     0.1080
  381.0000   -65.1940     4.2450     4.5720     7.8950   108.4720     2.3390     0.1910     0.1080
  381.5000   -65.5960     4.5160     4.7850     7.8960   105.1650     2.3630     0.1700     0.1070
  382.0000   -66.1730     4.8960     4.9980     7.8960   101.8780     2.3870     0.1640     0.1070
  382.5000   -66.7390     4.8850     5.1290     7.8970    99.6460     2.4010     0.1650     0.1070
  383.0000   -67.3030     4.8660     5.1350     7.8980   100.6020     2.4030     0.1670     0.1080
  383.5000   -67.6960     4.8480     5.1410     7.8980   101.2420     2.4010     0.1680     0.1090
  384.0000   -67.8280     4.8290     5.1470     7.8990   101.2740     2.3980     0.1680     0.1100
  384.5000   -67.8260     4.8110     5.1530     7.8990   101.3190     2.3980     0.1680     0.1100
  385.0000   -67.8240     4.7750     5.1580     7.9000   101.3660     2.3990     0.1730     0.1110
  385.5000   -67.6110     4.7320     5.1640     7.9010   101.4590     2.3920     0.1780     0.1060
  386.0000   -67.0010     4.6890     5.1700     7.9010   101.9420     2.3870     0.1760     0.1010
  386.5000   -66.3840     4.6460     5.1740     7.9020   101.7920     2.3870     0.1740     0.0990
  387.0000   -66.2700     4.4730     4.8470     7.9020   100.9540     2.3860     0.1740     0.1010
  387.5000   -66.3010     4.2360     4.5430     7.9030   100.0900     2.3860     0.1760     0.1030
  388.0000   -66.3380     4.0000     4.2400     7.9040    99.8440     2.3840     0.1880     0.1070
  388.5000   -66.3760     3.7640     3.9360     7.9040   100.5030     2.3780     0.2000     0.1130
  389.0000   -66.4130     3.5020     3.6330     7.9050   102.1020     2.3560     0.2210     0.1160
  389.5000   -66.4510     3.1460     3.3290     7.9050   102.7020     2.3270     0.2440     0.1130
  390.0000   -66.4890     2.7900     3.0260     7.9060   103.3970     2.2850     0.2660     0.1110
