~VERSION INFORMATION
 VERS.                2.0:   CWLS LOG ASCII STANDARD - VERSION 2.0
 WRAP.                 NO:   ONE LINE PER DEPTH STEP
~WELL INFORMATION
#MNEM.UNIT      DATA TYPE    INFORMATION
#----------   ------------   ------------------------------
 STRT.F           20.0000:   START DEPTH
 STOP.F          710.0000:   STOP DEPTH
 STEP.F            0.5000:   STEP LENGTH
 NULL.          -999.2500:   NO VALUE
 COMP. FENIX & SCISSON INC:   COMPANY
 WELL.     NPR-3 #42SX-34:   WELL
 FLD .             TEAPOT:   FIELD
 LOC .      S34 T39N R78W:   LOCATION
 CNTY.            NATRONA:   COUNTY
 STAT.            WYOMING:   STATE
 CTRY. UNITED STATES OF AMERICA:   COUNTRY
 SRVC.           BIRDWELL:   SERVICE COMPANY
 DATE.        30-AUG-1978:   LOGDATE
 API .       490251070800:   API NUMBER
~CURVE INFORMATION
#MNEM.UNIT       API CODE    CURVE DESCRIPTION
#----------   ------------   ------------------------------
 DEPT.F                  :   
 SPR .MV     05 010 01 00:   SPONTANEOUS POTENTIAL
 SN  .OHMM   05 040 16 00:   SHORT NORMAL 16'
 ILD .OHMM   05 120 46 00:   INDUCTION LOG DEEP RESISTIVITY
 GRD .GAPI   45 310 01 00:   GAMMA RAY FROM DENSITY LOG
 CALD.IN     45 280 60 00:   CALIPER
 RHOB.G/C3   45 350 01 00:   BULK DENSITY
 DPHI.DEC    45 890 12 00:   DENSITY POROSITY SANDSTONE
 CORR.G/C3   45 356 01 00:   DENSITY CORRECTION
~PARAMETER INFORMATION
#MNEM.UNIT          VALUE    DESCRIPTION
#----------   ------------   ------------------------------
 PD  .                 GL:   PERMANENT DATUM
 EPD .F              5079:   ELEVATION PERMANENT DATUM
 LMF .                 KB:   LOG MEASURED FROM
 DAPD.F                 4:   FEET ABOVE PERMANENT DATUM
 DMF .                 KB:   DRILLING MEASURED FROM
 EKB .F              5083:   KELLING BUSHING
 EGL .F              5079:   GROUND LEVEL
 DATE.            8-30-78:   RUN DATE
 RUN .                  1:   RUN NUMBER
 DD  .F               705:   DEPTH DRILLER
 DL  .F               708:   DEPTH LOGGER
 BLI .F               702:   BOTTOM LOG INTERVAL
 TLI .F                50:   TOP LOG INTERVAL
 CS  .IN            8.625:   CASING SIZE
 CBD .F                40:   CASING BOTTOM DRILLER
 CBL .F                40:   CASING BOTTOM LOGGER
 BS  .IN            7.875:   BIT SIZE
 BSD .F               705:   BIT SIZE AT DEPTH
 DFT .                KCL:   DRILLING FLUID TYPE
 DFD .                8.6:   DRILLING FLUID DENSITY
 DFV .                 34:   DRILLING FLUID VISCOSITY
 DFPH.                  9:   DRILLING FLUID PH
 DFL .                7.4:   DRILLING FLUID LOSS
 MSS .           FLOWLINE:   MUD SAMPLE SOURCE
 RMS .OHMM             .3:   RESISTIVITY MUD SAMPLE
 MST .F                80:   MUD SAMPLE TEMPERATURE
 RMF .OHMM             .4:   RESISTIVITY MUD FILTRATE SAMPLE
 MFST.F                80:   MUD FILTRATE SAMPLE TEMPERATURE
 RMC .OHMM             .5:   RESISTIVITY MUD CAKE
 MCST.F                82:   MUD CAKE SAMPLE TEMPERATURE
 MFSS.               MEAS:   MUD FILTRATE SAMPLE SOURCE
 MCSS.               MEAS:   MUD CAKE SAMPLE SOURCE
 RMB .OHMM            .32:   RESISTIVITY MUD AT BHT
 BHT .F                73:   BOTTOM HOLE TEMPERATURE
 TCS .HRS               3:   TIME CURCULATED STOPPED
 MRT .F                73:   MAXIMUM RECORDED TEMPERATURE
 LUN .               3006:   LOGGING UNIT NUMBER
 LUL .               CASP:   LOGGING UNIT LOCATION
 ENGI.            POINTER:   RECORDING ENGINEER
 WITN.              AMEND:   WITNESSED BY
 CLNT.            A2DTECH:   CLIENT CODE
 ORIG.           5" PRINT:   ORIGIN OF DATA
 UWI .       490251070800:   UNIQUE WELL ID
 DICO. A2D Technologies, Inc.:   DIGITIZING COMPANY
~OTHER INFORMATION
~A   DEPT      SPR         SN        ILD         GRD      CALD       RHOB       DPHI       CORR   
# ...
  101.0000   -47.8022     8.7827     8.9739    99.5345     8.9920     2.4402     0.1486     0.0142
  101.5000   -47.8015     8.6782     8.8111    93.7442     8.9920     2.4392     0.1502     0.0160
  102.0000   -47.8013     8.5743     8.8086    89.8677     8.9920     2.4367     0.1518     0.0182
  102.5000   -47.7998     8.4722     8.8125    91.5097     8.9920     2.4332     0.1528     0.0205
  103.0000   -47.7998     8.3374     8.7626    95.8754     8.9920     2.4330     0.1535     0.0227
  103.5000   -47.7999     8.3424     8.7333    97.7954     8.9920     2.4330     0.1542     0.0251
  104.0000   -47.7991     8.3636     8.7038    94.2711     8.9920     2.4331     0.1548     0.0261
  104.5000   -47.8000     8.3848     8.6742    91.0203     8.9920     2.4344     0.1514     0.0254
  105.0000   -47.8004     8.4061     8.6503    90.7842     8.9920     2.4355     0.1492     0.0246
  105.5000   -47.7946     8.4274     8.6727    92.3073     8.9920     2.4367     0.1491     0.0238
  106.0000   -47.8504     8.4486     8.7002    93.0708     8.9920     2.4372     0.1490     0.0231
  106.5000   -47.9431     8.4699     8.7279    92.6086     8.9919     2.4375     0.1489     0.0223
  107.0000   -48.0304     8.4922     8.7559    92.3066     8.9920     2.4378     0.1488     0.0215
  107.5000   -48.1157     8.5119     8.7841    92.0748     8.9920     2.4380     0.1487     0.0207
  108.0000   -48.2032     8.5325     8.8122    91.2014     8.9918     2.4383     0.1486     0.0200
  108.5000   -48.2899     8.5530     8.8405    89.7899     8.9934     2.4386     0.1485     0.0192
  109.0000   -48.3765     8.5735     8.8691    89.2529     8.9972     2.4388     0.1485     0.0183
  109.5000   -48.4638     8.5939     8.8970    90.9664     9.0010     2.4391     0.1484     0.0186
  110.0000   -48.5509     8.6145     8.9255    91.9700     9.0047     2.4339     0.1580     0.0202
  110.5000   -48.6371     8.6455     8.9540    91.8066     9.0085     2.4268     0.1552     0.0217
  111.0000   -48.7253     8.6280     8.9749    91.7820     9.0123     2.4231     0.1504     0.0232
  111.5000   -48.8121     8.5457     8.8741    89.8186     9.0161     2.4334     0.1456     0.0247
  112.0000   -48.8948     8.4643     8.7615    88.0902     9.0199     2.4434     0.1407     0.0260
  112.5000   -49.0026     8.3836     8.6503    87.1527     9.0237     2.4504     0.1396     0.0264
  113.0000   -48.9022     8.3037     8.5405    87.9010     9.0272     2.4527     0.1396     0.0270
  113.5000   -48.6491     8.2245     8.4318    88.4760     9.0313     2.4526     0.1427     0.0276
  114.0000   -48.4006     8.1852     8.3371    89.0247     9.0162     2.4472     0.1455     0.0282
  114.5000   -48.1546     8.1852     8.3831    89.6553     8.9923     2.4444     0.1462     0.0288
  115.0000   -47.9042     8.3220     8.5176    90.2853     8.9687     2.4436     0.1470     0.0293
  115.5000   -47.6586     8.4668     8.6539    89.7575     8.9462     2.4427     0.1478     0.0300
  116.0000   -47.4099     8.6140     8.7921    86.3291     8.9250     2.4415     0.1486     0.0313
  116.5000   -47.1478     8.7638     8.9325    82.9861     8.9039     2.4403     0.1494     0.0328
  117.0000   -46.9215     8.9163     9.0755    80.8948     8.8829     2.4391     0.1500     0.0354
  117.5000   -46.7461     9.0724     9.3117    82.7745     8.8616     2.4393     0.1481     0.0413
  118.0000   -46.5505     9.2308     9.3395    84.5945     8.8407     2.4437     0.1439     0.0472
  118.5000   -46.3672     9.3919     9.3739    86.5777     8.8199     2.4480     0.1402     0.0534
  119.0000   -46.2183     9.6590     9.4085    88.1120     8.7976     2.4525     0.1369     0.0591
  119.5000   -46.4542     9.6548     9.4433    87.7139     8.7969     2.4565     0.1332     0.0655
  120.0000   -46.6643     9.6280     9.4848    86.6498     8.8092     2.4628     0.1340     0.0670
  120.5000   -46.8934     9.6010     9.4848    85.8026     8.8204     2.4627     0.1356     0.0690
  121.0000   -47.1169     9.5742     9.2957    84.7478     8.8313     2.4586     0.1356     0.0736
  121.5000   -47.3394     9.5469     9.2366    84.9301     8.8425     2.4600     0.1323     0.0796
  122.0000   -47.5638     9.5209     9.1778    86.7712     8.8533     2.4688     0.1282     0.0871
  122.5000   -47.7884     9.4948     9.1193    89.3755     8.8656     2.4752     0.1242     0.0940
  123.0000   -48.0123     9.4689     9.0613    91.7053     8.8731     2.4819     0.1201     0.0976
  123.5000   -48.2314     9.4430     9.0036    90.0989     8.8929     2.4880     0.1140     0.0820
  124.0000   -48.4672     9.4172     8.9749    89.9131     8.9135     2.4922     0.1172     0.0666
  124.5000   -48.6406     9.3914     8.9749    91.0344     8.9349     2.4889     0.1241     0.0505
  125.0000   -48.3263     9.3660     9.1524    92.1036     8.9559     2.4760     0.1310     0.0378
  125.5000   -47.7758     9.3403     9.1329    93.0926     8.9773     2.4634     0.1379     0.0317
  126.0000   -47.2636     9.3125     9.1374    94.2487     8.9921     2.4565     0.1420     0.0294
  126.5000   -46.7421     9.3420     9.1414    93.9383     8.9919     2.4556     0.1391     0.0280
  127.0000   -46.6545     9.4032     9.1409    93.5562     8.9921     2.4574     0.1362     0.0265
  127.5000   -46.7532     9.4649     9.1414    90.3722     8.9921     2.4589     0.1339     0.0249
  128.0000   -46.8473     9.5271     9.1418    87.0456     8.9920     2.4605     0.1383     0.0234
  128.5000   -46.9339     9.5896     9.1421    83.7559     8.9920     2.4554     0.1434     0.0218
  129.0000   -47.0262     9.6521     9.1424    81.2772     8.9920     2.4468     0.1476     0.0203
  129.5000   -47.1173     9.7148     9.1430    84.1366     8.9920     2.4473     0.1431     0.0188
  130.0000   -47.2080     9.7779     9.1441    85.6538     8.9920     2.4503     0.1438     0.0172
  130.5000   -47.2991     9.8393     9.3237    85.2630     8.9920     2.4527     0.1444     0.0157
  131.0000   -47.3896     9.8255     9.5502    84.7439     8.9920     2.4493     0.1438     0.0142
  131.5000   -47.4800     9.8126     9.6648    85.4836     8.9920     2.4477     0.1420     0.0126
  132.0000   -47.5706     9.7997     9.6813    87.1647     8.9920     2.4502     0.1402     0.0110
  132.5000   -47.6612     9.7865     9.7041    88.7549     8.9920     2.4510     0.1405     0.0102
  133.0000   -47.7525     9.7730     9.7279    88.6826     8.9920     2.4510     0.1433     0.0109
  133.5000   -47.8425     9.7598     9.7525    86.7441     8.9920     2.4510     0.1460     0.0116
  134.0000   -47.9324     9.7464     9.7771    84.9877     8.9920     2.4502     0.1492     0.0123
  134.5000   -48.0275     9.7331     9.8018    83.0951     8.9920     2.4472     0.1469     0.0130
  135.0000   -48.1110     9.7197     9.8408    81.4296     8.9921     2.4441     0.1456     0.0136
  135.5000   -48.1870     9.7061     9.8062    79.3780     8.9919     2.4430     0.1467     0.0150
  136.0000   -47.9911     9.6935     9.7248    80.9261     8.9916     2.4434     0.1442     0.0171
  136.5000   -47.8009     9.6804     9.6442    83.0597     8.9849     2.4518     0.1419     0.0190
  137.0000   -47.5977     9.6648     9.5645    84.1184     8.9786     2.4543     0.1419     0.0209
  137.5000   -47.4002     9.6580     9.4848    84.0543     8.9719     2.4528     0.1419     0.0229
  138.0000   -47.2029     9.5804     9.4058    85.3883     8.9652     2.4514     0.1406     0.0248
  138.5000   -47.0006     9.5170     9.3273    88.5449     8.9589     2.4571     0.1351     0.0268
  139.0000   -46.8083     9.4530     9.2494    91.8667     8.9522     2.4643     0.1332     0.0287
  139.5000   -46.6097     9.3885     9.1724    92.3779     8.9543     2.4601     0.1378     0.0307
  140.0000   -46.6017     9.3242     9.1400    90.6009     8.9565     2.4595     0.1324     0.0326
  140.5000   -46.5965     9.2605     9.0408    89.0093     8.9592     2.4656     0.1297     0.0339
  141.0000   -46.5999     9.1975     8.9570    87.4520     8.9617     2.4708     0.1315     0.0334
