~VERSION INFORMATION
 VERS.                2.0:   CWLS LOG ASCII STANDARD - VERSION 2.0
 WRAP.                 NO:   ONE LINE PER DEPTH STEP
~WELL INFORMATION
#MNEM.UNIT      DATA TYPE    INFORMATION
#----------   ------------   ------------------------------
 STRT.F           29.0000:   START DEPTH
 STOP.F          539.0000:   STOP DEPTH
 STEP.F            0.1000:   STEP LENGTH
 NULL.          -999.2500:   NO VALUE
 COMP. LAWRENCE/ALLISON INC:   COMPANY
 WELL. NPR 3 81-11 STX #10-10:   WELL
 FLD .             TEAPOT:   FIELD
 LOC .      S10 T38N R78W:   LOCATION
 CNTY.            NATRONA:   COUNTY
 STAT.            WYOMING:   STATE
 CTRY. UNITED STATES OF AMERICA:   COUNTRY
 SRVC.           Gearhart:   SERVICE COMPANY
 DATE.        01-JUN-1987:   LOGDATE
 API .       490251113000:   API NUMBER
~CURVE INFORMATION
#MNEM.UNIT       API CODE    CURVE DESCRIPTION
#----------   ------------   ------------------------------
 DEPT.F                  :   
 GRR .GAPI   07 310 01 00:   GAMMA RAY FROM RES. LOG.
 ILD .OHMM   07 120 46 00:   INDUCTION LOG DEEP RESISTIVITY
 RILM.OHMM   07 120 44 00:   INDUCTION LOG MEDIUM RESISTIVITY
~PARAMETER INFORMATION
#MNEM.UNIT          VALUE    DESCRIPTION
#----------   ------------   ------------------------------
 PD  .                 GL:   PERMANENT DATUM
 EPD .F              5156:   ELEVATION PERMANENT DATUM
 LMF .                 KB:   LOG MEASURED FROM
 DAPD.F                 8:   FEET ABOVE PERMANENT DATUM
 DMF .                 KB:   DRILLING MEASURED FROM
 EKB .F              5164:   KELLING BUSHING
 EDF .F              5162:   DRILLING FLOOR
 EGL .F              5156:   GROUND LEVEL
 DATE.             6-1-87:   RUN DATE
 RUN .                  1:   RUN NUMBER
 DD  .F               550:   DEPTH DRILLER
 DL  .F               546:   DEPTH LOGGER
 BLI .F               540:   BOTTOM LOG INTERVAL
 TLI .F                30:   TOP LOG INTERVAL
 CS  .IN            8.625:   CASING SIZE
 CBD .F                50:   CASING BOTTOM DRILLER
 CBL .F                49:   CASING BOTTOM LOGGER
 BS  .IN            7.875:   BIT SIZE
 BSD .F               550:   BIT SIZE AT DEPTH
 DFT .                AIR:   DRILLING FLUID TYPE
 TLAB.HRS            0634:   TIME LOGGER AT BOTTOM
 MRT .F                80:   MAXIMUM RECORDED TEMPERATURE
 LUN .               7597:   LOGGING UNIT NUMBER
 LUL .           GILLETTE:   LOGGING UNIT LOCATION
 ENGI. WEATHERMON/JOHNSTON:   RECORDING ENGINEER
 WITN.             STRONG:   WITNESSED BY
 CLNT.            A2DTECH:   CLIENT CODE
 ORIG.       2", 5" PRINT:   ORIGIN OF DATA
 UWI .       490251113000:   UNIQUE WELL ID
 DICO. A2D Technologies, Inc.:   DIGITIZING COMPANY
~OTHER INFORMATION
~A   DEPT       GRR       ILD       RILM   
# ...
  484.0000   108.5260    13.7594    13.3761
  484.1000   108.4467    13.7813    13.4028
  484.2000   108.3673    13.8031    13.4296
  484.3000   108.2880    13.8250    13.4563
  484.4000   108.2087    13.8468    13.4830
  484.5000   108.1294    13.8687    13.5097
  484.6000   108.0605    13.8907    13.5367
  484.7000   107.9916    13.9127    13.5637
  484.8000   107.9227    13.9348    13.5907
  484.9000   107.8538    13.9568    13.6176
  485.0000   107.7849    13.9788    13.6446
  485.1000   107.7266    14.0010    13.6719
  485.2000   107.6684    14.0232    13.6991
  485.3000   107.6102    14.0454    13.7264
  485.4000   107.5519    14.0676    13.7536
  485.5000   107.4937    14.0898    13.7809
  485.6000   106.6984    14.1122    13.8085
  485.7000   105.9032    14.1346    13.8362
  485.8000   105.1079    14.1570    13.8638
  485.9000   104.3127    14.1793    13.8914
  486.0000   103.5174    14.2017    13.9191
  486.1000   103.0364    14.2243    13.9368
  486.2000   102.5555    14.2468    13.9546
  486.3000   102.0745    14.2694    13.9723
  486.4000   101.5935    14.2919    13.9900
  486.5000   101.1125    14.3145    14.0078
  486.6000   100.8883    14.3327    14.0122
  486.7000   100.6642    14.3509    14.0167
  486.8000   100.4400    14.3691    14.0212
  486.9000   100.2158    14.3873    14.0256
  487.0000    99.9916    14.4055    14.0301
  487.1000    99.8203    14.4109    14.0344
  487.2000    99.6489    14.4163    14.0388
  487.3000    99.4776    14.4216    14.0431
  487.4000    99.3062    14.4270    14.0475
  487.5000    99.1349    14.4324    14.0518
  487.6000    99.0565    14.4378    14.0562
  487.7000    98.9781    14.4432    14.0606
  487.8000    98.8997    14.4486    14.0649
  487.9000    98.8214    14.4540    14.0693
  488.0000    98.7430    14.4594    14.0737
  488.1000    99.0405    14.4648    14.0781
  488.2000    99.3381    14.4702    14.0825
  488.3000    99.6356    14.4757    14.0869
  488.4000    99.9332    14.4811    14.0913
  488.5000   100.2307    14.4865    14.0956
  488.6000   100.5874    14.4918    14.1001
  488.7000   100.9441    14.4971    14.1045
  488.8000   101.3008    14.5024    14.1090
  488.9000   101.6575    14.5077    14.1134
  489.0000   102.0142    14.5130    14.1178
  489.1000   102.3418    14.5173    14.1204
  489.2000   102.6694    14.5216    14.1230
  489.3000   102.9971    14.5258    14.1255
  489.4000   103.3247    14.5301    14.1281
  489.5000   103.6523    14.5344    14.1307
  489.6000   103.7246    14.5002    14.1080
  489.7000   103.7969    14.4660    14.0853
  489.8000   103.8692    14.4318    14.0626
  489.9000   103.9415    14.3976    14.0399
  490.0000   104.0138    14.3634    14.0172
  490.1000   104.1544    14.3357    13.9987
  490.2000   104.2951    14.3080    13.9803
  490.3000   104.4357    14.2803    13.9618
  490.4000   104.5763    14.2526    13.9433
  490.5000   104.7169    14.2249    13.9249
  490.6000   104.8904    14.2044    13.9065
  490.7000   105.0640    14.1840    13.8882
  490.8000   105.2375    14.1635    13.8699
  490.9000   105.4110    14.1430    13.8515
  491.0000   105.5845    14.1225    13.8332
  491.1000   105.7735    14.1088    13.8150
  491.2000   105.9624    14.0952    13.7968
  491.3000   106.1513    14.0815    13.7785
  491.4000   106.3402    14.0679    13.7603
  491.5000   106.5291    14.0542    13.7421
  491.6000   106.7187    14.0406    13.7240
  491.7000   106.9083    14.0271    13.7059
  491.8000   107.0979    14.0135    13.6878
  491.9000   107.2875    13.9999    13.6697
  492.0000   107.4771    13.9863    13.6516
  492.1000   107.6706    13.9728    13.6337
  492.2000   107.8640    13.9593    13.6157
  492.3000   108.0574    13.9457    13.5977
  492.4000   108.2509    13.9322    13.5797
  492.5000   108.4443    13.9187    13.5617
  492.6000   108.3376    13.9085    13.5439
  492.7000   108.2309    13.8983    13.5260
  492.8000   108.1242    13.8880    13.5082
  492.9000   108.0175    13.8778    13.4903
  493.0000   107.9108    13.8676    13.4724
  493.1000   107.7584    13.8677    13.4547
  493.2000   107.6060    13.8678    13.4370
  493.3000   107.4537    13.8678    13.4192
  493.4000   107.3013    13.8679    13.4015
  493.5000   107.1489    13.8680    13.3837
  493.6000   106.7312    13.8679    13.3784
  493.7000   106.3134    13.8679    13.3731
  493.8000   105.8957    13.8679    13.3678
  493.9000   105.4780    13.8679    13.3625
  494.0000   105.0603    13.8678    13.3571
  494.1000   104.5538    13.8398    13.3446
  494.2000   104.0474    13.8117    13.3321
  494.3000   103.5409    13.7837    13.3196
  494.4000   103.0345    13.7556    13.3071
  494.5000   102.5280    13.7276    13.2945
  494.6000   102.5133    13.6894    13.2580
  494.7000   102.4986    13.6511    13.2215
  494.8000   102.4839    13.6129    13.1850
  494.9000   102.4691    13.5747    13.1485
  495.0000   102.4544    13.5364    13.1120
  495.1000   102.6595    13.4987    13.0759
  495.2000   102.8646    13.4610    13.0398
  495.3000   103.0697    13.4233    13.0037
  495.4000   103.2748    13.3856    12.9676
  495.5000   103.4799    13.3479    12.9315
  495.6000   103.6918    13.3107    12.8959
  495.7000   103.9037    13.2736    12.8604
  495.8000   104.1155    13.2364    12.8248
  495.9000   104.3274    13.1992    12.7893
  496.0000   104.5393    13.1620    12.7537
  496.1000   104.7769    13.1254    12.7187
  496.2000   105.0145    13.0887    12.6836
  496.3000   105.2520    13.0521    12.6485
  496.4000   105.4896    13.0154    12.6135
  496.5000   105.7272    12.9787    12.5784
  496.6000   106.0842    12.9426    12.5438
  496.7000   106.4411    12.9065    12.5093
  496.8000   106.7981    12.8704    12.4747
  496.9000   107.1550    12.8342    12.4401
  497.0000   107.5120    12.7981    12.4055
  497.1000   107.8595    12.7624    12.3714
  497.2000   108.2071    12.7266    12.3373
  497.3000   108.5547    12.6909    12.3032
  497.4000   108.9022    12.6551    12.2691
  497.5000   109.2498    12.6194    12.2350
  497.6000   109.5896    12.5820    12.2014
  497.7000   109.9294    12.5446    12.1677
  497.8000   110.2692    12.5072    12.1341
  497.9000   110.6089    12.4698    12.1004
  498.0000   110.9487    12.4324    12.0668
  498.1000   110.9038    12.3910    12.0393
  498.2000   110.8588    12.3496    12.0119
  498.3000   110.8138    12.3081    11.9844
  498.4000   110.7689    12.2667    11.9569
  498.5000   110.7239    12.2253    11.9295
  498.6000   110.7081    12.1847    11.8574
  498.7000   110.6923    12.1441    11.7853
  498.8000   110.6766    12.1035    11.7132
  498.9000   110.6608    12.0629    11.6410
  499.0000   110.6450    12.0223    11.5689
  499.1000   110.8957    11.9823    11.5069
  499.2000   111.1463    11.9424    11.4449
  499.3000   111.3970    11.9024    11.3828
  499.4000   111.6477    11.8624    11.3208
  499.5000   111.8984    11.8224    11.2587
  499.6000   112.1030    11.7832    11.1988
  499.7000   112.3077    11.7440    11.1389
  499.8000   112.5123    11.7049    11.0789
  499.9000   112.7169    11.6657    11.0190
  500.0000   112.9216    11.6265    10.9591
  500.1000   112.7129    11.5787    10.9198
  500.2000   112.5042    11.5308    10.8805
  500.3000   112.2955    11.4830    10.8412
  500.4000   112.0868    11.4352    10.8019
  500.5000   111.8781    11.3874    10.7626
  500.6000   111.6635    11.4028    10.7425
  500.7000   111.4489    11.4183    10.7224
  500.8000   111.2343    11.4337    10.7022
  500.9000   111.0197    11.4492    10.6821
  501.0000   110.8051    11.4646    10.6620
  501.1000   110.5922    11.4921    10.6745
  501.2000   110.3792    11.5196    10.6870
  501.3000   110.1663    11.5471    10.6995
  501.4000   109.9534    11.5746    10.7120
  501.5000   109.7405    11.6021    10.7245
  501.6000   109.7216    11.5628    10.7322
  501.7000   109.7027    11.5236    10.7400
  501.8000   109.6838    11.4843    10.7477
  501.9000   109.6649    11.4451    10.7555
  502.0000   109.6460    11.4058    10.7633
  502.1000   109.9083    11.3464    10.7455
