~VERSION INFORMATION
 VERS.                2.0:   CWLS LOG ASCII STANDARD - VERSION 2.0
 WRAP.                 NO:   ONE LINE PER DEPTH STEP
~WELL INFORMATION
#MNEM.UNIT      DATA TYPE    INFORMATION
#----------   ------------   ------------------------------
 STRT.F           16.0000:   START DEPTH
 STOP.F          484.5000:   STOP DEPTH
 STEP.F            0.5000:   STEP LENGTH
 NULL.          -999.2500:   NO VALUE
 COMP. FENIX & SCISSON INC:   COMPANY
 WELL. NPR 3 #83 SX 10-10:   WELL
 FLD .             TEAPOT:   FIELD
 LOC .      S10 T38N R78W:   LOCATION
 CNTY.            NATRONA:   COUNTY
 STAT.            WYOMING:   STATE
 CTRY. UNITED STATES OF AMERICA:   COUNTRY
 SRVC.           BIRDWELL:   SERVICE COMPANY
 DATE.        25-NOV-1978:   LOGDATE
 API .       490251075200:   API NUMBER
~CURVE INFORMATION
#MNEM.UNIT       API CODE    CURVE DESCRIPTION
#----------   ------------   ------------------------------
 DEPT.F                  :   
 SPR .MV     05 010 01 00:   SPONTANEOUS POTENTIAL FROM RES.
 SN  .OHMM   05 040 16 00:   SHORT NORMAL 16"
 IL  .OHMM   05 120 00 00:   INDUCTION LOG
 CALD.IN     45 280 60 00:   CALIPER
 GRD .GAPI   45 310 01 00:   GAMMA RAY FROM DENSITY LOG
 CORR.G/C3   45 356 01 00:   DENSITY CORRECTION
 DPHI.DEC    45 890 12 00:   DENSITY POROSITY SANDSTONE
 RHOB.G/C3   45 350 01 00:   BULK DENSITY
~PARAMETER INFORMATION
#MNEM.UNIT          VALUE    DESCRIPTION
#----------   ------------   ------------------------------
 PD  .                 GL:   PERMANENT DATUM
 EPD .F              5145:   ELEVATION PERMANENT DATUM
 LMF .                 KB:   LOG MEASURED FROM
 DAPD.F                 4:   FEET ABOVE PERMANENT DATUM
 DMF .                 KB:   DRILLING MEASURED FROM
 EKB .F              5149:   KELLING BUSHING
 EGL .F              5145:   GROUND LEVEL
 DATE.           11-25-78:   RUN DATE
 RUN .                  1:   RUN NUMBER
 DD  .F               490:   DEPTH DRILLER
 DL  .F               487:   DEPTH LOGGER
 BLI .F               481:   BOTTOM LOG INTERVAL
 TLI .F                30:   TOP LOG INTERVAL
 CS  .IN            8.625:   CASING SIZE
 CBD .F                40:   CASING BOTTOM DRILLER
 CBL .F                35:   CASING BOTTOM LOGGER
 BS  .IN            7.875:   BIT SIZE
 BSD .F               490:   BIT SIZE AT DEPTH
 DFT .             SEAMUD:   DRILLING FLUID TYPE
 DFD .                8.8:   DRILLING FLUID DENSITY
 DFV .                 38:   DRILLING FLUID VISCOSITY
 DFPH.               11.1:   DRILLING FLUID PH
 DFL .                9.6:   DRILLING FLUID LOSS
 MSS .           FLOWLINE:   MUD SAMPLE SOURCE
 RMS .OHMM            .28:   RESISTIVITY MUD SAMPLE
 MST .F                58:   MUD SAMPLE TEMPERATURE
 RMF .OHMM            .25:   RESISTIVITY MUD FILTRATE SAMPLE
 MFST.F                70:   MUD FILTRATE SAMPLE TEMPERATURE
 RMC .OHMM             .3:   RESISTIVITY MUD CAKE
 MCST.F                70:   MUD CAKE SAMPLE TEMPERATURE
 MFSS.           MEASURED:   MUD FILTRATE SAMPLE SOURCE
 MCSS.           MEASURED:   MUD CAKE SAMPLE SOURCE
 BHT .F                58:   BOTTOM HOLE TEMPERATURE
 TCS .HRS               3:   TIME CURCULATED STOPPED
 MRT .F                58:   MAXIMUM RECORDED TEMPERATURE
 LUN .               3029:   LOGGING UNIT NUMBER
 LUL .               CASP:   LOGGING UNIT LOCATION
 ENGI.           REYNOLDS:   RECORDING ENGINEER
 WITN.           DINSMORE:   WITNESSED BY
 CLNT.            A2DTECH:   CLIENT CODE
 ORIG.     1", 2.5" PRINT:   ORIGIN OF DATA
 UWI .       490251075200:   UNIQUE WELL ID
 DICO. A2D Technologies, Inc.:   DIGITIZING COMPANY
~OTHER INFORMATION
~A   DEPT      SPR         SN         IL       CALD         GRD      CORR       DPHI       RHOB   
# ...
  299.5000   -35.8510    26.6900    36.6400     7.4420    72.7300     0.0550     0.2380     2.2870
  300.0000   -35.4610    26.3990    36.8020     7.4840    75.0840     0.0400     0.2270     2.3000
  300.5000   -35.0650    26.1080    36.9640     7.4970    77.9550     0.0260     0.2160     2.3110
  301.0000   -34.6710    25.8180    37.1260     7.5080    80.6190     0.0370     0.1980     2.3600
  301.5000   -34.2650    25.5270    37.2870     7.5180    84.1240     0.0470     0.1820     2.3830
  302.0000   -34.0040    25.2360    37.4490     7.5300    82.8940     0.0420     0.1920     2.3780
  302.5000   -34.5440    24.9460    37.6110     7.5400    79.8190     0.0360     0.2020     2.3630
  303.0000   -35.0590    24.6550    37.7730     7.5520    76.7940     0.0320     0.2040     2.3490
  303.5000   -35.6020    24.3640    37.9540     7.5630    76.5780     0.0320     0.2020     2.3570
  304.0000   -36.1220    24.0740    37.0090     7.5730    79.1780     0.0320     0.1820     2.3800
  304.5000   -36.6580    23.7690    35.0410     7.5850    81.3820     0.0260     0.1650     2.3990
  305.0000   -37.1830    23.4260    33.4510     7.5950    81.2720     0.0200     0.1610     2.4170
  305.5000   -37.7160    23.0830    32.3310     7.6070    79.8700     0.0130     0.1690     2.4090
  306.0000   -38.2400    22.7400    31.2100     7.6070    79.1610     0.0140     0.1780     2.3990
  306.5000   -38.7780    22.3970    30.0900     7.6030    79.0360     0.0170     0.1820     2.3860
  307.0000   -39.2960    22.0540    28.9700     7.6000    78.7790     0.0200     0.1830     2.3850
  307.5000   -39.8210    21.7110    27.8490     7.5970    78.5220     0.0230     0.1850     2.3860
  308.0000   -39.8010    21.3680    26.7290     7.5940    78.6670     0.0220     0.1880     2.3820
  308.5000   -39.5470    21.0250    25.6080     7.5910    79.3040     0.0170     0.1910     2.3760
  309.0000   -39.3200    20.6820    24.4880     7.5880    79.8930     0.0130     0.1910     2.3700
  309.5000   -39.0880    20.3390    22.5660     7.5850    80.4770     0.0080     0.1900     2.3690
  310.0000   -38.8530    19.9960    22.7850     7.5820    81.0770     0.0050     0.1890     2.3720
  310.5000   -38.6210    19.8150    23.5570     7.5790    80.9370     0.0070     0.1880     2.3770
  311.0000   -38.3830    19.8150    24.7610     7.5760    80.4350     0.0100     0.1880     2.3770
  311.5000   -38.3380    19.8150    24.6640     7.5730    79.9960     0.0140     0.1890     2.3750
  312.0000   -38.4890    19.8150    24.4420     7.5700    79.4770     0.0160     0.1890     2.3740
  312.5000   -38.7620    19.8150    24.2200     7.5670    79.3110     0.0140     0.1900     2.3750
  313.0000   -38.9990    19.8150    23.8580     7.5640    79.6280     0.0120     0.1900     2.3730
  313.5000   -39.2500    19.8150    24.2980     7.5610    79.8780     0.0100     0.1920     2.3700
  314.0000   -39.4950    19.8150    25.4730     7.5580    80.1590     0.0080     0.1930     2.3680
  314.5000   -39.7460    19.8150    26.6480     7.5550    80.4260     0.0100     0.1930     2.3670
  315.0000   -39.9500    19.7030    27.6800     7.5510    80.6970     0.0130     0.1910     2.3670
  315.5000   -39.9590    19.5840    27.0720     7.5480    80.9690     0.0150     0.1900     2.3720
  316.0000   -39.9620    19.4640    26.5300     7.5450    81.2390     0.0150     0.1920     2.3710
  316.5000   -39.9580    19.3450    25.9890     7.5420    81.5150     0.0120     0.1940     2.3670
  317.0000   -39.9620    19.2260    25.6570     7.5390    81.7810     0.0100     0.1960     2.3630
  317.5000   -39.9570    19.1060    25.5670     7.5360    82.0660     0.0080     0.1970     2.3620
  318.0000   -39.9630    18.9860    25.4780     7.5330    82.3150     0.0050     0.1990     2.3620
  318.5000   -39.9690    18.8670    25.3880     7.5300    82.6130     0.0030     0.2010     2.3570
  319.0000   -40.2850    18.7470    25.2990     7.5290    82.9000     0.0010     0.2030     2.3510
  319.5000   -40.7030    18.6280    25.2250     7.5390    83.9020     0.0010     0.2030     2.3470
  320.0000   -41.1160    18.5080    24.2800     7.5500    85.0450     0.0020     0.2000     2.3510
  320.5000   -41.5280    18.3890    23.0560     7.5600    88.4260     0.0040     0.1960     2.3580
  321.0000   -41.9270    18.2690    21.7430     7.5710    90.9960     0.0050     0.1920     2.3650
  321.5000   -41.9840    18.1500    21.8150     7.5820    92.6150     0.0070     0.1900     2.3700
  322.0000   -41.8350    18.0300    21.8930     7.5920    93.7460     0.0090     0.1900     2.3710
  322.5000   -41.5860    17.9110    21.9710     7.6030    90.0000     0.0200     0.1860     2.3730
  323.0000   -41.3770    17.7910    22.0490     7.6140    87.0160     0.0260     0.1800     2.3830
  323.5000   -41.1540    17.7140    22.1270     7.6240    86.0980     0.0300     0.1750     2.3940
  324.0000   -40.9310    17.6880    22.2040     7.6350    85.4690     0.0310     0.1740     2.4010
  324.5000   -40.7210    17.6620    22.2820     7.6460    85.0330     0.0240     0.1730     2.3860
  325.0000   -40.4790    17.6370    22.3600     7.6560    84.8280     0.0140     0.1940     2.3720
  325.5000   -40.3460    17.6110    22.4380     7.6670    84.3780     0.0050     0.2050     2.3570
  326.0000   -40.4050    17.5850    22.5650     7.6770    85.8320     0.0040     0.2050     2.3490
  326.5000   -40.7840    17.5590    22.5300     7.6880    88.5280     0.0040     0.2000     2.3560
  327.0000   -41.1380    17.5340    22.4170     7.6990    90.9010     0.0040     0.1950     2.3640
  327.5000   -41.5030    17.5080    22.3040     7.7100    93.3080     0.0040     0.1900     2.3690
  328.0000   -41.8580    17.4820    22.1910     7.7200    94.8870     0.0040     0.1970     2.3640
  328.5000   -42.2200    17.4570    21.9850     7.7250    95.2220     0.0040     0.2020     2.3580
  329.0000   -42.5790    17.4290    21.7370     7.6840    93.4430     0.0040     0.2040     2.3510
  329.5000   -42.9350    17.3990    21.4900     7.6440    91.8230     0.0040     0.2010     2.3510
  330.0000   -43.3040    17.2570    21.2410     7.6020    91.9690     0.0040     0.1970     2.3590
  330.5000   -43.5780    17.0900    20.9950     7.5620    93.2610     0.0040     0.1930     2.3650
  331.0000   -43.6740    16.9230    20.7490     7.5200    93.1620     0.0040     0.1890     2.3720
  331.5000   -43.7590    16.7560    20.5030     7.4800    91.3290     0.0040     0.1890     2.3730
  332.0000   -43.8390    16.5890    20.2570     7.4370    89.6980     0.0040     0.1920     2.3690
  332.5000   -43.9230    16.4210    20.0110     7.4150    87.9620     0.0040     0.1940     2.3670
  333.0000   -44.0050    16.2540    19.7650     7.4440    86.2760     0.0040     0.1970     2.3630
  333.5000   -44.0870    16.0870    19.5190     7.4710    84.5500     0.0060     0.1930     2.3700
  334.0000   -44.1690    15.9200    19.3590     7.5010    82.8830     0.0130     0.1700     2.3980
  334.5000   -44.2520    15.7530    19.2320     7.5290    81.0990     0.0240     0.1450     2.4330
  335.0000   -44.3340    15.5650    19.1050     7.5570    79.5350     0.0280     0.1190     2.4730
  335.5000   -44.4160    15.9290    18.9780     7.5860    77.9450     0.0180     0.1110     2.5010
  336.0000   -44.4990    16.3430    18.8510     7.6150    79.9210     0.0040     0.1060     2.5100
  336.5000   -44.5810    16.7570    18.7250     7.6420    85.5160    -0.0020     0.1300     2.4820
  337.0000   -44.6630    17.0800    18.5980     7.6750    86.6030    -0.0040     0.1510     2.4370
  337.5000   -44.7460    16.7800    18.4710     7.6820    84.6900     0.0010     0.1730     2.3920
  338.0000   -44.8280    16.5340    18.3440     7.6550    83.0560     0.0080     0.1980     2.3660
  338.5000   -44.9100    16.2870    18.2170     7.6320    82.3080     0.0280     0.1980     2.3540
  339.0000   -44.9930    16.0410    18.0900     7.6080    81.5780     0.0550     0.1870     2.3810
  339.5000   -45.0750    15.7950    17.8960     7.5830    81.0980     0.0800     0.1700     2.4070
