~VERSION INFORMATION
 VERS.                2.0:   CWLS LOG ASCII STANDARD - VERSION 2.0
 WRAP.                 NO:   ONE LINE PER DEPTH STEP
~WELL INFORMATION
#MNEM.UNIT      DATA TYPE    INFORMATION
#----------   ------------   ------------------------------
 STRT.F          750.0000:   START DEPTH
 STOP.F         1490.0000:   STOP DEPTH
 STEP.F            0.5000:   STEP LENGTH
 NULL.          -999.2500:   NO VALUE
 COMP.    FENIX & SCISSON:   COMPANY
 WELL.  53 STX 15 #53 -15:   WELL
 FLD .             TEAPOT:   FIELD
 LOC .      S15 T38N R78W:   LOCATION
 CNTY.            NATRONA:   COUNTY
 STAT.            WYOMING:   STATE
 CTRY. UNITED STATES OF AMERICA:   COUNTRY
 SRVC.              Welex:   SERVICE COMPANY
 DATE.        01-JUN-1980:   LOGDATE
 API .       490251082000:   API NUMBER
~CURVE INFORMATION
#MNEM.UNIT       API CODE    CURVE DESCRIPTION
#----------   ------------   ------------------------------
 DEPT.F                  :   
 CALD.IN     45 280 60 00:   CALIPER
 GRD .GAPI   45 310 01 00:   GAMMA RAY FROM DENSITY LOG
 CORR.G/C3   45 356 01 00:   DENSITY CORRECTION
 RHOB.G/C3   45 350 01 00:   BULK DENSITY
 DPHI.DEC    45 890 12 00:   DENSITY POROSITY SANDSTONE
~PARAMETER INFORMATION
#MNEM.UNIT          VALUE    DESCRIPTION
#----------   ------------   ------------------------------
 PD  .                 GL:   PERMANENT DATUM
 EPD .F              5257:   ELEVATION PERMANENT DATUM
 LMF .                 KB:   LOG MEASURED FROM
 DAPD.F                10:   FEET ABOVE PERMANENT DATUM
 DMF .                 KB:   DRILLING MEASURED FROM
 EKB .F              5267:   KELLING BUSHING
 EGL .F              5257:   GROUND LEVEL
 DATE.             6-1-80:   RUN DATE
 RUN .                  1:   RUN NUMBER
 DD  .F              1498:   DEPTH DRILLER
 DL  .F              1492:   DEPTH LOGGER
 BLI .F              1490:   BOTTOM LOG INTERVAL
 TLI .F               750:   TOP LOG INTERVAL
 CS  .IN            9.625:   CASING SIZE
 CBD .F               772:   CASING BOTTOM DRILLER
 BS  .IN             8.75:   BIT SIZE
 BSD .F              1498:   BIT SIZE AT DEPTH
 DFT .        AIR DRILLED:   DRILLING FLUID TYPE
 TCS .HRS               4:   TIME CURCULATED STOPPED
 MRT .F                88:   MAXIMUM RECORDED TEMPERATURE
 ENGI.               REIN:   RECORDING ENGINEER
 WITN.            RHOADES:   WITNESSED BY
 CLNT.            A2DTECH:   CLIENT CODE
 ORIG.           5" PRINT:   ORIGIN OF DATA
 UWI .       490251082000:   UNIQUE WELL ID
 DICO. A2D Technologies, Inc.:   DIGITIZING COMPANY
~OTHER INFORMATION
~A   DEPT     CALD         GRD      CORR       RHOB       DPHI   
# ...
 1238.0000     9.0130    75.9659     0.0689     2.4702     0.0378
 1238.5000     9.0191    75.8890     0.0615     2.4583     0.0512
 1239.0000     9.0269    76.4339     0.0531     2.4514     0.0557
 1239.5000     9.0735    77.0449     0.0489     2.4431     0.0627
 1240.0000     9.1670    77.6618     0.0503     2.4440     0.0641
 1240.5000     9.2519    78.2955     0.0427     2.4444     0.0592
 1241.0000     9.2519    77.9839     0.0352     2.4379     0.0665
 1241.5000     9.2543    77.5067     0.0294     2.4445     0.0697
 1242.0000     9.2571    77.0250     0.0301     2.4628     0.0571
 1242.5000     9.2600    76.7986     0.0386     2.4839     0.0453
 1243.0000     9.2628    77.3971     0.0473     2.5063     0.0333
 1243.5000     9.2657    77.9365     0.0532     2.5007     0.0233
 1244.0000     9.2685    77.7770     0.0600     2.4919     0.0301
 1244.5000     9.2638    77.4279     0.0543     2.5005     0.0366
 1245.0000     9.2294    77.1198     0.0509     2.5084     0.0265
 1245.5000     9.1948    77.1091     0.0624     2.5159     0.0196
 1246.0000     9.1896    77.1884     0.0713     2.5192     0.0165
 1246.5000     9.2031    77.3092     0.0705     2.5161     0.0145
 1247.0000     9.2171    77.1671     0.0699     2.5002     0.0128
 1247.5000     9.2310    77.1139     0.0697     2.4983     0.0302
 1248.0000     9.2450    77.1156     0.0518     2.4942     0.0253
 1248.5000     9.2505    77.2887     0.0384     2.4847     0.0337
 1249.0000     9.2551    77.6715     0.0364     2.4854     0.0382
 1249.5000     9.2595    78.0502     0.0371     2.4846     0.0369
 1250.0000     9.2639    78.4336     0.0417     2.4749     0.0354
 1250.5000     9.2685    78.6164     0.0407     2.4697     0.0432
 1251.0000     9.2499    78.2820     0.0376     2.4728     0.0462
 1251.5000     9.2107    77.9027     0.0458     2.4764     0.0443
 1252.0000     9.1712    77.5073     0.0531     2.4606     0.0411
 1252.5000     9.1306    77.4556     0.0398     2.4518     0.0596
 1253.0000     9.1356    77.8113     0.0259     2.4589     0.0594
 1253.5000     9.1459    78.1744     0.0222     2.4600     0.0526
 1254.0000     9.1561    78.5402     0.0182     2.4590     0.0580
 1254.5000     9.1662    78.9003     0.0143     2.4675     0.0479
 1255.0000     9.1763    78.3735     0.0227     2.4700     0.0491
 1255.5000     9.1863    77.7639     0.0345     2.4878     0.0418
 1256.0000     9.1964    77.1583     0.0574     2.5038     0.0318
 1256.5000     9.2069    76.5594     0.0592     2.4988     0.0257
 1257.0000     9.2048    76.3243     0.0554     2.4875     0.0290
 1257.5000     9.1965    76.6816     0.0651     2.4903     0.0359
 1258.0000     9.1875    77.0403     0.0492     2.4906     0.0326
 1258.5000     9.1765    77.3908     0.0395     2.4840     0.0374
 1259.0000     9.1653    76.9066     0.0292     2.4624     0.0427
 1259.5000     9.1542    76.3311     0.0074     2.4437     0.0552
 1260.0000     9.1235    76.6038     0.0193     2.4360     0.0649
 1260.5000     9.0766    77.1346     0.0369     2.4541     0.0596
 1261.0000     9.0291    77.6844     0.0546     2.5020     0.0446
 1261.5000     9.0090    78.2350     0.0723     2.5200     0.0272
 1262.0000     9.0442    78.7907     0.0685     2.5154     0.0140
 1262.5000     9.0827    79.4897     0.0633     2.5209     0.0197
 1263.0000     9.1214    80.2459     0.0640     2.5115     0.0112
 1263.5000     9.1609    80.9993     0.0672     2.5051     0.0213
 1264.0000     9.1621    81.8092     0.0719     2.5395     0.0116
 1264.5000     9.1148    82.2356     0.0861     2.5301     0.0000
 1265.0000     9.0676    82.2226     0.0757     2.5335     0.0031
 1265.5000     9.0271    82.7192     0.0751     2.5291     0.0058
 1266.0000     9.0362    83.7071     0.0752     2.5256     0.0098
 1266.5000     9.0489    84.7642     0.0601     2.5317     0.0108
 1267.0000     9.0373    85.2934     0.0567     2.5181     0.0066
 1267.5000     9.0227    86.3130     0.0590     2.5185     0.0197
 1268.0000     9.0086    86.2884     0.0611     2.5123     0.0128
 1268.5000     9.0112    87.6291     0.0415     2.4907     0.0351
 1269.0000     9.0314    88.9144     0.0279     2.4737     0.0515
 1269.5000     9.0466    89.2462     0.0192     2.4567     0.0596
 1270.0000     9.1490    87.8227     0.0131     2.4690     0.0515
 1270.5000     9.2518    86.3988     0.0346     2.4815     0.0438
 1271.0000     9.2411    84.9370     0.0127     2.4570     0.0391
 1271.5000     9.2300    84.3115     0.0066     2.4328     0.0639
 1272.0000     9.2190    83.7290    -0.0002     2.4385     0.0715
 1272.5000     9.2080    83.9396    -0.0053     2.4477     0.0592
 1273.0000     9.1971    84.4535     0.0099     2.4645     0.0629
 1273.5000     9.1861    84.9579     0.0156     2.4521     0.0569
 1274.0000     9.1752    85.4622     0.0105     2.4551     0.0604
 1274.5000     9.1642    85.8848     0.0095     2.4378     0.0564
 1275.0000     9.1532    85.4936     0.0118     2.4348     0.0709
 1275.5000     9.1492    85.0297     0.0079     2.4426     0.0674
 1276.0000     9.1494    84.6795     0.0008     2.4434     0.0592
 1276.5000     9.1614    84.8577     0.0045     2.4386     0.0646
 1277.0000     9.1341    84.9607     0.0147     2.4442     0.0677
 1277.5000     9.1620    84.9600     0.0241     2.4681     0.0600
 1278.0000     9.1889    84.9614     0.0383     2.4746     0.0443
 1278.5000     9.1265    84.9517     0.0535     2.4784     0.0395
 1279.0000     9.0438    84.7060     0.0581     2.4758     0.0431
 1279.5000     9.1611    84.6368     0.0632     2.4778     0.0435
 1280.0000     9.2690    84.0203     0.0683     2.4785     0.0400
 1280.5000     9.2517    83.3870     0.0660     2.4711     0.0439
 1281.0000     9.2365    82.7551     0.0607     2.4631     0.0484
 1281.5000     9.2215    82.1272     0.0482     2.4663     0.0524
 1282.0000     9.2066    81.6305     0.0407     2.4735     0.0480
 1282.5000     9.1915    81.5488     0.0448     2.4763     0.0415
 1283.0000     9.1891    81.4426     0.0464     2.4652     0.0419
 1283.5000     9.1891    81.3358     0.0462     2.4501     0.0551
 1284.0000     9.1891    81.6621     0.0288     2.4301     0.0656
 1284.5000     9.1891    82.1610     0.0169     2.4102     0.0791
 1285.0000     9.1891    82.5934     0.0128     2.4017     0.0919
 1285.5000     9.1891    82.7802     0.0078     2.4159     0.0867
 1286.0000     9.1891    82.9681     0.0014     2.4206     0.0770
 1286.5000     9.1892    83.1573     0.0049     2.4220     0.0802
 1287.0000     9.1888    83.3524     0.0070     2.4192     0.0762
 1287.5000     9.1879    83.8286    -0.0004     2.4234     0.0814
 1288.0000     9.2077    84.6792     0.0015     2.4276     0.0770
 1288.5000     9.1924    85.5247     0.0144     2.4362     0.0730
 1289.0000     9.1222    86.3719     0.0147     2.4336     0.0681
 1289.5000     9.0226    87.2150     0.0063     2.4308     0.0704
 1290.0000     8.9670    87.6870     0.0088     2.4299     0.0725
 1290.5000     8.9895    87.1687     0.0138     2.4415     0.0696
 1291.0000     9.0146    86.4217     0.0193     2.4586     0.0612
 1291.5000     9.0276    85.6625     0.0362     2.4744     0.0491
 1292.0000     9.0139    84.9046     0.0529     2.4696     0.0423
 1292.5000     9.0004    84.3771     0.0532     2.4699     0.0499
 1293.0000     8.9881    85.0875     0.0510     2.4675     0.0495
 1293.5000     8.9879    85.7751     0.0490     2.4717     0.0472
 1294.0000     8.9896    85.6283     0.0473     2.4701     0.0447
 1294.5000     8.9971    85.1207     0.0344     2.4570     0.0520
 1295.0000     9.0042    84.6129     0.0099     2.4441     0.0595
 1295.5000     9.0088    84.3904     0.0223     2.4379     0.0658
 1296.0000     9.0241    85.1150     0.0367     2.4576     0.0675
 1296.5000     9.0391    85.8270     0.0509     2.4980     0.0437
 1297.0000     9.0541    86.4607     0.0623     2.5110     0.0274
 1297.5000     9.0690    86.3082     0.0790     2.5170     0.0186
 1298.0000     9.0830    85.9678     0.0815     2.5110     0.0167
 1298.5000     9.1261    85.6317     0.0763     2.4990     0.0245
