~VERSION INFORMATION
 VERS.                2.0:   CWLS LOG ASCII STANDARD - VERSION 2.0
 WRAP.                 NO:   ONE LINE PER DEPTH STEP
~WELL INFORMATION
#MNEM.UNIT      DATA TYPE    INFORMATION
#----------   ------------   ------------------------------
 STRT.F            0.0000:   START DEPTH
 STOP.F          625.0000:   STOP DEPTH
 STEP.F            0.5000:   STEP LENGTH
 NULL.          -999.2500:   NO VALUE
 COMP.       F D SERV INC:   COMPANY
 WELL.    75-3 SX-3 #72-3:   WELL
 FLD .             TEAPOT:   FIELD
 LOC .       S3 T38N R78W:   LOCATION
 CNTY.            NATRONA:   COUNTY
 STAT.            WYOMING:   STATE
 CTRY. UNITED STATES OF AMERICA:   COUNTRY
 SRVC.     Atlas Wireline:   SERVICE COMPANY
 DATE.        05-MAY-1992:   LOGDATE
 API .       490252251800:   API NUMBER
~CURVE INFORMATION
#MNEM.UNIT       API CODE    CURVE DESCRIPTION
#----------   ------------   ------------------------------
 DEPT.F                  :   
 CALD.IN     45 280 60 00:   CALIPER FROM DENSITY
 CORR.G/C3   45 356 01 00:   DENSITY CORRECTION
 DEN .G/C3   45 350 01 00:   COMPENSATED BULK DENSTIY
 GRD .GAPI   45 310 01 00:   GAMMA RAY FROM DENSITY LOG
 RILD.OHMM   07 120 46 00:   INDUCTION LOG DEEP RESISTIVITY
 RILM.OHMM   07 120 44 00:   INDUCTION LOG MEDIUM RESISTIVITY
 PORD.DEC    45 890 12 00:   POROSITY DENSITY SANDSTONE
~PARAMETER INFORMATION
#MNEM.UNIT          VALUE    DESCRIPTION
#----------   ------------   ------------------------------
 PD  .                 GL:   PERMANENT DATUM
 EPD .F              5148:   ELEVATION PERMANENT DATUM
 LMF .                 KB:   LOG MEASURED FROM
 DAPD.F                 5:   FEET ABOVE PERMANENT DATUM
 DMF .                 KB:   DRILLING MEASURED FROM
 EKB .F              5153:   KELLING BUSHING
 EDF .F              5152:   DRILLING FLOOR
 EGL .F              5148:   GROUND LEVEL
 DATE.        05-MAY-1992:   RUN DATE
 RUN .                  1:   RUN NUMBER
 DD  .F               630:   DEPTH DRILLER
 DL  .F               633:   DEPTH LOGGER
 BLI .F               625:   BOTTOM LOG INTERVAL
 CS  .IN            8.625:   CASING SIZE
 CBD .F                44:   CASING BOTTOM DRILLER
 CBL .F                49:   CASING BOTTOM LOGGER
 BS  .IN            7.875:   BIT SIZE
 BSD .F               630:   BIT SIZE AT DEPTH
 DFT .        AIR DRILLED:   DRILLING FLUID TYPE
 MRT .F                88:   MAXIMUM RECORDED TEMPERATURE
 LUN .           HL- 6274:   LOGGING UNIT NUMBER
 LUL .             CASPER:   LOGGING UNIT LOCATION
 ENGI.       P. RASHUSSEN:   RECORDING ENGINEER
 WITN.          G. STRONG:   WITNESSED BY
 CLNT.            A2DTECH:   CLIENT CODE
 ORIG.           5" PRINT:   ORIGIN OF DATA
 UWI .       490252251800:   UNIQUE WELL ID
 DICO. A2D Technologies, Inc.:   DIGITIZING COMPANY
~OTHER INFORMATION
~A    DEPT    CALD       CORR        DEN         GRD      RILD       RILM       PORD   
# ...
  136.5000     8.3020     0.0014     2.5164   172.1688     8.9446     8.9072     0.0842
  137.0000     8.3017     0.0015     2.5177   173.6785     9.1309     8.9677     0.0818
  137.5000     8.3164    -0.0045     2.5238   175.7897     9.3211     9.0912     0.0791
  138.0000     8.3160    -0.0075     2.5252   180.6077     9.5153     9.2158     0.0788
  138.5000     8.3157    -0.0105     2.5237   183.9219     9.6459     9.3433     0.0806
  139.0000     8.3154    -0.0104     2.5192   185.4316     9.7182     9.5377     0.0828
  139.5000     8.3151    -0.0074     2.5177   186.9535     9.9124     9.6691     0.0828
  140.0000     8.3148    -0.0044     2.5161   188.7518     9.9785     9.8029     0.0825
  140.5000     8.3296    -0.0013     2.5146   185.0466    10.1855     9.8688     0.0828
  141.0000     8.3292     0.0017     2.5131   181.4013    10.3253    10.0041     0.0828
  141.5000     8.3439     0.0048     2.5131   175.8388    10.4679    10.1419     0.0822
  142.0000     8.3436     0.0048     2.5191   174.6402    10.6850    10.2101     0.0813
  142.5000     8.3584     0.0078     2.5236   172.2416    10.8326    10.3507     0.0768
  143.0000     8.3580     0.0079     2.5341   172.5483    10.9048    10.4203     0.0723
  143.5000     8.3577     0.0079     2.5372   174.3588    11.1310    10.4903     0.0702
  144.0000     8.3574     0.0110     2.5341   176.1693    11.2052    10.6427     0.0735
  144.5000     8.3571     0.0170     2.5235   174.6714    11.2808    10.7177     0.0820
  145.0000     8.3568     0.0170     2.5069   172.2699    11.3560    10.9290     0.0905
  145.5000     8.3715     0.0201     2.4933   174.6833    11.4317    11.0033     0.1017
  146.0000     8.3862     0.0231     2.4677   181.9068    11.1897    11.0773     0.1050
  146.5000     8.3859     0.0262     2.4270   180.7079    11.0306    11.0735     0.1081
  147.0000     8.3856     0.0292     2.4254   176.7578    10.7228    10.8411     0.1072
  147.5000     8.3853     0.0293     2.4335   175.0074    10.4967    10.4665     0.1050
  148.0000     8.3850     0.0293     2.4540   176.2606    10.4200    10.3186     0.1018
  148.5000     8.3846     0.0263     2.4933   177.1260    10.4164    10.3157     0.0972
  149.0000     8.3844     0.0173     2.5053   178.3350    10.4858    10.3129     0.0939
  149.5000     8.3841     0.0083     2.5038   180.7469    10.5557    10.3830     0.0915
  150.0000     8.3821     0.0023     2.5008   179.4691    10.7756    10.3936     0.0906
  150.5000     8.3614    -0.0051     2.5008   178.3632    10.6209    10.4754     0.0897
  151.0000     8.3394    -0.0099     2.5038   179.8817    10.6910    10.5573     0.0867
  151.5000     8.3997    -0.0009     2.5114   182.3026    10.7626    10.5948     0.0828
  152.0000     8.4150     0.0020     2.5145   184.7234    10.8336    10.4462     0.0827
  152.5000     8.4153     0.0050     2.5130   186.5427    10.7526    10.5182     0.0855
  153.0000     8.4156     0.0049     2.5085   187.1590    10.5990    10.5164     0.0874
  153.5000     8.4009     0.0049     2.4964   183.8656    10.5209    10.5150     0.0943
  154.0000     8.4012     0.0048     2.4618   179.3691    10.3706    10.4404     0.1043
  154.5000     8.4015     0.0017     2.4663   175.7749    10.2941    10.3664     0.1033
  155.0000     8.4018    -0.0014     2.4814   178.1957    10.2182    10.2213     0.1003
  155.5000     8.4021    -0.0044     2.4966   182.1203    10.0722    10.0783     0.0963
  156.0000     8.4174    -0.0045     2.4996   184.2404     9.9979     9.8682     0.0941
  156.5000     8.4177    -0.0015     2.4966   180.3116     9.9936     9.7982     0.0941
  157.0000     8.4180    -0.0016     2.4982   178.8051     9.9191     9.7969     0.0938
  157.5000     8.4183     0.0014     2.4997   180.3788     9.8460     9.7274     0.0926
  158.0000     8.4186     0.0073     2.5043   182.4989     9.8419     9.7942     0.0914
  158.5000     8.4189     0.0103     2.5025   183.1152     9.9079     9.7247     0.0914
  159.0000     8.4342     0.0102     2.4998   182.2277     9.9028     9.6558     0.0941
  159.5000     8.4195     0.0041     2.4862   181.0395     9.8987     9.5873     0.0990
  160.0000     8.4198     0.0010     2.4848   176.5431     9.8257     9.5193     0.0999
  160.5000     8.4201    -0.0050     2.4923   169.0391     9.6853     9.4439     0.0987
  161.0000     8.4054    -0.0081     2.4984   170.2569     9.6139     9.2547     0.0951
  161.5000     8.3308    -0.0082     2.5150   173.5800     9.3450     9.1250     0.0845
  162.0000     8.3010    -0.0022     2.5211   178.4069     9.2761     8.9973     0.0809
  162.5000     8.3014     0.0008     2.5181   183.8352     9.0799     8.8097     0.0836
  163.0000     8.3167     0.0037     2.5076   189.2635     8.9502     8.5660     0.0882
  163.5000     8.3170     0.0127     2.4910   192.8874     8.7609     8.4461     0.0954
  164.0000     8.3173     0.0157     2.4790   201.9249     8.5691     8.2125     0.1027
  164.5000     8.3175     0.0186     2.4730   199.2341     8.3258     8.0413     0.1039
  165.0000     8.3178     0.0185     2.4851   195.9406     8.1018     7.8736     0.1026
  165.5000     8.3181     0.0155     2.4913   193.2486     7.9861     7.8178     0.1009
  166.0000     8.3184     0.0124     2.4791   195.9702     7.9272     7.7624     0.1015
  166.5000     8.3337     0.0093     2.4821   195.9971     7.9803     7.7613     0.1009
  167.0000     8.3340     0.0032     2.4883   192.6678     8.0330     7.7602     0.0970
  167.5000     8.3343     0.0001     2.5006   189.3083     8.0860     7.7592     0.0882
  168.0000     8.3197    -0.0029     2.5094   184.6618     8.2530     7.8124     0.0846
  168.5000     8.3200    -0.0030     2.5109   178.9014     8.3666     7.9766     0.0870
  169.0000     8.3203     0.0000     2.5064   179.2207     8.5993     8.1473     0.0889
  169.5000     8.3356     0.0029     2.5034   177.7318     8.8394     8.5008     0.0919
  170.0000     8.3359     0.0119     2.4974   174.4383     9.0862     8.8612     0.0952
  170.5000     8.3211     0.0179     2.4824   175.0546     9.3399     8.9879     0.0980
  171.0000     8.3065     0.0239     2.4749   176.5732     9.5339     9.1648     0.1016
  171.5000     8.2918     0.0298     2.4794   179.2948     9.5261     9.0995     0.1028
  172.0000     8.2921     0.0264     2.4870   181.7156     9.3205     8.9722     0.0995
  172.5000     8.2924     0.0140     2.4900   182.3319     9.1193     8.7240     0.0980
  173.0000     8.2927     0.0085     2.4856   181.7415     8.9370     8.5422     0.0983
  173.5000     8.2779     0.0054     2.4826   181.1586     8.8094     8.4226     0.0992
  174.0000     8.2783     0.0054     2.4856   180.2707     8.7453     8.4807     0.0995
  174.5000     8.2936     0.0053     2.4932   175.7747     8.8030     8.4793     0.0989
  175.0000     8.2939     0.0023     2.4992   172.4812     8.7985     8.4781     0.0941
  175.5000     8.3092    -0.0008     2.5008   171.8945     8.9186     8.5366     0.0926
  176.0000     8.3095    -0.0039     2.4978   176.9025     8.9774     8.7156     0.0936
  176.5000     8.3097    -0.0100     2.4903   178.8414     9.0367     8.7756     0.0957
  177.0000     8.3100    -0.0100     2.4918   175.2509     9.1601     8.9599     0.0969
  177.5000     8.3103    -0.0101     2.4994   174.3598     9.2207     8.9586     0.0893
  178.0000     8.3106    -0.0072     2.5115   175.5813     9.2814     8.9574     0.0842
  178.5000     8.3259    -0.0042     2.5100   176.4947     9.2129     8.8939     0.0860
  179.0000     8.3412    -0.0043     2.5070   173.2049     9.1450     8.8927     0.0884
  179.5000     8.3416    -0.0013     2.4995   169.6070     9.1411     8.8914     0.0900
  180.0000     8.3419    -0.0014     2.4935   173.2346     9.1373     8.8899     0.0936
  180.5000     8.3572     0.0016     2.4951   178.0614     9.1327     8.8887     0.0960
  181.0000     8.3575     0.0076     2.4996   181.0837     9.1289     8.9497     0.0948
  181.5000     8.3728     0.0105     2.5012   178.0910     9.1252     8.9484     0.0933
