~VERSION INFORMATION
 VERS.                2.0:   CWLS LOG ASCII STANDARD - VERSION 2.0
 WRAP.                 NO:   ONE LINE PER DEPTH STEP
~WELL INFORMATION
#MNEM.UNIT      DATA TYPE    INFORMATION
#----------   ------------   ------------------------------
 STRT.F           14.0000:   START DEPTH
 STOP.F          449.0000:   STOP DEPTH
 STEP.F            0.5000:   STEP LENGTH
 NULL.          -999.2500:   NO VALUE
 COMP.   LAWRENCE-ALLISON:   COMPANY
 WELL. NPR 3 #51-65SX10OB2:   WELL
 FLD .             TEAPOT:   FIELD
 LOC .      S10 T38N R78W:   LOCATION
 CNTY.            NATRONA:   COUNTY
 STAT.            WYOMING:   STATE
 CTRY. UNITED STATES OF AMERICA:   COUNTRY
 SRVC.      Dresser Atlas:   SERVICE COMPANY
 DATE.        18-DEC-1984:   LOGDATE
 API .       490251100900:   API NUMBER
~CURVE INFORMATION
#MNEM.UNIT       API CODE    CURVE DESCRIPTION
#----------   ------------   ------------------------------
 DEPT.F                  :   
 PORD.DEC    45 890 12 00:   POROSITY DENSITY SANDSTONE
 CNC .DEC    42 890 03 00:   NEUTRON POROSITY SANDSTONE
 CALD.IN     45 280 60 00:   CALIPER FROM DENSITY
 CORR.G/C3   45 356 01 00:   DENSITY CORRECTION
 DEN .G/C3   45 350 01 00:   COMPENSATED BULK DENSTIY
 GRD .GAPI   45 310 01 00:   GAMMA RAY FROM DENSITY LOG
 AC  .US/F   60 520 00 00:   ACCOUSTIC
~PARAMETER INFORMATION
#MNEM.UNIT          VALUE    DESCRIPTION
#----------   ------------   ------------------------------
 PD  .                 GL:   PERMANENT DATUM
 EPD .F              5156:   ELEVATION PERMANENT DATUM
 LMF .                 GL:   LOG MEASURED FROM
 DMF .                 GL:   DRILLING MEASURED FROM
 EGL .F              5156:   GROUND LEVEL
 DATE.        18-DEC-1984:   RUN DATE
 RUN .                  1:   RUN NUMBER
 DD  .F               448:   DEPTH DRILLER
 DL  .F               451:   DEPTH LOGGER
 BLI .F               449:   BOTTOM LOG INTERVAL
 TLI .F                20:   TOP LOG INTERVAL
 CS  .IN            8.625:   CASING SIZE
 CBD .F                20:   CASING BOTTOM DRILLER
 CBL .F                20:   CASING BOTTOM LOGGER
 BS  .IN             6.25:   BIT SIZE
 BSD .F               448:   BIT SIZE AT DEPTH
 DFT .          KCL WATER:   DRILLING FLUID TYPE
 MSS .             MUDPIT:   MUD SAMPLE SOURCE
 RMS .OHMM          0.132:   RESISTIVITY MUD SAMPLE
 MST .F                95:   MUD SAMPLE TEMPERATURE
 RMF .OHMM          0.099:   RESISTIVITY MUD FILTRATE SAMPLE
 MFST.F                95:   MUD FILTRATE SAMPLE TEMPERATURE
 RMC .OHMM          0.165:   RESISTIVITY MUD CAKE
 MCST.F                95:   MUD CAKE SAMPLE TEMPERATURE
 MFSS.               CALC:   MUD FILTRATE SAMPLE SOURCE
 MCSS.               CALC:   MUD CAKE SAMPLE SOURCE
 TCS .HRS               5:   TIME CURCULATED STOPPED
 MRT .F               100:   MAXIMUM RECORDED TEMPERATURE
 LUN .               6270:   LOGGING UNIT NUMBER
 ENGI.        TOM GAUGHAN:   RECORDING ENGINEER
 WITN.             GROOMS:   WITNESSED BY
 CLNT.            A2DTECH:   CLIENT CODE
 ORIG.           5" PRINT:   ORIGIN OF DATA
 UWI .       490251100900:   UNIQUE WELL ID
 DICO. A2D Technologies, Inc.:   DIGITIZING COMPANY
~OTHER INFORMATION
~A   DEPT     PORD        CNC       CALD       CORR        DEN        GRD         AC   
# ...
  105.0000     0.1417     0.2897     6.4822     0.0002     2.4428   111.8123   104.5300
  105.5000     0.1402     0.3134     6.4835     0.0063     2.4444   111.5302   105.0612
  106.0000     0.1378     0.3149     6.4848    -0.0010     2.4475   110.3580   105.1517
  106.5000     0.1374     0.3118     6.4862    -0.0024     2.4499   106.3631   104.2424
  107.0000     0.1356     0.3004     6.4727     0.0038     2.4522   109.0521   103.6449
  107.5000     0.1312     0.2928     6.4741     0.0235     2.4613   110.1053   103.4236
  108.0000     0.1251     0.2943     6.4756     0.0522     2.4711   108.4880   103.7311
  108.5000     0.1200     0.3093     6.4621     0.0809     2.4795   107.3157   103.7337
  109.0000     0.1186     0.3137     6.4634     0.0660     2.4804   106.4402   103.3449
  109.5000     0.1180     0.3095     6.4648     0.0677     2.4804   106.0061   102.1036
  110.0000     0.1146     0.2899     6.4659     0.0138     2.4842   105.5757   100.9640
  110.5000     0.1083     0.2935     6.4674     0.0064     2.4978   102.9234   100.8921
  111.0000     0.1076     0.2976     6.4687     0.0157     2.5002   101.8991   102.1016
  111.5000     0.1142     0.3000     6.4701     0.0263     2.4935   103.2495   103.6110
  112.0000     0.1205     0.2879     6.4714     0.0327     2.4800   103.2700   104.5184
  112.5000     0.1268     0.2855     6.4727     0.0252     2.4695   102.9822   105.2753
  113.0000     0.1297     0.2879     6.4740     0.0118     2.4613   103.8932   105.6560
  113.5000     0.1354     0.2934     6.4754     0.0000     2.4523   103.8783   106.4129
  114.0000     0.1426     0.3058     6.4767     0.0016     2.4433   102.8605   108.0727
  114.5000     0.1456     0.3088     6.4780     0.0138     2.4381   101.9792   109.3564
  115.0000     0.1462     0.3001     6.4793     0.0305     2.4337   101.8687   110.1885
  115.5000     0.1452     0.2928     6.4807     0.0397     2.4342   102.1838   109.9672
  116.0000     0.1385     0.2972     6.4672     0.0337     2.4451   103.9789   108.3916
  116.5000     0.1277     0.3113     6.4685     0.0235     2.4649   106.9610   106.8912
  117.0000     0.1216     0.3116     6.4546     0.0287     2.4748   108.0142   106.0679
  117.5000     0.1213     0.3043     6.4563     0.0403     2.4763   106.6936   105.5457
  118.0000     0.1260     0.2917     6.4576     0.0358     2.4659   103.1475   105.1739
  118.5000     0.1299     0.2922     6.4589     0.0218     2.4622   100.1911   104.9527
  119.0000     0.1266     0.2946     6.4603     0.0168     2.4683   102.4350   104.8819
  119.5000     0.1242     0.2946     6.4616     0.0483     2.4721   105.2687   104.8111
  120.0000     0.1268     0.2942     6.4629     0.0787     2.4662   105.4281   104.7403
  120.5000     0.1337     0.2773     6.4643     0.0684     2.4557   100.9954   104.8201
  121.0000     0.1340     0.2767     6.4656     0.0490     2.4558    99.0776   104.9867
  121.5000     0.1336     0.2920     6.4669     0.0236     2.4544   101.0248   105.1311
  122.0000     0.1360     0.2956     6.4682     0.0103     2.4499   103.2650   105.1355
  122.5000     0.1396     0.3009     6.4696    -0.0030     2.4470   105.8019   105.2152
  123.0000     0.1380     0.3096     6.4712    -0.0029     2.4486   106.8552   105.4454
  123.5000     0.1356     0.3237     6.4725    -0.0027     2.4547   106.5727   105.8261
  124.0000     0.1319     0.3267     6.4738     0.0004     2.4630   104.2139   106.4326
  124.5000     0.1256     0.3164     6.4752     0.0096     2.4684   102.7450   106.6628
  125.0000     0.1201     0.3019     6.4765     0.0293     2.4805   102.4629   106.6672
  125.5000     0.1165     0.2980     6.4778     0.0445     2.4850   104.5905   106.6717
  126.0000     0.1159     0.2925     6.4791     0.0582     2.4851   109.3768   106.5998
  126.5000     0.1170     0.2907     6.4805     0.0598     2.4829   110.2221   107.1321
  127.0000     0.1185     0.2934     6.4816     0.0630     2.4785   106.5276   108.2652
  127.5000     0.1219     0.3207     6.4679     0.0662     2.4711    99.2759   110.9785
  128.0000     0.1283     0.3444     6.4696     0.0633     2.4621    94.8396   113.0898
  128.5000     0.1427     0.3513     6.4709     0.0500     2.4314    89.6614   113.7715
  129.0000     0.1617     0.3335     6.4571     0.0561     2.4014    89.3757   112.9483
  129.5000     0.1685     0.3070     6.4436     0.0653     2.3954    91.3228   111.2973
  130.0000     0.1613     0.2986     6.4304     0.0550     2.4150    96.3820   109.2702
  130.5000     0.1372     0.3093     6.4317     0.0296     2.4550    99.9576   106.7916
  131.0000     0.1230     0.3120     6.4358     0.0162     2.4701   102.4945   105.6644
  131.5000     0.1206     0.3008     6.4403     0.0239     2.4769   104.2896   105.2909
  132.0000     0.1242     0.2990     6.4448     0.0286     2.4732   105.4912   105.2249
  132.5000     0.1295     0.3050     6.4492     0.0333     2.4643   105.6543   105.2295
  133.0000     0.1301     0.3046     6.4537     0.0349     2.4621   105.5169   105.3102
  133.5000     0.1271     0.3010     6.4581     0.0336     2.4652   105.5353   105.3146
  134.0000     0.1276     0.3056     6.4626     0.0323     2.4675   106.5886   105.1686
  134.5000     0.1312     0.3244     6.4671     0.0249     2.4616   107.1967   104.7968
  135.0000     0.1330     0.3139     6.4715     0.0131     2.4579   105.5794   104.5003
  135.5000     0.1311     0.2942     6.4747     0.0057     2.4587   103.3685   104.2791
  136.0000     0.1260     0.2707     6.4761     0.0224     2.4678   103.8283   104.0578
  136.5000     0.1190     0.2740     6.4774     0.0316     2.4769   104.7448   103.9107
  137.0000     0.1172     0.2764     6.4787     0.0318     2.4808   103.4126   103.6153
  137.5000     0.1196     0.2793     6.4800     0.0289     2.4801   101.9436   103.3940
  138.0000     0.1245     0.2829     6.4813     0.0111     2.4718   103.7567   103.0975
  138.5000     0.1276     0.2955     6.4827    -0.0008     2.4674   104.7920   102.8010
  139.0000     0.1200     0.3040     6.4840     0.0081     2.4769   104.3616   102.5045
  139.5000     0.1158     0.3059     6.4853     0.0401     2.4864   105.7063   102.2832
  140.0000     0.1179     0.2978     6.4866     0.0358     2.4824   108.8457   102.2877
  140.5000     0.1193     0.2888     6.4880     0.0239     2.4805   108.7120   102.2169
  141.0000     0.1163     0.2857     6.4893     0.0166     2.4855   109.1718   101.9204
  141.5000     0.1087     0.2856     6.4906     0.0227     2.4965   110.3734   101.5486
  142.0000     0.1057     0.2862     6.4920     0.0364     2.5026   109.4979   100.8759
  142.5000     0.1066     0.2889     6.4934     0.0411     2.5019   107.1387   100.2771
  143.0000     0.1077     0.2933     6.4949     0.0428     2.4997   106.5562    99.9022
  143.5000     0.1089     0.3002     6.4814     0.0474     2.4968   107.1644    99.6024
  144.0000     0.1092     0.3014     6.4676     0.0506     2.4984   105.1056    99.6258
  144.5000     0.1070     0.2998     6.4692     0.0553     2.5029   103.6330   100.1889
  145.0000     0.1055     0.2947     6.4705     0.0584     2.5045   103.6513   101.4305
  145.5000     0.1045     0.2919     6.4719     0.0511     2.5038   103.5140   102.3379
  146.0000     0.1069     0.2940     6.4732     0.0392     2.5017   104.2742   102.8691
  146.5000     0.1120     0.3003     6.4745     0.0124     2.4965   107.8497   103.0240
  147.0000     0.1159     0.2977     6.4758    -0.0010     2.4898   109.9415   102.8780
  147.5000     0.1183     0.2903     6.4772    -0.0039     2.4823   110.1009   102.8061
  148.0000     0.1210     0.2875     6.4785     0.0024     2.4742   107.8938   103.1127
  148.5000     0.1284     0.2887     6.4799     0.0085     2.4644   106.1280   103.7191
  149.0000     0.1331     0.2941     6.4811     0.0177     2.4585   106.7362   104.4008
  149.5000     0.1358     0.3042     6.4825     0.0299     2.4526   108.8280   105.6844
  150.0000     0.1371     0.3168     6.4835     0.0330     2.4481   115.2225   107.2482
