~VERSION INFORMATION
 VERS.                2.0:   CWLS LOG ASCII STANDARD - VERSION 2.0
 WRAP.                 NO:   ONE LINE PER DEPTH STEP
~WELL INFORMATION
#MNEM.UNIT      DATA TYPE    INFORMATION
#----------   ------------   ------------------------------
 STRT.F           34.0000:   START DEPTH
 STOP.F          616.0000:   STOP DEPTH
 STEP.F            0.5000:   STEP LENGTH
 NULL.          -999.2500:   NO VALUE
 COMP. FENIX & SCISSON INC:   COMPANY
 WELL. NAVAL PETROLEUM RESERVE 3 S-10 #86-10:   WELL
 FLD .             TEAPOT:   FIELD
 LOC .      S10 T38N R78W:   LOCATION
 CNTY.            NATRONA:   COUNTY
 STAT.            WYOMING:   STATE
 CTRY. UNITED STATES OF AMERICA:   COUNTRY
 SRVC.              Welex:   SERVICE COMPANY
 DATE.        12-APR-1977:   LOGDATE
 API .       490251033800:   API NUMBER
~CURVE INFORMATION
#MNEM.UNIT       API CODE    CURVE DESCRIPTION
#----------   ------------   ------------------------------
 DEPT.F                  :   
 CALD.IN     45 280 60 00:   CALIPER FROM DENSITY LOG
 GRD .GAPI   45 310 01 00:   GAMMA RAY FROM DENSITY LOG
 CORR.G/C3   45 356 01 00:   DENSITY CORRECTION
 DPHI.DEC    45 890 12 00:   DENSITY POROSITY SANDSTONE
 RHOB.G/C3   45 350 01 00:   BULK DENSITY
 SPR .MV     07 010 01 00:   SPONTANEOUS POTENTIAL
 ILD .OHMM   07 120 46 00:   INDUCTION LOG DEEP
 ILM .OHMM   07 120 44 00:   INDUCTION LOG MEDIUM
 SGRD.OHMM   07 221 05 00:   SHALLOW SHORT GUARD RESISTIVITY
~PARAMETER INFORMATION
#MNEM.UNIT          VALUE    DESCRIPTION
#----------   ------------   ------------------------------
 PD  .                 GL:   PERMANENT DATUM
 EPD .F              5240:   ELEVATION PERMANENT DATUM
 LMF .                 KB:   LOG MEASURED FROM
 DAPD.F                 5:   FEET ABOVE PERMANENT DATUM
 DMF .                 KB:   DRILLING MEASURED FROM
 EKB .F              5245:   KELLING BUSHING
 EGL .F              5240:   GROUND LEVEL
 DATE.        12-APR-1977:   RUN DATE
 RUN .                  1:   RUN NUMBER
 DD  .F               625:   DEPTH DRILLER
 DL  .F               617:   DEPTH LOGGER
 BLI .F               615:   BOTTOM LOG INTERVAL
 TLI .F                35:   TOP LOG INTERVAL
 CS  .IN            8.625:   CASING SIZE
 BS  .IN            7.875:   BIT SIZE
 BSD .F               625:   BIT SIZE AT DEPTH
 DFT .           KCL- GEL:   DRILLING FLUID TYPE
 DFD .                8.8:   DRILLING FLUID DENSITY
 BHT .F                68:   BOTTOM HOLE TEMPERATURE
 TCS .HRS            0100:   TIME CURCULATED STOPPED
 MRT .F                68:   MAXIMUM RECORDED TEMPERATURE
 ENGI.        E. CALLAHAN:   RECORDING ENGINEER
 WITN.            R. LYON:   WITNESSED BY
 CLNT.            A2DTECH:   CLIENT CODE
 ORIG.           5" PRINT:   ORIGIN OF DATA
 UWI .       490251033800:   UNIQUE WELL ID
 DICO. A2D Technologies, Inc.:   DIGITIZING COMPANY
~OTHER INFORMATION
~A   DEPT     CALD        GRD       CORR       DPHI         RHOB      SPR        ILD        ILM       SGRD   
# ...
  399.0000     8.0154    66.2978     0.0628     0.2056     2.3140   -65.8545    18.6090    24.3030    39.1432
  399.5000     8.0166    66.6064     0.0689     0.2014     2.3193   -65.6641    18.7331    24.8012    35.5177
  400.0000     8.0326    67.2117     0.0706     0.1969     2.3268   -65.4737    18.0898    24.7892    33.3609
  400.5000     8.0188    67.9653     0.0643     0.1944     2.3224   -64.9777    17.7132    24.8497    36.7366
  401.0000     8.0199    69.0157     0.0528     0.2061     2.3060   -64.3863    17.5862    24.9821    38.2769
  401.5000     8.0209    70.0661     0.0545     0.2094     2.3045   -64.0944    17.4601    25.1044    37.4754
  402.0000     8.0220    71.2649     0.0591     0.1963     2.3310   -63.8024    17.3349    24.5755    36.1869
  402.5000     8.0081    71.2767     0.0562     0.1793     2.3557   -63.5104    17.3301    24.2273    34.9463
  403.0000     7.9647    71.2886     0.0519     0.1784     2.3541   -63.3682    17.6887    24.3881    37.1747
  403.5000     7.9360    71.0037     0.0460     0.1790     2.3481   -63.2136    17.9302    24.3754    33.2640
  404.0000     7.9371    71.0155     0.0431     0.1837     2.3384   -62.9339    18.3013    24.3652    34.8991
  404.5000     7.9381    70.8760     0.0387     0.1948     2.3256   -62.6420    18.6800    24.1870    37.3821
  405.0000     7.9713    71.0392     0.0344     0.2046     2.3104   -62.4997    18.8058    23.3541    39.2197
  405.5000     8.0441    71.3477     0.0300     0.2124     2.2988   -62.5075    19.1937    23.8345    37.8712
  406.0000     8.0453    71.6563     0.0286     0.2139     2.3036   -62.3649    19.1883    24.6665    48.2207
  406.5000     8.0312    72.1132     0.0423     0.1994     2.3403   -62.2226    19.3176    22.5312    46.8858
  407.0000     8.0174    72.5702     0.0545     0.1652     2.3770   -61.9325    19.3109    21.2531    35.7885
  407.5000     8.0036    72.8787     0.0636     0.1529     2.4072   -61.7884    19.1724    21.5315    33.6152
  408.0000     7.9898    73.6324     0.0607     0.1457     2.4095   -61.6461    19.1671    22.6886    33.1398
  408.5000     7.9911    74.5344     0.0519     0.1484     2.4043   -61.6554    19.0296    23.1278    34.2913
  409.0000     7.9771    75.4365     0.0460     0.1528     2.3916   -61.6628    18.8932    23.1178    36.7311
  409.5000     7.9784    76.0418     0.0401     0.1618     2.3707   -61.6702    18.6283    23.2692    42.7483
  410.0000     7.9794    76.6471     0.0327     0.1717     2.3565   -61.6777    18.4948    22.5823    44.2383
  410.5000     7.9804    77.2524     0.0284     0.1785     2.3543   -61.6851    18.2355    21.9965    32.3920
  411.0000     7.9815    78.0061     0.0270     0.1773     2.3544   -61.6925    18.1047    21.9876    31.4953
  411.5000     7.9825    79.0565     0.0286     0.1746     2.3598   -61.7000    17.8509    22.4557    30.8359
  412.0000     7.9984    80.2552     0.0288     0.1718     2.3700   -61.7074    17.6007    22.7433    30.8230
  412.5000     7.9994    81.6024     0.0304     0.1670     2.3816   -61.7148    17.4745    22.0872    30.8102
  413.0000     8.0153    83.4005     0.0305     0.1595     2.3944   -61.4229    17.1107    21.1931    30.3745
  413.5000     8.0312    84.4451     0.0307     0.1547     2.3997   -61.2788    16.9880    20.6159    29.3301
  414.0000     8.0470    84.7537     0.0292     0.1534     2.3982   -60.9886    16.6344    20.3164    28.1264
  414.5000     8.0481    84.7656     0.0264     0.1561     2.3946   -60.8445    16.5151    19.7605    27.5375
  415.0000     8.0491    84.6289     0.0249     0.1582     2.3901   -61.0035    16.1713    21.4738    26.7752
  415.5000     8.0501    84.0237     0.0237     0.1593     2.3857   -61.6097    15.8347    21.6040    26.5796
  416.0000     8.0512    82.6687     0.0238     0.1605     2.3805   -61.9166    15.6127    19.1949    26.9386
  416.5000     8.0522    81.4003     0.0225     0.1629     2.3768   -62.0737    15.2877    18.6644    26.7418
  417.0000     8.0532    81.4303     0.0226     0.1664     2.3716   -62.2309    14.8662    18.5279    26.0015
  417.5000     8.0543    82.0574     0.0212     0.1688     2.3679   -62.0883    14.7596    19.3059    25.8116
  418.0000     8.0553    82.8150     0.0229     0.1694     2.3725   -61.7966    14.7555    20.2564    25.9799
  418.5000     8.0563    83.8457     0.0245     0.1661     2.3778   -61.5046    14.8549    19.0245    26.3335
  419.0000     8.0574    84.6014     0.0262     0.1657     2.3741   -61.2126    14.9539    18.7550    26.6863
  419.5000     8.0433    85.3294     0.0263     0.1675     2.3719   -60.6213    15.2623    19.0088    27.0467
  420.0000     8.0295    85.9371     0.0279     0.1657     2.3787   -60.1796    15.3651    19.5346    27.2259
  420.5000     8.0308    85.9489     0.0296     0.1656     2.3750   -60.1912    15.5960    20.0748    27.4034
  421.0000     8.0318    85.6640     0.0312     0.1665     2.3803   -60.5023    15.6787    19.2497    27.5821
  421.5000     8.0329    85.0824     0.0329     0.1634     2.3864   -61.1127    15.7832    18.0791    27.5678
  422.0000     8.0339    84.2040     0.0345     0.1605     2.3805   -61.8895    15.7787    17.2164    27.3664
  422.5000     8.0349    84.2158     0.0331     0.1625     2.3835   -62.7827    15.7743    16.9725    27.3550
  423.0000     8.0360    84.8211     0.0348     0.1589     2.3896   -63.2436    15.6612    17.0834    27.1553
  423.5000     8.0370    86.0199     0.0379     0.1595     2.3971   -63.5545    15.6568    18.0490    27.1440
  424.0000     8.0380    86.3285     0.0380     0.1543     2.4017   -63.6841    15.5259    19.2017    26.5757
  424.5000     8.0242    86.3403     0.0367     0.1503     2.4032   -63.6915    15.3086    20.1470    26.1998
  425.0000     8.0253    86.3521     0.0338     0.1552     2.3936   -63.6989    15.1118    19.3190    25.8292
  425.5000     8.0114    86.0672     0.0309     0.1599     2.3839   -63.5548    14.8833    17.6484    24.9411
  426.0000     8.0125    85.3372     0.0266     0.1623     2.3817   -63.4009    14.7768    15.7908    24.7589
  426.5000     7.9838    84.4588     0.0252     0.1611     2.3847   -63.4028    14.4852    15.1419    24.9230
  427.0000     7.9700    83.7288     0.0208     0.1628     2.3871   -63.5540    14.3661    16.4471    25.4322
  427.5000     7.9711    82.9988     0.0179     0.1610     2.3826   -63.7052    14.1651    17.9889    25.2464
  428.0000     7.9721    83.0106     0.0151     0.1646     2.3744   -64.1558    14.0639    17.9814    24.5475
  428.5000     7.9732    83.0225     0.0107     0.1691     2.3707   -64.6064    13.9772    17.9739    23.8679
  429.0000     7.9742    83.3310     0.0108     0.1690     2.3745   -64.9073    13.9733    17.9665    23.5303
  429.5000     7.9752    84.0847     0.0110     0.1684     2.3753   -65.2082    13.9694    17.5897    23.3585
  430.0000     7.9763    84.5416     0.0111     0.1690     2.3717   -65.2097    13.9655    16.9840    23.6739
  430.5000     7.9773    84.5535     0.0143     0.1719     2.3665   -65.2112    13.9743    17.4538    23.8308
  431.0000     7.9783    84.7137     0.0189     0.1728     2.3643   -64.9133    14.0548    17.6898    23.0090
  431.5000     7.9794    84.8739     0.0235     0.1728     2.3673   -64.7648    14.0508    17.3189    22.0647
  432.0000     7.9804    84.7359     0.0282     0.1691     2.3757   -64.6166    14.0469    17.7979    22.6741
  432.5000     7.9815    84.3031     0.0283     0.1643     2.3795   -64.1694    14.1407    19.0662    24.1200
  433.0000     7.9825    84.3149     0.0239     0.1640     2.3780   -64.1709    14.1367    19.7297    24.6179
  433.5000     7.9835    85.5137     0.0273     0.1643     2.3796   -64.0223    14.1435    18.9188    24.6051
  434.0000     7.9846    87.0092     0.0317     0.1609     2.3834   -64.0242    14.2270    17.8918    24.0899
  434.5000     7.9856    88.9498     0.0333     0.1576     2.3894   -64.0257    14.2230    17.7609    23.4230
  435.0000     7.9866    88.9911     0.0305     0.1549     2.3955   -64.1769    14.2191    18.0011    23.0618
