~VERSION INFORMATION
 VERS.                2.0:   CWLS LOG ASCII STANDARD - VERSION 2.0
 WRAP.                 NO:   ONE LINE PER DEPTH STEP
~WELL INFORMATION
#MNEM.UNIT      DATA TYPE    INFORMATION
#----------   ------------   ------------------------------
 STRT.F            4.0000:   START DEPTH
 STOP.F          572.0000:   STOP DEPTH
 STEP.F            0.5000:   STEP LENGTH
 NULL.          -999.2500:   NO VALUE
 COMP. FENIX & SCISSON INC:   COMPANY
 WELL.       NPR#3 #33-10:   WELL
 FLD .             TEAPOT:   FIELD
 LOC .      S10 T38N R78W:   LOCATION
 CNTY.            NATRONA:   COUNTY
 STAT.            WYOMING:   STATE
 CTRY. UNITED STATES OF AMERICA:   COUNTRY
 SRVC.              Welex:   SERVICE COMPANY
 DATE.        05-MAY-1980:   LOGDATE
 API .       490251080800:   API NUMBER
~CURVE INFORMATION
#MNEM.UNIT       API CODE    CURVE DESCRIPTION
#----------   ------------   ------------------------------
 DEPT.F                  :   
 SGRD.OHMM   07 220 05 00:   SHALLOW GUARD RESISTIVITY
 ILD .OHMM   07 120 46 00:   INDUCTION LOG DEEP RESISTIVITY
 ILM .OHMM   07 120 44 00:   INDUCTION LOG MEDIUM
 SPR .MV     07 010 01 00:   SPONTANEOUS POTENTIAL
 CALD.IN     45 280 60 00:   CALIPER
 GRD .GAPI   45 310 01 00:   GAMMA RAY FROM DENSITY LOG
 RHOB.G/C3   45 350 01 00:   BULK DENSITY
 CORR.G/C3   45 356 01 00:   DENSITY CORRECTION
 DPHI.DEC    45 890 12 00:   DENSITY POROSITY SANDSTONE
~PARAMETER INFORMATION
#MNEM.UNIT          VALUE    DESCRIPTION
#----------   ------------   ------------------------------
 PD  .                 GL:   PERMANENT DATUM
 EPD .F              5228:   ELEVATION PERMANENT DATUM
 LMF .                 KB:   LOG MEASURED FROM
 DAPD.F                 5:   FEET ABOVE PERMANENT DATUM
 DMF .                 KB:   DRILLING MEASURED FROM
 EKB .F              5233:   KELLING BUSHING
 EGL .F              5228:   GROUND LEVEL
 DATE.             5-5-80:   RUN DATE
 RUN .                  1:   RUN NUMBER
 DD  .F               572:   DEPTH DRILLER
 DL  .F               572:   DEPTH LOGGER
 BLI .F               570:   BOTTOM LOG INTERVAL
 TLI .F                30:   TOP LOG INTERVAL
 BS  .IN            7.875:   BIT SIZE
 BSD .F               572:   BIT SIZE AT DEPTH
 DFT .            KCL MUD:   DRILLING FLUID TYPE
 DFD .                8.9:   DRILLING FLUID DENSITY
 DFV .                 36:   DRILLING FLUID VISCOSITY
 DFL .               12.6:   DRILLING FLUID LOSS
 MSS .           FLOWLINE:   MUD SAMPLE SOURCE
 RMS .OHMM           1.08:   RESISTIVITY MUD SAMPLE
 MST .F                60:   MUD SAMPLE TEMPERATURE
 RMF .OHMM            .86:   RESISTIVITY MUD FILTRATE SAMPLE
 MFST.F                60:   MUD FILTRATE SAMPLE TEMPERATURE
 RMC .OHMM           1.29:   RESISTIVITY MUD CAKE
 MCST.F                60:   MUD CAKE SAMPLE TEMPERATURE
 MFSS.           MEASURED:   MUD FILTRATE SAMPLE SOURCE
 MCSS.           MEASURED:   MUD CAKE SAMPLE SOURCE
 TCS .HRS               2:   TIME CURCULATED STOPPED
 MRT .F               100:   MAXIMUM RECORDED TEMPERATURE
 LUN .               1892:   LOGGING UNIT NUMBER
 LUL .             CASPER:   LOGGING UNIT LOCATION
 ENGI.               REIN:   RECORDING ENGINEER
 WITN.              AMEND:   WITNESSED BY
 CLNT.            A2DTECH:   CLIENT CODE
 ORIG.           5" PRINT:   ORIGIN OF DATA
 UWI .       490251080800:   UNIQUE WELL ID
 DICO. A2D Technologies, Inc.:   DIGITIZING COMPANY
~OTHER INFORMATION
~A    DEPT    SGRD        ILD        ILM        SPR       CALD         GRD        RHOB       CORR     DPHI   
# ...
  515.0000    12.0751     9.5997     9.7505   -22.6982     7.8478    88.8949     2.5494     0.0074     0.0910
  515.5000    11.9370     9.4778     9.5788   -22.9418     7.8478    89.6024     2.5422     0.0047     0.0977
  516.0000    11.9332     9.1611     9.4101   -23.1859     7.8478    90.2821     2.5328    -0.0190     0.1020
  516.5000    11.6569     8.8432     9.2444   -23.4261     7.8478    89.6877     2.5235    -0.0176     0.0933
  517.0000    11.3034     8.5363     9.0816   -23.4967     7.8478    89.0138     2.5142    -0.0127     0.0978
  517.5000    11.0715     8.2703     8.8842   -23.5442     7.8478    88.3599     2.5050    -0.0194     0.1040
  518.0000    10.9834     8.0285     8.8859   -23.5919     7.8478    88.4972     2.5014    -0.0314     0.1101
  518.5000    10.7794     7.4951     8.8404   -23.6438     7.8478    89.4935     2.5154    -0.0373     0.1151
  519.0000    10.3795     6.9833     8.8078   -23.5376     7.8478    90.6411     2.5267    -0.0215     0.1012
  519.5000     9.8438     6.5064     8.7754   -23.3795     7.8478    92.3844     2.5358    -0.0006     0.0889
  520.0000     9.3994     6.0621     8.7428   -23.2183     7.8478    94.1393     2.5267     0.0171     0.0974
  520.5000     8.8039     5.6482     8.7232   -23.0649     7.8478    95.9057     2.5102     0.0232     0.1028
  521.0000     7.8818     5.2625     8.7310   -23.3048     7.8478    96.7649     2.5175     0.0284     0.1027
  521.5000     5.8054     5.0938     8.7391   -23.5743     7.8478    95.2756     2.5374     0.0334     0.1004
  522.0000     4.2548     5.0063     8.7471   -23.8427     7.8478    93.0927     2.5571     0.0356     0.0899
  522.5000     3.9841     4.9708     8.7552   -24.1108     7.8478    90.8640     2.5768     0.0242     0.0793
  523.0000    11.0431     5.1400     8.7633   -24.3800     7.8478    88.7662     2.5872     0.0129     0.0708
  523.5000    11.6341     5.3623     8.7714   -24.6417     7.8478    89.2900     2.5734     0.0017     0.0775
  524.0000    11.4667     5.6598     8.7795   -24.6529     7.8478    89.4955     2.5621    -0.0094     0.0860
  524.5000    11.3996     6.0814     8.7877   -24.6511     7.8478    88.5398     2.5508    -0.0191     0.0846
  525.0000    11.9322     6.5345     8.7957   -24.6224     7.8478    87.5742     2.5407    -0.0146     0.0850
  525.5000    11.7884     7.0213     8.8043   -24.4611     7.8478    88.0762     2.5393    -0.0218     0.0896
  526.0000    11.7165     7.5443     8.8033   -24.3022     7.8478    88.9119     2.5505    -0.0212     0.0874
  526.5000    12.0451     8.1063     8.8803   -24.1436     7.8478    89.1922     2.5621    -0.0076     0.0821
  527.0000    11.9496     8.7102     8.9351   -23.9851     7.8478    88.7846     2.5734     0.0005     0.0767
  527.5000    11.9345     9.2832     8.9903   -23.8265     7.8478    88.4740     2.5895     0.0083     0.0713
  528.0000    12.1363     9.5946     9.0459   -23.6679     7.8504    88.1461     2.6061     0.0160     0.0663
  528.5000    12.3406     9.7332     9.1018   -23.5090     7.8545    88.4401     2.6257     0.0233     0.0614
  529.0000    12.6805     9.8314     9.2111   -23.3848     7.8587    88.6820     2.6126     0.0223     0.0564
  529.5000    13.0298     9.9307     9.3979   -23.2792     7.8629    88.9568     2.5910     0.0196     0.0569
  530.0000    13.4542    10.0309     9.5886   -23.1730     7.8661    88.5039     2.5844     0.0213     0.0580
  530.5000    13.3773    10.1321     9.7831   -23.0661     7.8515    87.5997     2.5971     0.0297     0.0560
  531.0000    13.3307    10.2344     9.9815   -23.1048     7.8473    86.6930     2.6069     0.0377     0.0540
  531.5000    14.3511    10.3377    10.1019   -23.1638     7.8477    85.9870     2.6116     0.0452     0.0498
  532.0000    14.0889    10.4420    10.2034   -23.2223     7.8478    85.5674     2.6040     0.0467     0.0450
  532.5000    15.0282    10.5473    10.2394   -23.2048     7.8478    85.7510     2.6205     0.0472     0.0399
  533.0000    14.5879    10.6229    10.2743   -23.1039     7.8478    85.9462     2.6341     0.0536     0.0347
  533.5000    14.3511    10.6808    10.3095   -23.0039     7.8478    86.1521     2.6491     0.0609     0.0294
  534.0000    14.9338    10.7390    10.3448   -22.9035     7.8478    86.3569     2.6378     0.0682     0.0261
  534.5000    15.5198    10.7975    10.3803   -22.8032     7.8478    86.5642     2.6235     0.0630     0.0379
  535.0000    15.7372    10.8563    10.5886   -22.7028     7.8478    86.7805     2.6091     0.0482     0.0475
  535.5000    14.9701    10.9155    10.9020   -22.5428     7.8478    86.0097     2.5946     0.0335     0.0570
  536.0000    14.4751    10.9749    11.2248   -22.3268     7.8478    85.2234     2.5809     0.0186     0.0635
  536.5000    14.9589    11.0029    11.5570   -22.1038     7.8478    85.9256     2.5881     0.0201     0.0565
  537.0000    15.7265    11.0250    11.6090   -22.1423     7.8478    86.0192     2.5976     0.0346     0.0489
  537.5000    16.3283    11.0472    11.5847   -22.2995     7.8478    85.3177     2.6031     0.0451     0.0528
  538.0000    15.8829    11.0694    11.5653   -22.4588     7.8478    84.9330     2.5903     0.0260     0.0589
  538.5000    16.0380    11.0851    11.5458   -22.6219     7.8477    85.4165     2.5782     0.0074     0.0651
  539.0000    16.1785    11.0555    11.5265   -22.6546     7.8480    85.7530     2.5671    -0.0067     0.0700
  539.5000    15.5244    11.0312    11.5071   -22.6550     7.8499    86.0630     2.5693    -0.0019     0.0649
  540.0000    14.9294    11.0069    11.4878   -22.6549     7.8279    86.4324     2.5676    -0.0023     0.0670
  540.5000    14.6182    10.9827    11.4685   -22.6536     7.8271    86.7344     2.5548    -0.0078     0.0715
  541.0000    14.8903    10.9586    11.4492   -22.7600     7.8257    86.7760     2.5418    -0.0129     0.0761
  541.5000    14.5799    10.9344    11.4300   -22.9364     7.8247    86.6464     2.5371    -0.0174     0.0784
  542.0000    14.4840    10.9105    11.4111   -23.1132     7.8237    87.1386     2.5469    -0.0153     0.0729
  542.5000    15.8822    10.8865    11.3731   -23.2570     7.8227    87.5376     2.5603    -0.0126     0.0686
  543.0000    15.0246    10.8124    11.2811   -23.2537     7.8217    87.1871     2.5738    -0.0100     0.0643
  543.5000    15.4587    10.7315    11.1909   -23.2526     7.8207    87.1880     2.5819    -0.0074     0.0620
  544.0000    15.0282    10.6511    11.1012   -23.2587     7.8196    86.8198     2.5791    -0.0047     0.0636
  544.5000    15.5053    10.5713    10.9842   -23.3998     7.8186    87.4321     2.5764    -0.0021     0.0640
  545.0000    15.5927    10.4921    11.0171   -23.5443     7.8176    88.3616     2.5740     0.0006     0.0613
  545.5000    14.4840    10.4135    11.0656   -23.6876     7.8166    89.3015     2.5792     0.0031     0.0587
  546.0000    15.0282    10.3355    11.1144   -23.8413     7.8155    90.2475     2.5856     0.0077     0.0561
  546.5000    13.7046    10.2580    11.1634   -23.5324     7.8145    91.0976     2.5920     0.0138     0.0535
  547.0000    14.2194    10.1873    11.1887   -23.1560     7.8135    91.1123     2.5984     0.0198     0.0509
  547.5000    13.2084    10.1321    11.1000   -22.7714     7.8125    91.1104     2.6048     0.0256     0.0483
  548.0000    13.7046    10.0772    10.9726   -22.5265     7.8115    91.4677     2.6111     0.0304     0.0458
  548.5000    13.3441    10.0226    10.8466   -22.2509     7.8106    92.1991     2.6168     0.0350     0.0444
  549.0000    13.0872     9.8309    10.7335   -22.0654     7.8093    92.9243     2.6112     0.0401     0.0477
  549.5000    13.4542     9.6272    10.6359   -22.1271     7.8064    93.6278     2.5998     0.0366     0.0507
  550.0000    12.4976     9.4276    10.5378   -22.1824     7.8280    93.8767     2.5911     0.0299     0.0537
  550.5000    13.4542     9.2322    10.4801   -22.2416     7.8277    92.3859     2.5943     0.0231     0.0567
  551.0000    13.0330     9.0661    10.4476   -22.1157     7.8281    90.9364     2.5930     0.0162     0.0597
