~VERSION INFORMATION
 VERS.                2.0:   CWLS LOG ASCII STANDARD - VERSION 2.0
 WRAP.                 NO:   ONE LINE PER DEPTH STEP
~WELL INFORMATION
#MNEM.UNIT      DATA TYPE    INFORMATION
#----------   ------------   ------------------------------
 STRT.F            4.0000:   START DEPTH
 STOP.F          572.0000:   STOP DEPTH
 STEP.F            0.5000:   STEP LENGTH
 NULL.          -999.2500:   NO VALUE
 COMP. FENIX & SCISSON INC:   COMPANY
 WELL.       NPR#3 #33-10:   WELL
 FLD .             TEAPOT:   FIELD
 LOC .      S10 T38N R78W:   LOCATION
 CNTY.            NATRONA:   COUNTY
 STAT.            WYOMING:   STATE
 CTRY. UNITED STATES OF AMERICA:   COUNTRY
 SRVC.              Welex:   SERVICE COMPANY
 DATE.        05-MAY-1980:   LOGDATE
 API .       490251080800:   API NUMBER
~CURVE INFORMATION
#MNEM.UNIT       API CODE    CURVE DESCRIPTION
#----------   ------------   ------------------------------
 DEPT.F                  :   
 SGRD.OHMM   07 220 05 00:   SHALLOW GUARD RESISTIVITY
 ILD .OHMM   07 120 46 00:   INDUCTION LOG DEEP RESISTIVITY
 ILM .OHMM   07 120 44 00:   INDUCTION LOG MEDIUM
 SPR .MV     07 010 01 00:   SPONTANEOUS POTENTIAL
 CALD.IN     45 280 60 00:   CALIPER
 GRD .GAPI   45 310 01 00:   GAMMA RAY FROM DENSITY LOG
 RHOB.G/C3   45 350 01 00:   BULK DENSITY
 CORR.G/C3   45 356 01 00:   DENSITY CORRECTION
 DPHI.DEC    45 890 12 00:   DENSITY POROSITY SANDSTONE
~PARAMETER INFORMATION
#MNEM.UNIT          VALUE    DESCRIPTION
#----------   ------------   ------------------------------
 PD  .                 GL:   PERMANENT DATUM
 EPD .F              5228:   ELEVATION PERMANENT DATUM
 LMF .                 KB:   LOG MEASURED FROM
 DAPD.F                 5:   FEET ABOVE PERMANENT DATUM
 DMF .                 KB:   DRILLING MEASURED FROM
 EKB .F              5233:   KELLING BUSHING
 EGL .F              5228:   GROUND LEVEL
 DATE.             5-5-80:   RUN DATE
 RUN .                  1:   RUN NUMBER
 DD  .F               572:   DEPTH DRILLER
 DL  .F               572:   DEPTH LOGGER
 BLI .F               570:   BOTTOM LOG INTERVAL
 TLI .F                30:   TOP LOG INTERVAL
 BS  .IN            7.875:   BIT SIZE
 BSD .F               572:   BIT SIZE AT DEPTH
 DFT .            KCL MUD:   DRILLING FLUID TYPE
 DFD .                8.9:   DRILLING FLUID DENSITY
 DFV .                 36:   DRILLING FLUID VISCOSITY
 DFL .               12.6:   DRILLING FLUID LOSS
 MSS .           FLOWLINE:   MUD SAMPLE SOURCE
 RMS .OHMM           1.08:   RESISTIVITY MUD SAMPLE
 MST .F                60:   MUD SAMPLE TEMPERATURE
 RMF .OHMM            .86:   RESISTIVITY MUD FILTRATE SAMPLE
 MFST.F                60:   MUD FILTRATE SAMPLE TEMPERATURE
 RMC .OHMM           1.29:   RESISTIVITY MUD CAKE
 MCST.F                60:   MUD CAKE SAMPLE TEMPERATURE
 MFSS.           MEASURED:   MUD FILTRATE SAMPLE SOURCE
 MCSS.           MEASURED:   MUD CAKE SAMPLE SOURCE
 TCS .HRS               2:   TIME CURCULATED STOPPED
 MRT .F               100:   MAXIMUM RECORDED TEMPERATURE
 LUN .               1892:   LOGGING UNIT NUMBER
 LUL .             CASPER:   LOGGING UNIT LOCATION
 ENGI.               REIN:   RECORDING ENGINEER
 WITN.              AMEND:   WITNESSED BY
 CLNT.            A2DTECH:   CLIENT CODE
 ORIG.           5" PRINT:   ORIGIN OF DATA
 UWI .       490251080800:   UNIQUE WELL ID
 DICO. A2D Technologies, Inc.:   DIGITIZING COMPANY
~OTHER INFORMATION
~A    DEPT    SGRD        ILD        ILM        SPR       CALD         GRD        RHOB       CORR     DPHI   
# ...
  113.5000     9.2015     7.0970     7.3611   -26.6767     8.0455    97.7004     2.5394    -0.0094     0.0939
  114.0000     8.8663     6.9042     7.2991   -26.4403     8.0436    96.8650     2.5273    -0.0158     0.0983
  114.5000     8.5419     6.7166     7.2376   -26.2348     8.0410    96.4469     2.5152    -0.0200     0.1026
  115.0000     8.2308     6.5341     7.1876   -26.1934     8.0383    97.3655     2.5047    -0.0161     0.1069
  115.5000     8.0671     6.3565     7.1646   -26.1487     8.0357    97.4862     2.5085    -0.0115     0.1104
  116.0000     8.0285     6.2059     7.1411   -26.1033     8.0330    96.9896     2.5186    -0.0016     0.1051
  116.5000     8.1028     6.1350     7.0563   -26.0553     8.0304    96.6069     2.5286     0.0134     0.0996
  117.0000     8.0795     6.1202     7.0643   -26.1243     8.0277    96.2086     2.5387     0.0288     0.0941
  117.5000     8.0285     6.1044     7.0784   -26.2232     8.0251    95.2597     2.5487     0.0443     0.0887
  118.0000     8.2147     6.0885     7.0925   -26.3231     8.0224    94.3482     2.5586     0.0598     0.0808
  118.5000     8.5592     6.1606     7.1067   -26.4262     8.0198    93.4441     2.5620     0.0748     0.0834
  119.0000     8.9182     6.2370     7.1209   -26.4221     8.0171    92.5404     2.5535     0.0666     0.0893
  119.5000     9.3006     6.3143     7.1351   -26.3894     8.0145    91.6352     2.5451     0.0573     0.0951
  120.0000     9.4716     6.3926     7.1494   -26.3560     8.0118    90.7289     2.5367     0.0565     0.0972
  120.5000     8.9653     6.4718     7.1637   -26.3230     8.0092    89.9298     2.5373     0.0596     0.0931
  121.0000     8.9677     6.5520     7.1780   -26.2902     8.0065    90.3904     2.5439     0.0591     0.0898
  121.5000     9.2639     6.6332     7.1876   -26.2540     8.0039    90.9259     2.5507     0.0539     0.0864
  122.0000     9.3908     6.7154     7.2064   -26.1361     8.0013    91.4766     2.5575     0.0483     0.0835
  122.5000     9.2419     6.7664     7.2267   -25.7778     7.9986    91.2940     2.5643     0.0425     0.0802
  123.0000     8.9633     6.8054     7.2470   -25.4215     7.9960    90.8652     2.5711     0.0371     0.0770
  123.5000     8.7231     6.8445     7.2674   -25.2614     7.9933    90.4199     2.5778     0.0316     0.0737
  124.0000     9.0508     6.8839     7.2879   -25.3342     7.9907    90.3657     2.5809     0.0220     0.0724
  124.5000     8.9810     6.9236     7.3084   -25.4103     7.9880    91.4887     2.5747     0.0098     0.0747
  125.0000     8.8854     6.9636     7.3290   -25.4043     7.9864    92.5779     2.5687     0.0053     0.0769
  125.5000     9.2870     6.9981     7.3496   -25.2494     7.9933    93.6574     2.5628     0.0010     0.0791
  126.0000     9.4778     7.0214     7.3704   -25.0958     8.0000    94.7659     2.5585    -0.0021     0.0814
  126.5000     9.0645     7.0444     7.3886   -25.1076     8.0066    95.2175     2.5531    -0.0042     0.0836
  127.0000     8.8039     7.0900     7.4372   -25.3485     8.0133    95.4598     2.5534    -0.0042     0.0818
  127.5000     9.1684     7.2094     7.4910   -25.5808     8.0196    95.6948     2.5664     0.0077     0.0802
  128.0000     9.5991     7.3307     7.5455   -25.8127     8.0236    95.8198     2.5787     0.0198     0.0784
  128.5000     9.8338     7.4541     7.5964   -26.0441     8.0456    95.0118     2.5764     0.0301     0.0754
  129.0000     9.6670     7.5964     7.5116   -26.2769     8.0445    94.2362     2.5768     0.0402     0.0717
  129.5000     9.4235     7.5385     7.4160   -26.5373     8.0314    93.4723     2.5912     0.0508     0.0680
  130.0000     9.3908     7.4525     7.3211   -26.9260     8.0184    93.1922     2.5985     0.0615     0.0708
  130.5000     9.4964     7.3892     7.2276   -27.3049     8.0055    93.5986     2.5866     0.0696     0.0699
  131.0000     9.5655     7.5064     7.1353   -27.6825     7.9926    93.9923     2.5914     0.0763     0.0688
  131.5000     9.5655     7.5964     7.1217   -28.0538     7.9863    94.3856     2.5950     0.0813     0.0698
  132.0000     9.1910     7.4556     7.1445   -28.4597     7.9930    94.6707     2.5845     0.0712     0.0740
  132.5000     9.0508     7.3236     7.1959   -28.8589     8.0006    94.6628     2.5744     0.0611     0.0782
  133.0000     9.1960     7.1940     7.2477   -29.2581     8.0082    94.6582     2.5642     0.0511     0.0824
  133.5000     9.3377     7.1217     7.2999   -29.6318     8.0158    94.6901     2.5541     0.0412     0.0866
  134.0000     9.4812     7.1762     7.3525   -29.6166     8.0234    95.3095     2.5440     0.0543     0.0908
  134.5000     9.5687     7.2542     7.4054   -29.5522     8.0310    95.9086     2.5338     0.0699     0.0949
  135.0000     9.6576     7.1986     7.4576   -29.4898     8.0386    96.5030     2.5237     0.0750     0.0992
  135.5000     9.3508     7.1598     7.4463   -29.4276     8.0462    97.0988     2.5122     0.0740     0.1040
  136.0000     9.1686     7.1217     7.4280   -29.3655     8.0538    97.6866     2.5304     0.0607     0.0961
  136.5000     9.1346     7.1028     7.4098   -29.3034     8.0615    98.0230     2.5674     0.0458     0.0866
  137.0000     9.4789     7.0842     7.3916   -29.2413     8.0651    97.7092     2.5615     0.0316     0.0780
  137.5000     9.7736     7.0656     7.3734   -29.1791     8.0475    97.5277     2.5602     0.0209     0.0817
  138.0000     9.8338     7.0471     7.3553   -29.1161     8.0277    97.3551     2.5641     0.0117     0.0815
  138.5000     9.1346     7.0286     7.3372   -29.0472     8.0077    97.1809     2.5591     0.0114     0.0808
  139.0000     9.2478     7.0102     7.3192   -29.2380     7.9870    97.0064     2.5517     0.0096     0.0817
  139.5000     9.4429     6.9917     7.3012   -29.5866     7.9860    96.8301     2.5444     0.0016     0.0866
  140.0000     9.5655     6.9805     7.2833   -30.4373     7.9861    96.6464     2.5371    -0.0060     0.0911
  140.5000     9.1356     6.9667     7.2654   -31.2765     7.9862    96.7018     2.5347    -0.0135     0.0894
  141.0000     8.8039     6.9528     7.2469   -32.6773     7.9862    96.7926     2.5471    -0.0136     0.0861
  141.5000     9.0408     6.9390     7.2274   -33.8197     7.9862    96.8843     2.5570    -0.0095     0.0829
  142.0000     9.3046     6.9251     7.2078   -32.6629     7.9862    96.9784     2.5582    -0.0130     0.0846
  142.5000     9.1031     6.9113     7.1884   -33.1179     7.9857    97.0101     2.5513    -0.0196     0.0864
  143.0000     8.8824     6.8975     7.1690   -33.9999     7.9837    96.3632     2.5450    -0.0246     0.0840
  143.5000     9.1583     6.8838     7.1497   -34.9036     7.9818    95.7391     2.5465    -0.0201     0.0824
  144.0000     9.4825     6.8638     7.1304   -35.7758     7.9798    95.1203     2.5598    -0.0166     0.0838
  144.5000     9.1582     6.8854     7.1218   -34.9817     7.9779    94.5040     2.5534    -0.0223     0.0851
  145.0000     8.6430     6.9250     7.1217   -34.0370     7.9760    93.8861     2.5537    -0.0278     0.0839
  145.5000     8.8592     6.9648     7.1217   -34.1649     7.9741    93.2316     2.5593    -0.0299     0.0819
  146.0000     9.0508     6.9915     7.1217   -34.7768     7.9722    93.8070     2.5648    -0.0144     0.0799
  146.5000     8.8505     6.8916     7.1217   -35.3959     7.9702    94.8208     2.5670     0.0014     0.0778
  147.0000     8.5637     6.8175     7.1216   -35.2196     7.9683    95.8505     2.5588     0.0050     0.0809
  147.5000     8.8136     6.7384     7.1217   -34.9954     7.9664    96.8812     2.5510    -0.0013     0.0846
  148.0000     9.0508     6.7457     7.1212   -35.2322     7.9645    97.8880     2.5471    -0.0069     0.0880
  148.5000     8.8217     6.7598     7.1588   -36.5779     7.9626    98.2731     2.5581    -0.0025     0.0824
  149.0000     8.7231     6.7739     7.2303   -37.8872     7.9606    97.2258     2.5668     0.0060     0.0772
  149.5000     9.1793     6.7881     7.3029   -38.9519     7.9587    96.2646     2.5755     0.0146     0.0700
