~VERSION INFORMATION
 VERS.                2.0:   CWLS LOG ASCII STANDARD - VERSION 2.0
 WRAP.                 NO:   ONE LINE PER DEPTH STEP
~WELL INFORMATION
#MNEM.UNIT      DATA TYPE    INFORMATION
#----------   ------------   ------------------------------
 STRT.F           21.0000:   START DEPTH
 STOP.F          543.0000:   STOP DEPTH
 STEP.F            0.5000:   STEP LENGTH
 NULL.          -999.2500:   NO VALUE
 COMP. FENIX & SCISSON INC:   COMPANY
 WELL.      NPR #3 #46-10:   WELL
 FLD .             TEAPOT:   FIELD
 LOC .      S10 T38N R78W:   LOCATION
 CNTY.            NATRONA:   COUNTY
 STAT.            WYOMING:   STATE
 CTRY. UNITED STATES OF AMERICA:   COUNTRY
 SRVC.              Welex:   SERVICE COMPANY
 DATE.        08-MAY-1980:   LOGDATE
 API .       490251081100:   API NUMBER
~CURVE INFORMATION
#MNEM.UNIT       API CODE    CURVE DESCRIPTION
#----------   ------------   ------------------------------
 DEPT.F                  :   
 SGRD.OHMM   07 220 05 00:   SHALLOW GUARD RESISTIVITY
 ILD .OHMM   07 120 46 00:   INDUCTION LOG DEEP RESISTIVITY
 ILM .OHMM   07 120 44 00:   INDUCTION LOG MEDIUM
 SPR .MV     07 010 01 00:   SPONTANEOUS POTENTIAL
 CALD.IN     45 280 60 00:   CALIPER
 GRD .GAPI   45 310 01 00:   GAMMA RAY FROM DENSITY LOG
 CORR.G/C3   45 356 01 00:   DENSITY CORRECTION
 RHOB.G/C3   45 350 01 00:   BULK DENSITY
 DPHI.DEC    45 890 12 00:   DENSITY POROSITY SANDSTONE
~PARAMETER INFORMATION
#MNEM.UNIT          VALUE    DESCRIPTION
#----------   ------------   ------------------------------
 PD  .                 GL:   PERMANENT DATUM
 EPD .F              5206:   ELEVATION PERMANENT DATUM
 LMF .                 KB:   LOG MEASURED FROM
 DAPD.F                 5:   FEET ABOVE PERMANENT DATUM
 DMF .                 KB:   DRILLING MEASURED FROM
 EKB .F              5211:   KELLING BUSHING
 EGL .F              5206:   GROUND LEVEL
 DATE.             5-8-80:   RUN DATE
 RUN .                  1:   RUN NUMBER
 DD  .F               530:   DEPTH DRILLER
 DL  .F               543:   DEPTH LOGGER
 BLI .F               541:   BOTTOM LOG INTERVAL
 TLI .F                30:   TOP LOG INTERVAL
 BS  .IN            7.875:   BIT SIZE
 BSD .F               530:   BIT SIZE AT DEPTH
 DFT .            KCL MUD:   DRILLING FLUID TYPE
 DFD .                9.1:   DRILLING FLUID DENSITY
 DFV .                 43:   DRILLING FLUID VISCOSITY
 MSS .                PIT:   MUD SAMPLE SOURCE
 RMS .OHMM            .89:   RESISTIVITY MUD SAMPLE
 MST .F                75:   MUD SAMPLE TEMPERATURE
 RMF .OHMM            .71:   RESISTIVITY MUD FILTRATE SAMPLE
 MFST.F                75:   MUD FILTRATE SAMPLE TEMPERATURE
 RMC .OHMM           1.08:   RESISTIVITY MUD CAKE
 MCST.F                75:   MUD CAKE SAMPLE TEMPERATURE
 MFSS.           MEASURED:   MUD FILTRATE SAMPLE SOURCE
 MCSS.           MEASURED:   MUD CAKE SAMPLE SOURCE
 BHT .F               100:   BOTTOM HOLE TEMPERATURE
 TCS .HRS               2:   TIME CURCULATED STOPPED
 MRT .F               100:   MAXIMUM RECORDED TEMPERATURE
 LUN .               9685:   LOGGING UNIT NUMBER
 LUL .             CASPER:   LOGGING UNIT LOCATION
 ENGI.            TOTHILL:   RECORDING ENGINEER
 WITN.              AMEND:   WITNESSED BY
 CLNT.            A2DTECH:   CLIENT CODE
 ORIG.           5" PRINT:   ORIGIN OF DATA
 UWI .       490251081100:   UNIQUE WELL ID
 DICO. A2D Technologies, Inc.:   DIGITIZING COMPANY
~OTHER INFORMATION
~A   DEPT     SGRD        ILD        ILM        SPR        CALD        GRD        CORR       RHOB     DPHI   
# ...
   57.5000     6.6864     3.8855     6.2593   -40.1579     7.9400   104.1315     0.0395     2.3891     0.1793
   58.0000     6.9274     3.9492     6.3173   -40.5801     7.9170   105.3643     0.0461     2.4032     0.1639
   58.5000     6.9915     4.0140     6.3907   -41.0914     7.8925   106.1223     0.0527     2.4150     0.1578
   59.0000     6.9915     4.0797     6.4944   -41.6241     7.8667   106.8153     0.0580     2.4264     0.1512
   59.5000     6.9915     4.1412     6.4704   -41.7265     7.8415   107.0817     0.0595     2.4265     0.1484
   60.0000     6.9915     4.1802     6.4285   -41.5320     7.8477   107.3863     0.0550     2.4180     0.1542
   60.5000     6.9274     4.2196     6.3868   -41.2881     7.8587   108.3276     0.0463     2.3941     0.1640
   61.0000     6.9274     4.2593     6.3758   -41.1623     7.9081   109.1553     0.0405     2.3982     0.1666
   61.5000     6.9735     4.2995     6.3758   -40.9408     7.9615   109.1386     0.0418     2.4030     0.1639
   62.0000     7.1860     4.3613     6.5859   -40.9557     7.9956   109.1235     0.0431     2.4079     0.1613
   62.5000     7.4049     4.4811     6.8237   -40.9532     7.9857   108.5223     0.0399     2.4049     0.1619
   63.0000     7.4576     4.5750     6.9274   -40.9533     7.9767   108.2391     0.0331     2.3965     0.1685
   63.5000     7.3892     4.6032     6.9274   -40.9533     7.9674   108.2354     0.0251     2.3806     0.1752
   64.0000     7.4918     4.6601     6.9274   -40.9532     7.9588   108.3771     0.0205     2.3752     0.1807
   64.5000     7.7899     4.7231     7.0788   -40.9559     7.9671   108.7732     0.0231     2.3872     0.1727
   65.0000     8.1028     4.8047     7.3214   -40.9426     7.9763   109.1648     0.0248     2.3876     0.1714
   65.5000     8.1028     4.8352     7.1502   -41.1589     7.9854   109.5576     0.0252     2.3908     0.1705
   66.0000     7.9303     4.9138     7.0563   -41.1447     7.9946   109.9511     0.0256     2.3857     0.1711
   66.5000     7.8095     5.0158     7.3441   -41.1040     8.0037   110.3207     0.0219     2.3819     0.1767
   67.0000     7.8095     5.1198     7.4576   -40.9891     8.0128   110.3318     0.0276     2.4035     0.1682
   67.5000     8.3651     5.2271     7.3892   -40.8732     8.0156   110.3298     0.0370     2.4256     0.1547
   68.0000     8.8342     5.3064     7.3214   -40.7549     8.0103   110.3273     0.0463     2.4503     0.1413
   68.5000     9.3320     5.4052     7.6967   -40.5539     8.0049   110.2128     0.0418     2.4398     0.1341
   69.0000     9.8511     5.5049     7.9835   -40.5153     8.0000   109.9596     0.0373     2.4357     0.1448
   69.5000    10.1158     5.6556     8.2809   -40.3670     7.9764   109.7065     0.0453     2.4595     0.1337
   70.0000    10.0139     5.8038     8.6430   -40.1566     7.9460   109.4544     0.0461     2.4599     0.1285
   70.5000     9.9249     5.9616     8.6042   -40.0568     7.9223   108.9754     0.0428     2.4455     0.1342
   71.0000     9.9249     6.1237     8.4851   -39.8013     7.9573   108.1966     0.0367     2.4389     0.1395
   71.5000     9.9852     6.2742     8.4851   -39.5456     7.9425   107.1146     0.0350     2.4396     0.1419
   72.0000    10.1485     6.3561     8.4851   -39.3959     7.9274   106.0297     0.0363     2.4357     0.1432
   72.5000    10.3150     6.4404     8.5637   -39.3975     7.8813   105.1580     0.0343     2.4355     0.1440
   73.0000    10.4854     6.5253     8.6430   -39.3961     7.8590   104.4382     0.0308     2.4336     0.1472
   73.5000    10.6561     6.7323     8.8712   -39.3892     7.8618   103.7275     0.0267     2.4193     0.1529
   74.0000    10.8834     6.9274     9.1722   -39.1875     7.8822   103.1137     0.0218     2.4131     0.1576
   74.5000    11.0860     7.1217     9.4834   -39.2007     7.8987   103.0372     0.0196     2.4169     0.1540
   75.0000    11.1055     7.1766     9.7436   -39.2035     7.8967   102.9521     0.0137     2.4051     0.1607
   75.5000    11.1313     7.2305     9.7436   -39.1985     7.8951   102.8783     0.0081     2.3960     0.1691
   76.0000    11.1572     7.5202     9.7436   -38.9950     7.8934   102.1221     0.0134     2.4047     0.1628
   76.5000    11.1831     7.9303     9.7455   -38.5702     7.8918   101.2341     0.0237     2.4235     0.1535
   77.0000    11.4312     8.1004     9.7486   -38.1488     7.8902   100.3481     0.0262     2.4263     0.1485
   77.5000    12.0477     8.0994     9.6474   -37.8341     7.8886    99.8353     0.0274     2.4305     0.1466
   78.0000    12.8514     8.1817     9.5606   -37.8402     7.8870   100.6033     0.0295     2.4376     0.1428
   78.5000    12.8515     8.2659     9.5679   -37.8402     7.8854   101.7145     0.0221     2.4173     0.1518
   79.0000    11.5004     8.3594     9.5653   -37.8405     7.8837   102.6021     0.0172     2.4098     0.1583
   79.5000    11.5513     8.4542     9.5553   -37.8407     7.8821   103.4339     0.0169     2.4021     0.1644
   80.0000    11.7165     8.5501     9.5490   -37.8456     7.8805   104.2685     0.0191     2.4037     0.1646
   80.5000    11.6212     8.6443     9.5427   -37.6426     7.8788   105.0981     0.0137     2.3897     0.1702
   81.0000    11.4648     8.6447     9.5364   -37.4019     7.8799   105.9278     0.0113     2.3855     0.1741
   81.5000    11.3105     8.4803     9.5301   -37.2178     7.8813   106.7619     0.0114     2.3846     0.1750
   82.0000    11.0860     8.2357     9.5239   -37.0759     7.8826   107.5863     0.0109     2.3832     0.1740
   82.5000    11.0860     7.9982     9.5176   -36.8678     7.8840   108.1716     0.0146     2.4029     0.1670
   83.0000    11.2698     7.7675     9.5113   -36.6632     7.8853   108.8800     0.0187     2.4103     0.1600
   83.5000    11.4028     7.5964     9.5050   -36.5307     7.8866   109.5774     0.0217     2.4183     0.1535
   84.0000    11.2965     7.6720     9.4988   -36.4042     7.8880   109.6117     0.0227     2.4206     0.1521
   84.5000    10.9501     7.8116     9.4925   -36.2382     7.8893   109.2499     0.0200     2.4097     0.1573
   85.0000    10.8834     7.8127     9.4861   -36.0931     7.8907   109.3304     0.0174     2.4057     0.1615
   85.5000    10.9873     7.6001     9.4799   -36.0877     7.8920   109.0378     0.0148     2.3997     0.1650
   86.0000    11.1673     7.4582     9.4771   -36.0894     7.8933   108.5861     0.0123     2.3919     0.1685
   86.5000    11.1887     7.3214     9.5617   -36.0896     7.8947   108.4004     0.0034     2.3764     0.1769
   87.0000    11.1548     7.3430     9.6539   -36.0892     7.8960   109.3057    -0.0039     2.3621     0.1870
   87.5000    11.0945     7.4576     9.6348   -36.0714     7.8975   109.0387    -0.0010     2.3822     0.1773
   88.0000    11.0345     7.5267     9.6019   -36.0283     7.8977   108.4249     0.0133     2.4055     0.1658
   88.5000    10.9749     7.4766     9.5696   -35.9860     7.8775   108.7158     0.0130     2.4005     0.1620
   89.0000    10.9156     7.4221     9.5374   -35.9400     7.8572   109.4147     0.0078     2.3930     0.1695
   89.5000    10.8834     7.3680     9.5056   -35.8841     7.8394   110.1360     0.0083     2.3921     0.1703
   90.0000    11.0079     7.3214     9.4779   -36.1093     7.8453   110.8581     0.0132     2.3974     0.1673
   90.5000    11.1883     7.2542     9.5255   -36.3343     7.8513   111.2498     0.0177     2.4032     0.1640
   91.0000    11.3717     7.3522     9.5678   -36.5517     7.8575   111.2324     0.0124     2.3918     0.1678
   91.5000    11.5581     7.4243     9.6103   -36.7698     7.8543   111.1451     0.0156     2.4048     0.1703
   92.0000    11.7204     7.4971     9.6541   -36.5120     7.8481   110.4811     0.0223     2.4214     0.1572
   92.5000    11.8293     7.5706     9.7436   -35.8646     7.8418   110.1042     0.0294     2.4338     0.1473
   93.0000    11.8271     7.6448     9.7029   -35.2123     7.8338   109.7839     0.0325     2.4403     0.1420
   93.5000    11.4047     7.7378     9.6636   -34.5595     7.8243   110.1185     0.0336     2.4388     0.1416
