~VERSION INFORMATION
 VERS.                2.0:   CWLS LOG ASCII STANDARD - VERSION 2.0
 WRAP.                 NO:   ONE LINE PER DEPTH STEP
~WELL INFORMATION
#MNEM.UNIT      DATA TYPE    INFORMATION
#----------   ------------   ------------------------------
 STRT.F           34.0000:   START DEPTH
 STOP.F          616.0000:   STOP DEPTH
 STEP.F            0.5000:   STEP LENGTH
 NULL.          -999.2500:   NO VALUE
 COMP. FENIX & SCISSON INC:   COMPANY
 WELL. NAVAL PETROLEUM RESERVE 3 S-10 #86-10:   WELL
 FLD .             TEAPOT:   FIELD
 LOC .      S10 T38N R78W:   LOCATION
 CNTY.            NATRONA:   COUNTY
 STAT.            WYOMING:   STATE
 CTRY. UNITED STATES OF AMERICA:   COUNTRY
 SRVC.              Welex:   SERVICE COMPANY
 DATE.        12-APR-1977:   LOGDATE
 API .       490251033800:   API NUMBER
~CURVE INFORMATION
#MNEM.UNIT       API CODE    CURVE DESCRIPTION
#----------   ------------   ------------------------------
 DEPT.F                  :   
 CALD.IN     45 280 60 00:   CALIPER FROM DENSITY LOG
 GRD .GAPI   45 310 01 00:   GAMMA RAY FROM DENSITY LOG
 CORR.G/C3   45 356 01 00:   DENSITY CORRECTION
 DPHI.DEC    45 890 12 00:   DENSITY POROSITY SANDSTONE
 RHOB.G/C3   45 350 01 00:   BULK DENSITY
 SPR .MV     07 010 01 00:   SPONTANEOUS POTENTIAL
 ILD .OHMM   07 120 46 00:   INDUCTION LOG DEEP
 ILM .OHMM   07 120 44 00:   INDUCTION LOG MEDIUM
 SGRD.OHMM   07 221 05 00:   SHALLOW SHORT GUARD RESISTIVITY
~PARAMETER INFORMATION
#MNEM.UNIT          VALUE    DESCRIPTION
#----------   ------------   ------------------------------
 PD  .                 GL:   PERMANENT DATUM
 EPD .F              5240:   ELEVATION PERMANENT DATUM
 LMF .                 KB:   LOG MEASURED FROM
 DAPD.F                 5:   FEET ABOVE PERMANENT DATUM
 DMF .                 KB:   DRILLING MEASURED FROM
 EKB .F              5245:   KELLING BUSHING
 EGL .F              5240:   GROUND LEVEL
 DATE.        12-APR-1977:   RUN DATE
 RUN .                  1:   RUN NUMBER
 DD  .F               625:   DEPTH DRILLER
 DL  .F               617:   DEPTH LOGGER
 BLI .F               615:   BOTTOM LOG INTERVAL
 TLI .F                35:   TOP LOG INTERVAL
 CS  .IN            8.625:   CASING SIZE
 BS  .IN            7.875:   BIT SIZE
 BSD .F               625:   BIT SIZE AT DEPTH
 DFT .           KCL- GEL:   DRILLING FLUID TYPE
 DFD .                8.8:   DRILLING FLUID DENSITY
 BHT .F                68:   BOTTOM HOLE TEMPERATURE
 TCS .HRS            0100:   TIME CURCULATED STOPPED
 MRT .F                68:   MAXIMUM RECORDED TEMPERATURE
 ENGI.        E. CALLAHAN:   RECORDING ENGINEER
 WITN.            R. LYON:   WITNESSED BY
 CLNT.            A2DTECH:   CLIENT CODE
 ORIG.           5" PRINT:   ORIGIN OF DATA
 UWI .       490251033800:   UNIQUE WELL ID
 DICO. A2D Technologies, Inc.:   DIGITIZING COMPANY
~OTHER INFORMATION
~A   DEPT     CALD        GRD       CORR       DPHI         RHOB      SPR        ILD        ILM       SGRD   
# ...
  362.5000     8.0180   129.1420     0.0278     0.0996     2.4812   -71.2575     4.9255     5.9630     9.3827
  363.0000     8.0192   128.4342     0.0355     0.0951     2.5016   -71.1078     5.0624     5.9190     9.4333
  363.5000     8.0204   128.1731     0.0401     0.0831     2.5174   -70.9581     5.2392     6.4783     8.1741
  364.0000     8.0216   127.8596     0.0403     0.0765     2.5219   -70.8084     5.4977     6.9844     7.7130
  364.5000     8.0228   127.1271     0.0389     0.0782     2.5212   -70.6587     5.7689     7.1309     9.3560
  365.0000     8.0088   126.1297     0.0375     0.0779     2.5228   -70.6587     5.9704     7.3765    10.0913
  365.5000     8.0103   124.5080     0.0332     0.0767     2.5273   -70.5090     6.1789     7.8477    10.2998
  366.0000     8.0115   123.4772     0.0289     0.0757     2.5290   -70.2096     6.4390     7.9541    10.4390
  366.5000     8.0127   124.2320     0.0230     0.0775     2.5237   -70.0599     6.6179     8.0004    10.6524
  367.0000     8.0138   122.7587     0.0201     0.0829     2.5140   -69.9102     6.7549     8.2279    11.0227
  367.5000     8.0150   122.0272     0.0218     0.0877     2.5058   -69.6108     6.8947     8.5067    11.1729
  368.0000     8.0162   121.4415     0.0234     0.0912     2.5014   -69.4611     6.9890     8.6810    11.0139
  368.5000     8.0174   120.4159     0.0281     0.0921     2.5000   -69.3114     7.0843     8.7979    10.8582
  369.0000     8.0186   118.7942     0.0313     0.0885     2.5075   -69.0120     7.1316     8.8547    11.0050
  369.5000     8.0198   119.1013     0.0344     0.0825     2.5143   -68.8623     7.1791     8.9119    11.1538
  370.0000     8.0209   119.7052     0.0376     0.0791     2.5181   -68.7126     7.1771     8.9066    11.2278
  370.5000     8.0221   121.3476     0.0407     0.0803     2.5205   -68.4132     7.2250     8.9652    11.3011
  371.0000     8.0233   123.5835     0.0469     0.0809     2.5183   -68.2635     7.2230     8.9598    11.3750
  371.5000     8.0245   124.6324     0.0545     0.0808     2.5183   -68.2635     7.2210     8.9555    11.5287
  372.0000     8.0257   123.4558     0.0562     0.0814     2.5184   -68.1138     7.2190     8.9511    11.5229
  372.5000     8.0269   122.2793     0.0488     0.0868     2.5154   -68.1138     7.2671     9.0101    11.4401
  373.0000     8.0281   121.5478     0.0415     0.0991     2.5035   -67.9641     7.2651     9.0046    11.5148
  373.5000     8.0141   121.5582     0.0461     0.1029     2.4871   -67.8144     7.2631     8.6340    11.4297
  374.0000     7.9711   121.5685     0.0523     0.1020     2.4826   -67.8144     7.2610     8.4524    11.1135
  374.5000     7.9571   121.5789     0.0569     0.0984     2.4909   -67.8144     7.2590     8.4483    10.8809
  375.0000     7.9438   121.5893     0.0571     0.0951     2.4970   -67.8144     7.2570     8.5039    10.5069
  375.5000     7.9450   122.3415     0.0572     0.0917     2.4993   -67.8144     7.2550     8.5589    10.2871
  376.0000     7.9310   121.7584     0.0574     0.0878     2.5166   -67.6647     7.2026     8.6730    11.2501
  376.5000     7.9325   122.6590     0.0575     0.0809     2.5197   -67.6647     7.1510     8.8508    12.0507
  377.0000     7.9337   124.3014     0.0561     0.0820     2.5151   -67.6647     7.0021     8.6048    12.2136
  377.5000     7.9349   126.6856     0.0563     0.0859     2.5084   -67.5150     6.8564     8.3080    12.2087
  378.0000     7.9509   127.8829     0.0535     0.0928     2.4973   -67.3653     6.7137     8.1897    12.2038
  378.5000     7.9669   131.4541     0.0476     0.1015     2.4883   -67.2156     6.4389     7.8526    12.1989
  379.0000     7.9681   131.7612     0.0388     0.1110     2.4730   -67.0659     6.0904     7.1731    12.1099
  379.5000     7.9841   131.3265     0.0299     0.1242     2.4419   -67.0659     5.3386     6.5524    10.7626
  380.0000     8.0150   130.0016     0.0255     0.1209     2.4391   -66.9162     4.6153     6.2393     4.8571
  380.5000     8.0310   127.1929     0.0287     0.1017     2.4891   -66.9162     4.4574     5.9825     4.1413
  381.0000     8.0170   120.5267     0.0348     0.0652     2.5435   -66.9162     5.2609     6.1903     5.8900
  381.5000     8.0333   116.0861     0.0380     0.0605     2.5518   -66.7665     5.7545     6.9603    12.4241
  382.0000     8.0345   113.8709     0.0397     0.0630     2.5481   -66.6168     6.0804     7.1030    13.1268
  382.5000     8.0209   112.5460     0.0398     0.0628     2.5496   -66.4671     6.5142     7.8223    13.3952
  383.0000     8.0072   111.5178     0.0430     0.0598     2.5534   -66.4671     6.9790     8.3792    13.4841
  383.5000     8.0084   110.0445     0.0461     0.0604     2.5550   -66.3174     7.4255     8.6702    13.6650
  384.0000     8.0096   108.2744     0.0463     0.0629     2.5491   -66.0180     7.7919     8.9713    14.0426
  384.5000     8.0108   106.8011     0.0479     0.0668     2.5431   -65.8683     8.0089     9.1552    14.1357
  385.0000     8.0120   104.5860     0.0496     0.0715     2.5372   -65.4192     8.2314     9.3429    13.8386
  385.5000     8.0131   102.2224     0.0512     0.0764     2.5320   -65.2695     8.4595     9.4686    13.5490
  386.0000     8.0292   100.5561     0.0498     0.0813     2.5253   -65.1198     8.6346     9.7975    13.3575
  386.5000     8.0152    97.6044     0.0470     0.0865     2.5149   -64.6707     8.7525    10.0678    13.4462
  387.0000     8.0016    91.6815     0.0442     0.0969     2.5052   -64.5210     8.9957    10.0630    13.4394
  387.5000     7.9879    86.7972     0.0413     0.1073     2.4790   -64.2216     9.3745    10.4125    13.3414
  388.0000     7.9894    80.4292     0.0369     0.1222     2.4521   -64.0719     9.9741    11.6269    13.5218
  388.5000     8.0054    75.6933     0.0326     0.1408     2.4244   -63.9222    10.8347    13.4404    16.7476
  389.0000     8.0066    71.1057     0.0297     0.1573     2.4005   -63.6228    11.8513    15.2173    22.2280
  389.5000     7.9781    66.5181     0.0283     0.1701     2.3758   -63.6228    13.0533    17.5908    27.9142
  390.0000     7.9645    62.2273     0.0270     0.1758     2.3586   -63.6228    14.5776    18.9740    32.2636
  390.5000     7.9656    61.4943     0.0317     0.1812     2.3482   -63.6468    16.2798    19.7694    39.4118
  391.0000     7.9371    61.2094     0.0378     0.1868     2.3385   -63.9502    17.8073    21.3239    44.9271
  391.5000     7.9235    61.3726     0.0425     0.1877     2.3461   -64.0719    18.8158    24.9937    45.5390
  392.0000     7.8802    62.2746     0.0442     0.1802     2.3529   -64.2216    19.4728    26.4047    41.6031
  392.5000     7.8368    64.3636     0.0443     0.1781     2.3574   -64.5210    19.7387    25.3178    35.7178
  393.0000     7.8380    67.3428     0.0444     0.1765     2.3590   -64.6707    19.4612    23.6124    31.7438
  393.5000     7.8392    68.3932     0.0476     0.1738     2.3620   -65.1198    19.1893    22.1750    30.8654
  394.0000     7.8404    68.7018     0.0523     0.1759     2.3614   -65.2695    18.7898    21.4099    31.2827
  394.5000     7.8432    68.5623     0.0584     0.1729     2.3652   -65.4192    18.5166    20.8150    31.0546
  395.0000     7.8576    68.1290     0.0616     0.1731     2.3645   -65.7186    18.2668    20.6613    29.9872
  395.5000     7.8588    67.2536     0.0587     0.1818     2.3458   -65.8683    18.1358    21.2314    29.3598
  396.0000     7.8600    66.5236     0.0529     0.1965     2.3226   -66.0180    18.1307    21.6666    29.5516
  396.5000     7.8611    66.2357     0.0500     0.2081     2.3077   -66.3174    18.0009    22.2644    35.1141
  397.0000     7.8623    66.0992     0.0502     0.2078     2.3046   -66.4671    18.1209    22.5643    39.4782
  397.5000     7.8635    65.8143     0.0518     0.2024     2.3168   -66.4256    18.2418    22.2429    35.0859
  398.0000     7.9092    65.8290     0.0535     0.1988     2.3206   -66.2352    18.3634    21.7751    35.8069
  398.5000     7.9846    65.9892     0.0566     0.2035     2.3124   -66.0448    18.3570    23.0043    40.5405
