~VERSION INFORMATION
 VERS.                2.0:   CWLS LOG ASCII STANDARD - VERSION 2.0
 WRAP.                 NO:   ONE LINE PER DEPTH STEP
~WELL INFORMATION
#MNEM.UNIT      DATA TYPE    INFORMATION
#----------   ------------   ------------------------------
 STRT.F           10.0000:   START DEPTH
 STOP.F          833.5000:   STOP DEPTH
 STEP.F            0.5000:   STEP LENGTH
 NULL.          -999.2500:   NO VALUE
 COMP. FENIX & SCISSON INC:   COMPANY
 WELL.       NPR 3 #46-11:   WELL
 FLD .             TEAPOT:   FIELD
 LOC .      S11 T38N R78W:   LOCATION
 CNTY.            NATRONA:   COUNTY
 STAT.            WYOMING:   STATE
 CTRY. UNITED STATES OF AMERICA:   COUNTRY
 SRVC.           BIRDWELL:   SERVICE COMPANY
 DATE.        17-DEC-1978:   LOGDATE
 API .       490251075600:   API NUMBER
~CURVE INFORMATION
#MNEM.UNIT       API CODE    CURVE DESCRIPTION
#----------   ------------   ------------------------------
 DEPT.F                  :   
 GRD .GAPI   45 310 01 00:   GAMMA RAY FROM DENSITY LOG
 CALD.IN     45 280 60 00:   CALIPER
 CORR.G/C3   45 356 01 00:   DENSITY CORRECTION
 DPHI.DEC    45 890 12 00:   DENSITY POROSITY SANDSTONE
 RHOB.G/C3   45 350 01 00:   BULK DENSITY
 SPR .MV     05 010 01 00:   SPONTANEOUS POTENTIAL FROM RES.
 SN  .OHMM   05 040 16 00:   SHORT NORMAL 16"
 IL  .OHMM   05 120 00 00:   INDUCTION LOG
~PARAMETER INFORMATION
#MNEM.UNIT          VALUE    DESCRIPTION
#----------   ------------   ------------------------------
 PD  .                 GL:   PERMANENT DATUM
 EPD .F              5193:   ELEVATION PERMANENT DATUM
 LMF .                 KB:   LOG MEASURED FROM
 DAPD.F                 4:   FEET ABOVE PERMANENT DATUM
 DMF .                 KB:   DRILLING MEASURED FROM
 EKB .F              5197:   KELLING BUSHING
 EGL .F              5193:   GROUND LEVEL
 DATE.           12-17-78:   RUN DATE
 RUN .                  1:   RUN NUMBER
 DD  .F               845:   DEPTH DRILLER
 DL  .F               834:   DEPTH LOGGER
 BLI .F               827:   BOTTOM LOG INTERVAL
 TLI .F                60:   TOP LOG INTERVAL
 CS  .IN            8.625:   CASING SIZE
 CBD .F                40:   CASING BOTTOM DRILLER
 CBL .F                42:   CASING BOTTOM LOGGER
 BS  .IN            7.875:   BIT SIZE
 BSD .F               845:   BIT SIZE AT DEPTH
 DFT .                KCL:   DRILLING FLUID TYPE
 DFD .                8.8:   DRILLING FLUID DENSITY
 DFV .                 36:   DRILLING FLUID VISCOSITY
 DFPH.               10.5:   DRILLING FLUID PH
 MSS .          FLOW LINE:   MUD SAMPLE SOURCE
 RMS .OHMM            .34:   RESISTIVITY MUD SAMPLE
 MST .F                62:   MUD SAMPLE TEMPERATURE
 RMF .OHMM            .26:   RESISTIVITY MUD FILTRATE SAMPLE
 MFST.F                66:   MUD FILTRATE SAMPLE TEMPERATURE
 RMC .OHMM            .42:   RESISTIVITY MUD CAKE
 MCST.F                68:   MUD CAKE SAMPLE TEMPERATURE
 MFSS.           MEASURED:   MUD FILTRATE SAMPLE SOURCE
 MCSS.           MEASURED:   MUD CAKE SAMPLE SOURCE
 RMB .OHMM           .288:   RESISTIVITY MUD AT BHT
 BHT .F                73:   BOTTOM HOLE TEMPERATURE
 TCS .HRS               4:   TIME CURCULATED STOPPED
 MRT .F                73:   MAXIMUM RECORDED TEMPERATURE
 LUN .               3006:   LOGGING UNIT NUMBER
 LUL .             CASPER:   LOGGING UNIT LOCATION
 ENGI.         B. ROLLINS:   RECORDING ENGINEER
 WITN.         RICHARDSON:   WITNESSED BY
 CLNT.            A2DTECH:   CLIENT CODE
 ORIG.           5" PRINT:   ORIGIN OF DATA
 UWI .       490251075600:   UNIQUE WELL ID
 DICO. A2D Technologies, Inc.:   DIGITIZING COMPANY
~OTHER INFORMATION
~A   DEPT      GRD       CALD       CORR       DPHI       RHOB        SPR         SN         IL   
# ...
  293.5000   100.2810     8.1390     0.0020     0.1180     2.4700   -22.9140     8.2460     7.7480
  294.0000    99.6450     8.1620     0.0010     0.1170     2.4720   -22.8940     8.2490     7.7500
  294.5000    98.9320     8.1860     0.0010     0.1180     2.4730   -22.8740     8.2520     7.7520
  295.0000    98.2730     8.2100     0.0000     0.1190     2.4740   -22.8540     8.2540     7.7530
  295.5000    99.8470     8.2330     0.0000     0.1200     2.4750   -22.8340     8.2570     7.7550
  296.0000   101.9660     8.2480     0.0010     0.1190     2.4760   -22.8140     8.2590     7.7570
  296.5000   104.1440     8.2380     0.0030     0.1140     2.4780   -22.7940     8.2620     7.7580
  297.0000   104.7580     8.2300     0.0040     0.1110     2.4800   -22.7740     8.2650     7.7600
  297.5000   104.9520     8.2210     0.0060     0.1130     2.4820   -22.7540     8.2670     7.7620
  298.0000   105.0590     8.2120     0.0080     0.1150     2.4820   -22.7340     8.2700     7.7630
  298.5000   102.1650     8.2030     0.0090     0.1170     2.4790   -22.7150     8.2720     7.7650
  299.0000    98.9260     8.1940     0.0110     0.1200     2.4750   -22.6920     8.2750     7.7670
  299.5000    97.4440     8.1900     0.0130     0.1200     2.4720   -22.6910     8.2780     7.7690
  300.0000   102.9950     8.1900     0.0140     0.1200     2.4690   -22.6900     8.2800     7.7700
  300.5000   102.6260     8.1900     0.0150     0.1210     2.4680   -22.6910     8.2830     7.7720
  301.0000   102.0050     8.1900     0.0160     0.1220     2.4660   -22.6910     8.2850     7.7740
  301.5000   103.6350     8.1900     0.0170     0.1240     2.4650   -22.6910     8.2880     7.7750
  302.0000   105.2570     8.1900     0.0180     0.1250     2.4640   -22.6910     8.2910     7.7770
  302.5000   106.3320     8.1900     0.0150     0.1240     2.4630   -22.6910     8.2930     7.7790
  303.0000   106.8210     8.1690     0.0130     0.1230     2.4640   -22.6910     8.2960     7.7800
  303.5000   107.3270     8.1230     0.0100     0.1210     2.4660   -22.6910     8.2980     7.7820
  304.0000   107.9090     8.1170     0.0070     0.1190     2.4690   -22.6910     8.3010     7.7840
  304.5000   105.8260     8.1250     0.0040     0.1170     2.4720   -22.6910     8.3040     7.7850
  305.0000   102.7490     8.1340     0.0020     0.1150     2.4740   -22.6910     8.3060     7.7870
  305.5000   102.5980     8.1430     0.0000     0.1130     2.4770   -22.6910     8.3090     7.7880
  306.0000   104.8890     8.1520    -0.0020     0.1130     2.4800   -22.6910     8.3120     7.7950
  306.5000   105.7730     8.1610    -0.0040     0.1130     2.4800   -22.6910     8.3140     7.8050
  307.0000   104.6110     8.1700    -0.0060     0.1180     2.4780   -22.6910     8.3170     7.8150
  307.5000   103.4790     8.1690    -0.0070     0.1230     2.4740   -22.6910     8.3190     7.8240
  308.0000   103.2450     8.1450    -0.0070     0.1290     2.4650   -22.6910     8.3220     7.8340
  308.5000   103.1700     8.1210    -0.0050     0.1310     2.4550   -22.6910     8.3250     7.8440
  309.0000   103.0980     8.0970    -0.0020     0.1210     2.4530   -22.6910     8.3270     7.8540
  309.5000   103.0260     8.0730     0.0000     0.1130     2.4590   -22.6910     8.3300     7.8630
  310.0000   102.9500     8.0490     0.0030     0.1040     2.4740   -22.6910     8.3320     7.8730
  310.5000   102.7420     8.0290     0.0050     0.1070     2.4880   -22.6910     8.3350     7.8830
  311.0000   101.9770     8.0500     0.0060     0.1120     2.4960   -22.6910     8.3380     7.8930
  311.5000   101.2200     8.0820     0.0060     0.1170     2.4870   -22.6910     8.3400     7.9020
  312.0000   100.4670     8.1140     0.0060     0.1220     2.4750   -22.6910     8.3430     7.9120
  312.5000    99.7440     8.1460     0.0060     0.1210     2.4740   -22.6910     8.3450     7.9220
  313.0000   100.6750     8.1780     0.0060     0.1170     2.4780   -22.6910     8.3480     7.9320
  313.5000   103.1800     8.2090     0.0060     0.1130     2.4820   -22.6900     8.3510     7.9410
  314.0000   105.0970     8.2090     0.0060     0.1110     2.4860   -22.6910     8.3530     7.9510
  314.5000   106.0470     8.1790     0.0060     0.1090     2.4880   -22.6900     8.3560     7.9610
  315.0000   107.9670     8.1470     0.0060     0.1080     2.4880   -22.6870     8.3580     7.9700
  315.5000   109.8430     8.1150     0.0060     0.1080     2.4880   -22.7470     8.3610     7.9800
  316.0000   108.7150     8.0830     0.0060     0.1070     2.4890   -22.9470     8.3640     7.9900
  316.5000   107.4130     8.0520     0.0060     0.1080     2.4870   -23.1450     8.3660     8.0000
  317.0000   107.1310     8.0740     0.0070     0.1100     2.4860   -23.3500     8.3690     8.0090
  317.5000   106.3700     8.0990     0.0070     0.1110     2.4850   -23.4940     8.3710     8.0190
  318.0000   103.3380     8.1250     0.0070     0.1130     2.4840   -23.4920     8.3740     8.0290
  318.5000   104.6250     8.1070     0.0080     0.1140     2.4820   -23.4950     8.3770     8.0390
  319.0000   106.2470     8.0780     0.0080     0.1150     2.4810   -23.4940     8.3790     8.0490
  319.5000   107.6570     8.0490     0.0060     0.1100     2.4830   -23.4940     8.3810     8.0580
  320.0000   108.7830     8.0190     0.0030     0.0940     2.4870   -23.4940     8.3850     8.0670
  320.5000   109.8830     7.9900    -0.0010     0.0770     2.5060   -23.4940     8.3870     8.0800
  321.0000   111.0590     7.9780    -0.0050     0.0610     2.5290   -23.4940     8.3900     8.0890
  321.5000   108.5130     8.0050    -0.0060     0.0580     2.5510   -23.4940     8.3920     8.1800
  322.0000   103.3770     8.0310    -0.0060     0.0650     2.5700   -23.4940     8.5990     8.2550
  322.5000    98.2630     8.0570    -0.0060     0.0760     2.5650   -23.4940     8.8060     8.3310
  323.0000    94.6570     8.0840    -0.0060     0.0870     2.5480   -23.4940     9.0130     8.3920
  323.5000    95.7070     8.1100    -0.0070     0.0980     2.5320   -23.4940     9.2200     8.3920
  324.0000    96.8150     8.1360    -0.0070     0.1020     2.5160   -23.4940     9.3850     8.3920
  324.5000    97.4650     8.1620    -0.0070     0.1060     2.5000   -23.4940     9.2380     8.3450
  325.0000    97.9910     8.1880    -0.0070     0.1090     2.4900   -23.4940     9.1150     8.2860
  325.5000    98.5150     8.2150    -0.0070     0.1110     2.4860   -23.4940     8.9920     8.2270
  326.0000    99.0390     8.2410    -0.0070     0.1120     2.4830   -23.4940     8.8690     8.1680
  326.5000    99.8830     8.2670    -0.0070     0.1140     2.4810   -23.4940     8.7470     8.0850
  327.0000   101.1970     8.2480    -0.0070     0.1150     2.4780   -23.4940     8.6240     8.1130
  327.5000   103.0550     8.2180    -0.0080     0.1150     2.4750   -23.4940     8.5500     8.1590
  328.0000   104.8820     8.1960    -0.0080     0.1150     2.4760   -23.4940     8.5340     8.2050
  328.5000   106.7020     8.2850    -0.0080     0.1150     2.4760   -23.4940     8.5170     8.2510
  329.0000   107.4880     8.2280    -0.0080     0.1150     2.4760   -23.4940     8.5010     8.2960
  329.5000   106.6500     8.1690    -0.0080     0.1150     2.4760   -23.4940     8.4840     8.3420
  330.0000   105.8360     8.1070    -0.0080     0.1140     2.4770   -23.4940     8.4680     8.3880
  330.5000   105.0250     8.1220    -0.0070     0.1140     2.4770   -23.4940     8.4520     8.4340
  331.0000   105.2240     8.1670    -0.0070     0.1140     2.4770   -23.4940     8.4350     8.4800
  331.5000   105.9400     8.2050    -0.0060     0.1170     2.4770   -23.4940     8.4190     8.5260
  332.0000   106.6700     8.1810    -0.0060     0.1210     2.4720   -23.4940     8.3940     8.5720
  332.5000   106.7580     8.1690    -0.0060     0.1240     2.4670   -23.4940     8.4170     8.6180
  333.0000   103.1950     8.1570    -0.0050     0.1230     2.4630   -23.4940     8.4840     8.6640
  333.5000   102.4190     8.1450    -0.0050     0.1210     2.4650   -23.4940     8.5520     8.7100
