~VERSION INFORMATION
 VERS.                2.0:   CWLS LOG ASCII STANDARD - VERSION 2.0
 WRAP.                 NO:   ONE LINE PER DEPTH STEP
~WELL INFORMATION
#MNEM.UNIT      DATA TYPE    INFORMATION
#----------   ------------   ------------------------------
 STRT.F            0.0000:   START DEPTH
 STOP.F         2258.0000:   STOP DEPTH
 STEP.F            0.5000:   STEP LENGTH
 NULL.          -999.2500:   NO VALUE
 COMP. BROWN JOHN E&C INC:   COMPANY
 WELL. NPR-3-STX-6-SX-10 #73-10:   WELL
 FLD .             TEAPOT:   FIELD
 LOC .      S10 T38N R78W:   LOCATION
 CNTY.            NATRONA:   COUNTY
 STAT.            WYOMING:   STATE
 CTRY. UNITED STATES OF AMERICA:   COUNTRY
 SRVC.            Unknown:   SERVICE COMPANY
 DATE.        09-APR-1993:   LOGDATE
 API .       490251091200:   API NUMBER
~CURVE INFORMATION
#MNEM.UNIT       API CODE    CURVE DESCRIPTION
#----------   ------------   ------------------------------
 DEPT.F                  :   
 GR  .GAPI   81 310 01 00:   GAMMA RAY
 DT  .US/F   81 520 00 00:   DELTA SONIC
 ROP .MIN/FT 91 810 01 00:   RATE OF DRILLING PENETRATION
 TGAS.UNITS  91 830 01 00:   TOTAL GAS FROM HOTWIRE
~PARAMETER INFORMATION
#MNEM.UNIT          VALUE    DESCRIPTION
#----------   ------------   ------------------------------
 PD  .                 GL:   PERMANENT DATUM
 LMF .                 GL:   LOG MEASURED FROM
 DMF .                 GL:   DRILLING MEASURED FROM
 DATE.             4-9-93:   RUN DATE
 RUN .                  1:   RUN NUMBER
 DD  .F               442:   DEPTH DRILLER
 TCS .HRS            1000:   TIME CURCULATED STOPPED
 TLAB.HRS            1100:   TIME LOGGER AT BOTTOM
 LUN .                509:   LOGGING UNIT NUMBER
 LUL .           GILLETTE:   LOGGING UNIT LOCATION
 ENGI.            METCALF:   RECORDING ENGINEER
 WITN.              SYLAR:   WITNESSED BY
 CLNT.            A2DTECH:   CLIENT CODE
 ORIG.           5" PRINT:   ORIGIN OF DATA
 UWI .       490251091200:   UNIQUE WELL ID
 DICO. A2D Technologies, Inc.:   DIGITIZING COMPANY
~OTHER INFORMATION
~A    DEPT       GR        DT        ROP       TGAS   
# ...
 1971.0000  -999.2500  -999.2500     0.4265   609.5305
 1971.5000  -999.2500  -999.2500     0.3959   610.0092
 1972.0000  -999.2500  -999.2500     0.3956   610.4877
 1972.5000  -999.2500  -999.2500     0.3957   610.9664
 1973.0000  -999.2500  -999.2500     0.3957   611.4454
 1973.5000  -999.2500  -999.2500     0.3958   611.9282
 1974.0000  -999.2500  -999.2500     0.4055   612.4099
 1974.5000  -999.2500  -999.2500     0.4248   612.7861
 1975.0000  -999.2500  -999.2500     0.4441   612.0768
 1975.5000  -999.2500  -999.2500     0.4635   608.3856
 1976.0000  -999.2500  -999.2500     0.4825   604.8292
 1976.5000  -999.2500  -999.2500     0.4922   601.0082
 1977.0000  -999.2500  -999.2500     0.4751   607.2433
 1977.5000  -999.2500  -999.2500     0.4588   606.8750
 1978.0000  -999.2500  -999.2500     0.4425   607.0322
 1978.5000  -999.2500  -999.2500     0.4260   607.3170
 1979.0000  -999.2500  -999.2500     0.4090   607.5630
 1979.5000  -999.2500  -999.2500     0.4098   607.8079
 1980.0000  -999.2500  -999.2500     0.4117   608.0529
 1980.5000  -999.2500  -999.2500     0.4136   608.2977
 1981.0000  -999.2500  -999.2500     0.4155   608.5426
 1981.5000  -999.2500  -999.2500     0.4173   608.7875
 1982.0000  -999.2500  -999.2500     0.4189   609.0324
 1982.5000  -999.2500  -999.2500     0.4222   609.2773
 1983.0000  -999.2500  -999.2500     0.4561   609.5222
 1983.5000  -999.2500  -999.2500     0.4894   609.7671
 1984.0000  -999.2500  -999.2500     0.5243   610.0120
 1984.5000  -999.2500  -999.2500     0.5103   610.2569
 1985.0000  -999.2500  -999.2500     0.4755   610.5018
 1985.5000  -999.2500  -999.2500     0.4400   610.7467
 1986.0000  -999.2500  -999.2500     0.4044   610.9916
 1986.5000  -999.2500  -999.2500     0.3717   611.2365
 1987.0000  -999.2500  -999.2500     0.3829   611.4814
 1987.5000  -999.2500  -999.2500     0.3954   611.7263
 1988.0000  -999.2500  -999.2500     0.4077   611.9713
 1988.5000  -999.2500  -999.2500     0.4200   612.2159
 1989.0000  -999.2500  -999.2500     0.4322   612.4611
 1989.5000  -999.2500  -999.2500     0.4444   612.7155
 1990.0000  -999.2500  -999.2500     0.4566   612.7751
 1990.5000  -999.2500  -999.2500     0.4689   612.3885
 1991.0000  -999.2500  -999.2500     0.4817   611.9512
 1991.5000  -999.2500  -999.2500     0.4713   611.5138
 1992.0000  -999.2500  -999.2500     0.4558   611.0771
 1992.5000  -999.2500  -999.2500     0.4401   610.6407
 1993.0000  -999.2500  -999.2500     0.4244   610.2043
 1993.5000  -999.2500  -999.2500     0.4086   609.7678
 1994.0000  -999.2500  -999.2500     0.3995   609.3314
 1994.5000  -999.2500  -999.2500     0.3907   608.8949
 1995.0000  -999.2500  -999.2500     0.3837   608.4584
 1995.5000  -999.2500  -999.2500     0.3895   608.0220
 1996.0000  -999.2500  -999.2500     0.3963   607.5855
 1996.5000  -999.2500  -999.2500     0.4454   607.1491
 1997.0000  -999.2500  -999.2500     0.4983   606.7126
 1997.5000  -999.2500  -999.2500     0.5300   606.2762
 1998.0000  -999.2500  -999.2500     0.5277   605.8397
 1998.5000  -999.2500  -999.2500     0.4992   605.4033
 1999.0000  -999.2500  -999.2500     0.4728   604.9669
 1999.5000  -999.2500  -999.2500     0.4466   604.5304
 2000.0000  -999.2500  -999.2500     0.4327   604.0939
 2000.5000  -999.2500  -999.2500     0.4294   603.6575
 2001.0000  -999.2500  -999.2500     0.4263   603.2210
 2001.5000  -999.2500  -999.2500     0.4230   602.7845
 2002.0000  -999.2500  -999.2500     0.4137   602.3481
 2002.5000  -999.2500  -999.2500     0.3853   601.9117
 2003.0000  -999.2500  -999.2500     0.3575   601.4752
 2003.5000  -999.2500  -999.2500     0.3282   601.0388
 2004.0000  -999.2500  -999.2500     0.3463   600.6023
 2004.5000  -999.2500  -999.2500     0.3844   600.1658
 2005.0000  -999.2500  -999.2500     0.4202   599.7294
 2005.5000  -999.2500  -999.2500     0.4211   599.2930
 2006.0000  -999.2500  -999.2500     0.4209   598.8565
 2006.5000  -999.2500  -999.2500     0.4201   598.4200
 2007.0000  -999.2500  -999.2500     0.4163   597.9836
 2007.5000  -999.2500  -999.2500     0.4126   597.5471
 2008.0000  -999.2500  -999.2500     0.4090   597.1107
 2008.5000  -999.2500  -999.2500     0.4053   596.6743
 2009.0000  -999.2500  -999.2500     0.4016   596.2378
 2009.5000  -999.2500  -999.2500     0.3979   595.8013
 2010.0000  -999.2500  -999.2500     0.3943   595.3649
 2010.5000  -999.2500  -999.2500     0.3905   594.9284
 2011.0000  -999.2500  -999.2500     0.3868   594.4919
 2011.5000  -999.2500  -999.2500     0.3835   594.0555
 2012.0000  -999.2500  -999.2500     0.3921   593.6191
 2012.5000  -999.2500  -999.2500     0.4392   593.1826
 2013.0000  -999.2500  -999.2500     0.4947   592.7462
 2013.5000  -999.2500  -999.2500     0.5499   592.3097
 2014.0000  -999.2500  -999.2500     0.5988   591.8732
 2014.5000  -999.2500  -999.2500     0.5960   591.4368
 2015.0000  -999.2500  -999.2500     0.5465   591.0004
 2015.5000  -999.2500  -999.2500     0.4927   590.5639
 2016.0000  -999.2500  -999.2500     0.4476   590.1274
 2016.5000  -999.2500  -999.2500     0.4179   589.6910
 2017.0000  -999.2500  -999.2500     0.4216   589.2545
 2017.5000  -999.2500  -999.2500     0.4304   588.8070
 2018.0000  -999.2500  -999.2500     0.4386   588.3512
 2018.5000  -999.2500  -999.2500     0.4441   588.0000
 2019.0000  -999.2500  -999.2500     0.4333   590.1719
 2019.5000  -999.2500  -999.2500     0.4334   599.9370
 2020.0000  -999.2500  -999.2500     0.3692   609.3933
 2020.5000  -999.2500  -999.2500     0.3627   618.7759
 2021.0000  -999.2500  -999.2500     0.3737   625.5013
 2021.5000  -999.2500  -999.2500     0.3847   625.6866
 2022.0000  -999.2500  -999.2500     0.3934   626.0570
 2022.5000  -999.2500  -999.2500     0.3951   626.4335
 2023.0000  -999.2500  -999.2500     0.3917   626.8021
 2023.5000  -999.2500  -999.2500     0.3882   627.1736
 2024.0000  -999.2500  -999.2500     0.3840   627.5452
 2024.5000  -999.2500  -999.2500     0.4061   627.9167
 2025.0000  -999.2500  -999.2500     0.4326   628.2883
 2025.5000  -999.2500  -999.2500     0.4593   628.6599
 2026.0000  -999.2500  -999.2500     0.4859   629.0314
 2026.5000  -999.2500  -999.2500     0.5009   629.4030
 2027.0000  -999.2500  -999.2500     0.4703   629.7745
 2027.5000  -999.2500  -999.2500     0.4202   630.1461
 2028.0000  -999.2500  -999.2500     0.3969   630.5176
 2028.5000  -999.2500  -999.2500     0.3965   630.8903
 2029.0000  -999.2500  -999.2500     0.3990   631.2668
 2029.5000  -999.2500  -999.2500     0.4088   631.6121
 2030.0000  -999.2500  -999.2500     0.4094   631.1413
 2030.5000  -999.2500  -999.2500     0.4094   630.6352
 2031.0000  -999.2500  -999.2500     0.4093   630.1328
 2031.5000  -999.2500  -999.2500     0.4092   629.6314
 2032.0000  -999.2500  -999.2500     0.4095   629.1301
 2032.5000  -999.2500  -999.2500     0.4207   628.6288
 2033.0000  -999.2500  -999.2500     0.4705   628.1275
 2033.5000  -999.2500  -999.2500     0.5190   627.6262
 2034.0000  -999.2500  -999.2500     0.5393   627.1233
 2034.5000  -999.2500  -999.2500     0.5193   626.6182
 2035.0000  -999.2500  -999.2500     0.4995   626.1277
 2035.5000  -999.2500  -999.2500     0.4796   625.6442
 2036.0000  -999.2500  -999.2500     0.4597   627.5383
 2036.5000  -999.2500  -999.2500     0.4454   632.2723
 2037.0000  -999.2500  -999.2500     0.4413   636.7555
 2037.5000  -999.2500  -999.2500     0.4370   641.6964
 2038.0000  -999.2500  -999.2500     0.4327   630.2796
 2038.5000  -999.2500  -999.2500     0.4285   624.5876
 2039.0000  -999.2500  -999.2500     0.4242   616.9213
 2039.5000  -999.2500  -999.2500     0.4199   612.8199
 2040.0000  -999.2500  -999.2500     0.4157   612.7936
 2040.5000  -999.2500  -999.2500     0.4114   612.7712
 2041.0000  -999.2500  -999.2500     0.4175   612.7766
 2041.5000  -999.2500  -999.2500     0.4341   612.7799
 2042.0000  -999.2500  -999.2500     0.4378   612.8474
 2042.5000  -999.2500  -999.2500     0.4962   612.9821
 2043.0000  -999.2500  -999.2500     0.5524   613.1168
 2043.5000  -999.2500  -999.2500     0.6101   613.2518
