~VERSION INFORMATION
 VERS.                2.0:   CWLS LOG ASCII STANDARD - VERSION 2.0
 WRAP.                 NO:   ONE LINE PER DEPTH STEP
~WELL INFORMATION
#MNEM.UNIT      DATA TYPE    INFORMATION
#----------   ------------   ------------------------------
 STRT.F            0.0000:   START DEPTH
 STOP.F         1008.0000:   STOP DEPTH
 STEP.F            0.5000:   STEP LENGTH
 NULL.          -999.2500:   NO VALUE
 COMP. LAWRENCE/ALLISON INC:   COMPANY
 WELL. NPR 3 #51-61-SX-14:   WELL
 FLD .             TEAPOT:   FIELD
 LOC .      S14 T38N R78W:   LOCATION
 CNTY.            NATRONA:   COUNTY
 STAT.            WYOMING:   STATE
 CTRY. UNITED STATES OF AMERICA:   COUNTRY
 SRVC.      Dresser Atlas:   SERVICE COMPANY
 DATE.        05-FEB-1986:   LOGDATE
 API .       490251106600:   API NUMBER
~CURVE INFORMATION
#MNEM.UNIT       API CODE    CURVE DESCRIPTION
#----------   ------------   ------------------------------
 DEPT.F                  :   
 GRR .GAPI   07 310 01 00:   GAMMA RAY FROM RES. LOG.
 RILD.OHMM   10 120 46 00:   INDUCTION LOG DEEP RESISTIVITY
 RILM.OHMM   07 120 44 00:   INDUCTION LOG MEDIUM RESISTIVITY
 CALD.IN     45 280 60 00:   CALIPER
 DEN .G/C3   45 350 01 00:   COMPENSATED BULK DENSTIY
 CORR.G/C3   45 356 01 00:   DENSITY CORRECTION
 PORD.DEC    45 890 10 00:   POROSITY DENSITY LIMESTONE
~PARAMETER INFORMATION
#MNEM.UNIT          VALUE    DESCRIPTION
#----------   ------------   ------------------------------
 PD  .                 GL:   PERMANENT DATUM
 EPD .F              5225:   ELEVATION PERMANENT DATUM
 LMF .                 GL:   LOG MEASURED FROM
 DMF .                 GL:   DRILLING MEASURED FROM
 EGL .F              5225:   GROUND LEVEL
 DATE.             2-5-86:   RUN DATE
 RUN .                  1:   RUN NUMBER
 DD  .F              1010:   DEPTH DRILLER
 DL  .F              1008:   DEPTH LOGGER
 BLI .F              1008:   BOTTOM LOG INTERVAL
 CS  .IN            8.625:   CASING SIZE
 CBD .F                86:   CASING BOTTOM DRILLER
 CBL .F                84:   CASING BOTTOM LOGGER
 BS  .IN             6.25:   BIT SIZE
 BSD .F              1010:   BIT SIZE AT DEPTH
 DFT .                AIR:   DRILLING FLUID TYPE
 LUN .            HL 6264:   LOGGING UNIT NUMBER
 LUL .           GILLETTE:   LOGGING UNIT LOCATION
 ENGI.           FAHLSING:   RECORDING ENGINEER
 WITN.              FIVAS:   WITNESSED BY
 CLNT.            A2DTECH:   CLIENT CODE
 ORIG.       2", 5" PRINT:   ORIGIN OF DATA
 UWI .       490251106600:   UNIQUE WELL ID
 DICO. A2D Technologies, Inc.:   DIGITIZING COMPANY
~OTHER INFORMATION
~A    DEPT      GRR      RILD       RILM       CALD        DEN       CORR       PORD   
# ...
  773.5000   148.9147     5.4650     5.2469     6.5456     2.4454     0.0906     0.1396
  774.0000   146.0654     5.4251     5.1284     6.5410     2.4550     0.0848     0.1396
  774.5000   143.1894     5.2207     4.8398     6.5364     2.4715     0.0779     0.1265
  775.0000   140.1297     4.9650     4.5674     6.5318     2.4844     0.0780     0.1182
  775.5000   139.9992     4.7218     4.3104     6.5272     2.4903     0.0799     0.1125
  776.0000   141.0592     4.4906     4.0678     6.5225     2.4967     0.0797     0.1107
  776.5000   142.1514     4.3822     3.9241     6.5177     2.4788     0.0780     0.1196
  777.0000   140.4180     4.3420     4.0330     6.5133     2.4528     0.0800     0.1363
  777.5000   137.2929     4.4645     4.2407     6.5255     2.4267     0.1032     0.1530
  778.0000   134.2664     4.7116     4.4591     6.5900     2.4130     0.1247     0.1605
  778.5000   135.9433     4.9786     4.6888     6.6263     2.4267     0.1008     0.1485
  779.0000   138.4930     5.2605     4.9303     6.5994     2.4516     0.1038     0.1345
  779.5000   140.6584     5.5582     5.1842     6.5731     2.4755     0.1069     0.1206
  780.0000   139.0908     5.8727     5.4512     6.5823     2.4863     0.0896     0.1164
  780.5000   137.0718     6.0486     5.7319     6.5967     2.4886     0.0618     0.1148
  781.0000   135.0480     6.2164     6.0471     6.6111     2.4916     0.0701     0.1126
  781.5000   133.0136     6.0292     5.8286     6.6255     2.4963     0.0843     0.1098
  782.0000   131.6790     5.6879     5.4533     6.6402     2.5010     0.0956     0.1071
  782.5000   133.2567     5.3648     5.0836     6.6477     2.5057     0.1038     0.1047
  783.0000   132.6552     5.0623     4.7390     6.5978     2.5099     0.1109     0.1023
  783.5000   131.9914     4.7855     4.4178     6.5490     2.5087     0.1035     0.1016
  784.0000   131.2893     4.6435     4.1183     6.5402     2.5043     0.0928     0.1036
  784.5000   133.4858     4.5013     3.9970     6.5561     2.4979     0.0833     0.1124
  785.0000   136.7209     4.4226     3.9970     6.5729     2.4694     0.0992     0.1299
  785.5000   136.9823     4.4225     4.1913     6.5889     2.4371     0.1151     0.1475
  786.0000   136.8793     4.4216     4.4314     6.5606     2.4148     0.1129     0.1597
  786.5000   141.2145     4.8492     4.6865     6.5310     2.4353     0.0808     0.1451
  787.0000   139.9908     5.2030     4.9563     6.5379     2.4536     0.0645     0.1340
  787.5000   137.6833     5.5819     5.2581     6.5461     2.4610     0.0967     0.1319
  788.0000   135.0873     5.9885     5.6351     6.5542     2.4673     0.1017     0.1262
  788.5000   134.6497     6.4228     6.0392     6.5622     2.4764     0.0789     0.1187
  789.0000   136.7161     6.7213     6.4721     6.5698     2.4853     0.0750     0.1156
  789.5000   137.2183     6.8815     6.6477     6.5686     2.4870     0.0790     0.1142
  790.0000   134.3655     7.0483     6.7491     6.5672     2.4854     0.0824     0.1155
  790.5000   131.5150     7.2193     6.8521     6.5658     2.4817     0.0782     0.1188
  791.0000   128.5593     7.2814     7.0062     6.5644     2.4811     0.0740     0.1186
  791.5000   130.3295     7.2988     7.0101     6.5630     2.4897     0.0698     0.1133
  792.0000   132.9081     7.3163     7.0152     6.5615     2.4983     0.0654     0.1093
  792.5000   132.8761     7.3339     7.0203     6.5601     2.5030     0.0610     0.1056
  793.0000   129.0898     7.3515     7.0254     6.5587     2.5045     0.0566     0.1038
  793.5000   126.7044     7.3691     7.0305     6.5573     2.5054     0.0551     0.1032
  794.0000   129.0496     7.3868     7.0356     6.5559     2.5005     0.0588     0.1075
  794.5000   130.3198     7.4037     7.0407     6.5545     2.4963     0.0711     0.1086
  795.0000   129.4777     7.4042     7.0458     6.5531     2.5013     0.0819     0.1065
  795.5000   128.6654     7.3814     7.0509     6.5517     2.5066     0.0928     0.1035
  796.0000   127.8005     7.3637     7.0561     6.5503     2.5119     0.1037     0.1005
  796.5000   128.7754     7.3453     7.0612     6.5489     2.5140     0.1148     0.0976
  797.0000   130.2548     7.3365     7.0661     6.5475     2.5106     0.1150     0.1009
  797.5000   131.7445     7.4855     7.0685     6.5461     2.5051     0.1042     0.1042
  798.0000   132.0042     7.5918     7.1553     6.5447     2.4996     0.0919     0.1075
  798.5000   128.0833     7.6887     7.3060     6.5432     2.4956     0.0795     0.1099
  799.0000   124.1145     7.7322     7.4599     6.5418     2.4935     0.0672     0.1108
  799.5000   120.6039     7.7759     7.6171     6.5404     2.4914     0.0550     0.1131
  800.0000   123.3580     7.8242     7.8242     6.5390     2.4865     0.0477     0.1163
  800.5000   124.0146     7.8242     7.1381     6.5376     2.4812     0.0443     0.1186
  801.0000   122.2348     7.1864     6.2738     6.5362     2.4760     0.0410     0.1210
  801.5000   120.2465     6.3253     5.3833     6.5348     2.4721     0.0386     0.1233
  802.0000   120.7424     5.5675     4.6164     6.5333     2.4686     0.0445     0.1256
  802.5000   129.5165     4.8898     3.9279     6.5320     2.4639     0.0617     0.1302
  803.0000   138.0019     4.8937     3.8822     6.5304     2.4402     0.0684     0.1499
  803.5000   146.3810     4.8449     3.8864     6.5432     2.3820     0.0725     0.1784
  804.0000   153.2189     5.0772     4.4653     6.5637     2.3126     0.0867     0.2069
  804.5000   144.7928     5.4068     4.8673     6.5841     2.3335     0.1059     0.2201
  805.0000   132.6325     5.9022     5.3054     6.6093     2.3757     0.0787     0.1891
  805.5000   121.1367     6.4430     5.7829     6.6103     2.4292     0.0418     0.1563
  806.0000   119.1851     7.0333     6.3033     6.6096     2.4741     0.0179     0.1211
  806.5000   119.5311     7.6776     6.8705     6.5284     2.4823     0.0216     0.1173
  807.0000   119.8953     8.3811     7.4888     6.5189     2.4878     0.0499     0.1139
  807.5000   120.2490     9.0368     8.1627     6.5303     2.4978     0.0779     0.1083
  808.0000   120.5957     9.2335     8.7375     6.5421     2.5050     0.0957     0.1045
  808.5000   120.7117     9.1768     8.7375     6.5497     2.5022     0.1022     0.1064
  809.0000   120.2339     9.1313     8.6639     6.5467     2.4999     0.1089     0.1072
  809.5000   119.7613     9.0860     8.6149     6.5438     2.5009     0.1070     0.1064
  810.0000   119.2588     9.0412     8.4986     6.5408     2.4961     0.0916     0.1097
  810.5000   120.7627     8.9962     8.4172     6.5379     2.4902     0.0772     0.1129
  811.0000   122.8205     8.9524     8.4149     6.5350     2.4898     0.0628     0.1148
  811.5000   125.7899     8.8998     8.5045     6.5321     2.4951     0.0480     0.1103
  812.0000   128.8846     9.3588     8.4997     6.5312     2.5050     0.0629     0.1048
  812.5000   130.8815     9.9561     9.0909     6.5364     2.5150     0.0823     0.0993
  813.0000   127.3744    10.5914     9.6899     6.5413     2.5165     0.1017     0.0952
  813.5000   121.5201    11.2673    10.3284     6.5464     2.5087     0.1179     0.1027
  814.0000   114.1473    11.9862    11.0090     6.5578     2.4824     0.0909     0.1178
  814.5000   102.9347    12.7511    11.7344     6.5903     2.4567     0.0704     0.1367
  815.0000    91.8054    13.5648    12.5076     6.6102     2.4283     0.0857     0.1548
  815.5000    80.7452    14.4304    13.3415     6.6100     2.3874     0.1009     0.1721
  816.0000    68.0150    15.3513    14.2621     6.6102     2.3618     0.0910     0.1908
  816.5000    72.5607    16.3309    15.1757     6.6096     2.3546     0.0774     0.1933
  817.0000    79.9791    17.1903    15.8685     6.5870     2.3493     0.0635     0.1970
  817.5000    80.0043    17.9340    17.1072     6.5631     2.3436     0.0742     0.2014
  818.0000    77.5599    18.0748    17.5827     6.5692     2.3378     0.0987     0.2050
  818.5000    73.4321    17.6338    16.8313     6.6078     2.3328     0.1089     0.2065
