~VERSION INFORMATION
 VERS.                2.0:   CWLS LOG ASCII STANDARD - VERSION 2.0
 WRAP.                 NO:   ONE LINE PER DEPTH STEP
~WELL INFORMATION
#MNEM.UNIT      DATA TYPE    INFORMATION
#----------   ------------   ------------------------------
 STRT.F           12.0000:   START DEPTH
 STOP.F         2336.0000:   STOP DEPTH
 STEP.F            0.5000:   STEP LENGTH
 NULL.          -999.2500:   NO VALUE
 COMP. BROWN JOHN E&C INC:   COMPANY
 WELL.       STX 82 #51-3:   WELL
 FLD .          N.P.R. #3:   FIELD
 LOC .       S3 T38N R78W:   LOCATION
 CNTY.            NATRONA:   COUNTY
 STAT.            WYOMING:   STATE
 CTRY. UNITED STATES OF AMERICA:   COUNTRY
 SRVC.            Unknown:   SERVICE COMPANY
 DATE.        14-SEP-1992:   LOGDATE
 API .       490251125600:   API NUMBER
~CURVE INFORMATION
#MNEM.UNIT       API CODE    CURVE DESCRIPTION
#----------   ------------   ------------------------------
 DEPT.F                  :   
 GR  .GAPI   81 310 01 00:   GAMMA RAY
 DT  .US/F   81 520 00 00:   DELTA SONIC
 ROP .MIN/FT 91 810 01 00:   RATE OF DRILLING PENETRATION
 TGAS.UNITS  91 830 01 00:   TOTAL GAS FROM HOTWIRE
~PARAMETER INFORMATION
#MNEM.UNIT          VALUE    DESCRIPTION
#----------   ------------   ------------------------------
 PD  .                 GL:   PERMANENT DATUM
 EPD .F              5109:   ELEVATION PERMANENT DATUM
 LMF .                 KB:   LOG MEASURED FROM
 DMF .                 KB:   DRILLING MEASURED FROM
 EKB .F              5119:   KELLING BUSHING
 EGL .F              5109:   GROUND LEVEL
 DATE.            9-14-92:   RUN DATE
 RUN .                  1:   RUN NUMBER
 DD  .F               710:   DEPTH DRILLER
 DL  .F               622:   DEPTH LOGGER
 BLI .F               616:   BOTTOM LOG INTERVAL
 BS  .IN             10.5:   BIT SIZE
 BSD .F               710:   BIT SIZE AT DEPTH
 TCS .HRS            0930:   TIME CURCULATED STOPPED
 TLAB.HRS            1045:   TIME LOGGER AT BOTTOM
 LUN .                509:   LOGGING UNIT NUMBER
 LUL .           GILLETTE:   LOGGING UNIT LOCATION
 ENGI.         D. METCALF:   RECORDING ENGINEER
 WITN.     BRUCE ANDERSON:   WITNESSED BY
 CLNT.            A2DTECH:   CLIENT CODE
 ORIG.           5" PRINT:   ORIGIN OF DATA
 UWI .       490251125600:   UNIQUE WELL ID
 DICO. A2D Technologies, Inc.:   DIGITIZING COMPANY
~OTHER INFORMATION
~A   DEPT        GR        DT        ROP       TGAS   
# ...
 2202.0000  -999.2500  -999.2500     0.4978   201.3929
 2202.5000  -999.2500  -999.2500     0.4962   202.8105
 2203.0000  -999.2500  -999.2500     0.4947   207.1533
 2203.5000  -999.2500  -999.2500     0.4930   211.3778
 2204.0000  -999.2500  -999.2500     0.4951   215.5825
 2204.5000  -999.2500  -999.2500     0.4990   219.6974
 2205.0000  -999.2500  -999.2500     0.5028   228.1993
 2205.5000  -999.2500  -999.2500     0.5067   237.5626
 2206.0000  -999.2500  -999.2500     0.5106   246.9491
 2206.5000  -999.2500  -999.2500     0.5145   256.3251
 2207.0000  -999.2500  -999.2500     0.5178   265.6964
 2207.5000  -999.2500  -999.2500     0.5188   275.0403
 2208.0000  -999.2500  -999.2500     0.5199   282.3011
 2208.5000  -999.2500  -999.2500     0.5210   274.3588
 2209.0000  -999.2500  -999.2500     0.5221   266.5518
 2209.5000  -999.2500  -999.2500     0.5232   258.7755
 2210.0000  -999.2500  -999.2500     0.5244   251.1486
 2210.5000  -999.2500  -999.2500     0.5255   246.3492
 2211.0000  -999.2500  -999.2500     0.5266   241.2729
 2211.5000  -999.2500  -999.2500     0.5274   236.2220
 2212.0000  -999.2500  -999.2500     0.5261   231.1743
 2212.5000  -999.2500  -999.2500     0.5405   226.1285
 2213.0000  -999.2500  -999.2500     0.6769   221.0777
 2213.5000  -999.2500  -999.2500     0.6869   216.0611
 2214.0000  -999.2500  -999.2500     0.6956   212.9848
 2214.5000  -999.2500  -999.2500     0.8914   212.7457
 2215.0000  -999.2500  -999.2500     0.8787   212.4706
 2215.5000  -999.2500  -999.2500     0.8699   212.2032
 2216.0000  -999.2500  -999.2500     0.8341   211.9278
 2216.5000  -999.2500  -999.2500     0.6248   211.8752
 2217.0000  -999.2500  -999.2500     0.6296   211.8743
 2217.5000  -999.2500  -999.2500     0.6327   211.8749
 2218.0000  -999.2500  -999.2500     0.6350   211.8750
 2218.5000  -999.2500  -999.2500     0.6374   211.8750
 2219.0000  -999.2500  -999.2500     0.6393   211.8750
 2219.5000  -999.2500  -999.2500     0.6445   211.8747
 2220.0000  -999.2500  -999.2500     0.5720   211.8731
 2220.5000  -999.2500  -999.2500     0.5522   211.8775
 2221.0000  -999.2500  -999.2500     0.5495   212.2467
 2221.5000  -999.2500  -999.2500     0.5458   212.6395
 2222.0000  -999.2500  -999.2500     0.5350   213.1786
 2222.5000  -999.2500  -999.2500     0.6692   220.0963
 2223.0000  -999.2500  -999.2500     0.6639   227.7059
 2223.5000  -999.2500  -999.2500     0.6631   235.3154
 2224.0000  -999.2500  -999.2500     0.6612   244.0731
 2224.5000  -999.2500  -999.2500     0.6593   258.9500
 2225.0000  -999.2500  -999.2500     0.6575   274.0049
 2225.5000  -999.2500  -999.2500     0.6556   289.0034
 2226.0000  -999.2500  -999.2500     0.6551   298.1915
 2226.5000  -999.2500  -999.2500     0.6562   294.0943
 2227.0000  -999.2500  -999.2500     0.6572   288.7944
 2227.5000  -999.2500  -999.2500     0.6582   282.9250
 2228.0000  -999.2500  -999.2500     0.6593   274.5889
 2228.5000  -999.2500  -999.2500     0.6603   266.2631
 2229.0000  -999.2500  -999.2500     0.6614   257.9361
 2229.5000  -999.2500  -999.2500     0.6624   249.6067
 2230.0000  -999.2500  -999.2500     0.6635   241.2772
 2230.5000  -999.2500  -999.2500     0.6645   232.9474
 2231.0000  -999.2500  -999.2500     0.6655   224.6231
 2231.5000  -999.2500  -999.2500     0.6666   216.3131
 2232.0000  -999.2500  -999.2500     0.6666   208.2144
 2232.5000  -999.2500  -999.2500     0.6648   206.1014
 2233.0000  -999.2500  -999.2500     0.6630   204.1800
 2233.5000  -999.2500  -999.2500     0.6612   202.2371
 2234.0000  -999.2500  -999.2500     0.6594   200.2841
 2234.5000  -999.2500  -999.2500     0.6576   198.3428
 2235.0000  -999.2500  -999.2500     0.6559   196.9163
 2235.5000  -999.2500  -999.2500     0.6546   197.3012
 2236.0000  -999.2500  -999.2500     0.6546   197.6491
 2236.5000  -999.2500  -999.2500     0.6546   197.9939
 2237.0000  -999.2500  -999.2500     0.6546   198.3383
 2237.5000  -999.2500  -999.2500     0.6546   198.6828
 2238.0000  -999.2500  -999.2500     0.6546   199.0272
 2238.5000  -999.2500  -999.2500     0.6546   199.3716
 2239.0000  -999.2500  -999.2500     0.6546   199.7160
 2239.5000  -999.2500  -999.2500     0.6546   200.0604
 2240.0000  -999.2500  -999.2500     0.6546   200.4049
 2240.5000  -999.2500  -999.2500     0.6546   200.7493
 2241.0000  -999.2500  -999.2500     0.6546   201.0937
 2241.5000  -999.2500  -999.2500     0.6546   201.4381
 2242.0000  -999.2500  -999.2500     0.6546   201.7825
 2242.5000  -999.2500  -999.2500     0.6546   202.1270
 2243.0000  -999.2500  -999.2500     0.6546   202.4714
 2243.5000  -999.2500  -999.2500     0.6546   202.8158
 2244.0000  -999.2500  -999.2500     0.6546   203.1602
 2244.5000  -999.2500  -999.2500     0.6546   203.4910
 2245.0000  -999.2500  -999.2500     0.6546   203.8484
 2245.5000  -999.2500  -999.2500     0.6546   204.3369
 2246.0000  -999.2500  -999.2500     0.6546   212.4374
 2246.5000  -999.2500  -999.2500     0.6546   229.5607
 2247.0000  -999.2500  -999.2500     0.6546   246.7771
 2247.5000  -999.2500  -999.2500     0.6546   263.7003
 2248.0000  -999.2500  -999.2500     0.6546   272.2043
 2248.5000  -999.2500  -999.2500     0.6546   268.2348
 2249.0000  -999.2500  -999.2500     0.6546   255.2754
 2249.5000  -999.2500  -999.2500     0.6546   245.1462
 2250.0000  -999.2500  -999.2500     0.6546   235.1842
 2250.5000  -999.2500  -999.2500     0.6546   225.1874
 2251.0000  -999.2500  -999.2500     0.6549   215.1858
 2251.5000  -999.2500  -999.2500     0.6569   205.7885
 2252.0000  -999.2500  -999.2500     0.6411   204.9990
 2252.5000  -999.2500  -999.2500     0.5338   204.4870
 2253.0000  -999.2500  -999.2500     0.5300   203.9471
 2253.5000  -999.2500  -999.2500     0.5297   203.3931
 2254.0000  -999.2500  -999.2500     0.5299   203.2365
 2254.5000  -999.2500  -999.2500     0.5299   203.4396
 2255.0000  -999.2500  -999.2500     0.5294   203.6470
 2255.5000  -999.2500  -999.2500     0.5285   203.8555
 2256.0000  -999.2500  -999.2500     0.5276   204.0635
 2256.5000  -999.2500  -999.2500     0.5268   204.2715
 2257.0000  -999.2500  -999.2500     0.5259   204.4795
 2257.5000  -999.2500  -999.2500     0.5250   204.6875
 2258.0000  -999.2500  -999.2500     0.5242   204.8955
 2258.5000  -999.2500  -999.2500     0.5233   205.0984
 2259.0000  -999.2500  -999.2500     0.5224   205.3123
 2259.5000  -999.2500  -999.2500     0.5215   205.5759
 2260.0000  -999.2500  -999.2500     0.5207   208.7041
 2260.5000  -999.2500  -999.2500     0.5198   214.9833
 2261.0000  -999.2500  -999.2500     0.5189   221.2573
 2261.5000  -999.2500  -999.2500     0.5181   227.6252
 2262.0000  -999.2500  -999.2500     0.5175   237.1448
 2262.5000  -999.2500  -999.2500     0.5192   248.5523
 2263.0000  -999.2500  -999.2500     0.5209   259.8766
 2263.5000  -999.2500  -999.2500     0.5225   271.2149
 2264.0000  -999.2500  -999.2500     0.5242   282.1497
 2264.5000  -999.2500  -999.2500     0.5258   287.7651
 2265.0000  -999.2500  -999.2500     0.5275   266.6796
 2265.5000  -999.2500  -999.2500     0.5291   252.3736
 2266.0000  -999.2500  -999.2500     0.5299   237.9582
 2266.5000  -999.2500  -999.2500     0.5299   227.3285
 2267.0000  -999.2500  -999.2500     0.5299   223.6051
 2267.5000  -999.2500  -999.2500     0.5299   220.0664
 2268.0000  -999.2500  -999.2500     0.5299   216.5692
 2268.5000  -999.2500  -999.2500     0.5299   213.1201
 2269.0000  -999.2500  -999.2500     0.5299   210.6206
 2269.5000  -999.2500  -999.2500     0.5299   210.8532
 2270.0000  -999.2500  -999.2500     0.5299   211.0160
 2270.5000  -999.2500  -999.2500     0.5299   211.1875
 2271.0000  -999.2500  -999.2500     0.5299   211.3580
 2271.5000  -999.2500  -999.2500     0.5299   211.5284
 2272.0000  -999.2500  -999.2500     0.5299   211.6989
 2272.5000  -999.2500  -999.2500     0.5299   211.8693
 2273.0000  -999.2500  -999.2500     0.5299   212.0398
 2273.5000  -999.2500  -999.2500     0.5299   212.2102
 2274.0000  -999.2500  -999.2500     0.5299   212.3807
 2274.5000  -999.2500  -999.2500     0.5299   212.5511
