~VERSION INFORMATION
 VERS.                2.0:   CWLS LOG ASCII STANDARD - VERSION 2.0
 WRAP.                 NO:   ONE LINE PER DEPTH STEP
~WELL INFORMATION
#MNEM.UNIT      DATA TYPE    INFORMATION
#----------   ------------   ------------------------------
 STRT.F           16.5000:   START DEPTH
 STOP.F          640.0000:   STOP DEPTH
 STEP.F            0.5000:   STEP LENGTH
 NULL.          -999.2500:   NO VALUE
 COMP. FENIX & SCISSON INC:   COMPANY
 WELL.     11 SX 14 #3-14:   WELL
 FLD .             TEAPOT:   FIELD
 LOC .      S14 T38N R78W:   LOCATION
 CNTY.            NATRONA:   COUNTY
 STAT.            WYOMING:   STATE
 CTRY. UNITED STATES OF AMERICA:   COUNTRY
 SRVC.            Unknown:   SERVICE COMPANY
 DATE.        18-DEC-1978:   LOGDATE
 API .       490251075700:   API NUMBER
~CURVE INFORMATION
#MNEM.UNIT       API CODE    CURVE DESCRIPTION
#----------   ------------   ------------------------------
 DEPT.F                  :   
 SPR .MV     05 010 01 00:   SPONTANEOUS POTENTIAL FROM RES.
 SN  .OHMM   05 040 16 00:   SHORT NORMAL 16"
 IL  .OHMM   05 120 00 00:   INDUCTION LOG
 GRD .GAPI   45 310 01 00:   GAMMA RAY FROM DENSITY LOG
 CALD.IN     45 280 60 00:   CALIPER
 RHOB.G/C3   45 350 01 00:   BULK DENSITY
 DPHI.DEC    45 890 12 00:   DENSITY POROSITY SANDSTONE
 CORR.G/C3   45 356 01 00:   DENSITY CORRECTION
~PARAMETER INFORMATION
#MNEM.UNIT          VALUE    DESCRIPTION
#----------   ------------   ------------------------------
 PD  .                 GL:   PERMANENT DATUM
 EPD .F              5217:   ELEVATION PERMANENT DATUM
 LMF .                 KB:   LOG MEASURED FROM
 DAPD.F                 4:   FEET ABOVE PERMANENT DATUM
 DMF .                 KB:   DRILLING MEASURED FROM
 EKB .F              5221:   KELLING BUSHING
 EGL .F              5217:   GROUND LEVEL
 DATE.           12-18-78:   RUN DATE
 RUN .                  1:   RUN NUMBER
 DD  .F               653:   DEPTH DRILLER
 DL  .F               640:   DEPTH LOGGER
 BLI .F               634:   BOTTOM LOG INTERVAL
 TLI .F                32:   TOP LOG INTERVAL
 CS  .IN            8.625:   CASING SIZE
 CBD .F                40:   CASING BOTTOM DRILLER
 CBL .F                30:   CASING BOTTOM LOGGER
 BS  .IN            7.875:   BIT SIZE
 BSD .F               653:   BIT SIZE AT DEPTH
 DFT .                KCL:   DRILLING FLUID TYPE
 DFD .                8.3:   DRILLING FLUID DENSITY
 DFV .                 36:   DRILLING FLUID VISCOSITY
 DFPH.               12.5:   DRILLING FLUID PH
 DFL .               12.3:   DRILLING FLUID LOSS
 MSS .           FLOWLINE:   MUD SAMPLE SOURCE
 MST .F                56:   MUD SAMPLE TEMPERATURE
 RMF .OHMM            .44:   RESISTIVITY MUD FILTRATE SAMPLE
 MFST.F                58:   MUD FILTRATE SAMPLE TEMPERATURE
 RMC .OHMM            .58:   RESISTIVITY MUD CAKE
 MCST.F                66:   MUD CAKE SAMPLE TEMPERATURE
 MFSS.           MEASURED:   MUD FILTRATE SAMPLE SOURCE
 MCSS.           MEASURED:   MUD CAKE SAMPLE SOURCE
 BHT .F                58:   BOTTOM HOLE TEMPERATURE
 TCS .HRS               4:   TIME CURCULATED STOPPED
 MRT .F                58:   MAXIMUM RECORDED TEMPERATURE
 LUL .             CASPER:   LOGGING UNIT LOCATION
 ENGI.         B. ROLLINS:   RECORDING ENGINEER
 WITN.              AMEND:   WITNESSED BY
 CLNT.            A2DTECH:   CLIENT CODE
 ORIG.           5" PRINT:   ORIGIN OF DATA
 UWI .       490251075700:   UNIQUE WELL ID
 DICO. A2D Technologies, Inc.:   DIGITIZING COMPANY
~OTHER INFORMATION
~A   DEPT      SPR         SN         IL         GRD      CALD       RHOB       DPHI       CORR   
# ...
  259.5000   -44.5880     9.6860     9.0600   104.3660     8.2440     2.4990     0.1150     0.0110
  260.0000   -44.6360     9.6900     9.0760   104.6550     8.1550     2.4970     0.1150     0.0110
  260.5000   -44.6870     9.6930     9.0930   105.6460     8.0640     2.4940     0.1130     0.0110
  261.0000   -44.6010     9.6960     9.1090   106.6640     8.0720     2.4970     0.1120     0.0110
  261.5000   -44.4580     9.7000     9.1250   106.8830     8.1580     2.5010     0.1080     0.0120
  262.0000   -44.3090     9.7030     9.1410   106.4590     8.1940     2.5050     0.1090     0.0120
  262.5000   -44.3330     9.7070     9.1580   103.9200     8.1110     2.5070     0.1090     0.0120
  263.0000   -44.3710     9.7100     9.1740   102.0640     8.0820     2.5060     0.1090     0.0120
  263.5000   -44.4080     9.7130     9.1900   101.9710     8.2340     2.5050     0.1090     0.0120
  264.0000   -44.4450     9.7170     9.2060   101.5570     8.1670     2.5050     0.1100     0.0120
  264.5000   -44.4830     9.7200     9.2230   101.0640     8.1590     2.5040     0.1100     0.0130
  265.0000   -44.5200     9.7240     9.2390   100.5670     8.1950     2.5030     0.1100     0.0130
  265.5000   -44.5570     9.7270     9.2550   100.5740     8.2180     2.5020     0.1110     0.0130
  266.0000   -44.5940     9.7300     9.2710   101.8180     8.2180     2.5000     0.1100     0.0130
  266.5000   -44.6300     9.7340     9.2870   103.7040     8.2180     2.5020     0.1070     0.0130
  267.0000   -44.6590     9.7370     9.3050   104.6730     8.2180     2.5060     0.1070     0.0130
  267.5000   -44.4430     9.7400     9.3530   104.7110     8.2170     2.5100     0.1060     0.0130
  268.0000   -42.9710     9.7440     9.4030   104.7120     8.2030     2.5100     0.1050     0.0180
  268.5000   -41.5350     9.8080     9.4540   104.7130     8.1190     2.5110     0.1070     0.0240
  269.0000   -41.0460     9.8660     9.5050   104.7120     8.0480     2.5100     0.1120     0.0260
  269.5000   -40.5950     9.9250     9.5560   104.6980     8.0010     2.5000     0.1210     0.0270
  270.0000   -40.1420     9.9830     9.6070   105.3380     8.0950     2.4890     0.1280     0.0340
  270.5000   -39.7150    10.0420     9.6570   106.0920     8.1780     2.4780     0.1310     0.0430
  271.0000   -39.7540    10.1000     9.7080   107.7740     8.1550     2.4710     0.1340     0.0520
  271.5000   -39.8080    10.1590     9.7810   109.8430     8.0260     2.4650     0.1340     0.0630
  272.0000   -39.8650    10.2180     9.9050   108.2590     7.8900     2.4660     0.1270     0.0740
  272.5000   -39.9970    10.2760    10.0280   104.0700     7.8730     2.4720     0.1270     0.0830
  273.0000   -40.4060    10.4280    10.1510   101.3050     7.9230     2.4760     0.1260     0.0870
  273.5000   -40.8070    10.6340    10.2750    99.9910     8.0000     2.4770     0.1230     0.0920
  274.0000   -41.1060    10.8400    10.3980    99.9270     8.1990     2.4800     0.1170     0.1010
  274.5000   -41.1010    11.0460    10.5210    99.9060     8.1880     2.4910     0.1150     0.0940
  275.0000   -41.1030    11.2250    10.6450    99.8870     8.0620     2.4980     0.1160     0.0920
  275.5000   -41.1030    11.3420    10.7680    99.8680     8.0750     2.4950     0.1160     0.0910
  276.0000   -41.4130    11.4590    10.8920    99.8500     8.1240     2.4940     0.1160     0.0890
  276.5000   -42.0150    11.5760    11.0150    99.8320     8.1730     2.4940     0.1130     0.0870
  277.0000   -42.6190    11.6920    11.1380    99.8140     8.1370     2.4970     0.1130     0.0840
  277.5000   -42.9190    11.8090    11.2620    99.7950     8.1020     2.5000     0.1150     0.0820
  278.0000   -42.9620    11.9350    11.3310    99.7780     8.0680     2.4970     0.1170     0.0800
  278.5000   -43.0070    12.0170    11.3820    99.7620     8.0560     2.4930     0.1170     0.0810
  279.0000   -43.0480    12.1050    11.4330    99.7050     8.1090     2.4930     0.1130     0.0830
  279.5000   -43.0730    12.1930    11.4840    98.7290     8.1600     2.4960     0.1080     0.0950
  280.0000   -43.7670    12.2810    11.5860    98.1090     8.1670     2.5050     0.1020     0.1000
  280.5000   -44.6090    12.3700    11.7160    97.7050     8.0640     2.5210     0.0930     0.0990
  281.0000   -45.4330    12.4980    11.8250    97.5380     7.9250     2.5300     0.0950     0.0840
  281.5000   -44.9960    12.4640    11.7710    97.5020     8.0810     2.5260     0.0990     0.0680
  282.0000   -44.3900    12.4020    11.7250    97.4680     8.2010     2.5190     0.1030     0.0550
  282.5000   -43.9080    12.3400    11.6790    97.4280     8.1240     2.5180     0.1060     0.0450
  283.0000   -44.0260    12.2790    11.6320    97.3930     8.0620     2.5100     0.1040     0.0370
  283.5000   -44.1960    12.2170    11.5860    97.3940     8.0700     2.5080     0.1060     0.0310
  284.0000   -44.6190    12.1550    11.5400    97.2000     8.0760     2.5120     0.1100     0.0200
  284.5000   -45.0300    12.0940    11.4940    91.9940     8.0830     2.5050     0.1180     0.0080
  285.0000   -45.3260    12.0320    11.4470    89.1300     8.0900     2.4920     0.1240     0.0050
  285.5000   -45.5870    11.9700    11.4010    88.5540     8.0970     2.4810     0.1250     0.0060
  286.0000   -45.8490    11.9090    11.3550    88.4050     8.0590     2.4780     0.1250     0.0100
  286.5000   -46.1090    11.8470    11.3090    88.2460     8.0020     2.4770     0.1250     0.0110
  287.0000   -46.2820    11.8250    11.2570    89.1220     8.0150     2.4770     0.1260     0.0110
  287.5000   -46.1920    11.8250    11.2010    90.6950     8.0300     2.4770     0.1260     0.0110
  288.0000   -46.1090    11.8250    11.1460    92.1510     8.0450     2.4770     0.1260     0.0120
  288.5000   -46.0280    11.8250    11.0910    92.1890     8.0600     2.4810     0.1190     0.0180
  289.0000   -45.9430    11.8250    11.0360    92.1860     8.0750     2.4850     0.1190     0.0240
  289.5000   -46.2600    11.8250    10.9810    92.1860     8.0890     2.4890     0.1170     0.0250
  290.0000   -46.9320    11.8250    10.9250    92.1850     8.1040     2.4930     0.1170     0.0250
  290.5000   -47.6030    11.8240    10.8650    92.1810     8.1190     2.4910     0.1190     0.0250
  291.0000   -48.2680    11.8240    10.7880    92.1640     8.1350     2.4890     0.1200     0.0250
  291.5000   -48.2050    11.8250    10.7110    91.6340     8.0910     2.4880     0.1160     0.0250
  292.0000   -48.1030    11.5900    10.6340    89.2640     8.0230     2.4930     0.1100     0.0250
  292.5000   -48.0010    11.4200    10.5580    87.9860     7.8650     2.4990     0.1090     0.0250
  293.0000   -47.9060    11.2510    10.4810    87.8570     7.8540     2.5050     0.1110     0.0250
  293.5000   -47.9580    11.0820    10.4040    87.7250     7.8490     2.5010     0.1140     0.0250
  294.0000   -48.0180    10.9120    10.3620    87.8250     7.8790     2.4980     0.1150     0.0250
  294.5000   -48.0770    10.8380    10.3260    88.9950     8.0180     2.4950     0.1160     0.0250
  295.0000   -48.1370    10.7840    10.2890    89.9560     8.0340     2.4960     0.1210     0.0250
  295.5000   -48.1970    10.7290    10.2530    90.4920     8.0450     2.4870     0.1260     0.0250
  296.0000   -48.2620    10.6750    10.2170    91.0560     8.0580     2.4790     0.1290     0.0220
  296.5000   -48.4660    10.6210    10.1810    92.4210     8.1350     2.4730     0.1260     0.0310
  297.0000   -49.2090    10.5660    10.1440    93.6100     8.2010     2.4740     0.1210     0.0430
  297.5000   -49.8880    10.5120    10.1100    96.7690     8.1020     2.4860     0.1090     0.0540
  298.0000   -49.9640    10.4580    10.0140    98.4280     7.9660     2.5000     0.1040     0.0520
  298.5000   -50.0220    10.4030     9.9230    96.6020     7.8440     2.5020     0.1270     0.0450
  299.0000   -50.0810    10.3490     9.8310    93.8780     7.9220     2.4820     0.1380     0.0380
  299.5000   -50.1400    10.2940     9.7390    91.4290     8.0160     2.4640     0.1400     0.0370
