~VERSION INFORMATION
 VERS.                2.0:   CWLS LOG ASCII STANDARD - VERSION 2.0
 WRAP.                 NO:   ONE LINE PER DEPTH STEP
~WELL INFORMATION
#MNEM.UNIT      DATA TYPE    INFORMATION
#----------   ------------   ------------------------------
 STRT.M            0.0000:   START DEPTH
 STOP.M          642.0000:   STOP DEPTH
 STEP.M            0.1000:   STEP LENGTH
 NULL.          -999.2500:   NO VALUE
 COMP.   FLUOR DANIEL INC:   COMPANY
 WELL.     71-1 X 3 #71-3:   WELL
 FLD .             TEAPOT:   FIELD
 LOC .       S3 T38N R78W:   LOCATION
 CNTY.            NATRONA:   COUNTY
 STAT.            WYOMING:   STATE
 CTRY. UNITED STATES OF AMERICA:   COUNTRY
 SRVC.      Western Atlas:   SERVICE COMPANY
 DATE.        04-JAN-1995:   LOGDATE
 API .       490252267900:   API NUMBER
~CURVE INFORMATION
#MNEM.UNIT       API CODE    CURVE DESCRIPTION
#----------   ------------   ------------------------------
 DEPT.M                  :   
 RILD.OHMM   07 120 46 00:   INDUCTION LOG DEEP RESISTIVITY
 RILM.OHMM   07 120 44 00:   INDUCTION LOG MEDIUM RESISTIVITY
 GRR .GAPI   07 310 01 00:   GAMMA RAY
~PARAMETER INFORMATION
#MNEM.UNIT          VALUE    DESCRIPTION
#----------   ------------   ------------------------------
 PD  .                 GL:   PERMANENT DATUM
 EPD .F              5123:   ELEVATION PERMANENT DATUM
 LMF .                 KB:   LOG MEASURED FROM
 DAPD.F                10:   FEET ABOVE PERMANENT DATUM
 DMF .                 KB:   DRILLING MEASURED FROM
 EKB .F              5133:   KELLING BUSHING
 EDF .F              5132:   DRILLING FLOOR
 EGL .F              5123:   GROUND LEVEL
 DATE.        04-JAN-1995:   RUN DATE
 RUN .                  1:   RUN NUMBER
 DD  .F               647:   DEPTH DRILLER
 DL  .F               650:   DEPTH LOGGER
 BLI .F               642:   BOTTOM LOG INTERVAL
 TLI .F                96:   TOP LOG INTERVAL
 CS  .IN            9.625:   CASING SIZE
 CBD .F                96:   CASING BOTTOM DRILLER
 CBL .F                96:   CASING BOTTOM LOGGER
 BS  .IN             8.75:   BIT SIZE
 BSD .F               647:   BIT SIZE AT DEPTH
 DFT .                AIR:   DRILLING FLUID TYPE
 MRT .F                91:   MAXIMUM RECORDED TEMPERATURE
 LUN .            HL 6530:   LOGGING UNIT NUMBER
 LUL .             CASPER:   LOGGING UNIT LOCATION
 ENGI.        VERN RAUTIO:   RECORDING ENGINEER
 WITN.        GARY STRONG:   WITNESSED BY
 CLNT.            A2DTECH:   CLIENT CODE
 ORIG.           5" PRINT:   ORIGIN OF DATA
 UWI .       490252267900:   UNIQUE WELL ID
 DICO. A2D Technologies, Inc.:   DIGITIZING COMPANY
~OTHER INFORMATION
~A    DEPT    RILD       RILM        GRR   
# ...
  618.8000    11.2030    11.3774   114.5602
  618.9000    11.2030    11.3943   114.1770
  619.0000    11.2030    11.3943   113.9355
  619.1000    11.2030    11.3946   113.6835
  619.2000    11.2030    11.4161   113.2183
  619.3000    11.2030    11.4377   112.9090
  619.4000    11.2030    11.4592   112.6674
  619.5000    11.2030    11.4737   112.5529
  619.6000    11.2030    11.4737   112.8017
  619.7000    11.2030    11.4737   113.0503
  619.8000    11.2030    11.4737   113.1045
  619.9000    11.2030    11.4945   113.3832
  620.0000    11.2030    11.5270   113.8770
  620.1000    11.2030    11.5537   114.3239
  620.2000    11.2030    11.5537   114.3280
  620.3000    11.2030    11.5537   114.5428
  620.4000    11.2030    11.5537   114.4822
  620.5000    11.2030    11.5537   114.0454
  620.6000    11.2030    11.5537   113.3138
  620.7000    11.2356    11.5537   112.5332
  620.8000    11.2810    11.5537   112.0788
  620.9000    11.2810    11.5537   111.4206
  621.0000    11.2810    11.5537   110.6889
  621.1000    11.2810    11.5537   110.0149
  621.2000    11.2810    11.5537   109.5285
  621.3000    11.2810    11.5537   109.0418
  621.4000    11.2890    11.5537   108.5551
  621.5000    11.3596    11.5537   108.2003
  621.6000    11.3596    11.5537   107.9588
  621.7000    11.3596    11.5537   107.7351
  621.8000    11.3596    11.5537   107.7395
  621.9000    11.3596    11.5537   107.9486
  622.0000    11.3596    11.5537   108.1973
  622.1000    11.3596    11.5537   108.3541
  622.2000    11.3596    11.5537   108.3928
  622.3000    11.3596    11.5537   108.6638
  622.4000    11.3771    11.5537   108.8903
  622.5000    11.4387    11.5537   108.9728
  622.6000    11.4387    11.5537   108.9764
  622.7000    11.4387    11.5537   108.9801
  622.8000    11.4387    11.5537   108.9838
  622.9000    11.4387    11.5537   109.2276
  623.0000    11.4387    11.5537   109.2931
  623.1000    11.4387    11.5537   109.2967
  623.2000    11.4387    11.5537   109.2310
  623.3000    11.4387    11.5537   109.0016
  623.4000    11.4387    11.5537   109.0061
  623.5000    11.4387    11.5537   109.0091
  623.6000    11.4387    11.5537   109.0127
  623.7000    11.3772    11.5195   108.9299
  623.8000    11.3596    11.4737   108.7174
  623.9000    11.3596    11.4737   108.7219
  624.0000    11.3596    11.4737   108.5076
  624.1000    11.3596    11.4737   108.4266
  624.2000    11.3596    11.4345   108.4302
  624.3000    11.3596    11.3943   108.4338
  624.4000    11.3961    11.3943   108.4376
  624.5000    11.4387    11.3943   108.6758
  624.6000    11.4387    11.3943   108.9244
  624.7000    11.4387    11.3501   109.2937
  624.8000    11.3826    11.3154   109.7876
  624.9000    11.3596    11.3008   110.2813
  625.0000    11.3596    11.2371   110.7755
  625.1000    11.3596    11.2371  -999.2500
  625.2000    11.3596    11.2371  -999.2500
  625.3000    11.3596    11.2029  -999.2500
  625.4000    11.3596    11.1593  -999.2500
  625.5000    11.3596    11.1593  -999.2500
  625.6000    11.3596    11.1593  -999.2500
  625.7000    11.3582    11.1593  -999.2500
  625.8000    11.2944    11.1202  -999.2500
  625.9000    11.2810    11.0820  -999.2500
  626.0000    11.2810    11.0820  -999.2500
  626.1000    11.2603    11.0820  -999.2500
  626.2000    11.2030    11.0820  -999.2500
  626.3000    11.2030    11.0820  -999.2500
  626.4000    11.2030    11.0820  -999.2500
  626.5000    11.2030    11.0820  -999.2500
  626.6000    11.2030    11.0820  -999.2500
  626.7000    11.1924    11.0820  -999.2500
  626.8000    11.1255    11.0820  -999.2500
  626.9000    11.1255    11.0820  -999.2500
  627.0000    11.1255    11.0820  -999.2500
  627.1000    11.0959    11.0820  -999.2500
  627.2000    11.0486    11.0820  -999.2500
  627.3000    11.0486    11.0820  -999.2500
  627.4000    11.0486    11.0820  -999.2500
  627.5000    11.0002    11.0820  -999.2500
  627.6000    10.9721    11.0820  -999.2500
  627.7000    10.9526    11.0820  -999.2500
  627.8000    10.8963    11.0820  -999.2500
  627.9000    10.8963    11.0820  -999.2500
  628.0000    10.8963    11.0820  -999.2500
  628.1000    10.8582    11.0820  -999.2500
  628.2000    10.8209    11.0820  -999.2500
  628.3000    10.8209    11.0820  -999.2500
  628.4000    10.8209    11.0820  -999.2500
  628.5000    10.8209    11.0820  -999.2500
  628.6000    10.7786    11.0820  -999.2500
  628.7000    10.7460    11.0820  -999.2500
  628.8000    10.7460    11.0820  -999.2500
  628.9000    10.7460    11.0820  -999.2500
  629.0000    10.7460    11.0820  -999.2500
  629.1000    10.6996    11.0820  -999.2500
  629.2000    10.6717    11.0698  -999.2500
  629.3000    10.6533    11.0053  -999.2500
  629.4000    10.5979    11.0053  -999.2500
  629.5000    10.5979    10.9596  -999.2500
  629.6000    10.5979    10.9292  -999.2500
  629.7000    10.5614    10.9292  -999.2500
  629.8000    10.5246    10.9292  -999.2500
  629.9000    10.5157    10.9292  -999.2500
  630.0000    10.4518    10.8787  -999.2500
  630.1000    10.4518    10.8535  -999.2500
  630.2000    10.4115    10.8315  -999.2500
  630.3000    10.3530    10.7784  -999.2500
  630.4000    10.3077    10.7784  -999.2500
  630.5000    10.3077    10.7784  -999.2500
  630.6000    10.2503    10.6971  -999.2500
  630.7000    10.1927    10.6297  -999.2500
  630.8000    10.1656    10.6169  -999.2500
  630.9000    10.1318    10.5561  -999.2500
  631.0000    10.0255    10.4977  -999.2500
  631.1000    10.0255    10.4830  -999.2500
  631.2000     9.9785    10.4521  -999.2500
  631.3000     9.9224    10.3932  -999.2500
  631.4000     9.8873    10.3384  -999.2500
  631.5000     9.8795    10.3384  -999.2500
  631.6000     9.8189    10.2897  -999.2500
  631.7000     9.7688    10.2318  -999.2500
  631.8000     9.7510    10.1742  -999.2500
  631.9000     9.7266    10.1168  -999.2500
  632.0000     9.6835    10.0551  -999.2500
  632.1000     9.6835    10.0032  -999.2500
  632.2000     9.6301     9.9855  -999.2500
  632.3000     9.6166     9.9597  -999.2500
  632.4000     9.6166     9.9036  -999.2500
  632.5000     9.5857     9.8478  -999.2500
  632.6000     9.4840     9.7923  -999.2500
  632.7000     9.4840     9.7372  -999.2500
  632.8000     9.4840     9.6823  -999.2500
  632.9000     9.4524     9.6278  -999.2500
  633.0000     9.3993     9.5735  -999.2500
  633.1000     9.3532     9.5116  -999.2500
  633.2000     9.3532     9.4660  -999.2500
  633.3000     9.3532     9.4127  -999.2500
  633.4000     9.3182     9.3804  -999.2500
  633.5000     9.2885     9.3717  -999.2500
  633.6000     9.2779     9.3155  -999.2500
  633.7000     9.2243     9.2665  -999.2500
  633.8000     9.2243     9.2510  -999.2500
  633.9000     9.2243     9.2262  -999.2500
  634.0000     9.2243     9.1806  -999.2500
  634.1000     9.2099     9.1547  -999.2500
  634.2000     9.1605     9.1289  -999.2500
  634.3000     9.1605     9.1234  -999.2500
  634.4000     9.1605     9.0947  -999.2500
  634.5000     9.1305     9.0435  -999.2500
  634.6000     9.0971     8.9975  -999.2500
  634.7000     9.0971     8.9975  -999.2500
  634.8000     9.0971     8.9975  -999.2500
  634.9000     9.0971     8.9975  -999.2500
  635.0000     9.0636     8.9975  -999.2500
  635.1000     9.0126     8.9929  -999.2500
  635.2000     8.9717     8.9676  -999.2500
  635.3000     8.9717     8.9423  -999.2500
  635.4000     8.9233     8.9352  -999.2500
  635.5000     8.9097     8.9352  -999.2500
  635.6000     8.8847     8.9286  -999.2500
  635.7000     8.8481     8.9035  -999.2500
  635.8000     8.8481     8.8734  -999.2500
  635.9000     8.8481     8.8734  -999.2500
  636.0000     8.8481     8.8734  -999.2500
  636.1000     8.8196     8.8562  -999.2500
  636.2000     8.7700     8.8063  -999.2500
  636.3000     8.7261     8.7510  -999.2500
  636.4000     8.7261     8.7510  -999.2500
  636.5000     8.7261     8.7186  -999.2500
  636.6000     8.7261     8.6904  -999.2500
  636.7000     8.7057     8.6904  -999.2500
  636.8000     8.6657     8.6904  -999.2500
  636.9000     8.6657     8.6431  -999.2500
