~VERSION INFORMATION
 VERS.                2.0:   CWLS LOG ASCII STANDARD - VERSION 2.0
 WRAP.                 NO:   ONE LINE PER DEPTH STEP
~WELL INFORMATION
#MNEM.UNIT      DATA TYPE    INFORMATION
#----------   ------------   ------------------------------
 STRT.F            0.0000:   START DEPTH
 STOP.F          633.0000:   STOP DEPTH
 STEP.F            0.5000:   STEP LENGTH
 NULL.          -999.2500:   NO VALUE
 COMP.       F D SERV INC:   COMPANY
 WELL.    82-1 SX-3 #82-3:   WELL
 FLD .          NPR NO. 3:   FIELD
 LOC .       S3 T38N R78W:   LOCATION
 CNTY.            NATRONA:   COUNTY
 STAT.            WYOMING:   STATE
 CTRY. UNITED STATES OF AMERICA:   COUNTRY
 SRVC.     Atlas Wireline:   SERVICE COMPANY
 DATE.        14-APR-1992:   LOGDATE
 API .       490252250600:   API NUMBER
~CURVE INFORMATION
#MNEM.UNIT       API CODE    CURVE DESCRIPTION
#----------   ------------   ------------------------------
 DEPT.F                  :   
 GRR .GAPI   07 310 01 00:   GAMMA RAY FROM RES
 RILD.OHMM   07 120 46 00:   INDUCTION LOG DEEP RESISTIVITY
 RILM.OHMM   07 120 44 00:   INDUCTION LOG MEDIUM RESISTIVITY
~PARAMETER INFORMATION
#MNEM.UNIT          VALUE    DESCRIPTION
#----------   ------------   ------------------------------
 PD  .                 GL:   PERMANENT DATUM
 EPD .F              5120:   ELEVATION PERMANENT DATUM
 LMF .                 KB:   LOG MEASURED FROM
 DAPD.F                 5:   FEET ABOVE PERMANENT DATUM
 DMF .                 KB:   DRILLING MEASURED FROM
 EKB .F              5125:   KELLING BUSHING
 EDF .F              5124:   DRILLING FLOOR
 EGL .F              5120:   GROUND LEVEL
 DATE.        14-APR-1992:   RUN DATE
 RUN .                  1:   RUN NUMBER
 DD  .F               640:   DEPTH DRILLER
 DL  .F               636:   DEPTH LOGGER
 BLI .F               633:   BOTTOM LOG INTERVAL
 CS  .IN            8.625:   CASING SIZE
 CBD .F                43:   CASING BOTTOM DRILLER
 CBL .F                42:   CASING BOTTOM LOGGER
 BS  .IN            7.875:   BIT SIZE
 BSD .F               640:   BIT SIZE AT DEPTH
 DFT .                AIR:   DRILLING FLUID TYPE
 LUN .           HL- 6321:   LOGGING UNIT NUMBER
 LUL .        RK. SPRINGS:   LOGGING UNIT LOCATION
 ENGI.            TRIBBLE:   RECORDING ENGINEER
 WITN.             STRONG:   WITNESSED BY
 CLNT.            A2DTECH:   CLIENT CODE
 ORIG.           5" PRINT:   ORIGIN OF DATA
 UWI .       490252250600:   UNIQUE WELL ID
 DICO. A2D Technologies, Inc.:   DIGITIZING COMPANY
~OTHER INFORMATION
~A    DEPT     GRR       RILD       RILM   
# ...
  546.0000    85.5528    11.7369    11.6613
  546.5000    89.1745    11.6566    11.6621
  547.0000    94.0112    11.6582    11.6629
  547.5000    96.1206    11.6598    11.6637
  548.0000    94.5936    11.6614    11.6646
  548.5000    93.6727    11.6630    11.6654
  549.0000    93.9979    11.6646    11.6662
  549.5000    96.0704    11.6662    11.5855
  550.0000    98.8369    11.6678    11.5770
  550.5000   102.1178    11.5772    11.5196
  551.0000   103.6299    11.3422    11.3472
  551.5000   100.5967    11.3406    11.2688
  552.0000    96.0482    11.3391    11.2698
  552.5000    94.5301    11.3375    11.2706
  553.0000    95.4362    11.3360    11.2714
  553.5000    96.9484    11.3344    11.2721
  554.0000    98.7636    11.3329    11.2729
  554.5000   103.0283    11.4109    11.2737
  555.0000   104.5153    11.4093    11.2745
  555.5000    98.4510    11.4879    11.2752
  556.0000    97.2359    11.4863    11.2760
  556.5000   101.7784    11.4043    11.2768
  557.0000   105.4118    11.4027    11.2776
  557.5000   104.4997    11.4011    11.2784
  558.0000   103.2846    11.3996    11.2793
  558.5000   101.1604    11.3980    11.2801
  559.0000    98.7332    11.3965    11.2808
  559.5000    98.4272    11.3154    11.2816
  560.0000    98.4242    11.2350    11.1256
  560.5000    97.2091    11.0000    10.9715
  561.0000    97.2061    10.9177    10.8957
  561.5000   100.5358    10.7685    10.7452
  562.0000   106.8965    10.6916    10.6710
  562.5000   109.0155    10.5416    10.6717
  563.0000   105.6784    10.4666    10.5241
  563.5000   103.2512    10.3922    10.4464
  564.0000   102.9452    10.3183    10.3792
  564.5000   105.9725    10.2449    10.2359
  565.0000   109.9090    10.1721    10.1650
  565.5000   110.5626    10.0998    10.0948
  566.0000   107.4788    10.0984    10.0252
  566.5000   105.3546     9.8872     9.8176
  567.0000   106.8668     9.7366     9.6143
  567.5000   108.0752     9.4777     9.4152
  568.0000   102.9207     9.2148     9.2202
  568.5000    98.3723     8.9592     9.0292
  569.0000    99.2784     8.7107     8.8422
  569.5000   102.6088     8.3513     8.4792
  570.0000   106.5452     7.8404     7.8406
  570.5000   107.7544     7.2585     7.2414
  571.0000   108.9635     6.3984     6.3211
  571.5000   110.1727     5.7983     5.6518
  572.0000   111.6849     5.3285     5.0889
  572.5000   117.8938     5.2208     4.8122
  573.0000   126.5783     5.2569     4.7455
  573.5000   132.8873     5.3301     5.0900
  574.0000   133.7942     5.4424     5.7335
  574.5000   125.3056     5.6751     6.2800
  575.0000   117.1208     6.1284     6.9756
  575.5000   111.6633     6.7584     7.2753
  576.0000   109.5391     7.6112     7.7488
  576.5000   107.7180     8.3350     8.2029
  577.0000   106.1999     8.7548     8.6162
  577.5000   105.5909     8.9996     8.9777
  578.0000   105.8909     9.2535     9.1688
  578.5000   110.0039     9.3830     9.2987
  579.0000   116.5918     9.5805     9.4966
  579.5000   119.5176     9.7142     9.6988
  580.0000   112.8480     9.9189     9.8362
  580.5000   109.5117    10.0577    10.0456
  581.0000   111.6299    10.2694    10.1879
  581.5000   112.2338    10.4858    10.4048
  582.0000   111.3210    10.6322    10.5521
  582.5000   111.9241    10.8613    10.7016
  583.0000   112.8303    11.0201    10.9295
  583.5000   111.3121    11.2398    11.0843
  584.0000   110.0970    11.3963    11.3204
  584.5000   109.1848    11.5558    11.4808
  585.0000   110.1414    11.6354    11.6434
  585.5000   110.9972    11.7155    11.7260
  586.0000   110.6904    11.7961    11.8092
  586.5000   110.3844    11.8774    11.8929
  587.0000   110.6852    11.8753    11.8937
  587.5000   111.5906    11.8737    11.8945
  588.0000   112.7998    11.8720    11.8954
  588.5000   112.4938    11.8701    11.8962
  589.0000   108.5514    11.8684    11.8970
  589.5000   103.6999    11.9501    11.8931
  590.0000   101.5758    11.9485    11.8156
  590.5000   103.4666    11.9469    11.8167
  591.0000   107.4282    11.9452    11.8175
  591.5000   109.4449    11.9436    11.8183
  592.0000   107.3207    11.8587    11.8191
  592.5000   104.2874    11.8571    11.8199
  593.0000   105.7996    11.7728    11.7381
  593.5000   109.1300    11.6890    11.5759
  594.0000   110.6422    11.6055    11.4958
  594.5000   109.1241    11.5230    11.4968
  595.0000   104.2726    11.5215    11.4975
  595.5000   102.7545    11.4395    11.4181
  596.0000   103.3576    11.2790    11.3351
  596.5000   105.7789    11.1207    11.1723
  597.0000   106.0789    10.8122    10.8747
  597.5000   106.3790    10.5861    10.6494
  598.0000   107.5874    10.2924    10.4289
  598.5000   108.4935    10.1442    10.2845
  599.0000   110.9148    10.0055    10.1422
  599.5000   113.0330     9.9341    10.0021
  600.0000   114.8226     9.8638     9.9327
  600.5000   116.3432     9.9199     9.8627
  601.0000   116.6240     9.7130     9.6570
  601.5000   116.9048     9.3886     9.4555
  602.0000   117.7916     9.2570     9.3233
  602.5000   118.9759     9.1914     9.1288
  603.0000   119.8627     9.1263     9.0644
  603.5000   120.4470     9.0616     9.0634
  604.0000   120.4242     8.9974     9.0626
  604.5000   119.7955     8.9964     9.0619
  605.0000   119.1162     9.0585     9.0611
  605.5000   118.2307     9.0575     9.0603
  606.0000   118.8145     9.0564     9.0596
  606.5000   119.4038     9.0554     9.0588
  607.0000   118.7699     9.0438     9.0580
  607.5000   115.7174     8.8650     8.8689
  608.0000   112.3618     8.7407     8.7449
  608.5000   111.7390     8.6788     8.6226
  609.0000   116.2566     8.4975     8.5617
  609.5000   119.5677     8.3784     8.4420
  610.0000   120.4545     8.2610     8.3240
  610.5000   121.6692     8.2025     8.2626
  611.0000   122.5808     8.1443     8.1495
  611.5000   123.4181     8.0866     8.0919
  612.0000   122.4811     7.9733     8.0913
  612.5000   121.8528     7.9724     8.0341
  613.0000   122.1336     7.9158     7.9774
  613.5000   123.0260     7.8047     7.9211
  614.0000   121.4830     7.7494     7.7559
  614.5000   120.5516     7.5875     7.6474
  615.0000   120.2263     7.4812     7.3837
  615.5000   119.5980     7.3764     7.0794
  616.0000   119.5758     7.3241     6.9317
  616.5000   119.5530     7.3233     6.8830
  617.0000   119.5303     7.3224     6.9794
  617.5000   119.5034     7.3216     7.1267
  618.0000   119.1781     7.3722     7.2773
  618.5000   119.1558     7.5850     7.4892
  619.0000   119.1336     7.8040     7.8582
  619.5000   118.8083     8.1281     8.1945
  620.0000     8.5209     8.4166     8.4856
  620.5000  -999.2500     8.7153     8.8488
  621.0000  -999.2500     8.8995     9.0993
  621.5000  -999.2500     9.1508     9.4225
  622.0000  -999.2500     9.3439     9.6228
  622.5000  -999.2500     9.5411     9.7664
  623.0000  -999.2500     9.6745     9.8241
  623.5000  -999.2500     9.7413     9.8231
  624.0000  -999.2500     9.7402     9.7537
  624.5000  -999.2500     9.6655     9.6174
  625.0000  -999.2500     9.5245     9.5495
  625.5000  -999.2500     9.4678     9.5487
  626.0000  -999.2500     9.4007     9.4813
  626.5000  -999.2500     9.2043     9.4141
  627.0000  -999.2500     0.8787     9.4795
  627.5000  -999.2500     0.4135     9.4787
  628.0000  -999.2500  -999.2500     9.4117
  628.5000  -999.2500  -999.2500     9.4110
  629.0000  -999.2500  -999.2500     9.4102
  629.5000  -999.2500  -999.2500     9.3437
  630.0000  -999.2500  -999.2500     9.3429
  630.5000  -999.2500  -999.2500     9.3420
  631.0000  -999.2500  -999.2500     9.4070
  631.5000  -999.2500  -999.2500     9.4060
  632.0000  -999.2500  -999.2500     9.4714
  632.5000  -999.2500  -999.2500     9.4704
  633.0000  -999.2500  -999.2500     9.4129
