~VERSION INFORMATION
 VERS.                2.0:   CWLS LOG ASCII STANDARD - VERSION 2.0
 WRAP.                 NO:   ONE LINE PER DEPTH STEP
~WELL INFORMATION
#MNEM.UNIT      DATA TYPE    INFORMATION
#----------   ------------   ------------------------------
 STRT.M            0.0000:   START DEPTH
 STOP.M          642.0000:   STOP DEPTH
 STEP.M            0.1000:   STEP LENGTH
 NULL.          -999.2500:   NO VALUE
 COMP.   FLUOR DANIEL INC:   COMPANY
 WELL.     71-1 X 3 #71-3:   WELL
 FLD .             TEAPOT:   FIELD
 LOC .       S3 T38N R78W:   LOCATION
 CNTY.            NATRONA:   COUNTY
 STAT.            WYOMING:   STATE
 CTRY. UNITED STATES OF AMERICA:   COUNTRY
 SRVC.      Western Atlas:   SERVICE COMPANY
 DATE.        04-JAN-1995:   LOGDATE
 API .       490252267900:   API NUMBER
~CURVE INFORMATION
#MNEM.UNIT       API CODE    CURVE DESCRIPTION
#----------   ------------   ------------------------------
 DEPT.M                  :   
 RILD.OHMM   07 120 46 00:   INDUCTION LOG DEEP RESISTIVITY
 RILM.OHMM   07 120 44 00:   INDUCTION LOG MEDIUM RESISTIVITY
 GRR .GAPI   07 310 01 00:   GAMMA RAY
~PARAMETER INFORMATION
#MNEM.UNIT          VALUE    DESCRIPTION
#----------   ------------   ------------------------------
 PD  .                 GL:   PERMANENT DATUM
 EPD .F              5123:   ELEVATION PERMANENT DATUM
 LMF .                 KB:   LOG MEASURED FROM
 DAPD.F                10:   FEET ABOVE PERMANENT DATUM
 DMF .                 KB:   DRILLING MEASURED FROM
 EKB .F              5133:   KELLING BUSHING
 EDF .F              5132:   DRILLING FLOOR
 EGL .F              5123:   GROUND LEVEL
 DATE.        04-JAN-1995:   RUN DATE
 RUN .                  1:   RUN NUMBER
 DD  .F               647:   DEPTH DRILLER
 DL  .F               650:   DEPTH LOGGER
 BLI .F               642:   BOTTOM LOG INTERVAL
 TLI .F                96:   TOP LOG INTERVAL
 CS  .IN            9.625:   CASING SIZE
 CBD .F                96:   CASING BOTTOM DRILLER
 CBL .F                96:   CASING BOTTOM LOGGER
 BS  .IN             8.75:   BIT SIZE
 BSD .F               647:   BIT SIZE AT DEPTH
 DFT .                AIR:   DRILLING FLUID TYPE
 MRT .F                91:   MAXIMUM RECORDED TEMPERATURE
 LUN .            HL 6530:   LOGGING UNIT NUMBER
 LUL .             CASPER:   LOGGING UNIT LOCATION
 ENGI.        VERN RAUTIO:   RECORDING ENGINEER
 WITN.        GARY STRONG:   WITNESSED BY
 CLNT.            A2DTECH:   CLIENT CODE
 ORIG.           5" PRINT:   ORIGIN OF DATA
 UWI .       490252267900:   UNIQUE WELL ID
 DICO. A2D Technologies, Inc.:   DIGITIZING COMPANY
~OTHER INFORMATION
~A    DEPT    RILD       RILM        GRR   
# ...
  200.2000     7.9099     7.9251   140.3206
  200.3000     7.8566     7.8518   140.4371
  200.4000     7.8034     7.7997   140.5537
  200.5000     7.7501     7.7560   140.6703
  200.6000     7.6968     7.7238   140.7869
  200.7000     7.6441     7.7228   140.9035
  200.8000     7.5934     7.6796   141.0201
  200.9000     7.5932     7.6709   141.1367
  201.0000     7.5930     7.6712   141.2533
  201.1000     7.5928     7.6714   141.3698
  201.2000     7.5926     7.6716   141.4864
  201.3000     7.5923     7.6718   141.6030
  201.4000     7.5921     7.6720   141.7196
  201.5000     7.5919     7.6722   141.8362
  201.6000     7.5917     7.6904   141.9528
  201.7000     7.6024     7.7261   141.9940
  201.8000     7.6442     7.7264   141.9940
  201.9000     7.6439     7.7266   141.9940
  202.0000     7.6785     7.7584   141.9940
  202.1000     7.6968     7.8025   141.9940
  202.2000     7.7118     7.8353   141.8115
  202.3000     7.7554     7.8355   141.5652
  202.4000     7.8037     7.8357   141.3897
  202.5000     7.8433     7.8715   141.3595
  202.6000     7.8877     7.8908   140.7855
  202.7000     7.9121     7.9062   140.5798
  202.8000     7.9320     7.9462   140.3335
  202.9000     8.0223     7.9465   140.0872
  203.0000     8.0221     7.9467   139.8409
  203.1000     8.0570     7.9760   139.5770
  203.2000     8.1025     8.0214   139.3482
  203.3000     8.1335     8.0585   139.1019
  203.4000     8.1421     8.0587   138.7384
  203.5000     8.2467     8.0590   138.1228
  203.6000     8.2465     8.0923   137.1151
  203.7000     8.2765     8.1156   135.1446
  203.8000     8.3232     8.1280   133.3700
  203.9000     8.3702     8.1726   132.2072
  204.0000     8.4191     8.1729   131.5529
  204.1000     8.4651     8.2477   131.0891
  204.2000     8.5130     8.2876   130.8157
  204.3000     8.5611     8.3039   130.5964
  204.4000     8.5953     8.3458   130.1865
  204.5000     8.6014     8.3461   129.9094
  204.6000     8.7149     8.3880   129.8574
  204.7000     8.7147     8.4669   129.6073
  204.8000     8.7449     8.5225   129.6073
  204.9000     8.7943     8.5319   129.4205
  205.0000     8.8358     8.5824   129.3051
  205.1000     8.8355     8.5826   129.2300
  205.2000     8.8824     8.6183   128.9644
  205.3000     8.9326     8.6429   128.3988
  205.4000     8.9583     8.6563   127.7692
  205.5000     8.9714     8.7055   127.1843
  205.6000     9.0202     8.7646   126.6917
  205.7000     9.0199     8.7648   126.1564
  205.8000     9.0612     8.7651   125.3776
  205.9000     9.0823     8.7825   124.9116
  206.0000     9.0820     8.8267   124.4189
  206.1000     9.0817     8.8269   123.9263
  206.2000     9.0815     8.8714   123.4336
  206.3000     9.0812     8.8889   122.9410
  206.4000     9.0810     8.8892   122.3565
  206.5000     9.0807     8.8894   122.1561
  206.6000     9.0805     8.8897   121.9098
  206.7000     9.0802     8.8899   121.7523
  206.8000     9.0800     8.8902   121.7523
  206.9000     9.0797     8.9156   121.7523
  207.0000     9.0795     8.9526   121.9758
  207.1000     9.0623     8.9529   122.3900
  207.2000     9.0162     8.9532   122.7706
  207.3000     9.0159     8.9534   123.0169
  207.4000     8.9709     8.9244   123.2636
  207.5000     8.9531     8.8919   123.7563
  207.6000     8.9528     8.8921   124.0580
  207.7000     8.9423     8.8924   124.4394
  207.8000     8.8904     8.8926   124.9321
  207.9000     8.8411     8.8929   125.4012
  208.0000     8.8284     8.8718   125.6798
  208.1000     8.8282     8.8318   126.3220
  208.2000     8.8130     8.8321   127.0610
  208.3000     8.7629     8.7843   127.6975
  208.4000     8.7057     8.7714   128.1902
  208.5000     8.7055     8.7468   128.7009
  208.6000     8.6746     8.6977   129.1754
  208.7000     8.6254     8.6490   129.6681
  208.8000     8.5764     8.5915   130.1607
  208.9000     8.5252     8.5917   130.5835
  209.0000     8.5249     8.5920   130.8298
  209.1000     8.5247     8.5752   131.1178
  209.2000     8.5006     8.5329   131.1178
  209.3000     8.4653     8.5332   130.9690
  209.4000     8.4650     8.5334   130.7226
  209.5000     8.4648     8.5337   130.4763
  209.6000     8.4646     8.5339   130.2115
  209.7000     8.4643     8.5341   129.9837
  209.8000     8.4641     8.5344   129.5653
  209.9000     8.4639     8.5346   129.0727
  210.0000     8.4636     8.5349   128.5801
  210.1000     8.4634     8.5351   128.0920
  210.2000     8.4631     8.5353   127.8457
  210.3000     8.4629     8.5356   127.7946
  210.4000     8.4743     8.5358   127.7946
  210.5000     8.5214     8.5360   127.7946
  210.6000     8.5211     8.5363   127.7946
  210.7000     8.5209     8.5365   127.7946
  210.8000     8.5207     8.5367   127.5762
  210.9000     8.5204     8.5370   127.4924
  211.0000     8.5202     8.5372   127.3857
  211.1000     8.5199     8.5375   127.1394
  211.2000     8.5197     8.5586   126.8882
  211.3000     8.5516     8.5974   126.4052
  211.4000     8.5786     8.5977   126.2840
  211.5000     8.5784     8.5979   126.0242
  211.6000     8.5781     8.6102   125.6056
  211.7000     8.5779     8.6267   125.3776
  211.8000     8.5776     8.6432   125.3776
  211.9000     8.6035     8.6588   125.5865
  212.0000     8.6369     8.6591   125.9859
  212.1000     8.6408     8.6593   126.6731
  212.2000     8.6965     8.6595   127.6169
  212.3000     8.6963     8.6686   128.3988
  212.4000     8.6961     8.6935   129.0949
  212.5000     8.6958     8.7183   129.8339
  212.6000     8.6956     8.7432   130.5728
  212.7000     8.6954     8.7680   131.1825
  212.8000     8.7424     8.7821   131.4288
  212.9000     8.7554     8.7824   131.7221
  213.0000     8.7552     8.7826   131.9215
  213.1000     8.7550     8.8314   131.8806
  213.2000     8.7575     8.8630   131.4586
  213.3000     8.8154     8.8883   130.7197
  213.4000     8.8152     8.9065   129.9094
  213.5000     8.8150     8.9067   128.7966
  213.6000     8.8147     8.9070   127.5650
  213.7000     8.8145     8.9072   126.4443
  213.8000     8.8142     8.9075   125.5693
  213.9000     8.8605     8.9260   125.0755
  214.0000     8.8751     8.9700   124.8298
  214.1000     8.8989     8.9703   124.5835
  214.2000     8.9364     8.9705   124.3371
  214.3000     8.9362     8.9708   124.3259
  214.4000     8.9359     8.9934   124.8186
  214.5000     8.9357     9.0338   125.3776
  214.6000     8.9354     9.0341   126.0169
  214.7000     8.9352     9.0343   126.4413
  214.8000     8.9349     9.0346   126.6876
  214.9000     8.9347     9.0348   126.9797
  215.0000     8.9344     9.0351   127.4924
  215.1000     8.9342     9.0353   127.4924
  215.2000     8.9340     9.0356   127.3120
  215.3000     8.9337     9.0358   127.0656
  215.4000     8.9335     9.0361   126.8882
  215.5000     8.9332     9.0363   126.8882
  215.6000     8.9330     9.0366   126.8882
  215.7000     8.9327     9.0369   126.6846
  215.8000     8.9325     9.0371   126.5861
  215.9000     8.9322     9.0373   126.6781
  216.0000     8.9319     9.0376   126.9608
  216.1000     8.9317     9.0378   127.4924
  216.2000     8.9315     9.0381   127.9460
  216.3000     8.9101     9.0383   128.6096
  216.4000     8.8692     9.0386   129.3487
  216.5000     8.8689     9.0388   130.0282
  216.6000     8.8687     9.0391   130.5245
  216.7000     8.8313     9.0393   131.2635
  216.8000     8.8069     9.0396   132.0024
  216.9000     8.8066     9.0399   132.6030
  217.0000     8.8064     9.0401   133.0131
  217.1000     8.8061     9.0404   133.2594
  217.2000     8.8059     9.0406   133.5347
  217.3000     8.8057     9.0409   133.7521
  217.4000     8.8054     8.9950   133.8369
  217.5000     8.8011     8.9788   133.8369
  217.6000     8.7760     8.9790   133.6870
  217.7000     8.7509     8.9793   132.9305
  217.8000     8.7435     8.9795   132.2091
  217.9000     8.7433     8.9798   131.2854
  218.0000     8.7431     8.9419   130.1712
  218.1000     8.7428     8.9181   129.0859
  218.2000     8.7425     8.9184   128.3123
  218.3000     8.7423     8.9186   126.8882
