~VERSION INFORMATION
 VERS.                2.0:   CWLS LOG ASCII STANDARD - VERSION 2.0
 WRAP.                 NO:   ONE LINE PER DEPTH STEP
~WELL INFORMATION
#MNEM.UNIT      DATA TYPE    INFORMATION
#----------   ------------   ------------------------------
 STRT.F            1.0000:   START DEPTH
 STOP.F          755.5000:   STOP DEPTH
 STEP.F            0.5000:   STEP LENGTH
 NULL.          -999.2500:   NO VALUE
 COMP. FENIX & SCISSON INC:   COMPANY
 WELL.       25-SX #25-14:   WELL
 FLD .        TEAPOT DOME:   FIELD
 LOC .      S14 T38N R78W:   LOCATION
 CNTY.            NATRONA:   COUNTY
 STAT.            WYOMING:   STATE
 CTRY. UNITED STATES OF AMERICA:   COUNTRY
 SRVC.           BIRDWELL:   SERVICE COMPANY
 DATE.        29-DEC-1978:   LOGDATE
 API .       490251076000:   API NUMBER
~CURVE INFORMATION
#MNEM.UNIT       API CODE    CURVE DESCRIPTION
#----------   ------------   ------------------------------
 DEPT.F                  :   
 SPR .MV     05 010 01 00:   SPONTANEOUS POTENTIAL FROM RES.
 SN  .OHMM   05 040 16 00:   SHORT NORMAL 16"
 IL  .OHMM   05 120 00 00:   INDUCTION LOG
 CALD.IN     45 280 60 00:   CALIPER
 GRD .GAPI   45 310 01 00:   GAMMA RAY FROM DENSITY LOG
 CORR.G/C3   45 356 01 00:   DENSITY CORRECTION
 DPHI.DEC    45 890 12 00:   DENSITY POROSITY SANDSTONE
 RHOB.G/C3   45 350 01 00:   BULK DENSITY
~PARAMETER INFORMATION
#MNEM.UNIT          VALUE    DESCRIPTION
#----------   ------------   ------------------------------
 PD  .                 GL:   PERMANENT DATUM
 EPD .F              5214:   ELEVATION PERMANENT DATUM
 LMF .                 KB:   LOG MEASURED FROM
 DAPD.F                 4:   FEET ABOVE PERMANENT DATUM
 DMF .                 KB:   DRILLING MEASURED FROM
 EKB .F              5218:   KELLING BUSHING
 EGL .F              5214:   GROUND LEVEL
 DATE.           12-29-79:   RUN DATE
 RUN .                  1:   RUN NUMBER
 DD  .F               765:   DEPTH DRILLER
 DL  .F               747:   DEPTH LOGGER
 BLI .F               740:   BOTTOM LOG INTERVAL
 TLI .F                40:   TOP LOG INTERVAL
 CS  .IN            8.625:   CASING SIZE
 CBD .F                40:   CASING BOTTOM DRILLER
 CBL .F                40:   CASING BOTTOM LOGGER
 BS  .IN            7.875:   BIT SIZE
 BSD .F               765:   BIT SIZE AT DEPTH
 DFT .                KCL:   DRILLING FLUID TYPE
 DFD .                8.8:   DRILLING FLUID DENSITY
 DFV .                 48:   DRILLING FLUID VISCOSITY
 DFPH.                9.2:   DRILLING FLUID PH
 MSS .           FLOWLINE:   MUD SAMPLE SOURCE
 RMS .OHMM            .17:   RESISTIVITY MUD SAMPLE
 MST .F                56:   MUD SAMPLE TEMPERATURE
 RMF .OHMM            .15:   RESISTIVITY MUD FILTRATE SAMPLE
 MFST.F                56:   MUD FILTRATE SAMPLE TEMPERATURE
 RMC .OHMM            .23:   RESISTIVITY MUD CAKE
 MCST.F                64:   MUD CAKE SAMPLE TEMPERATURE
 MFSS.           MEASURED:   MUD FILTRATE SAMPLE SOURCE
 MCSS.           MEASURED:   MUD CAKE SAMPLE SOURCE
 RMB .OHMM            .16:   RESISTIVITY MUD AT BHT
 BHT .F                59:   BOTTOM HOLE TEMPERATURE
 TCS .HRS              12:   TIME CURCULATED STOPPED
 MRT .F                59:   MAXIMUM RECORDED TEMPERATURE
 LUN .               2958:   LOGGING UNIT NUMBER
 LUL .             CASPER:   LOGGING UNIT LOCATION
 ENGI.            ROLLINS:   RECORDING ENGINEER
 WITN.         RICHARDSON:   WITNESSED BY
 CLNT.            A2DTECH:   CLIENT CODE
 ORIG.           5" PRINT:   ORIGIN OF DATA
 UWI .       490251076000:   UNIQUE WELL ID
 DICO. A2D Technologies, Inc.:   DIGITIZING COMPANY
~OTHER INFORMATION
~A    DEPT     SPR         SN         IL       CALD         GRD      CORR       DPHI       RHOB   
# ...
  527.5000   -73.8650     5.7480     4.6120     7.2860   127.0810     0.0060     0.0980     2.5190
  528.0000   -74.0080     5.7480     4.6150     7.2920   125.9760     0.0060     0.0990     2.5190
  528.5000   -74.1520     5.7010     4.6170     7.2980   124.2670     0.0060     0.1000     2.5190
  529.0000   -74.2680     5.6360     4.6200     7.3040   122.8970     0.0050     0.1010     2.5150
  529.5000   -74.3290     5.5720     4.6230     7.3100   121.6560     0.0050     0.1020     2.5120
  530.0000   -74.3900     5.5380     4.6260     7.3150   121.4490     0.0050     0.1030     2.5090
  530.5000   -74.4520     5.5160     4.6290     7.3070   121.2980     0.0040     0.1040     2.5100
  531.0000   -74.5130     5.4940     4.6320     7.2970   121.2250     0.0040     0.1040     2.5090
  531.5000   -74.5740     5.4720     4.6350     7.2870   121.3770     0.0040     0.1040     2.5050
  532.0000   -74.6340     5.4500     4.6370     7.2760   121.5130     0.0030     0.1040     2.5010
  532.5000   -74.6950     5.4280     4.6410     7.2820   121.6440     0.0050     0.1040     2.5020
  533.0000   -74.7560     5.4060     4.6450     7.2890   122.0610     0.0080     0.1050     2.5020
  533.5000   -74.8170     5.3840     4.5700     7.2960   127.3660     0.0160     0.1060     2.5020
  534.0000   -74.8790     5.3620     4.4740     7.3030   131.0720     0.0180     0.1070     2.5030
  534.5000   -74.9400     5.3400     4.3780     7.3100   130.2400     0.0210     0.1080     2.5000
  535.0000   -75.0020     5.3180     4.3320     7.3150   129.4360     0.0170     0.1080     2.4980
  535.5000   -75.1120     5.2950     4.3190     7.3080   130.9150     0.0130     0.1090     2.4950
  536.0000   -75.4460     5.2360     4.3050     7.3010   133.0070     0.0080     0.1090     2.4930
  536.5000   -75.7750     5.0810     4.2090     7.2940   134.3730     0.0070     0.1090     2.4940
  537.0000   -76.2150     5.0300     4.0560     7.2870   135.0050     0.0090     0.1100     2.4950
  537.5000   -76.6730     4.9800     3.9020     7.2810   135.2990     0.0120     0.1100     2.4960
  538.0000   -76.8750     4.9290     3.7480     7.2760   133.3670     0.0150     0.1100     2.4980
  538.5000   -76.9170     4.9200     3.6880     7.2760   132.1000     0.0180     0.1120     2.4990
  539.0000   -76.9580     4.9110     3.6880     7.2760   133.2650     0.0190     0.1150     2.4970
  539.5000   -76.9990     4.9020     3.6880     7.2760   134.0200     0.0180     0.1180     2.4930
  540.0000   -77.0390     4.8870     3.6880     7.2760   129.1550     0.0170     0.1200     2.4880
  540.5000   -77.0720     4.9120     3.6880     7.2760   123.2490     0.0160     0.1320     2.4770
  541.0000   -77.1020     4.9700     3.6880     7.2760   122.7770     0.0150     0.1370     2.4640
  541.5000   -77.1320     5.0270     3.7530     7.2760   122.4020     0.0130     0.1330     2.4540
  542.0000   -77.1610     5.1210     3.9040     7.2760   121.9560     0.0130     0.1250     2.4560
  542.5000   -77.1910     5.3180     4.0560     7.2760   124.6180     0.0130     0.1160     2.4780
  543.0000   -77.2200     5.3000     4.2070     7.2760   123.1910     0.0130     0.1080     2.5020
  543.5000   -77.2480     5.2660     4.3580     7.2760   119.9690     0.0130     0.1040     2.5120
  544.0000   -77.3280     5.2330     4.4490     7.2760   118.3240     0.0130     0.1040     2.5070
  544.5000   -77.4130     5.1690     4.3040     7.2760   118.2290     0.0130     0.1040     2.5000
  545.0000   -77.4980     5.1080     4.1340     7.2760   118.1200     0.0130     0.1050     2.5000
  545.5000   -77.5840     5.0470     3.9640     7.2760   118.0340     0.0130     0.1050     2.5040
  546.0000   -77.6700     4.9510     3.7930     7.2760   118.7290     0.0130     0.1060     2.5080
  546.5000   -77.7550     4.8160     3.6230     7.2750   122.1090     0.0130     0.1060     2.5080
  547.0000   -77.8410     4.6810     3.5270     7.2640   125.9180     0.0130     0.1120     2.5030
  547.5000   -77.9250     4.5460     3.5140     7.2520   126.7770     0.0130     0.1200     2.4970
  548.0000   -78.0110     4.4490     3.5000     7.2390   128.4790     0.0130     0.1280     2.4820
  548.5000   -78.0100     4.5270     3.4860     7.2350   131.3910     0.0130     0.1370     2.4630
  549.0000   -77.9140     4.5880     3.4740     7.2340   133.5200     0.0130     0.1450     2.4440
  549.5000   -77.7310     4.6430     3.5880     7.2330   133.6370     0.0130     0.1550     2.4250
  550.0000   -77.2560     4.8700     3.8180     7.2310   129.1760     0.0130     0.1550     2.4140
  550.5000   -76.7790     5.0140     4.0480     7.2300   123.9810     0.0130     0.1300     2.4610
  551.0000   -76.5990     5.1550     4.3000     7.2290   122.6410     0.0130     0.1090     2.4950
  551.5000   -76.5090     5.3680     4.4530     7.2280   123.1660     0.0140     0.1080     2.4960
  552.0000   -76.3610     5.4380     4.6040     7.2270   124.6240     0.0140     0.1090     2.4900
  552.5000   -76.0190     5.6300     4.6600     7.2260   123.6840     0.0140     0.1110     2.4940
  553.0000   -75.6840     5.7390     4.7210     7.2250   122.6180     0.0140     0.1100     2.5060
  553.5000   -75.3520     5.7960     4.7830     7.2240   122.6730     0.0140     0.1080     2.5140
  554.0000   -75.0180     5.8520     4.8440     7.2230   123.1870     0.0140     0.1070     2.5150
  554.5000   -74.8090     5.9090     4.9060     7.2220   122.7320     0.0150     0.1050     2.5120
  555.0000   -74.7260     5.9470     4.9670     7.2210   119.6760     0.0150     0.1030     2.5110
  555.5000   -74.6560     5.9470     5.0290     7.2200   117.1120     0.0150     0.1020     2.5150
  556.0000   -74.7510     5.9470     5.0900     7.2180   114.9560     0.0140     0.1000     2.5190
  556.5000   -74.8450     5.9470     5.1440     7.2170   114.6840     0.0140     0.0980     2.5230
  557.0000   -74.9380     5.9470     5.1400     7.2160   114.8170     0.0130     0.0970     2.5270
  557.5000   -75.0310     5.9470     5.1350     7.2130   114.8710     0.0130     0.0950     2.5310
  558.0000   -75.1250     5.9470     5.1300     7.1640   112.8000     0.0120     0.0940     2.5350
  558.5000   -75.2180     5.9470     5.1250     7.1130   110.9830     0.0110     0.0940     2.5340
  559.0000   -75.3110     5.9470     5.1190     7.0750   111.3890     0.0110     0.0940     2.5310
  559.5000   -75.4040     5.9470     5.1140     7.1010   114.0670     0.0100     0.0940     2.5290
  560.0000   -75.4560     5.9470     5.1090     7.1260   116.9780     0.0100     0.0930     2.5240
  560.5000   -75.4670     5.9470     5.1040     7.1510   120.6280     0.0090     0.0940     2.5200
  561.0000   -75.4790     5.9470     5.1000     7.1550   123.4410     0.0090     0.0940     2.5170
  561.5000   -75.4900     5.9470     5.1990     7.1550   123.8680     0.0090     0.0940     2.5170
  562.0000   -75.5010     5.9470     5.2720     7.1550   121.8980     0.0090     0.0950     2.5180
  562.5000   -75.5120     5.9480     5.3460     7.1550   119.8850     0.0090     0.0950     2.5250
  563.0000   -75.5230     5.9420     5.4190     7.1550   119.7560     0.0090     0.0950     2.5290
  563.5000   -75.5340     5.9100     5.4930     7.1550   120.1560     0.0120     0.0950     2.5290
  564.0000   -75.5460     5.8770     5.5550     7.1550   119.8680     0.0190     0.0960     2.5260
  564.5000   -75.5570     5.8440     5.2630     7.1550   117.2330     0.0250     0.0960     2.5220
  565.0000   -75.5680     5.8110     4.9590     7.1550   115.1780     0.0190     0.0950     2.5200
  565.5000   -75.5790     5.6610     4.6540     7.1550   115.0830     0.0140     0.0950     2.5210
  566.0000   -75.5900     5.4880     4.3490     7.1550   113.7300     0.0090     0.0940     2.5240
  566.5000   -75.6010     5.2250     4.1560     7.1550   111.8520     0.0050     0.0940     2.5270
  567.0000   -75.6120     4.9170     4.1560     7.1550   111.1070     0.0060     0.0970     2.5290
  567.5000   -75.6230     4.6830     4.1560     7.1550   112.2740     0.0060     0.1020     2.5270
