~VERSION INFORMATION
 VERS.                2.0:   CWLS LOG ASCII STANDARD - VERSION 2.0
 WRAP.                 NO:   ONE LINE PER DEPTH STEP
~WELL INFORMATION
#MNEM.UNIT      DATA TYPE    INFORMATION
#----------   ------------   ------------------------------
 STRT.F           43.0000:   START DEPTH
 STOP.F          551.0000:   STOP DEPTH
 STEP.F            0.5000:   STEP LENGTH
 NULL.          -999.2500:   NO VALUE
 COMP. FENIX & SCISSON INC:   COMPANY
 WELL.   NPR 3  27-S #3-3:   WELL
 FLD .             TEAPOT:   FIELD
 LOC .       S3 T38N R78W:   LOCATION
 CNTY.            NATRONA:   COUNTY
 STAT.            WYOMING:   STATE
 CTRY. UNITED STATES OF AMERICA:   COUNTRY
 SRVC.           BIRDWELL:   SERVICE COMPANY
 DATE.        07-OCT-1978:   LOGDATE
 API .       490251071600:   API NUMBER
~CURVE INFORMATION
#MNEM.UNIT       API CODE    CURVE DESCRIPTION
#----------   ------------   ------------------------------
 DEPT.F                  :   
 SPR .MV     05 010 01 00:   SPONTANEOUS POTENTIAL FROM RES.
 SN  .OHMM   05 040 16 00:   SHORT NORMAL 16"
 ILD .OHMM   05 120 46 00:   INDUCTION LOG DEEP
 GRD .GAPI   45 310 01 00:   GAMMA RAY FROM DENSITY LOG
 CALD.IN     45 280 60 00:   CALIPER
 RHOB.G/C3   45 350 01 00:   BULK DENSITY
 CORR.G/C3   45 356 01 00:   DENSITY CORRECTION
 DPHI.DEC    45 890 12 00:   DENSITY POROSITY SANDSTONE
~PARAMETER INFORMATION
#MNEM.UNIT          VALUE    DESCRIPTION
#----------   ------------   ------------------------------
 PD  .                 GL:   PERMANENT DATUM
 EPD .F              5241:   ELEVATION PERMANENT DATUM
 LMF .                 KB:   LOG MEASURED FROM
 DAPD.F                 4:   FEET ABOVE PERMANENT DATUM
 DMF .                 KB:   DRILLING MEASURED FROM
 EKB .F              5245:   KELLING BUSHING
 EGL .F              5241:   GROUND LEVEL
 DATE.            10-7-78:   RUN DATE
 RUN .                  1:   RUN NUMBER
 DD  .F               552:   DEPTH DRILLER
 DL  .F               551:   DEPTH LOGGER
 BLI .F               545:   BOTTOM LOG INTERVAL
 TLI .F                48:   TOP LOG INTERVAL
 CS  .IN            8.625:   CASING SIZE
 CBL .F                43:   CASING BOTTOM LOGGER
 BS  .IN            7.875:   BIT SIZE
 BSD .F               552:   BIT SIZE AT DEPTH
 DFT .                KCL:   DRILLING FLUID TYPE
 DFD .                8.7:   DRILLING FLUID DENSITY
 DFV .                 38:   DRILLING FLUID VISCOSITY
 DFPH.                  9:   DRILLING FLUID PH
 DFL .                 38:   DRILLING FLUID LOSS
 MSS .            MUD PIT:   MUD SAMPLE SOURCE
 RMS .OHMM            .24:   RESISTIVITY MUD SAMPLE
 MST .F                48:   MUD SAMPLE TEMPERATURE
 RMF .OHMM             .2:   RESISTIVITY MUD FILTRATE SAMPLE
 MFST.F                62:   MUD FILTRATE SAMPLE TEMPERATURE
 RMC .OHMM             .3:   RESISTIVITY MUD CAKE
 MCST.F                62:   MUD CAKE SAMPLE TEMPERATURE
 MFSS.               MEAS:   MUD FILTRATE SAMPLE SOURCE
 MCSS.               MEAS:   MUD CAKE SAMPLE SOURCE
 TCS .HRS               3:   TIME CURCULATED STOPPED
 LUN .               2958:   LOGGING UNIT NUMBER
 LUL .               CASP:   LOGGING UNIT LOCATION
 ENGI.             MILLER:   RECORDING ENGINEER
 WITN.              AMEND:   WITNESSED BY
 CLNT.            A2DTECH:   CLIENT CODE
 ORIG.       2", 5" PRINT:   ORIGIN OF DATA
 UWI .       490251071600:   UNIQUE WELL ID
 DICO. A2D Technologies, Inc.:   DIGITIZING COMPANY
~OTHER INFORMATION
~A   DEPT      SPR         SN        ILD        GRD         CALD       RHOB      CORR        DPHI 
# ...
  488.5000    -8.6418    11.2923    15.8089    79.1522     8.0209     2.3728     0.0206     0.1862
  489.0000    -9.1760    11.2923    16.0272    79.0519     8.0346     2.3720     0.0190     0.1875
  489.5000    -9.7745    11.2923    16.2485    78.9196     8.0479     2.3630     0.0194     0.1912
  490.0000   -10.3766    11.2923    16.4728    78.7831     8.0612     2.3541     0.0199     0.1961
  490.5000   -10.9764    11.2923    16.7003    78.6456     8.0744     2.3537     0.0204     0.1966
  491.0000   -11.0469    11.2923    16.7863    78.4560     8.0879     2.3534     0.0209     0.1966
  491.5000   -11.0352    11.2923    16.7863    78.0619     8.1131     2.3526     0.0204     0.1976
  492.0000   -11.0223    11.2923    16.7863    77.6667     8.1818     2.3485     0.0198     0.2008
  492.5000   -11.0104    11.2923    16.7863    77.8903     8.2271     2.3442     0.0192     0.2038
  493.0000   -10.9987    11.2923    16.7863    78.3813     8.2480     2.3421     0.0207     0.2038
  493.5000   -10.9869    11.2922    16.7863    78.8812     8.2690     2.3455     0.0244     0.2007
  494.0000   -10.9752    11.2942    16.7863    79.3826     8.2905     2.3524     0.0271     0.1964
  494.5000   -10.9635    11.2972    16.7863    79.8827     8.2846     2.3592     0.0277     0.1920
  495.0000   -10.9517    11.3001    16.7863    79.9591     8.2665     2.3661     0.0282     0.1898
  495.5000   -10.9400    11.3031    16.7863    79.3419     8.2451     2.3683     0.0289     0.1898
  496.0000   -10.9282    11.3061    16.7884    78.6566     8.2759     2.3615     0.0346     0.1900
  496.5000   -10.9165    11.3090    16.7459    77.9678     8.4634     2.3581     0.0410     0.1920
  497.0000   -10.9048    11.3120    16.6601    77.3773     8.2809     2.3616     0.0428     0.1905
  497.5000   -10.8930    11.3150    16.5741    77.8012     8.2026     2.3656     0.0428     0.1879
  498.0000   -10.8812    11.3179    16.4908    78.2288     8.2315     2.3690     0.0428     0.1904
  498.5000   -10.8676    11.3209    16.3492    78.6460     8.2580     2.3603     0.0436     0.1974
  499.0000   -10.8465    11.3239    16.2030    78.8575     8.2759     2.3310     0.0508     0.2045
  499.5000   -11.2382    11.3268    16.0581    78.4703     8.2697     2.3243     0.0581     0.2116
  500.0000   -11.6652    11.3298    15.9145    78.1709     8.2641     2.3209     0.0661     0.2165
  500.5000   -12.0942    11.3328    15.7719    78.5837     8.2579     2.3234     0.0793     0.2157
  501.0000   -12.5406    11.3358    15.6310    78.9905     8.2870     2.3279     0.0947     0.2089
  501.5000   -12.6481    11.3387    15.4496    79.3924     8.3273     2.3454     0.1148     0.1987
  502.0000   -12.6507    11.3417    15.5405    79.7921     8.3138     2.3755     0.1346     0.1823
  502.5000   -12.6496    11.3447    15.6713    80.1047     8.2130     2.4052     0.1486     0.1659
  503.0000   -12.6494    11.3477    15.8032    80.4256     8.2071     2.4278     0.1422     0.1519
  503.5000   -12.6494    11.3506    15.9362    80.7479     8.1993     2.4376     0.1121     0.1464
  504.0000   -12.6494    11.3536    16.0300    81.0686     8.1686     2.4248     0.0719     0.1563
  504.5000   -12.6494    11.3566    16.0300    81.3325     8.1373     2.4002     0.0525     0.1699
  505.0000   -12.6494    11.3596    16.0299    81.2667     8.1420     2.3847     0.0384     0.1811
  505.5000   -12.6494    11.3625    16.0300    81.2065     8.1461     2.3790     0.0240     0.1814
  506.0000   -12.6494    11.3655    16.0300    81.1474     8.1500     2.3793     0.0205     0.1818
  506.5000   -12.6494    11.3685    16.0298    81.0883     8.1543     2.3796     0.0199     0.1816
  507.0000   -12.6494    11.3715    16.0296    81.0293     8.1712     2.3799     0.0193     0.1812
  507.5000   -12.6494    11.3745    16.0328    80.9703     8.2417     2.3794     0.0191     0.1790
  508.0000   -12.6494    11.3775    15.8866    80.9203     8.2583     2.3922     0.0196     0.1762
  508.5000   -12.6494    11.3804    15.7771    80.8833     8.0938     2.3905     0.0201     0.1747
  509.0000   -12.6494    11.3834    15.6684    80.8461     8.0930     2.3814     0.0206     0.1796
  509.5000   -12.6494    11.3864    15.5912    80.8089     8.0898     2.3742     0.0211     0.1827
  510.0000   -12.6494    11.3895    15.8439    80.7719     8.0864     2.3781     0.0216     0.1802
  510.5000   -12.6483    11.3924    16.0419    80.7357     8.0829     2.3909     0.0221     0.1736
  511.0000   -12.6448    11.3982    16.1945    80.6943     8.0796     2.4042     0.0226     0.1670
  511.5000   -12.6809    11.3675    16.2479    80.6540     8.0854     2.4175     0.0212     0.1603
  512.0000   -13.2787    11.3114    16.3015    80.6139     8.1017     2.4308     0.0166     0.1491
  512.5000   -13.8604    11.2550    16.3283    80.5737     8.1178     2.4443     0.0120     0.1427
  513.0000   -14.4301    11.1987    15.8939    80.5335     8.1341     2.4489     0.0075     0.1400
  513.5000   -14.8823    11.1428    15.5676    80.4934     8.1503     2.4475     0.0031     0.1415
  514.0000   -15.0112    11.0871    15.2480    80.4533     8.1661     2.4318     0.0018     0.1489
  514.5000   -15.1458    11.0317    14.9861    80.4136     8.1675     2.4159     0.0033     0.1594
  515.0000   -15.3361    10.9765    14.8469    80.3734     8.1354     2.4002     0.0089     0.1676
  515.5000   -15.7254    10.9217    14.7089    80.2950     8.1041     2.3907     0.0144     0.1726
  516.0000   -16.0998    10.8454    14.5722    79.9892     8.0792     2.3980     0.0201     0.1735
  516.5000   -16.4419    10.7106    14.4368    79.6825     8.0949     2.4089     0.0202     0.1640
  517.0000   -16.3887    10.5783    14.3026    79.3788     8.1102     2.4201     0.0193     0.1574
  517.5000   -16.3426    10.4604    14.1697    79.0669     8.1252     2.4312     0.0184     0.1508
  518.0000   -16.3002    10.3931    14.0380    79.1905     8.1379     2.4415     0.0175     0.1444
  518.5000   -16.2654    10.3931    13.9076    79.3663     8.1386     2.4410     0.0166     0.1442
  519.0000   -16.6794    10.3931    13.7783    79.5500     8.1395     2.4401     0.0157     0.1440
  519.5000   -17.5871    10.3931    13.6503    79.7636     8.1405     2.4393     0.0148     0.1464
  520.0000   -17.5466    10.3931    13.5235    80.6046     8.1414     2.4385     0.0140     0.1477
  520.5000   -17.4421    10.3931    13.3978    81.4729     8.1424     2.4376     0.0131     0.1482
  521.0000   -17.3385    10.3931    13.2732    82.5034     8.1433     2.4368     0.0118     0.1477
  521.5000   -17.2289    10.3931    13.1495    84.2515     8.1443     2.4372     0.0104     0.1472
  522.0000   -17.4864    10.3931    13.0277    85.3727     8.1452     2.4480     0.0091     0.1426
  522.5000   -17.7715    10.3931    12.9671    85.7214     8.1461     2.4539     0.0099     0.1383
  523.0000   -18.0345    10.3931    12.9671    85.6541     8.1471     2.4544     0.0109     0.1354
  523.5000   -18.0303    10.3931    12.9671    85.5994     8.1481     2.4556     0.0120     0.1339
  524.0000   -18.0404    10.3931    12.9670    85.5472     8.1490     2.4595     0.0128     0.1323
  524.5000   -18.5935    10.3931    12.9701    85.4951     8.1499     2.4609     0.0107     0.1305
  525.0000   -19.4415    10.3931    12.8836    85.4429     8.1509     2.4612     0.0085     0.1307
  525.5000   -19.4190    10.3931    12.7654    85.3907     8.1518     2.4615     0.0065     0.1309
  526.0000   -19.4228    10.3931    12.6483    85.3386     8.1528     2.4611     0.0051     0.1329
  526.5000   -19.4272    10.3931    12.5322    85.2864     8.1537     2.4561     0.0055     0.1352
  527.0000   -19.6906    10.3931    12.4976    85.2343     8.1547     2.4560     0.0058     0.1373
  527.5000   -20.2334    10.3931    12.4976    85.1821     8.1556     2.4606     0.0062     0.1317
  528.0000   -20.7878    10.3931    12.4976    85.1300     8.1566     2.4626     0.0065     0.1319
  528.5000   -20.7975    10.3931    12.4976    85.0778     8.1584     2.4640     0.0068     0.1321
