~VERSION INFORMATION
 VERS.                2.0:   CWLS LOG ASCII STANDARD - VERSION 2.0
 WRAP.                 NO:   ONE LINE PER DEPTH STEP
~WELL INFORMATION
#MNEM.UNIT      DATA TYPE    INFORMATION
#----------   ------------   ------------------------------
 STRT.F           12.0000:   START DEPTH
 STOP.F          754.0000:   STOP DEPTH
 STEP.F            0.5000:   STEP LENGTH
 NULL.          -999.2500:   NO VALUE
 COMP. FENIX & SCISSON INC:   COMPANY
 WELL.    62 SX 34 #62-34:   WELL
 FLD .             TEAPOT:   FIELD
 LOC .      S34 T39N R78W:   LOCATION
 CNTY.            NATRONA:   COUNTY
 STAT.            WYOMING:   STATE
 CTRY. UNITED STATES OF AMERICA:   COUNTRY
 SRVC.            Unknown:   SERVICE COMPANY
 DATE.        20-AUG-1978:   LOGDATE
 API .       490251070200:   API NUMBER
~CURVE INFORMATION
#MNEM.UNIT       API CODE    CURVE DESCRIPTION
#----------   ------------   ------------------------------
 DEPT.F                  :   
 SPR .MV     05 010 01 00:   SPONTANEOUS POTENTIAL FROM RES.
 SN  .OHMM   05 040 16 00:   SHORT NORMAL 16"
 ILD .OHMM   05 120 46 00:   INDUCTION LOG DEEP
 GRD .GAPI   45 310 01 00:   GAMMA RAY FROM DENSITY LOG
 CALD.IN     45 280 60 00:   CALIPER
 RHOB.G/C3   45 350 01 00:   BULK DENSITY
 DPHI.DEC    45 890 12 00:   DENSITY POROSITY SANDSTONE
 CORR.G/C3   45 356 01 00:   DENSITY CORRECTION
~PARAMETER INFORMATION
#MNEM.UNIT          VALUE    DESCRIPTION
#----------   ------------   ------------------------------
 PD  .                 GL:   PERMANENT DATUM
 EPD .F              5039:   ELEVATION PERMANENT DATUM
 LMF .                 KB:   LOG MEASURED FROM
 DAPD.F                 4:   FEET ABOVE PERMANENT DATUM
 DMF .                 KB:   DRILLING MEASURED FROM
 EKB .F              5043:   KELLING BUSHING
 EGL .F              5039:   GROUND LEVEL
 DATE.            8-20-78:   RUN DATE
 RUN .                  1:   RUN NUMBER
 DD  .F               750:   DEPTH DRILLER
 DL  .F               755:   DEPTH LOGGER
 BLI .F               749:   BOTTOM LOG INTERVAL
 TLI .F                30:   TOP LOG INTERVAL
 CS  .IN            8.625:   CASING SIZE
 CBD .F                30:   CASING BOTTOM DRILLER
 CBL .F                34:   CASING BOTTOM LOGGER
 BS  .IN            7.875:   BIT SIZE
 BSD .F               750:   BIT SIZE AT DEPTH
 DFT .            KCL MUD:   DRILLING FLUID TYPE
 DFD .                8.6:   DRILLING FLUID DENSITY
 DFV .                 30:   DRILLING FLUID VISCOSITY
 DFPH.                9.5:   DRILLING FLUID PH
 DFL .               10.4:   DRILLING FLUID LOSS
 MSS .          FLOW LINE:   MUD SAMPLE SOURCE
 RMS .OHMM            .28:   RESISTIVITY MUD SAMPLE
 MST .F                76:   MUD SAMPLE TEMPERATURE
 RMF .OHMM            .24:   RESISTIVITY MUD FILTRATE SAMPLE
 MFST.F                80:   MUD FILTRATE SAMPLE TEMPERATURE
 RMC .OHMM            .34:   RESISTIVITY MUD CAKE
 MCST.F                82:   MUD CAKE SAMPLE TEMPERATURE
 MFSS.               MEAS:   MUD FILTRATE SAMPLE SOURCE
 MCSS.               MEAS:   MUD CAKE SAMPLE SOURCE
 BHT .F                72:   BOTTOM HOLE TEMPERATURE
 TCS .HRS               3:   TIME CURCULATED STOPPED
 MRT .F                72:   MAXIMUM RECORDED TEMPERATURE
 LUN .               2958:   LOGGING UNIT NUMBER
 LUL .               CASP:   LOGGING UNIT LOCATION
 ENGI.           REYNOLDS:   RECORDING ENGINEER
 WITN.              AMEND:   WITNESSED BY
 CLNT.            A2DTECH:   CLIENT CODE
 ORIG.           5" PRINT:   ORIGIN OF DATA
 UWI .       490251070200:   UNIQUE WELL ID
 DICO. A2D Technologies, Inc.:   DIGITIZING COMPANY
~OTHER INFORMATION
~A   DEPT      SPR         SN        ILD         GRD      CALD       RHOB       DPHI       CORR   
# ...
  579.0000   -47.4908     9.9746    14.1189    69.0970    10.6355     2.4022     0.1738     0.1499
  579.5000   -47.9674     9.8726    13.9464    69.4938    10.6322     2.3864     0.1838     0.1303
  580.0000   -48.4645     9.7716    13.7760    69.6534    10.6288     2.3722     0.1916     0.1192
  580.5000   -48.8651     9.6716    13.6077    66.8444    10.6254     2.3614     0.1979     0.1112
  581.0000   -48.9276     9.5726    13.4414    64.2929    10.6221     2.3553     0.1975     0.1125
  581.5000   -48.9706     9.4747    13.2772    64.1862    10.6187     2.3610     0.1916     0.1136
  582.0000   -49.0158     9.3777    13.1150    65.5032    10.6153     2.3688     0.1863     0.1147
  582.5000   -49.0615     9.2817    12.9548    67.4847    10.6120     2.3767     0.1847     0.1157
  583.0000   -49.1072     9.1868    12.7964    69.4088    10.6086     2.3772     0.1846     0.1168
  583.5000   -49.1529     9.0928    12.6250    71.3232    10.6052     2.3772     0.1842     0.1179
  584.0000   -49.1987     9.0370    12.5093    73.2532    10.6019     2.3770     0.1823     0.1189
  584.5000   -49.2444     8.9973    12.5093    74.1868    10.5985     2.3829     0.1766     0.1200
  585.0000   -49.2819     8.9577    12.5093    73.4795    10.5951     2.3908     0.1710     0.1212
  585.5000   -49.2811     8.9183    12.5093    71.4174    10.5918     2.3989     0.1659     0.1186
  586.0000   -49.2810     8.8791    12.5093    69.8120    10.5884     2.4068     0.1651     0.1147
  586.5000   -49.2810     8.8401    12.5094    70.2791    10.5850     2.4069     0.1719     0.1108
  587.0000   -49.2810     8.8012    12.5091    71.4540    10.5816     2.3911     0.1815     0.1068
  587.5000   -49.2809     8.7622    12.4952    72.5854    10.5783     2.3695     0.1910     0.1037
  588.0000   -49.2800     8.7377    12.4545    73.7644    10.5749     2.3623     0.1954     0.1106
  588.5000   -49.2742     8.7374    12.4139    73.9877    10.5716     2.3661     0.1880     0.1174
  589.0000   -49.5107     8.7375    12.3736    72.7594    10.5682     2.3830     0.1796     0.1240
  589.5000   -49.7758     8.7375    12.3333    70.2417    10.5647     2.3879     0.1778     0.1307
  590.0000   -50.0411     8.7375    12.2932    67.6305    10.5582     2.3875     0.1791     0.1386
  590.5000   -50.3021     8.7375    12.2532    66.9247    10.5481     2.3875     0.1776     0.1513
  591.0000   -50.4627     8.7375    12.2133    66.8184    10.5381     2.3916     0.1754     0.1635
  591.5000   -50.6327     8.7375    12.1736    67.5028    10.5281     2.3978     0.1743     0.1758
  592.0000   -50.8300     8.7375    12.1339    69.1502    10.5180     2.4061     0.1649     0.1881
  592.5000   -51.0419     8.7375    12.0945    69.6864    10.5081     2.4204     0.1555     0.2003
  593.0000   -51.2548     8.7375    12.0551    67.7093    10.4980     2.4208     0.1569     0.2117
  593.5000   -51.4636     8.7375    12.0159    65.9466    10.4875     2.4205     0.1575     0.2134
  594.0000   -51.4727     8.7375    11.9767    66.8577    10.4558     2.4266     0.1412     0.2153
  594.5000   -51.4715     8.7375    11.9363    69.7304    10.4008     2.4529     0.1248     0.2174
  595.0000   -51.4712     8.7375    11.8902    72.4100    10.3464     2.4746     0.1220     0.2113
  595.5000   -51.4712     8.7375    11.8444    74.9013    10.2923     2.4796     0.1222     0.2046
  596.0000   -51.4712     8.7375    11.7987    75.2107    10.2355     2.4773     0.1226     0.1980
  596.5000   -51.4712     8.7375    11.7533    75.5569    10.1330     2.4748     0.1244     0.1913
  597.0000   -51.4712     8.7375    11.7080    76.0637    10.0321     2.4721     0.1304     0.1851
  597.5000   -51.4712     8.7375    11.6629    77.0857     9.9319     2.4620     0.1383     0.1842
  598.0000   -51.4712     8.7375    11.6180    77.0555     9.8316     2.4438     0.1486     0.1833
  598.5000   -51.4712     8.7373    11.5733    73.8965     9.7313     2.4260     0.1588     0.1823
  599.0000   -51.4712     8.7367    11.5287    70.9250     9.6320     2.4101     0.1673     0.1811
  599.5000   -51.4712     8.7717    11.4843    70.9346     9.5421     2.3991     0.1739     0.1891
  600.0000   -51.4712     8.8032    11.4396    71.1984     9.5210     2.3883     0.1806     0.1979
  600.5000   -51.4711     8.8348    11.4102    70.6643     9.4987     2.3775     0.1872     0.2065
  601.0000   -51.4716     8.8666    11.4250    69.5855     9.4767     2.3689     0.1911     0.2234
  601.5000   -51.4972     8.8984    11.4365    68.5112     9.4648     2.3623     0.1946     0.2431
  602.0000   -51.5253     8.9304    11.4481    66.7132     9.4825     2.3557     0.1983     0.2631
  602.5000   -51.5534     8.9627    11.4598    64.9825     9.4992     2.3570     0.1997     0.2832
  603.0000   -51.5814     8.9821    11.4714    64.5702     9.5158     2.3865     0.1648     0.3032
  603.5000   -51.6095     8.9821    11.4831    67.1625     9.5325     2.4185     0.1479     0.2927
  604.0000   -51.6376     8.9821    11.4948    69.8593     9.5492     2.4351     0.1496     0.2791
  604.5000   -51.6659     8.9821    11.5065    72.5698     9.5659     2.4330     0.1524     0.2655
  605.0000   -51.6704     8.9821    11.5146    73.1631     9.5809     2.4291     0.1493     0.2588
  605.5000   -51.6704     8.9821    11.4992    71.0130     9.5821     2.4325     0.1422     0.2545
  606.0000   -51.6704     8.9821    11.4866    71.3450     9.5998     2.4495     0.1350     0.2393
  606.5000   -51.6703     8.9821    11.4740    71.7587     9.6174     2.4659     0.1284     0.2244
  607.0000   -51.6704     8.9821    11.4614    71.3413     9.6349     2.4717     0.1272     0.2095
  607.5000   -51.6704     8.9821    11.4488    70.6670     9.6524     2.4696     0.1288     0.1946
  608.0000   -51.6704     8.9821    11.4362    70.3576     9.6698     2.4641     0.1321     0.1798
  608.5000   -51.6656     8.9821    11.4236    73.8436     9.6873     2.4522     0.1353     0.1649
  609.0000   -51.6295     8.9821    11.4111    76.4624     9.7048     2.4513     0.1385     0.1501
  609.5000   -51.5934     8.9821    11.3985    76.3678     9.7222     2.4466     0.1416     0.1352
  610.0000   -51.5574     8.9821    11.3860    76.3148     9.7397     2.4370     0.1492     0.1203
  610.5000   -51.5211     8.9821    11.3735    76.2701     9.7571     2.4275     0.1559     0.1054
  611.0000   -51.4862     8.9821    11.3610    76.2055     9.7746     2.4222     0.1542     0.1027
  611.5000   -51.3695     8.9821    11.3485    77.3650     9.7923     2.4226     0.1574     0.1020
  612.0000   -51.2062     8.9821    11.3361    78.6707     9.8208     2.4193     0.1640     0.1037
  612.5000   -51.0419     8.9821    11.3239    75.6412     9.8637     2.4109     0.1703     0.1148
  613.0000   -50.8774     8.9821    11.3050    72.3450     9.9063     2.4025     0.1738     0.1255
  613.5000   -50.7131     8.9822    11.3612    70.3399     9.9490     2.3941     0.1760     0.1362
  614.0000   -50.5488     8.9821    11.5328    69.0055     9.9917     2.3906     0.1758     0.1470
  614.5000   -50.3845     8.9815    11.7074    67.9930    10.0344     2.4054     0.1626     0.1580
  615.0000   -50.2203     9.0871    11.8846    68.1313    10.0770     2.4255     0.1456     0.1507
  615.5000   -50.0370     9.1792    12.0645    68.3758    10.1197     2.4350     0.1606     0.1403
  616.0000   -49.7579     9.2322    12.2471    67.5615    10.1624     2.4101     0.1786     0.1300
  616.5000   -49.4750     9.3457    12.2812    60.8693    10.2051     2.3659     0.1965     0.1196
  617.0000   -49.1931     9.4842    12.4735    54.1334    10.2478     2.3453     0.2145     0.1094
  617.5000   -48.9097     9.6252    12.7416    48.4177    10.2905     2.3314     0.2324     0.1047
  618.0000   -48.5565     9.7576    13.3396    46.5983    10.3331     2.2944     0.2503     0.1081
  618.5000   -47.8761    10.0353    14.0683    46.8335    10.3758     2.2648     0.2539     0.1117
  619.0000   -47.2032    10.3172    14.8369    48.9987    10.4185     2.2653     0.2482     0.1231
