~VERSION INFORMATION
 VERS.                2.0:   CWLS LOG ASCII STANDARD - VERSION 2.0
 WRAP.                 NO:   ONE LINE PER DEPTH STEP
~WELL INFORMATION
#MNEM.UNIT      DATA TYPE    INFORMATION
#----------   ------------   ------------------------------
 STRT.F           34.0000:   START DEPTH
 STOP.F          460.0000:   STOP DEPTH
 STEP.F            0.5000:   STEP LENGTH
 NULL.          -999.2500:   NO VALUE
 COMP. FENIX & SCISSON INC:   COMPANY
 WELL.     SX 3 FO #46--3:   WELL
 FLD .              NPR 3:   FIELD
 LOC .       S3 T38N R78W:   LOCATION
 CNTY.            NATRONA:   COUNTY
 STAT.            WYOMING:   STATE
 CTRY. UNITED STATES OF AMERICA:   COUNTRY
 SRVC.              Welex:   SERVICE COMPANY
 DATE.        10-JUL-1981:   LOGDATE
 API .       490251086000:   API NUMBER
~CURVE INFORMATION
#MNEM.UNIT       API CODE    CURVE DESCRIPTION
#----------   ------------   ------------------------------
 DEPT.F                  :   
 GRD .GAPI   45 310 01 00:   GAMMA RAY FROM DENSITY LOG
 CALD.IN     45 280 60 00:   CALIPER
 RHOB.G/C3   45 350 01 00:   BULK DENSITY
 DPHI.DEC    45 890 12 00:   DENSITY POROSITY SANDSTONE
 CORR.G/C3   45 356 01 00:   DENSITY CORRECTION
~PARAMETER INFORMATION
#MNEM.UNIT          VALUE    DESCRIPTION
#----------   ------------   ------------------------------
 PD  .                 GL:   PERMANENT DATUM
 EPD .F              5168:   ELEVATION PERMANENT DATUM
 LMF .                 KB:   LOG MEASURED FROM
 DAPD.F                 5:   FEET ABOVE PERMANENT DATUM
 DMF .                 KB:   DRILLING MEASURED FROM
 EKB .F              5173:   KELLING BUSHING
 EGL .F              5168:   GROUND LEVEL
 DATE.            7-10-80:   RUN DATE
 RUN .                  1:   RUN NUMBER
 DD  .F               470:   DEPTH DRILLER
 DL  .F               468:   DEPTH LOGGER
 BLI .F               460:   BOTTOM LOG INTERVAL
 TLI .F                46:   TOP LOG INTERVAL
 CS  .IN                7:   CASING SIZE
 CBD .F                46:   CASING BOTTOM DRILLER
 BS  .IN             6.25:   BIT SIZE
 BSD .F               470:   BIT SIZE AT DEPTH
 DFT .        AIR DRILLED:   DRILLING FLUID TYPE
 BHT .F                75:   BOTTOM HOLE TEMPERATURE
 TCS .HRS               2:   TIME CURCULATED STOPPED
 MRT .F                75:   MAXIMUM RECORDED TEMPERATURE
 ENGI.    JOYNER/PFRIMMER:   RECORDING ENGINEER
 WITN.              AMEND:   WITNESSED BY
 CLNT.            A2DTECH:   CLIENT CODE
 ORIG.           5" PRINT:   ORIGIN OF DATA
 UWI .       490251086000:   UNIQUE WELL ID
 DICO. A2D Technologies, Inc.:   DIGITIZING COMPANY
~OTHER INFORMATION
~A   DEPT       GRD      CALD       RHOB       DPHI       CORR   
# ...
  217.0000   120.1250     6.3056     2.5494     0.0784     0.1293
  217.5000   119.5389     6.3056     2.5370     0.0869     0.1146
  218.0000   118.6290     6.3083     2.5243     0.0940     0.1000
  218.5000   116.8392     6.3108     2.5115     0.1011     0.0853
  219.0000   115.0697     6.3134     2.5068     0.1030     0.0723
  219.5000   113.6580     6.3160     2.5214     0.0994     0.0779
  220.0000   114.2079     6.3185     2.5334     0.0922     0.0867
  220.5000   115.6608     6.3212     2.5454     0.0849     0.0956
  221.0000   115.6454     6.3240     2.5558     0.0774     0.1047
  221.5000   115.1554     6.3197     2.5516     0.0778     0.1045
  222.0000   114.7708     6.3058     2.5445     0.0802     0.0912
  222.5000   115.5317     6.3059     2.5425     0.0795     0.0941
  223.0000   114.6608     6.2917     2.5486     0.0766     0.1165
  223.5000   114.1662     6.3017     2.5367     0.0844     0.1080
  224.0000   115.3262     6.3121     2.5150     0.0971     0.0942
  224.5000   114.6969     6.3229     2.5002     0.1074     0.0880
  225.0000   114.8855     6.3221     2.5025     0.1072     0.0868
  225.5000   116.2135     6.3189     2.5050     0.1067     0.0901
  226.0000   117.4730     6.3157     2.5064     0.1006     0.0992
  226.5000   117.8975     6.3125     2.5034     0.0970     0.1025
  227.0000   117.9864     6.3093     2.5003     0.1050     0.1026
  227.5000   117.2093     6.3060     2.5130     0.1074     0.1033
  228.0000   116.8789     6.3077     2.5270     0.0918     0.1188
  228.5000   119.2147     6.3123     2.5234     0.0926     0.1323
  229.0000   121.9930     6.3169     2.5287     0.0922     0.1428
  229.5000   123.0331     6.3215     2.5215     0.0915     0.1413
  230.0000   121.4326     6.3262     2.5262     0.0942     0.1407
  230.5000   119.8679     6.3308     2.5103     0.1040     0.1189
  231.0000   118.2977     6.3355     2.4862     0.1136     0.0958
  231.5000   116.7150     6.3402     2.4803     0.1206     0.0748
  232.0000   116.1003     6.3444     2.4755     0.1188     0.0769
  232.5000   115.8430     6.3414     2.4645     0.1239     0.0820
  233.0000   115.7135     6.3381     2.4657     0.1278     0.0870
  233.5000   115.5965     6.3349     2.4771     0.1220     0.0886
  234.0000   115.2527     6.3316     2.4870     0.1178     0.0811
  234.5000   113.2143     6.3284     2.4962     0.1098     0.0739
  235.0000   111.1362     6.3250     2.5053     0.1010     0.0666
  235.5000   110.4424     6.3307     2.5119     0.0981     0.0593
  236.0000   110.6345     6.3379     2.5055     0.1103     0.0520
  236.5000   109.3687     6.3443     2.4993     0.1124     0.0448
  237.0000   108.3420     6.3407     2.4928     0.1130     0.0384
  237.5000   108.9253     6.3368     2.4921     0.1095     0.0385
  238.0000   110.0108     6.3329     2.5014     0.1052     0.0458
  238.5000   110.6003     6.3291     2.5131     0.1010     0.0588
  239.0000   110.5969     6.3253     2.5205     0.0968     0.0687
  239.5000   110.5710     6.3270     2.5123     0.0946     0.0665
  240.0000   112.0270     6.3322     2.5043     0.1054     0.0634
  240.5000   114.1459     6.3373     2.4964     0.1134     0.0593
  241.0000   116.2939     6.3424     2.4884     0.1190     0.0586
  241.5000   118.4366     6.3475     2.4807     0.1196     0.0602
  242.0000   120.5548     6.3526     2.4824     0.1190     0.0622
  242.5000   121.2781     6.3577     2.4933     0.1098     0.0523
  243.0000   115.5112     6.3633     2.5081     0.0999     0.0509
  243.5000   111.8331     6.3435     2.5227     0.0930     0.0607
  244.0000   111.9472     6.3130     2.5374     0.0878     0.0708
  244.5000   113.2682     6.2856     2.5514     0.0825     0.0789
  245.0000   113.6268     6.2924     2.5567     0.0773     0.0747
  245.5000   110.3501     6.2997     2.5576     0.0750     0.0701
  246.0000   109.6437     6.3045     2.5483     0.0781     0.0655
  246.5000   111.2709     6.2955     2.5394     0.0810     0.0608
  247.0000   112.8424     6.2867     2.5343     0.0830     0.0567
  247.5000   114.4073     6.2780     2.5378     0.0830     0.0584
  248.0000   113.5566     6.2694     2.5403     0.0796     0.0678
  248.5000   113.2865     6.2671     2.5467     0.0765     0.0784
  249.0000   114.5958     6.2714     2.5575     0.0742     0.0890
  249.5000   114.9781     6.2757     2.5696     0.0662     0.0984
  250.0000   113.8885     6.2801     2.5601     0.0723     0.0927
  250.5000   112.7006     6.2844     2.5457     0.0809     0.0808
  251.0000   111.5242     6.2849     2.5308     0.0897     0.0690
  251.5000   111.3955     6.2845     2.5262     0.0958     0.0626
  252.0000   111.6226     6.2837     2.5355     0.0913     0.0722
  252.5000   110.3649     6.3139     2.5442     0.0871     0.0812
  253.0000   109.0063     6.3343     2.5529     0.0829     0.0902
  253.5000   107.9918     6.3542     2.5618     0.0787     0.0991
  254.0000   108.7241     6.3592     2.5627     0.0778     0.1002
  254.5000   109.0820     6.3481     2.5509     0.0826     0.0914
  255.0000   106.6199     6.3370     2.5428     0.0863     0.0827
  255.5000   104.8225     6.3258     2.5346     0.0901     0.0745
  256.0000   105.1100     6.3326     2.5337     0.0900     0.0770
  256.5000   105.6719     6.3418     2.5345     0.0891     0.0844
  257.0000   105.8086     6.3449     2.5344     0.0886     0.0904
  257.5000   105.3734     6.3322     2.5312     0.0909     0.0965
  258.0000   105.3985     6.3179     2.5280     0.0936     0.0987
  258.5000   110.0978     6.3058     2.5248     0.0943     0.1010
  259.0000   111.9404     6.3244     2.5217     0.0938     0.1033
  259.5000   112.5975     6.3433     2.5182     0.0980     0.1048
  260.0000   113.6437     6.3621     2.5090     0.1021     0.0970
  260.5000   117.4450     6.3650     2.5078     0.1074     0.0876
  261.0000   112.1328     6.3516     2.5272     0.0958     0.0792
  261.5000   105.5954     6.3355     2.5504     0.0770     0.0900
  262.0000   104.9195     6.3099     2.5553     0.0754     0.1015
  262.5000   104.9864     6.3130     2.5604     0.0742     0.1129
  263.0000   103.7362     6.3219     2.5691     0.0704     0.1243
  263.5000   101.5841     6.3159     2.5736     0.0658     0.1357
  264.0000    99.7273     6.3029     2.5678     0.0641     0.1472
  264.5000   100.4141     6.2895     2.5649     0.0675     0.1583
  265.0000   100.2987     6.2867     2.5600     0.0725     0.1585
  265.5000    97.3495     6.2951     2.5505     0.0785     0.1574
  266.0000    94.4825     6.3035     2.5411     0.0844     0.1571
  266.5000    91.6174     6.3050     2.5314     0.0903     0.1640
  267.0000    88.8971     6.2973     2.5273     0.0951     0.1731
  267.5000    86.4222     6.2881     2.5180     0.1002     0.1814
  268.0000    80.8387     6.2846     2.5048     0.1076     0.1815
  268.5000    73.6424     6.2966     2.4914     0.1154     0.1741
  269.0000    66.3455     6.3048     2.4779     0.1230     0.1665
  269.5000    61.6306     6.3018     2.4685     0.1283     0.1560
  270.0000    61.2096     6.2866     2.4587     0.1315     0.1443
  270.5000    64.6335     6.2716     2.4418     0.1446     0.1327
  271.0000    67.5728     6.2569     2.4021     0.1600     0.1217
  271.5000    70.5167     6.2436     2.3843     0.1761     0.1170
  272.0000    72.9672     6.2787     2.3681     0.1934     0.1169
  272.5000    70.9540     6.3082     2.3545     0.1916     0.1253
  273.0000    68.5085     6.3397     2.3652     0.1896     0.1347
  273.5000    66.0944     6.3245     2.3606     0.1918     0.1441
  274.0000    64.4658     6.3001     2.3694     0.1838     0.1507
  274.5000    65.4373     6.2921     2.3732     0.1891     0.1465
  275.0000    64.1539     6.3111     2.3439     0.1995     0.1324
  275.5000    64.1614     6.3296     2.3387     0.2030     0.1185
  276.0000    64.4494     6.3434     2.3540     0.1960     0.1082
  276.5000    64.4474     6.3338     2.3682     0.1869     0.1170
  277.0000    65.0024     6.3250     2.3823     0.1781     0.1261
  277.5000    65.8747     6.3246     2.3926     0.1730     0.1352
