~VERSION INFORMATION
 VERS.                2.0:   CWLS LOG ASCII STANDARD - VERSION 2.0
 WRAP.                 NO:   ONE LINE PER DEPTH STEP
~WELL INFORMATION
#MNEM.UNIT      DATA TYPE    INFORMATION
#----------   ------------   ------------------------------
 STRT.F           29.0000:   START DEPTH
 STOP.F          503.0000:   STOP DEPTH
 STEP.F            0.5000:   STEP LENGTH
 NULL.          -999.2500:   NO VALUE
 COMP. FENIX & SCISSON INC:   COMPANY
 WELL.      78 SX 3 #78-3:   WELL
 FLD .             TEAPOT:   FIELD
 LOC .       S3 T38N R78W:   LOCATION
 CNTY.            NATRONA:   COUNTY
 STAT.            WYOMING:   STATE
 CTRY. UNITED STATES OF AMERICA:   COUNTRY
 SRVC.            Unknown:   SERVICE COMPANY
 DATE.        17-OCT-1978:   LOGDATE
 API .       490251072400:   API NUMBER
~CURVE INFORMATION
#MNEM.UNIT       API CODE    CURVE DESCRIPTION
#----------   ------------   ------------------------------
 DEPT.F                  :   
 CALD.IN     45 280 60 00:   CALIPER
 GRD .GAPI   45 310 01 00:   GAMMA RAY FROM DENSITY LOG
 CORR.G/C3   45 356 01 00:   DENSITY CORRECTION
 RHOB.G/C3   45 350 01 00:   BULK DENSITY
 DPHI.DEC    45 890 12 00:   DENSITY POROSITY SANDSTONE
 SPR .MV     05 010 01 00:   SPONTANEOUS POTENTIAL FROM RES.
 IL  .OHMM   05 120 00 00:   INDUCTION LOG
 SN  .OHMM   05 040 16 00:   SHORT NORMAL 16"
~PARAMETER INFORMATION
#MNEM.UNIT          VALUE    DESCRIPTION
#----------   ------------   ------------------------------
 PD  .                 GL:   PERMANENT DATUM
 EPD .F              5154:   ELEVATION PERMANENT DATUM
 LMF .                 KB:   LOG MEASURED FROM
 DAPD.F                 4:   FEET ABOVE PERMANENT DATUM
 DMF .                 KB:   DRILLING MEASURED FROM
 EKB .F              5158:   KELLING BUSHING
 EGL .F              5154:   GROUND LEVEL
 DATE.           10-17-78:   RUN DATE
 RUN .                  1:   RUN NUMBER
 DD  .F               498:   DEPTH DRILLER
 DL  .F               503:   DEPTH LOGGER
 BLI .F               497:   BOTTOM LOG INTERVAL
 TLI .F                46:   TOP LOG INTERVAL
 CS  .IN            8.625:   CASING SIZE
 CBD .F                40:   CASING BOTTOM DRILLER
 BS  .IN            7.875:   BIT SIZE
 BSD .F               498:   BIT SIZE AT DEPTH
 DFT .                KCL:   DRILLING FLUID TYPE
 DFD .                8.7:   DRILLING FLUID DENSITY
 DFV .                 38:   DRILLING FLUID VISCOSITY
 DFPH.                  9:   DRILLING FLUID PH
 DFL .                9.6:   DRILLING FLUID LOSS
 MSS .          FLOW LINE:   MUD SAMPLE SOURCE
 RMS .OHMM             .2:   RESISTIVITY MUD SAMPLE
 MST .F                52:   MUD SAMPLE TEMPERATURE
 RMF .OHMM            .18:   RESISTIVITY MUD FILTRATE SAMPLE
 MFST.F                58:   MUD FILTRATE SAMPLE TEMPERATURE
 RMC .OHMM            .16:   RESISTIVITY MUD CAKE
 MCST.F                64:   MUD CAKE SAMPLE TEMPERATURE
 MFSS.               MEAS:   MUD FILTRATE SAMPLE SOURCE
 MCSS.               MEAS:   MUD CAKE SAMPLE SOURCE
 TCS .HRS               1:   TIME CURCULATED STOPPED
 MRT .F                72:   MAXIMUM RECORDED TEMPERATURE
 LUN .               2958:   LOGGING UNIT NUMBER
 LUL .               CASP:   LOGGING UNIT LOCATION
 ENGI.             MILLER:   RECORDING ENGINEER
 WITN.           DINSMORE:   WITNESSED BY
 CLNT.            A2DTECH:   CLIENT CODE
 ORIG.           5" PRINT:   ORIGIN OF DATA
 UWI .       490251072400:   UNIQUE WELL ID
 DICO. A2D Technologies, Inc.:   DIGITIZING COMPANY
~OTHER INFORMATION
~A   DEPT     CALD         GRD      CORR       RHOB       DPHI        SPR         IL         SN   
# ...
  474.5000     7.9330   133.0871     0.0431     2.5532     0.0632   -13.6407    10.0870     9.2032
  475.0000     7.9556   130.8900     0.0427     2.5576     0.0632   -13.7231    10.0755     9.1941
  475.5000     7.9542   130.1852     0.0393     2.5575     0.0656   -13.7914    10.0639     9.1849
  476.0000     7.9543   129.9147     0.0360     2.5499     0.0680   -13.7899    10.0524     9.1758
  476.5000     7.9543   129.7183     0.0327     2.5422     0.0714   -13.7897    10.0409     9.1667
  477.0000     7.9543   129.8680     0.0293     2.5346     0.0768   -13.7897    10.0294     9.1575
  477.5000     7.9543   130.3882     0.0263     2.5269     0.0823   -13.7897    10.0179     9.1484
  478.0000     7.9543   138.1760     0.0259     2.5193     0.0880   -13.7897    10.0065     9.1389
  478.5000     7.9543   146.1376     0.0254     2.5189     0.0864   -13.7897     9.9950     9.1111
  479.0000     7.9542   147.3517     0.0249     2.5195     0.0857   -13.7897     9.9836     9.0729
  479.5000     7.9549   142.0717     0.0243     2.5210     0.0853   -13.7893     9.9722     9.0352
  480.0000     7.9694   132.5981     0.0288     2.5225     0.0850   -13.7878     9.9607     8.9976
  480.5000     7.9748   130.3496     0.0345     2.5240     0.0824   -13.7982     9.9490     8.9602
  481.0000     7.9745   129.7882     0.0402     2.5271     0.0782   -14.1448     9.9378     8.9230
  481.5000     7.9744   132.5341     0.0460     2.5326     0.0749   -14.3878     9.9266     8.8859
  482.0000     7.9744   138.2566     0.0516     2.5368     0.0755   -14.3844     9.7089     8.8490
  482.5000     7.9744   139.2849     0.0440     2.5328     0.0791   -14.3851     9.4602     8.8122
  483.0000     7.9743   139.6998     0.0360     2.5271     0.0835   -14.3849     9.2178     8.6131
  483.5000     7.9762   140.1112     0.0280     2.5209     0.0878   -14.3849     8.9816     8.3885
  484.0000     7.9782   140.5291     0.0206     2.5147     0.0922   -14.3849     8.7515     8.1697
  484.5000     7.9802   140.9310     0.0199     2.5085     0.0965   -14.3849     8.5272     7.9567
  485.0000     7.9822   141.0958     0.0194     2.5023     0.1008   -14.3848     8.3612     7.7524
  485.5000     7.9843   141.2697     0.0189     2.4961     0.1051   -14.3846     8.2094     7.4878
  486.0000     7.9863   141.4444     0.0185     2.4899     0.1091   -14.3787     8.0626     7.0745
  486.5000     7.9883   141.6200     0.0203     2.4839     0.1131   -14.6328     7.6074     6.6797
  487.0000     7.9904   141.7605     0.0221     2.4767     0.1233   -14.7662     6.9934     6.3031
  487.5000     7.9927   141.8888     0.0238     2.4481     0.1484   -14.7470     6.4290     5.8417
  488.0000     7.9894   141.4953     0.0256     2.4048     0.1734   -14.7248     5.9101     5.3609
  488.5000     7.9750   140.8519     0.0301     2.3576     0.1985   -14.7020     5.4331     4.9197
  489.0000     7.9737   137.4664     0.0374     2.3106     0.2236   -14.6795     4.9946     4.4986
  489.5000     7.9701   133.8668     0.0447     2.2631     0.2485   -14.6570     4.5915     4.0903
  490.0000     7.9665   130.2107     0.0520     2.2206     0.2672   -14.6345     4.2209     3.7191
  490.5000     7.9629   128.5100     0.0523     2.2157     0.2779   -14.6119     3.8802     3.6159
  491.0000     7.9592   128.3798     0.0523     2.2164     0.2648   -14.5878     3.7094     3.6085
  491.5000     7.9556   131.2898     0.0429     2.2689     0.2240   -14.5821     3.7783     3.6627
  492.0000     7.9520   134.2081     0.0260     2.3836     0.1831   -14.6349     4.2394     3.8273
  492.5000     7.9483   134.4075     0.0278     2.4373     0.1423   -15.0747     4.7902     4.3760
  493.0000     7.9447   134.5468     0.0368     2.5256     0.1015   -15.1774     5.4125     5.0079
  493.5000     7.9411   137.5366     0.0388     2.5206     0.0847   -15.1798     6.1519     5.6631
  494.0000     7.9374   147.4247     0.0299     2.5241     0.0845   -15.1788     6.6396     6.3240
  494.5000     7.9338   128.4943     0.0264     2.5233     0.0856   -15.1784     7.0928     6.8232
  495.0000     7.9302   128.8621     0.0314     2.5206     0.0869   -15.1765     7.3943     7.2739
  495.5000     7.9265   129.8190     0.0394     2.5180     0.0871   -15.1729     7.6205     7.5176
  496.0000     7.9229   129.8964     0.0438     2.5175     0.0874   -15.2866     7.8861     7.7646
  496.5000     7.9193   129.9013     0.0462     2.5171     0.0876   -16.4807     8.0057     7.9778
  497.0000     7.9156   129.9000     0.0485     2.5166     0.0878   -17.8577     8.1362     8.1488
  497.5000     7.9120   129.9000     0.0508     2.5162     0.0877  -999.2500  -999.2500  -999.2500
  498.0000     7.9084   129.9000     0.0532     2.5147     0.0865  -999.2500  -999.2500  -999.2500
  498.5000     7.9047   129.9000     0.0580     2.5119     0.0853  -999.2500  -999.2500  -999.2500
  499.0000     7.9011   129.9000     0.0659     2.5155     0.0842  -999.2500  -999.2500  -999.2500
  499.5000     7.8975   129.9000     0.0737     2.5250     0.0786  -999.2500  -999.2500  -999.2500
  500.0000     7.8942   129.9000     0.0816     2.5345     0.0724  -999.2500  -999.2500  -999.2500
  500.5000  -999.2500  -999.2500     0.0895     2.5440     0.0649  -999.2500  -999.2500  -999.2500
  501.0000  -999.2500  -999.2500     0.0958     2.5538     0.0564  -999.2500  -999.2500  -999.2500
  501.5000  -999.2500  -999.2500     0.0962     2.5673     0.0558  -999.2500  -999.2500  -999.2500
  502.0000  -999.2500  -999.2500     0.0962     2.5688     0.0576  -999.2500  -999.2500  -999.2500
  502.5000  -999.2500  -999.2500     0.0962     2.5688     0.0576  -999.2500  -999.2500  -999.2500
  503.0000  -999.2500  -999.2500     0.0962     2.5688     0.0576  -999.2500  -999.2500  -999.2500
