~VERSION INFORMATION
 VERS.                2.0:   CWLS LOG ASCII STANDARD - VERSION 2.0
 WRAP.                 NO:   ONE LINE PER DEPTH STEP
~WELL INFORMATION
#MNEM.UNIT      DATA TYPE    INFORMATION
#----------   ------------   ------------------------------
 STRT.F           30.0000:   START DEPTH
 STOP.F          515.0000:   STOP DEPTH
 STEP.F            0.5000:   STEP LENGTH
 NULL.          -999.2500:   NO VALUE
 COMP. FENIX & SCISSON INC:   COMPANY
 WELL.      FP SX-3 #63-3:   WELL
 FLD .              NPR 3:   FIELD
 LOC .       S3 T38N R78W:   LOCATION
 CNTY.            NATRONA:   COUNTY
 STAT.            WYOMING:   STATE
 CTRY. UNITED STATES OF AMERICA:   COUNTRY
 SRVC.              Welex:   SERVICE COMPANY
 DATE.        21-JUN-1980:   LOGDATE
 API .       490251082100:   API NUMBER
~CURVE INFORMATION
#MNEM.UNIT       API CODE    CURVE DESCRIPTION
#----------   ------------   ------------------------------
 DEPT.F                  :   
 SPR .MV     07 010 01 00:   SPONTANEOUS POTENTIAL
 SGRD.OHMM   07 220 05 00:   SHALLOW GUARD RESISTIVITY
 ILD .OHMM   07 120 46 00:   INDUCTION LOG DEEP RESISTIVITY
 ILM .OHMM   07 120 44 00:   INDUCTION LOG MEDIUM
 CALD.IN     45 280 60 00:   CALIPER
 GRD .GAPI   45 310 01 00:   GAMMA RAY FROM DENSITY LOG
 CORR.G/C3   45 356 01 00:   DENSITY CORRECTION
 RHOB.G/C3   45 350 01 00:   BULK DENSITY
 DPHI.DEC    45 890 12 00:   DENSITY POROSITY SANDSTONE
 NPHI.DEC    42 890 03 00:   NEUTRON POROSITY SANDSTONE
~PARAMETER INFORMATION
#MNEM.UNIT          VALUE    DESCRIPTION
#----------   ------------   ------------------------------
 PD  .                 GL:   PERMANENT DATUM
 EPD .F              5160:   ELEVATION PERMANENT DATUM
 LMF .                 KB:   LOG MEASURED FROM
 DAPD.F                 5:   FEET ABOVE PERMANENT DATUM
 DMF .                 KB:   DRILLING MEASURED FROM
 EKB .F              5165:   KELLING BUSHING
 EGL .F              5160:   GROUND LEVEL
 DATE.            6-21-80:   RUN DATE
 RUN .                  1:   RUN NUMBER
 DD  .F               508:   DEPTH DRILLER
 DL  .F               517:   DEPTH LOGGER
 BLI .F               515:   BOTTOM LOG INTERVAL
 TLI .F                35:   TOP LOG INTERVAL
 BS  .IN            9.875:   BIT SIZE
 BSD .F               508:   BIT SIZE AT DEPTH
 DFT .            KCL MUD:   DRILLING FLUID TYPE
 DFD .                9.2:   DRILLING FLUID DENSITY
 DFV .                 50:   DRILLING FLUID VISCOSITY
 DFPH.                8.5:   DRILLING FLUID PH
 DFL .                  8:   DRILLING FLUID LOSS
 MSS .           FLOWLINE:   MUD SAMPLE SOURCE
 RMS .OHMM            .42:   RESISTIVITY MUD SAMPLE
 MST .F                63:   MUD SAMPLE TEMPERATURE
 RMF .OHMM            .34:   RESISTIVITY MUD FILTRATE SAMPLE
 MFST.F                63:   MUD FILTRATE SAMPLE TEMPERATURE
 RMC .OHMM             .5:   RESISTIVITY MUD CAKE
 MCST.F                63:   MUD CAKE SAMPLE TEMPERATURE
 MFSS.           MEASURED:   MUD FILTRATE SAMPLE SOURCE
 MCSS.           MEASURED:   MUD CAKE SAMPLE SOURCE
 RMB .OHMM            .35:   RESISTIVITY MUD AT BHT
 BHT .F                75:   BOTTOM HOLE TEMPERATURE
 TCS .HRS             1.5:   TIME CURCULATED STOPPED
 MRT .F                75:   MAXIMUM RECORDED TEMPERATURE
 LUN .               9685:   LOGGING UNIT NUMBER
 LUL .             CASPER:   LOGGING UNIT LOCATION
 ENGI.            TOTHILL:   RECORDING ENGINEER
 WITN.           DINSMORE:   WITNESSED BY
 CLNT.            A2DTECH:   CLIENT CODE
 ORIG.           5" PRINT:   ORIGIN OF DATA
 UWI .       490251082100:   UNIQUE WELL ID
 DICO. A2D Technologies, Inc.:   DIGITIZING COMPANY
~OTHER INFORMATION
~A   DEPT      SPR       SGRD        ILD        ILM        CALD       GRD         CORR       RHOB       DPHI       NPHI 
# ...
  365.0000   -24.9945    10.0539     8.9785     8.5188    10.0381    87.3514     0.1102     2.4588     0.1489     0.2429
  365.5000   -24.7548    10.0744     9.0050     8.4073    10.0381    87.8576     0.1145     2.4539     0.1593     0.2450
  366.0000   -24.5138    10.0950     9.0352     8.2973    10.0380    88.6031     0.0941     2.4376     0.1697     0.2444
  366.5000   -24.3927    10.1155     9.0655     8.1887    10.0379    89.3501     0.0704     2.4157     0.1729     0.2483
  367.0000   -24.3933    10.1341     9.0957     8.0823    10.0387    90.0796     0.0581     2.3937     0.1746     0.2522
  367.5000   -24.4008     9.9732     9.1291     8.0135    10.0532    90.6089     0.0524     2.3853     0.1759     0.2554
  368.0000   -23.9887     9.7635     9.2374     7.9526    10.0586    90.2012     0.0521     2.3807     0.1719     0.2584
  368.5000   -23.4239     9.9431     9.1897     7.9545    10.0580    89.5522     0.0602     2.3786     0.1757     0.2592
  369.0000   -22.8573    10.3245     9.0562     8.4081    10.0507    88.8941     0.0694     2.3831     0.1822     0.2591
  369.5000   -22.3631    10.3954     8.9246     8.9309    10.0433    88.2344     0.0684     2.3827     0.1900     0.2543
  370.0000   -22.0029    10.5875     8.8128     9.4856    10.0359    87.4417     0.0613     2.3669     0.1951     0.2498
  370.5000   -21.2850    11.1978     8.8128    10.0745    10.0285    87.4130     0.0562     2.3512     0.1944     0.2468
  371.0000   -20.8179    12.0956     9.5160    10.3428    10.0212    87.3203     0.0615     2.3454     0.1962     0.2446
  371.5000   -20.2034    14.1185    10.5452    10.6723    10.0138    87.1864     0.0716     2.3460     0.1970     0.2423
  372.0000   -19.8754    16.6078    11.6857    11.4383    10.0064    86.2873     0.0816     2.3468     0.1982     0.2339
  372.5000   -19.6748    19.6309    12.9495    11.4383     9.9991    84.7515     0.0918     2.3473     0.2044     0.2203
  373.0000   -19.4818    20.4402    14.3462    11.6261     9.9917    83.1460     0.1023     2.3421     0.2109     0.2124
  373.5000   -19.2875    21.3093    15.5074    12.1370     9.9844    81.5397     0.1026     2.3335     0.2138     0.2127
  374.0000   -19.0203    22.2153    16.4469    12.6776     9.9770    79.9354     0.0986     2.3200     0.2094     0.2182
  374.5000   -18.4053    22.7852    17.5359    12.9095     9.9696    78.3210     0.0969     2.3176     0.2066     0.2237
  375.0000   -17.9033    22.5740    18.7110    13.0616     9.9623    77.0744     0.1011     2.3225     0.2110     0.2237
  375.5000   -17.9135    21.4494    19.4490    13.2154     9.9587    76.4219     0.1040     2.3276     0.2169     0.2237
  376.0000   -17.8552    19.9891    18.2215    13.2762     9.9609    75.7759     0.0913     2.3273     0.2111     0.2258
  376.5000   -17.5300    20.7211    18.6586    13.2762     9.9630    75.2758     0.0781     2.3120     0.2035     0.2292
  377.0000   -17.2098    21.7341    19.0901    13.3356     9.9651    74.8629     0.0790     2.3220     0.2018     0.2327
  377.5000   -16.9098    21.5470    18.5971    13.4321     9.9672    73.4982     0.0923     2.3346     0.1968     0.2357
  378.0000   -16.9003    23.2064    18.1280    13.5258     9.9694    71.8520     0.0926     2.3417     0.1924     0.2363
  378.5000   -16.9466    24.0946    17.9852    13.1217     9.9715    70.2545     0.0923     2.3452     0.1879     0.2368
  379.0000   -17.0135    21.1710    17.8327    12.8410     9.9736    68.8907     0.0952     2.3512     0.1788     0.2427
  379.5000   -17.0860    19.0827    17.6200    12.5633     9.9757    69.3330     0.1038     2.3575     0.1699     0.2494
  380.0000   -16.8930    19.0898    17.2313    12.2917     9.9779    70.1163     0.1145     2.3777     0.1673     0.2532
  380.5000   -16.5791    19.0884    16.8512    12.0956     9.9689    70.8978     0.1221     2.3915     0.1637     0.2531
  381.0000   -16.2628    19.0901    16.4795    12.2108     9.9577    71.7226     0.1145     2.3952     0.1598     0.2491
  381.5000   -16.0767    19.5413    16.1438    12.4745     9.9537    72.2499     0.1174     2.4023     0.1594     0.2456
  382.0000   -15.9407    20.4427    15.9942    12.7961     9.9492    72.3094     0.1221     2.4094     0.1612     0.2428
  382.5000   -16.1433    21.8125    15.8786    13.5621     9.9448    72.3613     0.1113     2.4056     0.1572     0.2369
  383.0000   -16.3402    23.4308    15.6990    14.3153     9.9404    72.4185     0.1060     2.4020     0.1516     0.2311
  383.5000   -16.5376    22.5950    15.7156    14.8459     9.9380    72.4755     0.1090     2.4104     0.1508     0.2284
  384.0000   -16.7355    21.3496    15.7390    13.6791     9.9385    73.3509     0.1128     2.4209     0.1574     0.2225
  384.5000   -16.9323    17.9180    15.7632    12.4921     9.9597    74.5382     0.1135     2.4209     0.1648     0.2157
  385.0000   -17.1110    16.2634    15.7871    11.4050     9.9822    75.6921     0.0932     2.4079     0.1675     0.2161
  385.5000   -16.9271    16.2949    15.8107    10.7164    10.0328    76.8435     0.0802     2.3943     0.1671     0.2276
  386.0000   -16.5877    16.8008    15.8343    10.9550    10.0837    77.9986     0.0855     2.3976     0.1757     0.2357
  386.5000   -16.2867    17.1415    15.8455    11.4208    10.1416    79.1808     0.0981     2.3887     0.1842     0.2357
  387.0000   -16.4174    17.2313    15.7263    11.5453    10.1799    79.6796     0.0950     2.3738     0.1916     0.2365
  387.5000   -16.6520    16.8034    15.6372    10.7739    10.1741    79.6327     0.0828     2.3586     0.1956     0.2406
  388.0000   -16.5864    16.4915    15.5486    10.4212    10.1385    78.6152     0.0748     2.3444     0.1986     0.2447
  388.5000   -16.3835    16.2949    15.4606    10.4212    10.1013    77.4240     0.0758     2.3460     0.1942     0.2477
  389.0000   -16.3523    16.2949    15.3734    10.2719    10.0648    76.2391     0.0793     2.3498     0.1991     0.2496
  389.5000   -16.7103    16.3790    15.2655    10.0128    10.0283    75.0547     0.0816     2.3367     0.2022     0.2480
  390.0000   -17.0685    16.4890    15.2681     9.8548     9.9913    73.8719     0.0708     2.3298     0.2014     0.2528
  390.5000   -17.4249    16.6012    15.0217    10.1340     9.9783    73.5842     0.0765     2.3398     0.1880     0.2529
  391.0000   -17.7232    15.7788    14.8173     9.8133     9.9768    74.5565     0.0855     2.3524     0.1828     0.2531
  391.5000   -17.5772    14.9848    14.6154     9.4945    10.0107    75.3767     0.0945     2.3650     0.1786     0.2560
  392.0000   -17.4097    15.7367    14.4164    10.3183    10.0347    76.1835     0.1025     2.3753     0.1792     0.2536
  392.5000   -17.4206    16.7308    14.2201    10.8167    10.0609    76.9972     0.0994     2.3752     0.1792     0.2534
  393.0000   -18.0438    17.5574    14.0265    10.6714    10.0936    77.8737     0.0964     2.3740     0.1836     0.2584
  393.5000   -18.6010    16.5687    13.8355    10.6171    10.0989    78.5024     0.0983     2.3730     0.1909     0.2562
  394.0000   -18.2762    15.8420    13.6523    11.0370    10.0860    78.1927     0.0872     2.3623     0.1982     0.2522
  394.5000   -17.8860    15.9968    13.7050    11.3292    10.0690    77.7933     0.0679     2.3447     0.1986     0.2483
  395.0000   -17.5063    16.0001    13.7890    10.8424    10.0592    77.3294     0.0629     2.3412     0.1986     0.2444
  395.5000   -17.9369    14.7156    13.8735    10.3878    10.0369    77.0890     0.0796     2.3477     0.1691     0.2440
  396.0000   -18.4483    15.2082    13.9585    10.2230    10.0422    77.2902     0.0973     2.3857     0.1688     0.2458
  396.5000   -18.4657    15.4094    14.0366    10.7164    10.0525    77.4570     0.0977     2.3895     0.1642     0.2472
  397.0000   -18.3374    14.8469    13.8990    10.0415    10.0629    77.6665     0.0958     2.3961     0.1591     0.2470
  397.5000   -18.2113    14.5719    13.7834     9.6730    10.0733    77.6053     0.1034     2.4068     0.1604     0.2468
  398.0000   -18.1080    14.5233    13.2762     9.9856    10.0837    77.5424     0.0956     2.4058     0.1604     0.2486
