~VERSION INFORMATION
 VERS.                2.0:   CWLS LOG ASCII STANDARD - VERSION 2.0
 WRAP.                 NO:   ONE LINE PER DEPTH STEP
~WELL INFORMATION
#MNEM.UNIT      DATA TYPE    INFORMATION
#----------   ------------   ------------------------------
 STRT.F           20.0000:   START DEPTH
 STOP.F          599.0000:   STOP DEPTH
 STEP.F            0.5000:   STEP LENGTH
 NULL.          -999.2500:   NO VALUE
 COMP. FENIX & SCISSON INC:   COMPANY
 WELL.    47 SX 34 #47-34:   WELL
 FLD .             TEAPOT:   FIELD
 LOC .      S34 T39N R78W:   LOCATION
 CNTY.            NATRONA:   COUNTY
 STAT.            WYOMING:   STATE
 CTRY. UNITED STATES OF AMERICA:   COUNTRY
 SRVC.       Schlumberger:   SERVICE COMPANY
 DATE.        24-JAN-1979:   LOGDATE
 API .       490251077000:   API NUMBER
~CURVE INFORMATION
#MNEM.UNIT       API CODE    CURVE DESCRIPTION
#----------   ------------   ------------------------------
 DEPT.F                  :   
 SN  .OHMM   05 040 16 00:   SHORT NORMAL 16"
 ILD .OHMM   05 120 46 00:   INDUCTION LOG DEEP
 SPR .MV     05 010 01 00:   SPONTANEOUS POTENTIAL FROM RES.
 CALD.IN     45 280 60 00:   CALIPER
 GRD .GAPI   45 310 01 00:   GAMMA RAY FROM DENSITY LOG
 DPHI.DEC    45 890 12 00:   DENSITY POROSITY SANDSTONE
 CORR.G/C3   45 356 01 00:   DENSITY CORRECTION
 RHOB.G/C3   45 350 01 00:   BULK DENSITY
~PARAMETER INFORMATION
#MNEM.UNIT          VALUE    DESCRIPTION
#----------   ------------   ------------------------------
 PD  .                 GL:   PERMANENT DATUM
 EPD .F              5132:   ELEVATION PERMANENT DATUM
 LMF .                 KB:   LOG MEASURED FROM
 DAPD.F                 4:   FEET ABOVE PERMANENT DATUM
 DMF .                 KB:   DRILLING MEASURED FROM
 EKB .F              5136:   KELLING BUSHING
 EGL .F              5132:   GROUND LEVEL
 DATE.            1-24-79:   RUN DATE
 RUN .                  1:   RUN NUMBER
 DD  .F               600:   DEPTH DRILLER
 DL  .F               600:   DEPTH LOGGER
 BLI .F               594:   BOTTOM LOG INTERVAL
 TLI .F                28:   TOP LOG INTERVAL
 CS  .IN            8.625:   CASING SIZE
 CBD .F                40:   CASING BOTTOM DRILLER
 BS  .IN            7.875:   BIT SIZE
 BSD .F               600:   BIT SIZE AT DEPTH
 DFT .                KCL:   DRILLING FLUID TYPE
 DFD .                8.8:   DRILLING FLUID DENSITY
 DFV .                 60:   DRILLING FLUID VISCOSITY
 DFPH.                9.5:   DRILLING FLUID PH
 DFL .               10.8:   DRILLING FLUID LOSS
 MSS .           FLOWLINE:   MUD SAMPLE SOURCE
 RMS .OHMM            .22:   RESISTIVITY MUD SAMPLE
 MST .F                60:   MUD SAMPLE TEMPERATURE
 RMF .OHMM             .2:   RESISTIVITY MUD FILTRATE SAMPLE
 MFST.F                61:   MUD FILTRATE SAMPLE TEMPERATURE
 RMC .OHMM             .3:   RESISTIVITY MUD CAKE
 MCST.F                61:   MUD CAKE SAMPLE TEMPERATURE
 MFSS.           MEASURED:   MUD FILTRATE SAMPLE SOURCE
 MCSS.           MEASURED:   MUD CAKE SAMPLE SOURCE
 RMB .OHMM            .23:   RESISTIVITY MUD AT BHT
 BHT .F                58:   BOTTOM HOLE TEMPERATURE
 TCS .HRS               4:   TIME CURCULATED STOPPED
 MRT .F                58:   MAXIMUM RECORDED TEMPERATURE
 LUN .               3029:   LOGGING UNIT NUMBER
 LUL .             CASPER:   LOGGING UNIT LOCATION
 ENGI.         B. ROLLINS:   RECORDING ENGINEER
 WITN.         RICHARDSON:   WITNESSED BY
 CLNT.            A2DTECH:   CLIENT CODE
 ORIG.           5" PRINT:   ORIGIN OF DATA
 UWI .       490251077000:   UNIQUE WELL ID
 DICO. A2D Technologies, Inc.:   DIGITIZING COMPANY
~OTHER INFORMATION
~A   DEPT       SN        ILD        SPR         CALD       GRD        DPHI       CORR       RHOB 
# ...
  465.5000    11.2561    17.7013   -18.3086     8.0454    74.7923     0.2038     0.0039     2.3406
  466.0000    11.1757    17.6583   -18.6148     8.0129    78.6117     0.2089     0.0040     2.3312
  466.5000    11.0966    17.6154   -19.1149     7.9649    77.0405     0.2132     0.0039     2.3217
  467.0000    11.0180    17.5827   -19.6183     7.8440    75.5479     0.2121     0.0039     2.3233
  467.5000    10.9399    17.8265   -20.1218     7.7240    74.0475     0.2098     0.0095     2.3277
  468.0000    10.8625    18.0264   -20.6225     7.6311    73.0051     0.2016     0.0189     2.3403
  468.5000    10.7856    18.2286   -20.4613     7.6912    76.6611     0.1944     0.0283     2.3608
  469.0000    10.7092    18.4332   -19.9139     7.7490    81.2140     0.1892     0.0381     2.3647
  469.5000    10.6334    18.6426   -19.3592     7.8068    84.0551     0.1883     0.0399     2.3609
  470.0000    10.5550    18.7509   -19.8522     7.8603    80.8135     0.1901     0.0395     2.3567
  470.5000    10.3980    18.3372   -20.4996     7.7877    77.4464     0.1879     0.0391     2.3650
  471.0000    10.4151    18.0582   -21.0811     7.7078    75.1044     0.1830     0.0387     2.3763
  471.5000    10.3208    17.7624   -20.8661     7.6283    76.8588     0.1861     0.0384     2.3699
  472.0000    10.3432    17.4539   -20.6395     7.5660    79.8952     0.1893     0.0380     2.3597
  472.5000    10.3573    17.1507   -20.4229     7.6741    82.4398     0.1924     0.0392     2.3578
  473.0000    10.3713    16.8529   -20.6935     7.7891    79.9540     0.1890     0.0467     2.3589
  473.5000    10.3855    16.5602   -21.5192     7.9034    77.4575     0.1855     0.0540     2.3672
  474.0000    10.3989    16.2726   -22.3160     8.0188    77.8287     0.1820     0.0586     2.3752
  474.5000    10.4067    16.0747   -22.2406     8.0651    82.8491     0.1776     0.0504     2.3819
  475.0000    10.3314    15.9164   -21.8842     7.9839    85.1378     0.1776     0.0423     2.3827
  475.5000    10.2813    15.7596   -21.5185     7.8817    84.0118     0.1789     0.0343     2.3809
  476.0000    10.2314    15.6044   -21.1620     7.9228    82.2435     0.1830     0.0263     2.3707
  476.5000    10.1818    15.4507   -21.1048     8.0178    80.4531     0.1871     0.0183     2.3607
  477.0000    10.1324    15.3160   -21.2840     8.1141    78.6532     0.1904     0.0125     2.3558
  477.5000    10.0833    15.4651   -21.5292     8.2101    76.9136     0.1792     0.0163     2.3728
  478.0000    10.0344    15.5283   -21.7800     8.3069    78.2431     0.1744     0.0199     2.3918
  478.5000     9.9857    15.5917   -22.0303     8.3428    79.9243     0.1778     0.0234     2.3884
  479.0000     9.9373    15.6554   -22.3380     8.3434    81.5911     0.1820     0.0270     2.3798
  479.5000     9.8891    15.7193   -22.5089     8.3435    82.6421     0.1860     0.0305     2.3714
  480.0000     9.8411    15.7835   -22.6152     8.3442    81.0982     0.1855     0.0400     2.3631
  480.5000     9.7934    15.8491   -22.7143     8.3099    79.9843     0.1846     0.0528     2.3595
  481.0000     9.7459    15.8898   -22.8115     8.2692    85.1098     0.1799     0.0658     2.3833
  481.5000     9.6986    15.7255   -22.9137     8.2284    82.6127     0.1705     0.0626     2.3971
  482.0000     9.6516    15.4268   -23.5091     8.1876    80.2346     0.1717     0.0579     2.3928
  482.5000     9.6047    15.1344   -24.1534     8.1472    77.8529     0.1731     0.0580     2.3867
  483.0000     9.5582    14.8479   -24.7982     8.1267    75.4726     0.1727     0.0592     2.3885
  483.5000     9.5118    14.5668   -25.4474     8.1343    75.2974     0.1713     0.0549     2.3949
  484.0000     9.4684    14.2910   -26.0596     8.1416    79.3302     0.1645     0.0439     2.4015
  484.5000     9.4272    14.0608   -26.1571     8.1490    80.3792     0.1679     0.0319     2.3980
  485.0000     9.3862    13.8460   -25.6767     8.1563    88.6998     0.1721     0.0198     2.3893
  485.5000     9.3454    13.6344   -25.2475     8.1637    92.1251     0.1761     0.0180     2.3831
  486.0000     9.3048    13.4261   -24.8805     8.1710    86.9364     0.1673     0.0137     2.3955
  486.5000     9.2643    13.2210   -25.3219     8.1784    85.8542     0.1733     0.0074     2.4002
  487.0000     9.2240    13.0983   -25.8557     8.1858    84.8199     0.1781     0.0009     2.3845
  487.5000     9.1839    13.1338   -26.3906     8.1931    83.4592     0.1808    -0.0001     2.3731
  488.0000     9.1440    13.1695   -26.5890     8.2004    81.4905     0.1824     0.0047     2.3726
  488.5000     9.1042    13.2191   -26.0093     8.2078    80.0510     0.1744     0.0103     2.3837
  489.0000     9.0651    13.1754   -25.4388     8.2152    81.4946     0.1647     0.0160     2.3986
  489.5000     9.0189    13.1020   -25.1075     8.2226    82.3349     0.1550     0.0217     2.4136
  490.0000     8.9734    13.0295   -25.7441     8.2236    81.2409     0.1529     0.0235     2.4211
  490.5000     8.9282    12.9575   -27.2986     8.2236    83.3938     0.1624     0.0121     2.4115
  491.0000     8.8832    12.8859   -28.5188     8.2235    85.7202     0.1651     0.0053     2.3979
  491.5000     8.8385    12.8146   -28.6748     8.2238    82.0895     0.1674     0.0121     2.3979
  492.0000     8.7939    12.7438   -28.0932     8.2066    79.3567     0.1638     0.0187     2.4030
  492.5000     8.7496    12.6734   -27.4968     8.1820    81.1343     0.1601     0.0252     2.4080
  493.0000     8.7055    12.6033   -26.8987     8.1569    82.0325     0.1597     0.0257     2.4108
  493.5000     8.6617    12.5337   -26.7061     8.1310    80.9015     0.1625     0.0193     2.4069
  494.0000     8.6180    12.4853   -27.7491     8.0955    83.1008     0.1651     0.0130     2.4025
  494.5000     8.5746    12.4484   -28.7533     8.0351    88.6526     0.1678     0.0067     2.3981
  495.0000     8.5314    12.4117   -29.4126     8.0039    90.6749     0.1663     0.0096     2.3968
  495.5000     8.4997    12.3751   -28.9217     8.0040    83.5342     0.1627     0.0149     2.4044
  496.0000     8.5161    12.3385   -28.5313     8.0040    85.3842     0.1553     0.0202     2.4181
  496.5000     8.5293    12.3021   -29.0739     8.0040    87.0122     0.1497     0.0240     2.4306
  497.0000     8.5425    12.2658   -29.6238     8.0038    80.4094     0.1497     0.0238     2.4304
  497.5000     8.5556    12.2296   -30.1693     8.0028    74.8314     0.1505     0.0184     2.4246
  498.0000     8.5687    12.1935   -30.7118     8.0447    77.3722     0.1581     0.0073     2.4190
  498.5000     8.5773    12.1575   -31.1148     8.0905    81.9681     0.1545     0.0017     2.4131
  499.0000     8.5152    12.1216   -30.8671     8.1364    82.4805     0.1528     0.0023     2.4218
  499.5000     8.4663    12.0858   -30.6031     8.1821    81.0584     0.1522     0.0080     2.4252
  500.0000     8.4179    12.0501   -30.3416     8.2283    83.8113     0.1513     0.0137     2.4246
  500.5000     8.3697    12.0146   -30.0592     8.2436    86.8991     0.1500     0.0100     2.4238
  501.0000     8.3218    11.9791   -30.3175     8.2462    86.9148     0.1487     0.0053     2.4233
  501.5000     8.2741    11.9469   -31.1583     8.2480    83.1770     0.1429     0.0075     2.4358
  502.0000     8.2268    11.8390   -31.9959     8.2499    81.8714     0.1367     0.0124     2.4493
  502.5000     8.1797    11.7408   -32.1002     8.2518    87.2555     0.1305     0.0174     2.4614
  503.0000     8.1327    11.6434   -32.0959     8.2537    91.7182     0.1304     0.0200     2.4627
  503.5000     8.0857    11.5468   -31.8838     8.2556    87.0140     0.1330     0.0199     2.4596
  504.0000     8.0431    11.4270   -32.0949     8.2575    88.7475     0.1345     0.0186     2.4563
  504.5000     8.1241    11.3052   -32.3941     8.2594    89.8499     0.1357     0.0212     2.4530
  505.0000     8.2006    11.4402   -32.6918     8.2616    89.0910     0.1370     0.0243     2.4497
  505.5000     8.2778    11.5985   -32.9901     8.2644    88.9353     0.1381     0.0257     2.4455
