~VERSION INFORMATION
 VERS.                2.0:   CWLS LOG ASCII STANDARD - VERSION 2.0
 WRAP.                 NO:   ONE LINE PER DEPTH STEP
~WELL INFORMATION
#MNEM.UNIT      DATA TYPE    INFORMATION
#----------   ------------   ------------------------------
 STRT.F            2.0000:   START DEPTH
 STOP.F          560.0000:   STOP DEPTH
 STEP.F            0.1000:   STEP LENGTH
 NULL.          -999.2500:   NO VALUE
 COMP.       F D SERV INC:   COMPANY
 WELL. NAVAL PETROLEUM RESERVE 3 SX-3 #88-3:   WELL
 FLD .             NPR #3:   FIELD
 LOC .       S3 T38N R78W:   LOCATION
 CNTY.            NATRONA:   COUNTY
 STAT.            WYOMING:   STATE
 CTRY. UNITED STATES OF AMERICA:   COUNTRY
 SRVC.      Western Atlas:   SERVICE COMPANY
 DATE.        30-OCT-1992:   LOGDATE
 API .       490252254900:   API NUMBER
~CURVE INFORMATION
#MNEM.UNIT       API CODE    CURVE DESCRIPTION
#----------   ------------   ------------------------------
 DEPT.F                  :   
 GRR .GAPI   07 310 01 00:   GAMMA RAY
 RILD.OHMM   07 120 46 00:   INDUCTION LOG DEEP RESISTIVITY
 RILM.OHMM   07 120 44 00:   INDUCTION LOG MEDIUM RESISTIVITY
~PARAMETER INFORMATION
#MNEM.UNIT          VALUE    DESCRIPTION
#----------   ------------   ------------------------------
 PD  .                 GL:   PERMANENT DATUM
 EPD .F              5131:   ELEVATION PERMANENT DATUM
 LMF .                 KB:   LOG MEASURED FROM
 DAPD.F                10:   FEET ABOVE PERMANENT DATUM
 DMF .                 KB:   DRILLING MEASURED FROM
 EKB .F              5141:   KELLING BUSHING
 EDF .F              5140:   DRILLING FLOOR
 EGL .F              5131:   GROUND LEVEL
 DATE.        30-OCT-1992:   RUN DATE
 RUN .                  1:   RUN NUMBER
 DD  .F               568:   DEPTH DRILLER
 DL  .F               568:   DEPTH LOGGER
 BLI .F               560:   BOTTOM LOG INTERVAL
 CS  .IN            8.625:   CASING SIZE
 CBD .F                73:   CASING BOTTOM DRILLER
 CBL .F                73:   CASING BOTTOM LOGGER
 BS  .IN            7.875:   BIT SIZE
 BSD .F               568:   BIT SIZE AT DEPTH
 DFT .           AIR FOAM:   DRILLING FLUID TYPE
 BHT .F                63:   BOTTOM HOLE TEMPERATURE
 TCS .HRS               2:   TIME CURCULATED STOPPED
 MRT .F                63:   MAXIMUM RECORDED TEMPERATURE
 LUN .            HL-6274:   LOGGING UNIT NUMBER
 LUL .             CASPER:   LOGGING UNIT LOCATION
 ENGI.             RAUTIO:   RECORDING ENGINEER
 WITN.          BOB SYLAR:   WITNESSED BY
 CLNT.            A2DTECH:   CLIENT CODE
 ORIG.           5" PRINT:   ORIGIN OF DATA
 UWI .       490252254900:   UNIQUE WELL ID
 DICO. A2D Technologies, Inc.:   DIGITIZING COMPANY
~OTHER INFORMATION
~A    DEPT      GRR      RILD       RILM   
# ...
  493.4000   114.0113     7.3326     8.1276
  493.5000   113.0957     7.5072     8.1829
  493.6000   112.4237     7.7379     8.1833
  493.7000   111.9038     7.9965     8.2496
  493.8000   111.4752     8.2243     8.3476
  493.9000   111.2140     8.4195     8.4467
  494.0000   110.9528     8.6516     8.5541
  494.1000   111.2544     8.8253     8.7122
  494.2000   111.2524     9.0000     8.8620
  494.3000   111.4174     9.1085     8.9785
  494.4000   111.6737     9.1788     9.0852
  494.5000   112.0061     9.2746     9.1700
  494.6000   112.5212     9.2753     9.2380
  494.7000   113.0665     9.3785     9.3403
  494.8000   113.7947     9.4058     9.3410
  494.9000   114.1729     9.4383     9.3904
  495.0000   114.5814     9.4724     9.4071
  495.1000   115.0965     9.4849     9.4370
  495.2000   115.5507     9.5413     9.4738
  495.3000   115.8374     9.6065     9.4744
  495.4000   116.7023     9.6071     9.4751
  495.5000   117.1569     9.6078     9.5416
  495.6000   117.4892     9.6360     9.5422
  495.7000   117.7455     9.6758     9.5784
  495.8000   118.0931     9.6837     9.6098
  495.9000   118.5626     9.7444     9.6104
  496.0000   118.8189     9.7450     9.6164
  496.1000   119.1204     9.7457     9.6786
  496.2000   119.3315     9.7798     9.6792
  496.3000   119.5878     9.8147     9.6798
  496.4000   119.9658     9.8154     9.6805
  496.5000   120.4810     9.8184     9.7027
  496.6000   121.0266     9.8850     9.7491
  496.7000   121.8458     9.8856     9.7508
  496.8000   122.0870     9.9257     9.8182
  496.9000   122.5413     9.9557     9.8674
  497.0000   123.2086     9.9748     9.8877
  497.1000   123.7693    10.0341     9.9164
  497.2000   124.0255    10.0965     9.9577
  497.3000   124.2819    10.1538     9.9656
  497.4000   124.5684    10.2141    10.0283
  497.5000   124.5662    10.2749    10.0847
  497.6000   124.3811    10.3360    10.1447
  497.7000   124.1199    10.3974    10.1701
  497.8000   123.7674    10.4563    10.1951
  497.9000   123.2475    10.4571    10.2422
  498.0000   122.7275    10.5110    10.2457
  498.1000   121.8114    10.5311    10.3148
  498.2000   121.1701    10.5630    10.4212
  498.3000   120.2242    10.6258    10.4599
  498.4000   119.4302    10.6800    10.4920
  498.5000   118.9102    10.6808    10.5545
  498.6000   118.3902    10.7418    10.6173
  498.7000   117.8397    10.8057    10.6823
  498.8000   117.8374    10.8319    10.7441
  498.9000   117.8350    10.8592    10.8081
  499.0000   117.8326    10.9086    10.8334
  499.1000   117.8301    10.9094    10.8341
  499.2000   117.8886    10.9102    10.8349
  499.3000   118.1449    10.9669    10.8404
  499.4000   118.4314    10.9874    10.9117
  499.5000   119.1142    11.0212    10.9124
  499.6000   119.8879    11.0652    10.9592
  499.7000   121.2097    11.0757    11.0245
  499.8000   122.7447    11.1436    11.0668
  499.9000   123.6402    11.2078    11.0792
  500.0000   123.8965    11.2225    11.1451
  500.1000   123.8106    11.2633    11.1461
  500.2000   123.7247    11.3266    11.2006
  500.3000   123.6389    11.3853    11.2546
  500.4000   123.3575    11.4439    11.3018
  500.5000   122.7717    11.5025    11.3490
  500.6000   122.0226    11.5612    11.3961
  500.7000   121.4612    11.6210    11.4433
  500.8000   120.9920    11.6216    11.4630
  500.9000   120.4767    11.6220    11.4922
  501.0000   120.1025    11.6666    11.5610
  501.1000   119.8449    11.7036    11.6302
  501.2000   119.6347    11.7249    11.7061
  501.3000   119.6354    11.7859    11.7067
  501.4000   119.9391    11.7864    11.7074
  501.5000   119.9391    11.8540    11.7476
  501.6000   119.9391    11.8692    11.7900
  501.7000   119.9391    11.8697    11.8067
  501.8000   120.1529    11.8702    11.8773
  501.9000   120.9258    11.8904    11.9563
  502.0000   121.7656    11.9536    12.0200
  502.1000   121.7656    11.9541    12.0406
  502.2000   121.7656    12.0212    12.0805
  502.3000   121.7656    12.0381    12.1256
  502.4000   121.7656    12.0814    12.1262
  502.5000   121.7656    12.1227    12.1269
  502.6000   121.7656    12.1232    12.1277
  502.7000   121.7656    12.1301    12.1282
  502.8000   121.5533    12.2084    12.1289
  502.9000   121.4612    12.2089    12.1296
  503.0000   121.3425    12.2094    12.1303
  503.1000   121.0849    12.2099    12.1309
  503.2000   120.8272    12.2401    12.1316
  503.3000   120.5479    12.2957    12.1324
  503.4000   120.0759    12.2962    12.1940
  503.5000   119.7499    12.2968    12.2179
  503.6000   119.3498    12.2973    12.2185
  503.7000   118.8345    12.2978    12.2192
  503.8000   118.1724    12.2983    12.2199
  503.9000   116.8800    12.3271    12.2206
  504.0000   114.7641    12.3847    12.2214
  504.1000   114.1252    12.3852    12.2219
  504.2000   113.3522    12.3858    12.2704
  504.3000   112.4598    12.4508    12.3082
  504.4000   111.5746    12.4728    12.3088
  504.5000   111.0853    12.4733    12.3095
  504.6000   110.8067    12.4738    12.3102
  504.7000   110.5699    12.4743    12.3110
  504.8000   110.5023    12.4769    12.3116
  504.9000   110.5023    12.5621    12.3122
  505.0000   110.4059    12.5625    12.3471
  505.1000   110.1979    12.5630    12.3991
  505.2000   110.1979    12.5636    12.3998
  505.3000   110.1979    12.5641    12.4005
  505.4000   109.9842    12.5646    12.4012
  505.5000   109.8935    12.5651    12.4019
  505.6000   109.8935    12.5657    12.4025
  505.7000   109.8935    12.5662    12.4032
  505.8000   109.8935    12.6165    12.4243
  505.9000   109.8935    12.6545    12.4907
  506.0000   109.8935    12.6550    12.4915
  506.1000   109.8935    12.6555    12.4921
  506.2000   109.8935    12.6561    12.5497
  506.3000   109.8935    12.6567    12.5803
  506.4000   109.8431    12.6571    12.5810
  506.5000   109.5890    12.6576    12.5817
  506.6000   109.5890    12.6582    12.5824
  506.7000   109.5890    12.6587    12.5831
  506.8000   109.2537    12.6592    12.5837
  506.9000   108.8594    12.6597    12.5844
  507.0000   108.6758    12.6603    12.5851
  507.1000   108.6485    12.6608    12.5858
  507.2000   108.3714    12.6613    12.5865
  507.3000   108.1332    12.6618    12.5872
  507.4000   107.8756    12.6624    12.5880
  507.5000   107.7626    12.6717    12.5886
  507.6000   107.8604    12.7514    12.5893
  507.7000   108.1180    12.7519    12.5900
  507.8000   108.3714    12.7524    12.5907
  507.9000   108.3714    12.7989    12.5753
  508.0000   108.3714    12.8089    12.5052
  508.1000   108.5397    12.7339    12.5060
  508.2000   108.6758    12.6665    12.5067
  508.3000   108.6758    12.6671    12.5073
  508.4000   108.7038    12.5984    12.5080
  508.5000   108.9802    12.5808    12.5087
  508.6000   109.2190    12.5813    12.5094
  508.7000   109.4767    12.5509    12.5101
  508.8000   109.7344    12.4956    12.5109
  508.9000   109.9920    12.4961    12.5115
  509.0000   110.2496    12.4967    12.4616
  509.1000   110.5072    12.4971    12.4266
  509.2000   110.8067    12.4977    12.4273
  509.3000   111.0225    12.4982    12.4280
  509.4000   111.2802    12.4987    12.4287
  509.5000   111.4155    12.4992    12.4295
  509.6000   111.4155    12.4997    12.4300
  509.7000   111.3868    12.5003    12.4307
  509.8000   111.1111    12.5008    12.3951
  509.9000   110.6320    12.5013    12.3464
  510.0000   110.1167    12.5018    12.3357
  510.1000   109.7474    12.5023    12.2626
  510.2000   109.5890    12.5028    12.2634
  510.3000   109.6415    12.5034    12.2639
  510.4000   109.9105    12.5040    12.2179
  510.5000   110.8067    12.5044    12.1807
  510.6000   111.4564    12.5049    12.1814
  510.7000   112.0595    12.5054    12.1821
  510.8000   112.4518    12.5060    12.1828
  510.9000   112.7856    12.5065    12.1834
  511.0000   113.3302    12.5070    12.1841
  511.1000   114.1553    12.5076    12.1848
  511.2000   114.6359    12.5080    12.1854
  511.3000   115.5381    12.5086    12.1861
  511.4000   116.4219    12.5091    12.1868
  511.5000   116.9949    12.5096    12.1875
