~VERSION INFORMATION
 VERS.                2.0:   CWLS LOG ASCII STANDARD - VERSION 2.0
 WRAP.                 NO:   ONE LINE PER DEPTH STEP
~WELL INFORMATION
#MNEM.UNIT      DATA TYPE    INFORMATION
#----------   ------------   ------------------------------
 STRT.F          502.0000:   START DEPTH
 STOP.F         5661.0000:   STOP DEPTH
 STEP.F            0.5000:   STEP LENGTH
 NULL.          -999.2500:   NO VALUE
 COMP. FENIX & SCISSON INC:   COMPANY
 WELL.   NPR 3 #32DX22-22:   WELL
 FLD .             TEAPOT:   FIELD
 LOC .      S22 T38N R78W:   LOCATION
 CNTY.            NATRONA:   COUNTY
 STAT.            WYOMING:   STATE
 CTRY. UNITED STATES OF AMERICA:   COUNTRY
 SRVC.       Schlumberger:   SERVICE COMPANY
 DATE.        29-NOV-1978:   LOGDATE
 API .       490251073100:   API NUMBER
~CURVE INFORMATION
#MNEM.UNIT       API CODE    CURVE DESCRIPTION
#----------   ------------   ------------------------------
 DEPT.F                  :   
 SPR .MV     07 010 01 00:   SPONTANEOUS POTENTIAL
 GRR .GAPI   07 310 01 00:   GAMMA RAY FROM RES. LOG.
 SFL .OHMM   07 220 01 00:   SHALLOW FOCUSED LOG RESISTIVITY
 ILD .OHMM   07 120 46 00:   INDUCTION LOG DEEP
 ILM .OHMM   07 120 44 00:   INDUCTION LOG MEDIUM
 NPHI.DEC    42 890 03 00:   NEUTRON POROSITY SANDSTONE
 DPHI.DEC    45 890 12 00:   DENSITY POROSITY SANDSTONE
 RHOB.G/C3   45 350 01 00:   BULK DENSITY
 CORR.G/C3   45 356 01 00:   DENSITY CORRECTION
 CALD.IN     45 280 60 00:   CALIPER
~PARAMETER INFORMATION
#MNEM.UNIT          VALUE    DESCRIPTION
#----------   ------------   ------------------------------
 PD  .                 GL:   PERMANENT DATUM
 EPD .F              5514:   ELEVATION PERMANENT DATUM
 LMF .                 KB:   LOG MEASURED FROM
 DAPD.F                10:   FEET ABOVE PERMANENT DATUM
 DMF .                 KB:   DRILLING MEASURED FROM
 EKB .F              5524:   KELLING BUSHING
 EGL .F              5514:   GROUND LEVEL
 DATE.           11-29-78:   RUN DATE
 RUN .                  1:   RUN NUMBER
 DD  .F              5680:   DEPTH DRILLER
 DL  .F              5667:   DEPTH LOGGER
 BLI .F              5661:   BOTTOM LOG INTERVAL
 TLI .F               530:   TOP LOG INTERVAL
 CS  .IN            8.625:   CASING SIZE
 CBD .F               513:   CASING BOTTOM DRILLER
 CBL .F               530:   CASING BOTTOM LOGGER
 BS  .IN            7.875:   BIT SIZE
 BSD .F              5680:   BIT SIZE AT DEPTH
 DFT .                FGM:   DRILLING FLUID TYPE
 DFD .                9.2:   DRILLING FLUID DENSITY
 DFV .                 50:   DRILLING FLUID VISCOSITY
 DFPH.               11.5:   DRILLING FLUID PH
 DFL .                6.8:   DRILLING FLUID LOSS
 MSS .               TANK:   MUD SAMPLE SOURCE
 RMS .OHMM           1.45:   RESISTIVITY MUD SAMPLE
 MST .F                56:   MUD SAMPLE TEMPERATURE
 RMF .OHMM           1.16:   RESISTIVITY MUD FILTRATE SAMPLE
 MFST.F                56:   MUD FILTRATE SAMPLE TEMPERATURE
 MFSS.               MEAS:   MUD FILTRATE SAMPLE SOURCE
 RMB .OHMM            .62:   RESISTIVITY MUD AT BHT
 BHT .F               132:   BOTTOM HOLE TEMPERATURE
 TCS .HRS            0700:   TIME CURCULATED STOPPED
 TLAB.HRS            1200:   TIME LOGGER AT BOTTOM
 MRT .F               132:   MAXIMUM RECORDED TEMPERATURE
 LUN .               8039:   LOGGING UNIT NUMBER
 LUL .               CSPR:   LOGGING UNIT LOCATION
 ENGI.           STADULIS:   RECORDING ENGINEER
 WITN.           DINSMORE:   WITNESSED BY
 CLNT.            A2DTECH:   CLIENT CODE
 ORIG.       2", 5" PRINT:   ORIGIN OF DATA
 UWI .       490251073100:   UNIQUE WELL ID
 DICO. A2D Technologies, Inc.:   DIGITIZING COMPANY
~OTHER INFORMATION
~A   DEPT      SPR         GRR       SFL        ILD        ILM       NPHI       DPHI       RHOB       CORR       CALD   
# ...
 1205.5000   -27.3334    98.2447     5.2816     5.1748     4.8306  -999.2500  -999.2500  -999.2500  -999.2500  -999.2500
 1206.0000   -27.1703    99.8489     5.1846     5.1657     4.7810  -999.2500  -999.2500  -999.2500  -999.2500  -999.2500
 1206.5000   -27.0070   100.2412     5.0680     5.1565     4.7673  -999.2500  -999.2500  -999.2500  -999.2500  -999.2500
 1207.0000   -26.8435   100.3536     4.9540     5.1473     4.7594  -999.2500  -999.2500  -999.2500  -999.2500  -999.2500
 1207.5000   -26.6801   100.4753     4.8626     5.1381     4.7517  -999.2500  -999.2500  -999.2500  -999.2500  -999.2500
 1208.0000   -26.5166   100.9059     4.8626     5.1033     4.7440  -999.2500  -999.2500  -999.2500  -999.2500  -999.2500
 1208.5000   -26.3523   101.3236     5.0138     5.0684     4.7359  -999.2500  -999.2500  -999.2500  -999.2500  -999.2500
 1209.0000   -26.1814   101.7400     5.1234     5.0448     4.7305  -999.2500  -999.2500  -999.2500  -999.2500  -999.2500
 1209.5000   -26.3815   102.1471     5.2353     5.1250     4.9528  -999.2500  -999.2500  -999.2500  -999.2500  -999.2500
 1210.0000   -26.6490   102.5512     5.2816     5.1851     4.9226  -999.2500  -999.2500  -999.2500  -999.2500  -999.2500
 1210.5000   -26.9175   102.8608     5.2344     5.1314     4.8724  -999.2500  -999.2500  -999.2500  -999.2500  -999.2500
 1211.0000   -27.1849   100.9071     5.2010     5.0788     4.8223  -999.2500  -999.2500  -999.2500  -999.2500  -999.2500
 1211.5000   -27.4523    98.7801     5.1086     5.0446     4.7727  -999.2500  -999.2500  -999.2500  -999.2500  -999.2500
 1212.0000   -27.7197    96.8622     4.9674     5.1320     4.7245  -999.2500  -999.2500  -999.2500  -999.2500  -999.2500
 1212.5000   -27.9871    97.6682     4.8626     5.1982     4.6879  -999.2500  -999.2500  -999.2500  -999.2500  -999.2500
 1213.0000   -28.2545   100.0211     4.8626     5.2692     4.8810  -999.2500  -999.2500  -999.2500  -999.2500  -999.2500
 1213.5000   -28.5215   102.2936     5.1513     5.3457     5.0429  -999.2500  -999.2500  -999.2500  -999.2500  -999.2500
 1214.0000   -28.7894   103.4291     5.4920     5.4842     5.2103  -999.2500  -999.2500  -999.2500  -999.2500  -999.2500
 1214.5000   -29.0700   102.4202     5.8551     5.6756     5.3832  -999.2500  -999.2500  -999.2500  -999.2500  -999.2500
 1215.0000   -29.4290   101.3551     6.1175     5.8737     5.4792  -999.2500  -999.2500  -999.2500  -999.2500  -999.2500
 1215.5000   -29.5944   100.6878     6.1175     5.9641     5.5553  -999.2500  -999.2500  -999.2500  -999.2500  -999.2500
 1216.0000   -29.5159   103.1290     6.1175     6.0410     5.7099  -999.2500  -999.2500  -999.2500  -999.2500  -999.2500
 1216.5000   -29.0013   106.2899     6.2605     6.1175     5.8969  -999.2500  -999.2500  -999.2500  -999.2500  -999.2500
 1217.0000   -28.4916   109.1699     6.4483     6.2518     5.8643  -999.2500  -999.2500  -999.2500  -999.2500  -999.2500
 1217.5000   -27.9829   107.7796     6.5838     6.3464     5.8252  -999.2500  -999.2500  -999.2500  -999.2500  -999.2500
 1218.0000   -27.4736   102.8324     6.3690     6.1793     5.7862  -999.2500  -999.2500  -999.2500  -999.2500  -999.2500
 1218.5000   -26.9658    97.2173     6.1807     6.0534     5.7476  -999.2500  -999.2500  -999.2500  -999.2500  -999.2500
 1219.0000   -26.5408    93.4757     6.0062     5.9738     5.7092  -999.2500  -999.2500  -999.2500  -999.2500  -999.2500
 1219.5000   -26.4706    95.4765     6.0062     5.9218     5.6711  -999.2500  -999.2500  -999.2500  -999.2500  -999.2500
 1220.0000   -26.3934    98.9886     6.0062     5.8969     5.6332  -999.2500  -999.2500  -999.2500  -999.2500  -999.2500
 1220.5000   -26.3151   101.6001     5.9532     5.7794     5.5956  -999.2500  -999.2500  -999.2500  -999.2500  -999.2500
 1221.0000   -26.2335   100.8784     5.8430     5.6842     5.5673  -999.2500  -999.2500  -999.2500  -999.2500  -999.2500
 1221.5000   -26.1810    98.9960     6.1394     5.8730     5.5450  -999.2500  -999.2500  -999.2500  -999.2500  -999.2500
 1222.0000   -26.7211    96.5838     6.4640     5.9493     5.5229  -999.2500  -999.2500  -999.2500  -999.2500  -999.2500
 1222.5000   -27.2788    96.1459     6.3028     5.9205     5.5008  -999.2500  -999.2500  -999.2500  -999.2500  -999.2500
 1223.0000   -27.8270    99.5808     6.0896     5.9004     5.4794  -999.2500  -999.2500  -999.2500  -999.2500  -999.2500
 1223.5000   -28.1857   103.3474     5.8941     5.7366     5.5263  -999.2500  -999.2500  -999.2500  -999.2500  -999.2500
 1224.0000   -28.1543   105.5312     6.0302     5.8729     5.5735  -999.2500  -999.2500  -999.2500  -999.2500  -999.2500
 1224.5000   -28.1276   107.3472     6.2884     6.0616     5.6210  -999.2500  -999.2500  -999.2500  -999.2500  -999.2500
 1225.0000   -28.0994   108.8456     6.2309     5.9993     5.6322  -999.2500  -999.2500  -999.2500  -999.2500  -999.2500
 1225.5000   -28.0718   107.4454     6.1319     5.8969     5.6322  -999.2500  -999.2500  -999.2500  -999.2500  -999.2500
 1226.0000   -28.0442   105.3419     6.1175     6.0062     5.6328  -999.2500  -999.2500  -999.2500  -999.2500  -999.2500
 1226.5000   -28.0172   102.7622     6.5236     5.8389     5.4559  -999.2500  -999.2500  -999.2500  -999.2500  -999.2500
 1227.0000   -27.9885    99.4324     6.2175     5.6099     5.2144  -999.2500  -999.2500  -999.2500  -999.2500  -999.2500
 1227.5000   -27.9272    97.0732     5.5330     5.3892     4.9839  -999.2500  -999.2500  -999.2500  -999.2500  -999.2500
 1228.0000   -27.7040    96.8749     4.9239     5.1961     4.8032  -999.2500  -999.2500  -999.2500  -999.2500  -999.2500
 1228.5000   -27.4901   101.1486     4.6020     5.0545     4.6752  -999.2500  -999.2500  -999.2500  -999.2500  -999.2500
 1229.0000   -27.2761   105.8015     4.7060     4.9181     4.5506  -999.2500  -999.2500  -999.2500  -999.2500  -999.2500
 1229.5000   -27.0621   110.1622     4.8011     4.7849     4.4663  -999.2500  -999.2500  -999.2500  -999.2500  -999.2500
 1230.0000   -26.8481   111.9064     4.8981     4.6840     4.4396  -999.2500  -999.2500  -999.2500  -999.2500  -999.2500
 1230.5000   -26.6341   111.7868     5.0446     4.6707     4.4130  -999.2500  -999.2500  -999.2500  -999.2500  -999.2500
 1231.0000   -26.4202   108.3710     5.0214     4.6576     4.3718  -999.2500  -999.2500  -999.2500  -999.2500  -999.2500
 1231.5000   -26.2062   101.3488     4.9777     4.6444     4.3024  -999.2500  -999.2500  -999.2500  -999.2500  -999.2500
 1232.0000   -25.9907    97.0893     4.8804     4.6090     4.2341  -999.2500  -999.2500  -999.2500  -999.2500  -999.2500
 1232.5000   -25.7677    93.7951     4.7140     4.5737     4.1598  -999.2500  -999.2500  -999.2500  -999.2500  -999.2500
 1233.0000   -25.6685    94.7056     4.5533     4.5387     4.1813  -999.2500  -999.2500  -999.2500  -999.2500  -999.2500
 1233.5000   -25.5611    96.4547     4.3945     4.5039     4.2055  -999.2500  -999.2500  -999.2500  -999.2500  -999.2500
 1234.0000   -26.0534    96.5257     4.4428     4.4769     4.2298  -999.2500  -999.2500  -999.2500  -999.2500  -999.2500
 1234.5000   -26.6828    96.5147     4.5618     4.5562     4.2543  -999.2500  -999.2500  -999.2500  -999.2500  -999.2500
 1235.0000   -26.8172    96.4936     4.6845     4.6223     4.2902  -999.2500  -999.2500  -999.2500  -999.2500  -999.2500
 1235.5000   -26.8712    97.3960     4.8096     4.6894     4.4154  -999.2500  -999.2500  -999.2500  -999.2500  -999.2500
 1236.0000   -26.9257   100.3138     4.8694     4.7731     4.5446  -999.2500  -999.2500  -999.2500  -999.2500  -999.2500
 1236.5000   -27.0336   103.7552     4.9029     4.8829     4.6776  -999.2500  -999.2500  -999.2500  -999.2500  -999.2500
 1237.0000   -27.3742   107.2637     5.1606     4.9953     4.8143  -999.2500  -999.2500  -999.2500  -999.2500  -999.2500
 1237.5000   -27.7094   107.2368     5.5808     5.1102     4.9550  -999.2500  -999.2500  -999.2500  -999.2500  -999.2500
 1238.0000   -28.0478   103.6377     6.2092     5.1381     5.0577  -999.2500  -999.2500  -999.2500  -999.2500  -999.2500
 1238.5000   -28.3648    99.7410     6.7720     5.1381     5.0906  -999.2500  -999.2500  -999.2500  -999.2500  -999.2500
