~VERSION INFORMATION
 VERS.                2.0:   CWLS LOG ASCII STANDARD - VERSION 2.0
 WRAP.                 NO:   ONE LINE PER DEPTH STEP
~WELL INFORMATION
#MNEM.UNIT      DATA TYPE    INFORMATION
#----------   ------------   ------------------------------
 STRT.F            0.0000:   START DEPTH
 STOP.F          562.0000:   STOP DEPTH
 STEP.F            0.1000:   STEP LENGTH
 NULL.          -999.2500:   NO VALUE
 COMP. BROWN JOHN E&C INC:   COMPANY
 WELL.    73-1 SX-3 #73-3:   WELL
 FLD .             TEAPOT:   FIELD
 LOC .       S3 T38N R78W:   LOCATION
 CNTY.            NATRONA:   COUNTY
 STAT.            WYOMING:   STATE
 CTRY. UNITED STATES OF AMERICA:   COUNTRY
 SRVC.      Western Atlas:   SERVICE COMPANY
 DATE.        23-APR-1992:   LOGDATE
 API .       490252251200:   API NUMBER
~CURVE INFORMATION
#MNEM.UNIT       API CODE    CURVE DESCRIPTION
#----------   ------------   ------------------------------
 DEPT.F                  :   
 GRR .GAPI   07 310 01 00:   GAMMA RAY
 RILD.OHMM   07 120 46 00:   INDUCTION LOG DEEP RESISTIVITY
 RILM.OHMM   07 120 44 00:   INDUCTION LOG MEDIUM RESISTIVITY
 CILD.MMHO   07 110 46 00:   CONDUCTIVITY INDUCTION LOG DEEP
~PARAMETER INFORMATION
#MNEM.UNIT          VALUE    DESCRIPTION
#----------   ------------   ------------------------------
 PD  .                 GL:   PERMANENT DATUM
 EPD .F              5164:   ELEVATION PERMANENT DATUM
 LMF .                 KB:   LOG MEASURED FROM
 DAPD.F                 5:   FEET ABOVE PERMANENT DATUM
 DMF .                 KB:   DRILLING MEASURED FROM
 EKB .F              5169:   KELLING BUSHING
 EDF .F              5168:   DRILLING FLOOR
 EGL .F              5164:   GROUND LEVEL
 DATE.        23-APR-1992:   RUN DATE
 RUN .                  1:   RUN NUMBER
 DD  .F               561:   DEPTH DRILLER
 DL  .F               564:   DEPTH LOGGER
 BLI .F               562:   BOTTOM LOG INTERVAL
 CS  .IN            8.625:   CASING SIZE
 CBD .F                48:   CASING BOTTOM DRILLER
 CBL .F                49:   CASING BOTTOM LOGGER
 BS  .IN            7.875:   BIT SIZE
 BSD .F               561:   BIT SIZE AT DEPTH
 DFT .                AIR:   DRILLING FLUID TYPE
 TCS .HRS               2:   TIME CURCULATED STOPPED
 LUN .           HL- 6272:   LOGGING UNIT NUMBER
 LUL .             CASPER:   LOGGING UNIT LOCATION
 ENGI.            LEBSOCK:   RECORDING ENGINEER
 WITN.        GARY STRONG:   WITNESSED BY
 CLNT.            A2DTECH:   CLIENT CODE
 ORIG.       2", 5" PRINT:   ORIGIN OF DATA
 UWI .       490252251200:   UNIQUE WELL ID
 DICO. A2D Technologies, Inc.:   DIGITIZING COMPANY
~OTHER INFORMATION
~A    DEPT      GRR      RILD       RILM       CILD   
# ...
   73.0000   128.8957     6.0652     6.4170   160.1158
   73.1000   128.4098     6.0652     6.4168   160.3615
   73.2000   127.9238     6.0652     6.4166   160.6073
   73.3000   127.4311     6.0652     6.4165   160.8678
   73.4000   126.7034     6.0652     6.4163   161.0989
   73.5000   125.7870     6.0652     6.4161   161.3448
   73.6000   124.6883     6.0740     6.4159   161.6251
   73.7000   123.2676     6.1077     6.4157   161.6260
   73.8000   121.3625     6.1077     6.4435   161.6270
   73.9000   120.1514     6.1077     6.4603   161.6280
   74.0000   119.9036     6.1077     6.4602   161.6290
   74.1000   120.0346     6.1077     6.4600   161.6300
   74.2000   120.4219     6.1077     6.4598   161.6310
   74.3000   121.1592     6.1077     6.4596   161.6320
   74.4000   122.3032     6.1077     6.4773   161.6330
   74.5000   123.0883     6.1077     6.5045   161.6340
   74.6000   124.1902     6.1143     6.5043   161.1796
   74.7000   125.3964     6.1505     6.5041   160.4460
   74.8000   126.6028     6.1505     6.5302   159.7124
   74.9000   128.0141     6.1505     6.5663   158.8467
   75.0000   129.0165     6.1648     6.6027   157.8683
   75.1000   130.2228     6.1935     6.6409   156.8898
   75.2000   131.3471     6.1935     6.6760   155.9114
   75.3000   132.2891     6.1935     6.7390   154.9330
   75.4000   133.1225     6.1935     6.7974   153.9546
   75.5000   133.5300     6.1935     6.8282   153.0692
   75.6000   133.8657     6.1979     6.8279   152.3357
   75.7000   134.1051     6.2369     6.8629   151.6022
   75.8000   134.3183     6.2671     6.9265   150.9421
   75.9000   134.3153     6.3234     6.9877   150.4534
   76.0000   134.1044     6.3938     7.0264   149.9647
   76.1000   133.8602     6.4685     7.0694   149.4221
   76.2000   133.6161     6.5950     7.1754   148.6886
   76.3000   133.3415     6.6876     7.2441   147.9550
   76.4000   132.7973     6.7561     7.2996   147.2900
   76.5000   132.1570     6.7936     7.3758   147.0461
   76.6000   131.4290     6.8291     7.4222   146.8023
   76.7000   130.7951     6.8291     7.4577   146.5291
   76.8000   130.2055     6.8291     7.5244   145.7958
   76.9000   128.8696     6.8498     7.5933   145.0625
   77.0000   126.9159     6.8878     7.6353   144.3138
   77.1000   125.2100     6.9261     7.6846   144.0750
   77.2000   123.6587     6.9647     7.6844   143.8312
   77.3000   121.9629     6.9736     7.7089   143.5627
   77.4000   120.1227     6.9934     7.7516   142.9032
   77.5000   118.5739     7.0224     7.7945   142.1696
   77.6000   117.0407     7.0224     7.8461   141.3033
   77.7000   115.6899     7.1003     7.8459   140.9031
   77.8000   114.5639     7.1502     7.8457   140.4144
   77.9000   113.7854     7.1709     7.8454   139.9258
   78.0000   113.5583     7.1796     7.8452   139.4371
   78.1000   113.4796     7.2211     7.8450   138.9483
   78.2000   113.6894     7.2211     7.8448   138.4597
   78.3000   114.1704     7.2211     7.8446   137.9709
   78.4000   114.6770     7.2211     7.8443   137.4822
   78.5000   115.3615     7.2211     7.8441   136.9935
   78.6000   116.0843     7.2211     7.8439   136.5048
   78.7000   117.0270     7.2211     7.8437   136.0161
   78.8000   118.2333     7.2211     7.8435   135.5274
   78.9000   119.4843     7.2211     7.8432   135.1609
   79.0000   120.4139     7.2211     7.8430   134.9170
   79.1000   121.3786     7.2211     7.8005   134.6732
   79.2000   122.3432     7.2570     7.7881   134.3267
   79.3000   123.1984     7.2974     7.7879   133.8380
   79.4000   123.6891     7.3074     7.7789   133.3493
   79.5000   124.3974     7.2670     7.7333   133.1926
   79.6000   125.1202     7.2211     7.6926   133.6834
   79.7000   125.6072     7.1868     7.6791   134.1741
   79.8000   125.9054     7.1709     7.6789   134.6648
   79.9000   126.3879     7.1709     7.6713   135.1555
   80.0000   126.6265     7.1676     7.6250   135.6462
   80.1000   126.6843     7.1211     7.6249   136.1808
   80.2000   126.6819     7.1211     7.5969   136.9163
   80.3000   126.6169     7.1211     7.5546   137.6519
   80.4000   126.3696     7.0969     7.5126   138.3874
   80.5000   125.8837     7.0224     7.4660   139.1228
   80.6000   125.5831     7.0224     7.4659   139.8581
   80.7000   125.2127     7.0224     7.4656   140.5846
   80.8000   124.7268     7.0017     7.4654   140.8305
   80.9000   124.2409     6.9736     7.4652   141.0763
   81.0000   123.7551     6.9736     7.4650   141.3374
   81.1000   123.2692     6.9736     7.4648   141.7977
   81.2000   122.6533     6.9444     7.4646   142.2884
   81.3000   121.7841     6.9251     7.4502   142.8488
   81.4000   120.6289     6.9158     7.4123   143.0598
   81.5000   120.6260     6.8769     7.4120   143.3056
   81.6000   121.0113     6.8396     7.4119   143.5515
   81.7000   121.6266     6.8291     7.3883   143.7974
   81.8000   122.3494     6.8115     7.3345   144.0432
   81.9000   123.0722     6.7816     7.2577   144.2890
   82.0000   123.9273     6.7816     7.2575   144.7058
   82.1000   124.5178     6.7461     7.2253   145.1965
   82.2000   125.2409     6.7087     7.1851   145.6873
   82.3000   125.9641     6.6716     7.1339   146.1780
   82.4000   126.6676     6.6411     7.0559   146.6687
   82.5000   127.2285     6.6411     7.0168   147.1594
   82.6000   127.8313     6.6075     6.9777   147.6501
   82.7000   128.6963     6.5950     6.9389   148.1408
   82.8000   129.5781     6.5950     6.9003   148.6315
   82.9000   130.3010     6.5899     6.8618   149.1222
   83.0000   131.1322     6.5491     6.8616   149.6130
   83.1000   131.5416     6.5172     6.8333   150.1037
   83.2000   131.7301     6.4811     6.8135   150.5944
   83.3000   131.7277     6.4583     6.8048   151.0851
   83.4000   131.6707     6.4583     6.7657   151.5758
   83.5000   131.1201     6.4583     6.7655   152.0665
   83.6000   130.6989     6.4280     6.7654   152.5573
   83.7000   129.9128     6.4134     6.7652   153.0480
   83.8000   129.0338     6.4016     6.7650   153.6454
   83.9000   128.2429     6.3662     6.7648   154.6258
   84.0000   126.8913     6.3246     6.7646   155.6062
   84.1000   126.2481     6.2961     6.7644   156.5866
   84.2000   125.8289     6.2806     6.7642   157.5670
   84.3000   125.6796     6.2702     6.7641   158.5474
   84.4000   125.6771     6.2355     6.7638   159.4711
   84.5000   125.6745     6.2010     6.7637   159.4721
   84.6000   125.8899     6.1668     6.7635   159.4731
   84.7000   126.4458     6.1327     6.7485   159.4741
   84.8000   127.0701     6.1077     6.7110   159.4751
   84.9000   127.5511     6.1075     6.6692   159.4761
   85.0000   128.0721     6.0737     6.6366   159.4772
   85.1000   128.7349     6.0652     6.6225   159.4781
   85.2000   129.2955     6.0652     6.6222   159.4791
   85.3000   129.8793     6.0652     6.6181   159.4803
   85.4000   130.6022     6.0652     6.5758   159.4811
   85.5000   131.3733     6.0652     6.5448   159.4821
   85.6000   131.5968     6.0652     6.5298   159.4831
   85.7000   132.1688     6.0652     6.5295   159.3037
   85.8000   132.7848     6.0719     6.5265   159.0599
   85.9000   133.3133     6.1077     6.4838   158.8160
   86.0000   134.0722     6.1077     6.5133   158.5722
   86.1000   134.5292     6.1077     6.5288   158.3283
   86.2000   135.1804     6.1077     6.5287   158.0845
   86.3000   135.9035     6.1077     6.5303   157.6993
   86.4000   136.6267     6.1077     6.5665   157.2106
   86.5000   137.3734     6.1695     6.5738   156.7219
   86.6000   138.0723     6.1935     6.5736   156.2332
   86.7000   138.7951     6.2069     6.5836   155.7445
   86.8000   139.5179     6.2369     6.6193   155.2558
   86.9000   140.2407     6.2369     6.6191   154.6650
   87.0000   140.9759     6.2672     6.6189   153.9315
   87.1000   141.2113     6.2806     6.6373   153.1979
   87.2000   141.0939     6.3055     6.6649   152.3819
   87.3000   140.8497     6.3722     6.6647   151.4034
   87.4000   140.5461     6.4134     6.7383   150.4250
   87.5000   140.0602     6.4433     6.7856   149.4466
