~VERSION INFORMATION
 VERS.                2.0:   CWLS LOG ASCII STANDARD - VERSION 2.0
 WRAP.                 NO:   ONE LINE PER DEPTH STEP
~WELL INFORMATION
#MNEM.UNIT      DATA TYPE    INFORMATION
#----------   ------------   ------------------------------
 STRT.F            0.0000:   START DEPTH
 STOP.F          649.0000:   STOP DEPTH
 STEP.F            0.1000:   STEP LENGTH
 NULL.          -999.2500:   NO VALUE
 COMP.   FLUOR DANIEL INC:   COMPANY
 WELL.     17-1 X 2 #17-2:   WELL
 FLD .             TEAPOT:   FIELD
 LOC .       S2 T38N R78W:   LOCATION
 CNTY.            NATRONA:   COUNTY
 STAT.            WYOMING:   STATE
 CTRY. UNITED STATES OF AMERICA:   COUNTRY
 SRVC.      Western Atlas:   SERVICE COMPANY
 DATE.        20-MAY-1995:   LOGDATE
 API .       490252271000:   API NUMBER
~CURVE INFORMATION
#MNEM.UNIT       API CODE    CURVE DESCRIPTION
#----------   ------------   ------------------------------
 DEPT.F                  :   
 GRR .GAPI   07 310 01 00:   GAMMA RAY
 RILD.OHMM   07 120 46 00:   INDUCTION LOG DEEP RESISTIVITY
 RILM.OHMM   07 120 44 00:   RESITIVITY LOG MEDIUM
~PARAMETER INFORMATION
#MNEM.UNIT          VALUE    DESCRIPTION
#----------   ------------   ------------------------------
 PD  .                 GL:   PERMANENT DATUM
 EPD .F              5145:   ELEVATION PERMANENT DATUM
 LMF .                 KB:   LOG MEASURED FROM
 DAPD.F                10:   FEET ABOVE PERMANENT DATUM
 DMF .                 KB:   DRILLING MEASURED FROM
 EKB .F              5155:   KELLING BUSHING
 EDF .F              5154:   DRILLING FLOOR
 EGL .F              5145:   GROUND LEVEL
 DATE.        20-MAY-1995:   RUN DATE
 RUN .                  1:   RUN NUMBER
 DD  .F               657:   DEPTH DRILLER
 DL  .F               657:   DEPTH LOGGER
 BLI .F               649:   BOTTOM LOG INTERVAL
 CS  .IN            9.625:   CASING SIZE
 CBD .F                82:   CASING BOTTOM DRILLER
 CBL .F                82:   CASING BOTTOM LOGGER
 BS  .IN             8.75:   BIT SIZE
 BSD .F               657:   BIT SIZE AT DEPTH
 DFT .                AIR:   DRILLING FLUID TYPE
 MRT .F                92:   MAXIMUM RECORDED TEMPERATURE
 LUN .            HL 6530:   LOGGING UNIT NUMBER
 LUL .             CASPER:   LOGGING UNIT LOCATION
 ENGI.        VERN RAUTIO:   RECORDING ENGINEER
 WITN.        STEVE HARDY:   WITNESSED BY
 CLNT.            A2DTECH:   CLIENT CODE
 ORIG.           5" PRINT:   ORIGIN OF DATA
 UWI .       490252271000:   UNIQUE WELL ID
 DICO. A2D Technologies, Inc.:   DIGITIZING COMPANY
~OTHER INFORMATION
~A    DEPT      GRR      RILD       RILM   
# ...
  527.8000   126.4193     5.5256     5.8216
  527.9000   128.4168     5.4550     5.7236
  528.0000   130.1437     5.4286     5.6104
  528.1000   131.8764     5.3786     5.5848
  528.2000   134.5904     5.3433     5.5536
  528.3000   136.5318     5.3376     5.5227
  528.4000   138.5336     5.3069     5.4873
  528.5000   141.0015     5.3071     5.4213
  528.6000   143.8243     5.3073     5.4217
  528.7000   145.7461     5.3075     5.4006
  528.8000   147.0600     5.3077     5.3705
  528.9000   148.3769     5.3080     5.3405
  529.0000   149.3938     5.3082     5.3107
  529.1000   150.0810     5.3084     5.2755
  529.2000   150.5786     5.3086     5.2759
  529.3000   150.5798     5.3214     5.2763
  529.4000   150.5810     5.3460     5.2659
  529.5000   150.5822     5.3462     5.2406
  529.6000   150.5834     5.3465     5.2411
  529.7000   150.4866     5.3695     5.2415
  529.8000   149.3793     5.3841     5.2420
  529.9000   148.5164     5.3936     5.2564
  530.0000   147.0486     5.4220     5.2794
  530.1000   145.4296     5.4223     5.2798
  530.2000   143.9011     5.4490     5.2803
  530.3000   142.1454     5.4802     5.3047
  530.4000   140.2095     5.5247     5.3353
  530.5000   137.4904     5.5818     5.3661
  530.6000   134.6647     5.6148     5.3971
  530.7000   131.7997     5.6772     5.4312
  530.8000   128.5963     5.7422     5.4877
  530.9000   124.9582     5.8080     5.5508
  531.0000   123.8933     5.8847     5.6000
  531.1000   122.9781     5.9886     5.6398
  531.2000   122.2396     6.1461     5.7046
  531.3000   121.5489     6.2674     5.7702
  531.4000   121.0426     6.4116     5.8366
  531.5000   120.8044     6.5590     5.9037
  531.6000   120.5591     6.7096     5.9832
  531.7000   120.4428     6.8688     6.0903
  531.8000   120.3700     7.0219     6.2457
  531.9000   120.1247     7.1836     6.3420
  532.0000   119.8433     7.3488     6.5012
  532.1000   119.8443     7.5176     6.6716
  532.2000   119.5351     7.6866     6.8339
  532.3000   119.2434     7.8383     7.0307
  532.4000   119.1545     7.9537     7.3170
  532.5000   118.6426     8.0614     7.5136
  532.6000   118.1707     8.1537     7.6867
  532.7000   117.6788     8.2470     7.8636
  532.8000   117.1869     8.3448     8.0445
  532.9000   116.6237     8.3909     8.2519
  533.0000   115.9017     8.4390     8.3355
  533.1000   115.3317     8.4874     8.4314
  533.2000   114.9176     8.5360     8.4862
  533.3000   114.4257     8.5849     8.4971
  533.4000   113.8365     8.6415     8.5467
  533.5000   113.0979     8.6418     8.5955
  533.6000   112.3210     8.6731     8.5705
  533.7000   111.6209     8.7026     8.5751
  533.8000   111.4184     8.7121     8.6091
  533.9000   111.5431     8.7639     8.6098
  534.0000   111.7908     8.7643     8.6107
  534.1000   112.0780     8.8015     8.6113
  534.2000   113.2334     8.8260     8.6437
  534.3000   114.4629     8.8264     8.6727
  534.4000   115.6441     8.8304     8.6832
  534.5000   116.8206     8.8886     8.7346
  534.6000   118.1830     8.8889     8.7353
  534.7000   118.9708     8.9210     8.7360
  534.8000   119.2029     8.9515     8.7367
  534.9000   119.2748     8.9519     8.7375
  535.0000   119.2760     8.9523     8.7423
  535.1000   119.2117     9.0016     8.7999
  535.2000   118.9453     9.0531     8.8005
  535.3000   118.0732     9.0785     8.8013
  535.4000   117.6703     9.0939     8.8226
  535.5000   117.0316     9.1424     8.8640
  535.6000   116.3849     9.1428     8.8648
  535.7000   115.8929     9.1872     8.9142
  535.8000   115.3642     9.2072     8.9280
  535.9000   115.5933     9.2286     8.9550
  536.0000   115.6682     9.2815     8.9917
  536.1000   115.7872     9.3370     8.9960
  536.2000   116.0977     9.3373     9.0559
  536.3000   116.5845     9.3768     9.1002
  536.4000   116.8799     9.4305     9.1528
  536.5000   117.0800     9.4689     9.2056
  536.6000   117.4718     9.4729     9.2494
  536.7000   117.8771     9.5357     9.2502
  536.8000   118.1248     9.5819     9.2510
  536.9000   118.3941     9.6028     9.2902
  537.0000   118.8456     9.6250     9.3438
  537.1000   118.9997     9.6704     9.3977
  537.2000   119.1160     9.6708     9.4519
  537.3000   119.4237     9.7238     9.5155
  537.4000   119.9132     9.7389     9.5162
  537.5000   120.1609     9.7676     9.5501
  537.6000   120.4087     9.8236     9.6052
  537.7000   120.6564     9.8798     9.6606
  537.8000   120.9901     9.9454     9.7197
  537.9000   121.4536     9.9458     9.7725
  538.0000   121.7256     9.9462     9.7889
  538.1000   121.7267     9.9691     9.7898
  538.2000   121.7279    10.0162     9.8057
  538.3000   121.7291    10.0167     9.8622
  538.4000   121.7303    10.0714     9.9292
  538.5000   121.7273    10.0872     9.9299
  538.6000   121.2355    10.1167     9.9647
  538.7000   120.7437    10.1583    10.0007
  538.8000   120.3902    10.1623    10.0016
  538.9000   120.0617    10.2299    10.0025
  539.0000   119.5415    10.2302    10.0562
  539.1000   118.7223    10.2666    10.0738
  539.2000   118.2841    10.3254    10.0746
  539.3000   117.9567    10.3744    10.0903
  539.4000   117.9303    10.3749    10.1485
  539.5000   118.2323    10.4313    10.2181
  539.6000   118.7282    10.4479    10.2661
  539.7000   118.9751    10.4784    10.2908
  539.8000   119.2229    10.5215    10.3131
  539.9000   119.6061    10.5220    10.3643
  540.0000   120.4220    10.5225    10.3652
  540.1000   121.9283    10.5730    10.3660
  540.2000   123.8638    10.5965    10.3668
  540.3000   124.7322    10.5969    10.3955
  540.4000   125.2345    10.6076    10.4408
  540.5000   125.4822    10.6716    10.4431
  540.6000   125.5243    10.6720    10.5154
  540.7000   124.7747    10.7165    10.5161
  540.8000   123.8044    10.7472    10.5516
  540.9000   123.0070    10.7476    10.5911
  541.0000   122.5339    10.7516    10.5920
  541.1000   122.2108    10.8234    10.5930
  541.2000   121.7416    10.8238    10.5938
  541.3000   121.4638    10.8242    10.6359
  541.4000   121.2508    10.8487    10.6693
  541.5000   120.8466    10.9005    10.6702
  541.6000   120.5623    10.9010    10.6711
  541.7000   120.4663    10.9014    10.6720
  541.8000   119.9614    10.9018    10.7209
  541.9000   119.4825    10.9023    10.7481
  542.0000   119.1755    10.9199    10.7700
  542.1000   118.8001    10.9791    10.8321
  542.2000   118.3081    10.9796    10.9012
  542.3000   117.8163    11.0320    10.9020
  542.4000   117.2539    11.0569    10.9446
  542.5000   116.8326    11.0573    10.9798
  542.6000   116.1848    11.0578    10.9807
  542.7000   115.5472    11.0583    10.9817
  542.8000   115.0553    11.0587    11.0451
  542.9000   114.5448    11.1045    11.0599
  543.0000   113.5969    11.1366    11.0958
  543.1000   112.6118    11.1371    11.1388
  543.2000   112.1351    11.1409    11.1466
  543.3000   112.3525    11.2156    11.2184
  543.4000   113.0929    11.2160    11.2192
  543.5000   113.9489    11.2164    11.2623
  543.6000   114.7831    11.2415    11.2992
  543.7000   115.6174    11.2954    11.3002
  543.8000   116.3583    11.2959    11.3011
  543.9000   117.1421    11.2964    11.3020
  544.0000   118.1780    11.2969    11.3030
  544.1000   118.8829    11.2973    11.3389
  544.2000   119.6237    11.2978    11.3836
  544.3000   120.2402    11.2983    11.3908
  544.4000   121.0110    11.2988    11.4649
  544.5000   122.4072    11.3524    11.4657
  544.6000   122.1070    11.3783    11.5091
  544.7000   121.9025    11.3788    11.5475
  544.8000   121.6571    11.3793    11.5485
  544.9000   121.3164    11.3798    11.5495
  545.0000   120.8648    11.3802    11.5504
  545.1000   120.6046    11.3807    11.5514
  545.2000   120.3739    11.3812    11.5523
  545.3000   120.1287    11.3816    11.5533
  545.4000   119.7620    11.3821    11.5543
  545.5000   119.3364    11.3827    11.5554
  545.6000   119.0799    11.3831    11.5562
  545.7000   118.5004    11.3835    11.5571
  545.8000   117.8933    11.3840    11.5581
  545.9000   117.1548    11.3845    11.5466
