~VERSION INFORMATION
 VERS.                2.0:   CWLS LOG ASCII STANDARD - VERSION 2.0
 WRAP.                 NO:   ONE LINE PER DEPTH STEP
~WELL INFORMATION
#MNEM.UNIT      DATA TYPE    INFORMATION
#----------   ------------   ------------------------------
 STRT.F           11.5000:   START DEPTH
 STOP.F          583.0000:   STOP DEPTH
 STEP.F            0.5000:   STEP LENGTH
 NULL.          -999.2500:   NO VALUE
 COMP.    FENIX & SCISSON:   COMPANY
 WELL.      41 SX 3 #41-3:   WELL
 FLD .             TEAPOT:   FIELD
 LOC .       S3 T38N R78W:   LOCATION
 CNTY.            NATRONA:   COUNTY
 STAT.            WYOMING:   STATE
 CTRY. UNITED STATES OF AMERICA:   COUNTRY
 SRVC.            Unknown:   SERVICE COMPANY
 DATE.        01-DEC-1978:   LOGDATE
 API .       490251074000:   API NUMBER
~CURVE INFORMATION
#MNEM.UNIT       API CODE    CURVE DESCRIPTION
#----------   ------------   ------------------------------
 DEPT.F                  :   
 SPR .MV     05 010 01 00:   SPONTANEOUS POTENTIAL FROM RES.
 SN  .OHMM   05 040 16 00:   SHORT NORMAL 16"
 IL  .OHMM   05 120 00 00:   INDUCTION LOG
 GRD .GAPI   45 310 01 00:   GAMMA RAY FROM DENSITY LOG
 CALD.IN     45 280 60 00:   CALIPER
 DEN .G/C3   45 350 01 00:   COMPENSATED BULK DENSTIY
 CORR.G/C3   45 356 01 00:   DENSITY CORRECTION
 DPHI.DEC    45 890 12 00:   DENSITY POROSITY SANDSTONE
~PARAMETER INFORMATION
#MNEM.UNIT          VALUE    DESCRIPTION
#----------   ------------   ------------------------------
 PD  .                 GL:   PERMANENT DATUM
 EPD .F              5150:   ELEVATION PERMANENT DATUM
 LMF .                 KB:   LOG MEASURED FROM
 DAPD.F                 4:   FEET ABOVE PERMANENT DATUM
 DMF .                 KB:   DRILLING MEASURED FROM
 EKB .F              5154:   KELLING BUSHING
 EGL .F              5150:   GROUND LEVEL
 DATE.            12-1-78:   RUN DATE
 RUN .                  1:   RUN NUMBER
 DD  .F               600:   DEPTH DRILLER
 DL  .F               582:   DEPTH LOGGER
 BLI .F               576:   BOTTOM LOG INTERVAL
 TLI .F                42:   TOP LOG INTERVAL
 CS  .IN            8.625:   CASING SIZE
 CBD .F                40:   CASING BOTTOM DRILLER
 CBL .F                41:   CASING BOTTOM LOGGER
 BS  .IN            7.875:   BIT SIZE
 BSD .F               600:   BIT SIZE AT DEPTH
 DFT .                KCL:   DRILLING FLUID TYPE
 DFD .                8.8:   DRILLING FLUID DENSITY
 DFV .                 35:   DRILLING FLUID VISCOSITY
 DFPH.               11.2:   DRILLING FLUID PH
 DFL .               11.6:   DRILLING FLUID LOSS
 MSS .          FLOW LINE:   MUD SAMPLE SOURCE
 RMS .OHMM            .36:   RESISTIVITY MUD SAMPLE
 MST .F                52:   MUD SAMPLE TEMPERATURE
 RMF .OHMM            .36:   RESISTIVITY MUD FILTRATE SAMPLE
 MFST.F                55:   MUD FILTRATE SAMPLE TEMPERATURE
 RMC .OHMM            .42:   RESISTIVITY MUD CAKE
 MCST.F                60:   MUD CAKE SAMPLE TEMPERATURE
 MFSS.           MEASURED:   MUD FILTRATE SAMPLE SOURCE
 MCSS.           MEASURED:   MUD CAKE SAMPLE SOURCE
 RMB .OHMM            .32:   RESISTIVITY MUD AT BHT
 BHT .F                58:   BOTTOM HOLE TEMPERATURE
 MRT .F                58:   MAXIMUM RECORDED TEMPERATURE
 LUN .               2958:   LOGGING UNIT NUMBER
 LUL .                CPR:   LOGGING UNIT LOCATION
 ENGI.            ROLLINS:   RECORDING ENGINEER
 WITN.              AMEND:   WITNESSED BY
 CLNT.            A2DTECH:   CLIENT CODE
 ORIG.       2", 5" PRINT:   ORIGIN OF DATA
 UWI .       490251074000:   UNIQUE WELL ID
 DICO. A2D Technologies, Inc.:   DIGITIZING COMPANY
~OTHER INFORMATION
~A   DEPT      SPR         SN         IL         GRD      CALD        DEN       CORR       DPHI   
# ...
  335.5000   -35.2938     7.8555     7.5444   120.8654     8.0818     2.4741     0.0320     0.1249
  336.0000   -35.1245     8.3223     8.0882   119.6121     8.1000     2.4782     0.0328     0.1241
  336.5000   -35.1821     8.3712     8.1057   116.8994     8.1182     2.4821     0.0335     0.1242
  337.0000   -35.3055     8.4146     8.1336   114.1592     8.1254     2.4860     0.0343     0.1211
  337.5000   -35.4263     8.4598     8.1632   111.4633     8.1258     2.4871     0.0350     0.1213
  338.0000   -36.0604     8.5058     8.1631   110.1433     8.1260     2.4877     0.0358     0.1220
  338.5000   -36.7291     8.5491     8.1632   114.4760     8.1262     2.4883     0.0366     0.1183
  339.0000   -36.8372     8.5385     8.1632   117.5375     8.1264     2.4923     0.0344     0.1145
  339.5000   -36.8936     8.5286     8.1632   119.0748     8.1266     2.4987     0.0302     0.1126
  340.0000   -36.9183     8.5186     8.1632   118.7102     8.1269     2.5022     0.0259     0.1143
  340.5000   -36.9419     8.5087     8.1632   117.8287     8.1271     2.4958     0.0229     0.1221
  341.0000   -36.9657     8.4988     8.1632   117.7025     8.1273     2.4911     0.0237     0.1163
  341.5000   -36.9896     8.4889     8.1632   117.6320     8.1275     2.4976     0.0244     0.1117
  342.0000   -37.0135     8.4790     8.1632   115.3679     8.1278     2.5038     0.0244     0.1060
  342.5000   -37.0374     8.4691     8.1632   112.4865     8.1280     2.5103     0.0214     0.1096
  343.0000   -37.0607     8.4593     8.1632   110.7710     8.1282     2.5073     0.0185     0.1132
  343.5000   -37.0664     8.4494     8.1632   113.6853     8.1284     2.4994     0.0170     0.1167
  344.0000   -37.0240     8.4396     8.1632   116.1011     8.1287     2.4913     0.0185     0.1199
  344.5000   -36.9832     8.4297     8.1630   118.8006     8.1289     2.4866     0.0200     0.1225
  345.0000   -36.9425     8.4199     8.1630   115.2984     8.1291     2.4846     0.0215     0.1251
  345.5000   -36.9018     8.4101     8.1645   109.0408     8.1293     2.4810     0.0229     0.1278
  346.0000   -36.8610     8.4003     8.0931   109.4612     8.1295     2.4744     0.0225     0.1313
  346.5000   -36.8202     8.3772     8.0265   111.8064     8.1298     2.4679     0.0214     0.1361
  347.0000   -36.7795     8.3062     7.6438   115.1535     8.1300     2.4613     0.0203     0.1412
  347.5000   -36.7391     8.2357     7.2099   119.7163     8.1302     2.4539     0.0190     0.1494
  348.0000   -36.6983     8.1632     6.8011   124.1297     8.1305     2.4413     0.0260     0.1583
  348.5000   -36.7372     7.8434     6.4152   128.5822     8.1307     2.4285     0.0355     0.1671
  349.0000   -36.8349     7.5247     6.2457   129.6166     8.1309     2.4185     0.0428     0.1537
  349.5000   -37.1580     7.2189     6.2600   125.8235     8.1311     2.4357     0.0372     0.1400
  350.0000   -37.6823     6.9240     6.2696   119.7805     8.1313     2.4570     0.0316     0.1294
  350.5000   -38.2055     6.7243     6.2794   113.7317     8.1316     2.4753     0.0295     0.1271
  351.0000   -38.5687     6.7218     6.2893   113.9358     8.1318     2.4766     0.0306     0.1257
  351.5000   -38.6891     6.9259     6.3016   116.9932     8.1320     2.4764     0.0295     0.1301
  352.0000   -38.7286     7.2412     6.2808   119.6696     8.1322     2.4700     0.0272     0.1463
  352.5000   -38.7643     7.2387     6.2467   122.3504     8.1325     2.4555     0.0279     0.1616
  353.0000   -38.8000     7.2393     6.2128   125.0577     8.1327     2.4354     0.0329     0.1695
  353.5000   -38.8365     7.1380     6.1791   125.6326     8.1329     2.4152     0.0376     0.1676
  354.0000   -38.9054     6.8778     6.1455   121.1711     8.1331     2.4060     0.0393     0.1603
  354.5000   -39.1489     6.6619     6.1304   117.1712     8.1334     2.4164     0.0343     0.1463
  355.0000   -39.4026     6.6619     6.1302   113.1854     8.1336     2.4434     0.0295     0.1323
  355.5000   -39.3676     6.6619     6.1294   110.2018     8.1338     2.4687     0.0249     0.1222
  356.0000   -39.2402     6.6619     6.1304   108.5507     8.1340     2.4814     0.0261     0.1177
  356.5000   -39.1127     6.8832     6.1873   108.3948     8.1342     2.4789     0.0276     0.1291
  357.0000   -38.6329     7.2231     6.5686   110.2925     8.1345     2.4778     0.0291     0.1262
  357.5000   -37.9855     7.5797     6.9471   112.1368     8.1347     2.4789     0.0306     0.1231
  358.0000   -37.7581     7.7984     7.3475   112.9224     8.1349     2.4802     0.0303     0.1258
  358.5000   -37.6166     7.8152     7.5533   110.9507     8.1351     2.4790     0.0296     0.1286
  359.0000   -37.4796     7.8321     7.5817   109.0237     8.1354     2.4764     0.0289     0.1276
  359.5000   -37.4743     7.8491     7.5241   107.5636     8.1356     2.4722     0.0282     0.1322
  360.0000   -37.4750     7.8671     7.1756   107.0641     8.1358     2.4637     0.0275     0.1452
  360.5000   -37.4752     7.8056     6.8433   108.4821     8.1360     2.4534     0.0283     0.1582
  361.0000   -37.4752     7.7227     6.5263   110.2260     8.1363     2.4334     0.0374     0.1711
  361.5000   -37.4752     7.6432     6.1304   111.9332     8.1365     2.4137     0.0464     0.1751
  362.0000   -37.4752     7.4624     6.1599   113.4558     8.1367     2.3984     0.0553     0.1615
  362.5000   -37.4752     7.0313     6.2223   114.2307     8.1369     2.4172     0.0519     0.1457
  363.0000   -37.4751     6.6252     6.2613   113.7768     8.1371     2.4421     0.0463     0.1299
  363.5000   -37.4747     6.4785     6.2872   112.9047     8.1374     2.4674     0.0407     0.1165
  364.0000   -37.4753     6.4798     6.3027   112.0563     8.1376     2.4918     0.0350     0.1179
  364.5000   -37.4826     6.6278     6.4202   112.1134     8.1378     2.4910     0.0325     0.1209
  365.0000   -37.2222     7.0751     6.7656   113.4210     8.1380     2.4891     0.0317     0.1217
  365.5000   -36.8989     7.5376     7.1382   110.1540     8.1383     2.4874     0.0310     0.1205
  366.0000   -36.5605     7.8161     7.5308   104.3463     8.1385     2.4875     0.0302     0.1186
  366.5000   -36.5998     8.1049     7.9451   103.0349     8.1387     2.4893     0.0295     0.1201
  367.0000   -36.6191     8.3988     8.2191   105.7726     8.1389     2.4891     0.0289     0.1230
  367.5000   -36.5016     8.5778     8.3356   105.8985     8.1392     2.4851     0.0293     0.1258
  368.0000   -36.3845     8.6378     8.4527   106.9275     8.1394     2.4811     0.0297     0.1269
  368.5000   -36.2662     8.7086     8.4705   109.2243     8.1396     2.4811     0.0302     0.1250
  369.0000   -36.1479     8.7013     8.4705   110.3902     8.1398     2.4823     0.0307     0.1232
  369.5000   -36.0294     8.6925     8.4705   108.9388     8.1401     2.4849     0.0330     0.1214
  370.0000   -35.9094     8.6838     8.4705   107.7755     8.1403     2.4875     0.0324     0.1196
  370.5000   -35.8852     8.6750     8.4705   108.1249     8.1405     2.4896     0.0320     0.1186
  371.0000   -35.8845     8.6663     8.4705   108.4203     8.1407     2.4896     0.0316     0.1192
  371.5000   -35.8846     8.6575     8.4705   108.2154     8.1410     2.4896     0.0312     0.1198
  372.0000   -35.8846     8.6488     8.4705   108.0043     8.1412     2.4880     0.0308     0.1217
  372.5000   -35.8855     8.6401     8.4705   108.0385     8.1414     2.4862     0.0303     0.1234
  373.0000   -35.8862     8.6289     8.4705   108.6120     8.1416     2.4843     0.0299     0.1238
  373.5000   -36.0350     8.6352     8.4705   109.2011     8.1418     2.4826     0.0295     0.1241
  374.0000   -36.3639     8.6452     8.4705   108.0649     8.1421     2.4825     0.0291     0.1244
  374.5000   -36.4794     8.6553     8.4705   105.9444     8.1423     2.4832     0.0299     0.1239
  375.0000   -36.4830     8.6654     8.4705   103.7997     8.1425     2.4843     0.0321     0.1231
  375.5000   -36.4846     8.6754     8.4706   101.5600     8.1427     2.4852     0.0344     0.1218
