~VERSION INFORMATION
 VERS.                2.0:   CWLS LOG ASCII STANDARD - VERSION 2.0
 WRAP.                 NO:   ONE LINE PER DEPTH STEP
~WELL INFORMATION
#MNEM.UNIT      DATA TYPE    INFORMATION
#----------   ------------   ------------------------------
 STRT.F          211.0000:   START DEPTH
 STOP.F          620.0000:   STOP DEPTH
 STEP.F            0.5000:   STEP LENGTH
 NULL.          -999.2500:   NO VALUE
 COMP.   FLUOR DANIEL INC:   COMPANY
 WELL. NAVAL PETROLEUM RESERVE 3 X-10 #73-10:   WELL
 FLD .            WILDCAT:   FIELD
 LOC .      S10 T38N R78W:   LOCATION
 CNTY.            NATRONA:   COUNTY
 STAT.            WYOMING:   STATE
 CTRY. UNITED STATES OF AMERICA:   COUNTRY
 SRVC.            Unknown:   SERVICE COMPANY
 DATE.        03-MAY-1995:   LOGDATE
 API .       490252271600:   API NUMBER
~CURVE INFORMATION
#MNEM.UNIT       API CODE    CURVE DESCRIPTION
#----------   ------------   ------------------------------
 DEPT.F                  :   
 ROP .FT/HR  91 810 01 00:   RAT OF DRILLING PENETRATION
 TGAS.TC/CC  91 830 01 00:   TOTAL GAS UNIT
~PARAMETER INFORMATION
#MNEM.UNIT          VALUE    DESCRIPTION
#----------   ------------   ------------------------------
 EKB .F              5188:   KELLING BUSHING
 EGL .F              5178:   GROUND LEVEL
 DATE.        03-MAY-1995:   RUN DATE
 RUN .                  1:   RUN NUMBER
 BLI .F               620:   BOTTOM LOG INTERVAL
 TLI .F               220:   TOP LOG INTERVAL
 ENGI.     C.TOWER/R.HUSK:   RECORDING ENGINEER
 CLNT.            A2DTECH:   CLIENT CODE
 ORIG.           5" PRINT:   ORIGIN OF DATA
 UWI .       490252271600:   UNIQUE WELL ID
 DICO. A2D Technologies, Inc.:   DIGITIZING COMPANY
~OTHER INFORMATION
~A   DEPT      ROP         TGAS 
# ...
  332.5000     0.6530     9.4801
  333.0000     0.6623     9.2900
  333.5000     0.6717     9.0741
  334.0000     0.6716     8.7210
  334.5000     0.5302     8.7191
  335.0000     0.5396     8.5290
  335.5000     0.5489     8.1506
  336.0000     0.5488     8.1487
  336.5000     0.5487     7.9586
  337.0000     0.5580     7.9568
  337.5000     0.5579     8.1437
  338.0000     0.6628     7.9531
  338.5000     0.6801     7.7629
  339.0000     0.6800     7.7611
  339.5000     0.6799     7.7486
  340.0000     0.6798     7.5675
  340.5000     0.6892     7.5186
  341.0000     0.6985     7.4697
  341.5000     0.6984     7.4209
  342.0000     0.6983     7.3720
  342.5000     0.6982     7.3231
  343.0000     0.6887     7.2742
  343.5000     0.6886     7.2254
  344.0000     0.4154     7.1765
  344.5000     0.4059     7.1276
  345.0000     0.4058     7.0787
  345.5000     0.4057     7.0299
  346.0000     0.3962     6.9810
  346.5000     0.4056     6.9321
  347.0000     0.4055     6.8832
  347.5000     0.4054     6.8343
  348.0000     0.5183     6.7855
  348.5000     0.5370     6.7366
  349.0000     0.5369     6.6877
  349.5000     0.5368     6.6388
  350.0000     0.5367     6.5900
  350.5000     0.5366     6.5841
  351.0000     0.5365     6.5782
  351.5000     0.5364     6.5723
  352.0000     0.6788     6.5664
  352.5000     0.6884     6.5605
  353.0000     0.6885     6.5546
  353.5000     0.6887     6.5487
  354.0000     0.6701     6.5428
  354.5000     0.5572     6.5369
  355.0000     0.5575     6.5310
  355.5000     0.5576     6.5251
  356.0000     0.5484     6.5192
  356.5000     0.5486     6.5133
  357.0000     0.5488     6.5074
  357.5000     0.5490     6.5015
  358.0000     0.5492     6.4956
  358.5000     0.5493     6.4897
  359.0000     0.5495     6.4839
  359.5000     0.5497     6.4780
  360.0000     0.5593     6.4769
  360.5000     0.5595     6.2924
  361.0000     0.5597     6.2962
  361.5000     0.5505     6.3007
  362.0000     0.5507     6.3044
  362.5000     0.5509     6.3082
  363.0000     0.5416     6.3113
  363.5000     0.5513     6.3151
  364.0000     0.5514     6.5076
  364.5000     0.5234     6.3221
  365.0000     0.4105     6.5150
  365.5000     0.4108     6.5187
  366.0000     0.4015     6.5224
  366.5000     0.4111     6.5262
  367.0000     0.4019     6.5299
  367.5000     0.4021     6.5336
  368.0000     0.5247     6.5373
  368.5000     0.5249     6.5410
  369.0000     0.5250     6.5448
  369.5000     0.5252     6.7368
  370.0000     0.5474     6.7406
  370.5000     0.6480     6.9502
  371.0000     0.6482     7.1254
  371.5000     0.6578     7.3174
  372.0000     0.6580     7.3211
  372.5000     0.6582     7.3248
  373.0000     0.6584     7.3285
  373.5000     0.6586     7.3323
  374.0000     0.6211     7.3360
  374.5000     0.5648     7.1514
  375.0000     0.5555     7.0920
  375.5000     0.5558     6.9696
  376.0000     0.5559     6.9743
  376.5000     0.6691     6.9780
  377.0000     0.6693     6.9817
  377.5000     0.6695     6.9854
  378.0000     0.6697     7.1774
  378.5000     0.8017     6.9928
  379.0000     0.8113     6.9967
  379.5000     0.8087     7.0004
  380.0000     0.5575     7.1923
  380.5000     0.5573     7.1143
  381.0000     0.5572     7.0400
  381.5000     0.5570     6.9658
  382.0000     0.5568     6.8915
  382.5000     0.5566     6.8172
  383.0000     0.5565     6.7429
  383.5000     0.5563     6.6547
  384.0000     0.5561     6.6584
  384.5000     0.5559     6.6621
  385.0000     0.5557     6.4775
  385.5000     0.5556     6.4813
  386.0000     0.5554     6.4850
  386.5000     0.5552     6.2995
  387.0000     0.5550     6.3041
  387.5000     0.5549     5.9303
  388.0000     0.5547     5.7467
  388.5000     0.5545     5.5612
  389.0000     0.5543     5.3774
  389.5000     0.5542     5.1929
  390.0000     0.5540     5.0084
  390.5000     0.5538     4.8238
  391.0000     0.5536     4.4510
  391.5000     0.5535     4.4548
  392.0000     0.5533     4.2703
  392.5000     0.5531     4.0856
  393.0000     0.5529     4.0902
  393.5000     0.5531     4.0939
  394.0000     0.6663     3.9085
  394.5000     0.6665     3.7248
  395.0000     0.6667     3.7285
  395.5000     0.6669     3.5430
  396.0000     0.6671     3.5477
  396.5000     0.6578     3.7397
  397.0000     0.6580     3.9317
  397.5000     0.6582     3.9354
  398.0000     0.6489     3.9391
  398.5000     0.6492     3.9428
  399.0000     0.6494     3.9465
  399.5000     0.6495     4.1385
  400.0000     0.6591     4.5188
  400.5000     0.6566     4.4834
  401.0000     0.6544     4.4479
  401.5000     0.6523     4.4124
  402.0000     0.6501     4.3770
  402.5000     0.6480     4.3415
  403.0000     0.6458     4.3060
  403.5000     0.6437     4.2706
  404.0000     0.6049     4.2351
  404.5000     0.5110     4.1996
  405.0000     0.5113     4.1793
  405.5000     0.5116     3.9948
  406.0000     0.5025     3.8102
  406.5000     0.5121     3.8148
  407.0000     0.5124     3.8185
  407.5000     0.5127     4.0108
  408.0000     0.5130     4.0142
  408.5000     0.5133     4.0180
  409.0000     0.5230     4.0218
  409.5000     0.5233     4.0263
  410.0000     0.6648     4.0300
  410.5000     0.6651     4.0331
  411.0000     0.6654     4.0368
  411.5000     0.6657     4.0411
  412.0000     0.6659     4.0448
  412.5000     0.6662     4.0481
  413.0000     0.6665     4.0522
  413.5000     0.6574     4.0556
  414.0000     0.6576     4.0596
  414.5000     0.6579     4.2516
  415.0000     0.6488     4.2553
  415.5000     0.6491     4.4473
  416.0000     0.6493     4.5477
  416.5000     0.6496     4.6431
  417.0000     0.6499     4.6469
  417.5000     0.6502     4.6514
  418.0000     0.6505     4.6551
  418.5000     0.6508     4.6588
  419.0000     0.6511     4.6625
  419.5000     0.6514     4.6662
  420.0000     0.5386     4.6699
  420.5000     0.5294     4.4844
  421.0000     0.5298     4.4887
  421.5000     0.5112     4.6808
  422.0000     0.5209     4.6847
  422.5000     0.5117     4.6884
  423.0000     0.5121     4.6921
  423.5000     0.5124     4.6958
  424.0000     0.5221     4.3230
  424.5000     0.5223     4.3268
  425.0000     0.5226     4.5188
  425.5000     0.5229     4.7116
  426.0000     0.5232     4.7153
  426.5000     0.5140     4.7190
  427.0000     0.5143     4.5335
  427.5000     0.5146     4.5381
  428.0000     0.5153     4.7301
  428.5000     0.5159     4.9221
  429.0000     0.5166     6.9970
  429.5000     0.5173    10.7664
  430.0000     0.5179    13.5943
  430.5000     0.5186    15.2926
  431.0000     0.5193    16.2377
  431.5000     0.5199    16.9946
  432.0000     0.5206    17.7615
  432.5000     0.5213    18.3420
  433.0000     0.5219    19.1109
  433.5000     0.5226    19.6463
  434.0000     0.5233    20.0266
  434.5000     0.5240    20.2186
  435.0000     0.5246    20.4106
  435.5000     0.5253    20.4143
  436.0000     0.5260    20.6063
  436.5000     0.5266    20.6100
  437.0000     0.5273    20.6137
  437.5000     0.5280    20.6174
  438.0000     0.5286    20.6211
  438.5000     0.5293    20.6248
  439.0000     0.5300    20.6285
  439.5000     0.5306    20.6322
  440.0000     0.6440    20.6360
  440.5000     0.6404    20.8280
  441.0000     0.6310    20.6433
  441.5000     0.6311    20.6480
  442.0000     0.6406    20.4634
  442.5000     0.6407    20.2779
  443.0000     0.6502    20.2825
  443.5000     0.6597    20.0970
  444.0000     0.5562    19.9124
  444.5000     0.5468    19.7288
  445.0000     0.5469    19.5433
  445.5000     0.5470    19.1704
  446.0000     0.5471    18.9866
  446.5000     0.5377    18.8021
  447.0000     0.5378    18.6176
  447.5000     0.5285    18.2448
  448.0000     0.5286    17.8719
  448.5000     0.5286    17.6605
  449.0000     0.5287    17.3145
  449.5000     0.5382    17.1299
  450.0000     0.5477    16.7579
  450.5000     0.5478    16.5724
  451.0000     0.5479    16.5771
  451.5000     0.5480    16.3916
  452.0000     0.5480    16.3962
  452.5000     0.5481    16.1253
  453.0000     0.5482    15.8237
  453.5000     0.5483    15.4393
