~VERSION INFORMATION
 VERS.                2.0:   CWLS LOG ASCII STANDARD - VERSION 2.0
 WRAP.                 NO:   ONE LINE PER DEPTH STEP
~WELL INFORMATION
#MNEM.UNIT      DATA TYPE    INFORMATION
#----------   ------------   ------------------------------
 STRT.F          630.0000:   START DEPTH
 STOP.F         1708.0000:   STOP DEPTH
 STEP.F            0.5000:   STEP LENGTH
 NULL.          -999.2500:   NO VALUE
 COMP. FENIX & SCISSON INC:   COMPANY
 WELL.      SHX 34 #58-34:   WELL
 FLD .             TEAPOT:   FIELD
 LOC .      S34 T39N R78W:   LOCATION
 CNTY.            NATRONA:   COUNTY
 STAT.            WYOMING:   STATE
 CTRY. UNITED STATES OF AMERICA:   COUNTRY
 SRVC.           BIRDWELL:   SERVICE COMPANY
 DATE.        28-MAR-1979:   LOGDATE
 API .       490251077400:   API NUMBER
~CURVE INFORMATION
#MNEM.UNIT       API CODE    CURVE DESCRIPTION
#----------   ------------   ------------------------------
 DEPT.F                  :   
 CORR.G/C3   45 356 01 00:   DENSITY CORRECTION
 DPHI.DEC    45 890 12 00:   DENSITY POROSITY SANDSTONE
 RHOB.G/C3   45 350 01 00:   BULK DENSITY
 CALD.IN     45 280 60 00:   CALIPER
 GRD .GAPI   45 310 01 00:   GAMMA RAY FROM DENSITY LOG
~PARAMETER INFORMATION
#MNEM.UNIT          VALUE    DESCRIPTION
#----------   ------------   ------------------------------
 PD  .                 GL:   PERMANENT DATUM
 EPD .F              5120:   ELEVATION PERMANENT DATUM
 LMF .                 KB:   LOG MEASURED FROM
 DAPD.F                10:   FEET ABOVE PERMANENT DATUM
 DMF .                 KB:   DRILLING MEASURED FROM
 EKB .F              5130:   KELLING BUSHING
 EGL .F              5120:   GROUND LEVEL
 DATE.            3-28-79:   RUN DATE
 RUN .                  2:   RUN NUMBER
 DD  .F              1720:   DEPTH DRILLER
 DL  .F              1708:   DEPTH LOGGER
 BLI .F              1708:   BOTTOM LOG INTERVAL
 TLI .F               649:   TOP LOG INTERVAL
 CS  .IN            9.625:   CASING SIZE
 CBD .F               639:   CASING BOTTOM DRILLER
 CBL .F               646:   CASING BOTTOM LOGGER
 BS  .IN             8.75:   BIT SIZE
 BSD .F              1720:   BIT SIZE AT DEPTH
 DFT .                OIL:   DRILLING FLUID TYPE
 TCS .HRS               3:   TIME CURCULATED STOPPED
 MRT .F               150:   MAXIMUM RECORDED TEMPERATURE
 LUN .               2959:   LOGGING UNIT NUMBER
 LUL .             CASPER:   LOGGING UNIT LOCATION
 ENGI.         B. ROLLINS:   RECORDING ENGINEER
 WITN.              AMEND:   WITNESSED BY
 CLNT.            A2DTECH:   CLIENT CODE
 ORIG.           5" PRINT:   ORIGIN OF DATA
 UWI .       490251077400:   UNIQUE WELL ID
 DICO. A2D Technologies, Inc.:   DIGITIZING COMPANY
~OTHER INFORMATION
~A   DEPT     CORR       DPHI       RHOB       CALD         GRD  
# ...
 1057.0000  -999.2500     0.0622     2.4387     9.5733   120.9941
 1057.5000  -999.2500     0.0537     2.4520     9.5692   122.9634
 1058.0000     0.0348     0.0444     2.4750     9.5654   125.2995
 1058.5000     0.0514     0.0351     2.4969     9.5612   127.9981
 1059.0000     0.0685     0.0277     2.5063     9.5571   124.6039
 1059.5000     0.0754     0.0239     2.4980     9.5534   115.8281
 1060.0000     0.0641     0.0349     2.4853     9.5486   118.0201
 1060.5000     0.0547     0.0470     2.4756     9.5445   122.0782
 1061.0000     0.0693     0.0354     2.4944     9.5428   122.2040
 1061.5000     0.0935     0.0204     2.5161     9.5035   120.5064
 1062.0000     0.1172     0.0053     2.5378     9.4094   118.7025
 1062.5000     0.1292    -0.0012     2.5541     9.3153   117.8451
 1063.0000     0.1008     0.0056     2.5372     9.2571   118.4823
 1063.5000     0.0708     0.0181     2.5154     9.3287   119.6535
 1064.0000     0.0569     0.0305     2.4929     9.3998   119.8431
 1064.5000     0.0554     0.0430     2.4713     9.4582   118.4120
 1065.0000     0.0459     0.0553     2.4488     9.4536   118.7141
 1065.5000     0.0405     0.0613     2.4399     9.4469   120.0012
 1066.0000     0.0445     0.0628     2.4488     9.4389   119.8900
 1066.5000     0.0543     0.0531     2.4674     9.4316   114.7670
 1067.0000     0.0685     0.0439     2.4847     9.4241   109.5017
 1067.5000     0.0909     0.0348     2.4966     9.4166   111.2905
 1068.0000     0.1058     0.0301     2.5055     9.4090   116.2786
 1068.5000     0.1149     0.0230     2.5142     9.4008   118.1713
 1069.0000     0.1064     0.0198     2.5138     9.3948   115.0172
 1069.5000     0.0886     0.0236     2.5052     9.3849   114.4995
 1070.0000     0.0660     0.0271     2.5003     9.3741   118.7100
 1070.5000     0.0543     0.0302     2.4952     9.2964   121.3265
 1071.0000     0.0532     0.0358     2.4918     9.2317   122.6008
 1071.5000     0.0571     0.0313     2.5017     9.1624   124.3767
 1072.0000     0.0601     0.0263     2.5025     9.1411   127.0178
 1072.5000     0.0632     0.0315     2.4860     9.2308   125.9004
 1073.0000     0.0588     0.0437     2.4656     9.3297   123.5387
 1073.5000     0.0540     0.0596     2.4457     9.4326   121.1410
 1074.0000     0.0494     0.0707     2.4335     9.3866   118.7613
 1074.5000     0.0499     0.0529     2.4508     9.3020   117.8092
 1075.0000     0.0578     0.0448     2.4718     9.3102   119.0102
 1075.5000     0.0682     0.0386     2.4755     9.3240   120.0242
 1076.0000     0.0794     0.0325     2.4875     9.3317   121.0665
 1076.5000     0.1238     0.0264     2.5067     9.3732   121.8544
 1077.0000     0.1461     0.0192     2.5245     9.3824   124.5043
 1077.5000     0.1464     0.0166     2.5251     9.3872   128.3721
 1078.0000     0.1432     0.0123     2.5216     9.3888   130.4741
 1078.5000     0.1306     0.0087     2.5339     9.3929   124.2756
 1079.0000     0.1033     0.0147     2.5319     9.3961   126.3768
 1079.5000     0.0693     0.0231     2.5145     9.3993   125.6573
 1080.0000     0.0339     0.0339     2.4904     9.4027   123.3888
 1080.5000     0.0235     0.0403     2.4795     9.4059   125.8942
 1081.0000     0.0200     0.0430     2.4801     9.4092   128.9892
 1081.5000     0.0224     0.0430     2.4835     9.4125   131.3717
 1082.0000     0.0238     0.0359     2.4924     9.4156   132.6560
 1082.5000     0.0254     0.0303     2.5006     9.4191   134.2024
 1083.0000     0.0274     0.0289     2.5043     9.4131   133.2242
 1083.5000     0.0293     0.0271     2.5061     9.4025   131.3588
 1084.0000     0.0311     0.0254     2.5074     9.3925   131.2170
 1084.5000     0.0309     0.0239     2.5080     9.3824   132.8788
 1085.0000     0.0294     0.0261     2.4945     9.3796   130.7671
 1085.5000     0.0203     0.0345     2.4825     9.3827   130.6756
 1086.0000     0.0077     0.0430     2.4703     9.3882   132.6697
 1086.5000    -0.0017     0.0566     2.4577     9.3933   133.6968
 1087.0000    -0.0014     0.0527     2.4619     9.3983   131.5058
 1087.5000     0.0018     0.0446     2.4711     9.4035   128.8198
 1088.0000     0.0053     0.0463     2.4683     9.4086   126.0639
 1088.5000     0.0101     0.0494     2.4699     9.4137   123.5392
 1089.0000     0.0203     0.0418     2.4813     9.4188   120.1023
 1089.5000     0.0287     0.0375     2.4912     9.4201   119.3845
 1090.0000     0.0326     0.0369     2.4914     9.4200   120.4213
 1090.5000     0.0408     0.0319     2.5009     9.4200   117.1679
 1091.0000     0.0611     0.0191     2.5098     9.4200   111.6418
 1091.5000     0.0679     0.0231     2.5119     9.4200   112.8154
 1092.0000     0.0591     0.0291     2.5008     9.4200   115.1272
 1092.5000     0.0526     0.0335     2.4897     9.4200   117.5008
 1093.0000     0.0487     0.0421     2.4787     9.4200   118.6060
 1093.5000     0.0573     0.0507     2.4676     9.4200   120.1116
 1094.0000     0.0653     0.0558     2.4537     9.4200   118.5349
 1094.5000     0.0854     0.0542     2.4616     9.4201   116.4423
 1095.0000     0.1235     0.0470     2.4893     9.4201   117.4187
 1095.5000     0.1585     0.0183     2.5179     9.4185   117.9481
 1096.0000     0.1416     0.0066     2.5363     9.4112   116.9354
 1096.5000     0.1155     0.0176     2.5287     9.4040   116.2619
 1097.0000     0.0874     0.0321     2.5021     9.3968   117.4388
 1097.5000     0.0605     0.0507     2.4766     9.3892   115.6075
 1098.0000     0.0311     0.0588     2.4547     9.3822   108.1309
 1098.5000     0.0179     0.0471     2.4632     9.3547   109.2646
 1099.0000     0.0300     0.0429     2.4790     9.3186   110.5817
 1099.5000     0.0342     0.0429     2.4797     9.2826   105.8417
 1100.0000     0.0368     0.0430     2.4773     9.2471   109.2740
 1100.5000     0.0398     0.0405     2.4785     9.2114   107.9027
 1101.0000     0.0387     0.0374     2.4876     9.1750   104.8589
 1101.5000     0.0374     0.0346     2.4967     9.1406   103.1346
 1102.0000     0.0318     0.0310     2.5061     9.1022   105.0328
 1102.5000     0.0163     0.0284     2.4995     9.0949   109.9376
 1103.0000     0.0072     0.0472     2.4848     9.0878   109.3292
 1103.5000     0.0082     0.0606     2.4591     9.0827   109.3113
 1104.0000     0.0077     0.0740     2.4353     9.0765   112.1817
 1104.5000     0.0113     0.0846     2.4026     9.0699   115.0420
 1105.0000     0.0228     0.0698     2.4075     9.0652   118.4771
 1105.5000     0.0374     0.0557     2.4438     9.0609   121.5203
 1106.0000     0.0435     0.0502     2.4666     9.1201   123.7231
 1106.5000     0.0402     0.0439     2.4753     9.1918   122.4377
 1107.0000     0.0446     0.0376     2.4851     9.2579   120.6934
 1107.5000     0.0556     0.0327     2.4950     9.2599   121.2784
 1108.0000     0.0661     0.0325     2.5007     9.2858   123.1705
 1108.5000     0.0742     0.0323     2.4967     9.3126   125.1521
 1109.0000     0.0790     0.0320     2.4958     9.3409   122.2033
 1109.5000     0.0836     0.0316     2.4990     9.3688   118.8773
 1110.0000     0.0918     0.0309     2.4995     9.3965   115.5003
 1110.5000     0.0840     0.0303     2.4931     9.4242   112.3799
 1111.0000     0.0669     0.0411     2.4866     9.4523   112.1769
 1111.5000     0.0493     0.0520     2.4634     9.4804   114.0605
 1112.0000     0.0389     0.0594     2.4545     9.4999   117.5422
 1112.5000     0.0443     0.0594     2.4504     9.4900   119.9264
 1113.0000     0.0491     0.0593     2.4529     9.4790   118.2815
 1113.5000     0.0787     0.0464     2.4693     9.4675   119.3628
 1114.0000     0.1061     0.0272     2.5031     9.4563   121.2089
 1114.5000     0.1355     0.0081     2.5373     9.4445   114.9131
 1115.0000     0.1262    -0.0016     2.5526     9.4337   113.5324
 1115.5000     0.1120     0.0166     2.5281     9.4217   115.8295
 1116.0000     0.0851     0.0330     2.5077     9.4115   118.4711
 1116.5000     0.0576     0.0430     2.4853     9.3889   120.5791
 1117.0000     0.0362     0.0438     2.4764     9.3678   123.4824
 1117.5000     0.0378     0.0438     2.4770     9.3462   122.4264
