~VERSION INFORMATION
 VERS.                2.0:   CWLS LOG ASCII STANDARD - VERSION 2.0
 WRAP.                 NO:   ONE LINE PER DEPTH STEP
~WELL INFORMATION
#MNEM.UNIT      DATA TYPE    INFORMATION
#----------   ------------   ------------------------------
 STRT.F         1378.5000:   START DEPTH
 STOP.F         2344.0000:   STOP DEPTH
 STEP.F            0.5000:   STEP LENGTH
 NULL.          -999.2500:   NO VALUE
 COMP. BROWN JOHN E&C INC:   COMPANY
 WELL. NAVAL PETROLEUM RESERVE 3 STX- #26-10:   WELL
 FLD .             TEAPOT:   FIELD
 LOC .      S10 T38N R78W:   LOCATION
 CNTY.            NATRONA:   COUNTY
 STAT.            WYOMING:   STATE
 CTRY. UNITED STATES OF AMERICA:   COUNTRY
 SRVC.            Unknown:   SERVICE COMPANY
 DATE.        22-MAY-1991:   LOGDATE
 API .       490251107400:   API NUMBER
~CURVE INFORMATION
#MNEM.UNIT       API CODE    CURVE DESCRIPTION
#----------   ------------   ------------------------------
 DEPT.F                  :   
 ROP .MIN/FT 91 810 01 00:   RATE OF DRILLING PENETRATION
 TGAS.UNITS  91 830 01 00:   TOTAL GAS FROM HOTWIRE
~PARAMETER INFORMATION
#MNEM.UNIT          VALUE    DESCRIPTION
#----------   ------------   ------------------------------
 EKB .F              5231:   KELLING BUSHING
 EGL .F              5221:   GROUND LEVEL
 DATE.            5-22-91:   RUN DATE
 DD  .F              2343:   DEPTH DRILLER
 BLI .F              2343:   BOTTOM LOG INTERVAL
 TLI .F              1378:   TOP LOG INTERVAL
 CS  .IN            8.625:   CASING SIZE
 CBD .F               709:   CASING BOTTOM DRILLER
 TCS .HRS            0030:   TIME CURCULATED STOPPED
 TLAB.HRS            0415:   TIME LOGGER AT BOTTOM
 ENGI.              TOWER:   RECORDING ENGINEER
 WITN.               HUSK:   WITNESSED BY
 CLNT.            A2DTECH:   CLIENT CODE
 ORIG.           5" PRINT:   ORIGIN OF DATA
 UWI .       490251107400:   UNIQUE WELL ID
 DICO. A2D Technologies, Inc.:   DIGITIZING COMPANY
~OTHER INFORMATION
~A  DEPT         ROP       TGAS 
# ...
 1743.0000     0.3662     5.0945
 1743.5000     0.3673     5.0988
 1744.0000     0.3685     5.1031
 1744.5000     0.3692     5.1073
 1745.0000     0.3450     5.1116
 1745.5000     0.3126     5.1159
 1746.0000     0.2789     5.1202
 1746.5000     0.2727     5.1245
 1747.0000     0.2754     5.1288
 1747.5000     0.2781     5.1330
 1748.0000     0.2808     5.1373
 1748.5000     0.3113     5.1416
 1749.0000     0.3574     5.1459
 1749.5000     0.4189     5.1502
 1750.0000     0.5195     5.1548
 1750.5000     0.4523     5.1667
 1751.0000     0.4084     5.1796
 1751.5000     0.3676     5.1924
 1752.0000     0.3459     5.2053
 1752.5000     0.3476     5.2182
 1753.0000     0.3492     5.2311
 1753.5000     0.3507     5.2440
 1754.0000     0.3522     5.2569
 1754.5000     0.3537     5.2698
 1755.0000     0.3553     5.2827
 1755.5000     0.3523     5.2956
 1756.0000     0.3419     5.3085
 1756.5000     0.3314     5.3214
 1757.0000     0.3128     5.3343
 1757.5000     0.2706     5.3472
 1758.0000     0.2552     5.3601
 1758.5000     0.2273     5.3730
 1759.0000     0.2489     5.3859
 1759.5000     0.2775     5.3988
 1760.0000     0.3071     5.4117
 1760.5000     0.3311     5.4246
 1761.0000     0.3453     5.4375
 1761.5000     0.3571     5.4504
 1762.0000     0.3571     5.4633
 1762.5000     0.3571     5.4762
 1763.0000     0.3571     5.4891
 1763.5000     0.3571     5.5020
 1764.0000     0.3571     5.5149
 1764.5000     0.3571     5.5278
 1765.0000     0.3571     5.5407
 1765.5000     0.3571     5.5536
 1766.0000     0.3571     5.5665
 1766.5000     0.3571     5.5794
 1767.0000     0.3571     5.5923
 1767.5000     0.3571     5.6052
 1768.0000     0.3571     5.6181
 1768.5000     0.3571     5.6310
 1769.0000     0.3451     5.6439
 1769.5000     0.2922     5.6568
 1770.0000     0.2699     5.6697
 1770.5000     0.2489     5.6826
 1771.0000     0.2489     5.6955
 1771.5000     0.2489     5.7084
 1772.0000     0.2489     5.7213
 1772.5000     0.2489     5.7342
 1773.0000     0.2489     5.7471
 1773.5000     0.2489     5.7600
 1774.0000     0.2489     5.7729
 1774.5000     0.2645     5.7858
 1775.0000     0.2922     5.7987
 1775.5000     0.3355     5.8116
 1776.0000     0.3634     5.8245
 1776.5000     0.4004     5.8374
 1777.0000     0.3680     5.8503
 1777.5000     0.3499     5.8631
 1778.0000     0.3226     5.8760
 1778.5000     0.2906     5.8889
 1779.0000     0.2489     5.9018
 1779.5000     0.2502     5.9147
 1780.0000     0.2518     5.9276
 1780.5000     0.2534     5.9405
 1781.0000     0.2550     5.9534
 1781.5000     0.2566     5.9663
 1782.0000     0.2582     5.9792
 1782.5000     0.2601     5.9921
 1783.0000     0.2922     6.0050
 1783.5000     0.3247     6.0179
 1784.0000     0.3521     6.0308
 1784.5000     0.3680     6.0437
 1785.0000     0.3680     6.0566
 1785.5000     0.3680     6.0695
 1786.0000     0.3680     6.0824
 1786.5000     0.3301     6.0953
 1787.0000     0.2922     6.1082
 1787.5000     0.2692     6.1211
 1788.0000     0.2493     6.1340
 1788.5000     0.2498     6.1469
 1789.0000     0.2504     6.1598
 1789.5000     0.2509     6.1727
 1790.0000     0.2515     6.1856
 1790.5000     0.2520     6.1985
 1791.0000     0.2525     6.2114
 1791.5000     0.2531     6.2243
 1792.0000     0.2536     6.2372
 1792.5000     0.2541     6.2501
 1793.0000     0.2547     6.2630
 1793.5000     0.2552     6.2759
 1794.0000     0.2558     6.2888
 1794.5000     0.2563     6.3017
 1795.0000     0.2568     6.3146
 1795.5000     0.2574     6.3275
 1796.0000     0.2579     6.3404
 1796.5000     0.2585     6.3533
 1797.0000     0.2590     6.3662
 1797.5000     0.2595     6.3791
 1798.0000     0.2706     6.3920
 1798.5000     0.2814     6.4049
 1799.0000     0.2930     6.4178
 1799.5000     0.3197     6.4307
 1800.0000     0.3486     6.4446
 1800.5000     0.3579     6.4367
 1801.0000     0.3672     6.4281
 1801.5000     0.3765     6.4195
 1802.0000     0.3680     6.4109
 1802.5000     0.3479     6.4023
 1803.0000     0.3139     6.3937
 1803.5000     0.2897     6.3851
 1804.0000     0.2597     6.3765
 1804.5000     0.2605     6.3679
 1805.0000     0.2614     6.3592
 1805.5000     0.2623     6.3506
 1806.0000     0.2632     6.3420
 1806.5000     0.2641     6.3334
 1807.0000     0.2650     6.3248
 1807.5000     0.2659     6.3162
 1808.0000     0.2667     6.3076
 1808.5000     0.2666     6.2990
 1809.0000     0.2659     6.2904
 1809.5000     0.2653     6.2818
 1810.0000     0.2646     6.2732
 1810.5000     0.2640     6.2646
 1811.0000     0.2633     6.2560
 1811.5000     0.2626     6.2474
 1812.0000     0.2620     6.2388
 1812.5000     0.2613     6.2302
 1813.0000     0.2607     6.2216
 1813.5000     0.2600     6.2130
 1814.0000     0.2593     6.2043
 1814.5000     0.2587     6.1957
 1815.0000     0.2580     6.1871
 1815.5000     0.2574     6.1785
 1816.0000     0.2567     6.1699
 1816.5000     0.2561     6.1613
 1817.0000     0.2554     6.1527
 1817.5000     0.2547     6.1441
 1818.0000     0.2541     6.1355
 1818.5000     0.2534     6.1269
 1819.0000     0.2528     6.1183
 1819.5000     0.2521     6.1097
 1820.0000     0.2515     6.1011
 1820.5000     0.2509     6.0925
 1821.0000     0.2518     6.0839
 1821.5000     0.2526     6.0753
 1822.0000     0.2534     6.0667
 1822.5000     0.2542     6.0580
 1823.0000     0.2550     6.0494
 1823.5000     0.2558     6.0408
 1824.0000     0.2566     6.0322
 1824.5000     0.2574     6.0236
 1825.0000     0.2582     6.0150
 1825.5000     0.2590     6.0064
 1826.0000     0.2598     5.9978
 1826.5000     0.2606     5.9892
 1827.0000     0.2614     5.9806
 1827.5000     0.2622     5.9720
 1828.0000     0.2630     5.9634
 1828.5000     0.2638     5.9548
 1829.0000     0.2646     5.9462
 1829.5000     0.2654     5.9376
 1830.0000     0.2663     5.9290
 1830.5000     0.2671     5.9204
 1831.0000     0.2679     5.9117
 1831.5000     0.2687     5.9031
 1832.0000     0.2695     5.8945
 1832.5000     0.2703     5.8859
 1833.0000     0.2711     5.8773
 1833.5000     0.2719     5.8687
 1834.0000     0.2727     5.8601
 1834.5000     0.2735     5.8515
 1835.0000     0.2743     5.8429
 1835.5000     0.2751     5.8343
 1836.0000     0.2759     5.8257
 1836.5000     0.2773     5.8171
 1837.0000     0.2808     5.8085
 1837.5000     0.2843     5.7999
 1838.0000     0.2878     5.7913
 1838.5000     0.2913     5.7827
 1839.0000     0.2948     5.7741
 1839.5000     0.2983     5.7654
 1840.0000     0.3018     5.7568
 1840.5000     0.3052     5.7482
 1841.0000     0.3072     5.7396
 1841.5000     0.3076     5.7310
 1842.0000     0.3079     5.7224
 1842.5000     0.3083     5.7138
 1843.0000     0.3087     5.7052
 1843.5000     0.3090     5.6966
 1844.0000     0.3094     5.6880
 1844.5000     0.3097     5.6794
 1845.0000     0.3101     5.6708
 1845.5000     0.3105     5.6622
 1846.0000     0.3108     5.6536
 1846.5000     0.3112     5.6450
 1847.0000     0.3115     5.6364
 1847.5000     0.3119     5.6278
 1848.0000     0.3123     5.6191
 1848.5000     0.3126     5.6105
 1849.0000     0.3130     5.6019
 1849.5000     0.3134     5.5933
 1850.0000     0.3137     5.5847
 1850.5000     0.3118     5.5315
 1851.0000     0.3092     5.4783
 1851.5000     0.3065     5.4251
 1852.0000     0.3039     5.3719
 1852.5000     0.3012     5.3187
 1853.0000     0.2986     5.2655
 1853.5000     0.2960     5.2123
 1854.0000     0.2933     5.1591
 1854.5000     0.2907     5.1059
 1855.0000     0.2881     5.0527
 1855.5000     0.2854     4.9994
 1856.0000     0.2828     4.9462
 1856.5000     0.2801     4.8930
 1857.0000     0.2775     4.8398
 1857.5000     0.2749     4.7866
 1858.0000     0.2722     4.7334
 1858.5000     0.2696     4.6802
 1859.0000     0.2669     4.6270
 1859.5000     0.2644     4.5738
 1860.0000     0.2749     4.5206
 1860.5000     0.2995     4.4674
 1861.0000     0.3284     4.4142
 1861.5000     0.3497     4.3610
 1862.0000     0.3534     4.3078
 1862.5000     0.3599     4.2545
 1863.0000     0.3606     4.2013
 1863.5000     0.3630     4.1481
 1864.0000     0.3654     4.0949
