~VERSION INFORMATION
 VERS.                2.0:   CWLS LOG ASCII STANDARD - VERSION 2.0
 WRAP.                 NO:   ONE LINE PER DEPTH STEP
~WELL INFORMATION
#MNEM.UNIT      DATA TYPE    INFORMATION
#----------   ------------   ------------------------------
 STRT.F          438.0000:   START DEPTH
 STOP.F         2175.0000:   STOP DEPTH
 STEP.F            0.5000:   STEP LENGTH
 NULL.          -999.2500:   NO VALUE
 COMP.   FLUOR DANIEL INC:   COMPANY
 WELL. NAVAL PETROLEUM RESERVE 3 X29 #74-29:   WELL
 FLD .            WLIDCAT:   FIELD
 LOC .      S29 T39N R78W:   LOCATION
 CNTY.            NATRONA:   COUNTY
 STAT.            WYOMING:   STATE
 CTRY. UNITED STATES OF AMERICA:   COUNTRY
 SRVC.            Unknown:   SERVICE COMPANY
 DATE.        05-JUN-1995:   LOGDATE
 API .       490252272900:   API NUMBER
~CURVE INFORMATION
#MNEM.UNIT       API CODE    CURVE DESCRIPTION
#----------   ------------   ------------------------------
 DEPT.F                  :   
 ROP .FT/HR  91 810 01 00:   RAT OF DRILLING PENETRATION
 TGAS.TC/CC  91 830 01 00:   TOTAL GAS UNIT
~PARAMETER INFORMATION
#MNEM.UNIT          VALUE    DESCRIPTION
#----------   ------------   ------------------------------
 EKB .F              5036:   KELLING BUSHING
 EGL .F              5026:   GROUND LEVEL
 DATE.        05-JUN-1995:   RUN DATE
 RUN .                  1:   RUN NUMBER
 BLI .F              2160:   BOTTOM LOG INTERVAL
 TLI .F               440:   TOP LOG INTERVAL
 ENGI.     R.HUSK/C.TOWER:   RECORDING ENGINEER
 CLNT.            A2DTECH:   CLIENT CODE
 ORIG.           5" PRINT:   ORIGIN OF DATA
 UWI .       490252272900:   UNIQUE WELL ID
 DICO. A2D Technologies, Inc.:   DIGITIZING COMPANY
~OTHER INFORMATION
~A   DEPT        ROP       TGAS 
# ...
 1288.5000     0.4978     2.3792
 1289.0000     0.4883     2.3635
 1289.5000     0.4787     2.4348
 1290.0000     0.4596     2.5296
 1290.5000     0.4597     2.5135
 1291.0000     0.4502     2.5019
 1291.5000     0.4407     2.4887
 1292.0000     0.4510     2.6635
 1292.5000     0.4601     2.6506
 1293.0000     0.4602     2.8264
 1293.5000     0.4603     2.8132
 1294.0000     0.4604     2.8000
 1294.5000     0.4605     2.7844
 1295.0000     0.4606     2.7736
 1295.5000     0.4703     2.9505
 1296.0000     0.4800     2.9344
 1296.5000     0.4801     3.0268
 1297.0000     0.4903     3.1005
 1297.5000     0.4963     3.0844
 1298.0000     0.5023     3.0715
 1298.5000     0.5082     3.0585
 1299.0000     0.5142     3.0453
 1299.5000     0.5202     3.0321
 1300.0000     0.5261     3.0189
 1300.5000     0.5321     3.0038
 1301.0000     0.5381     2.9080
 1301.5000     0.5441     2.7894
 1302.0000     0.5430     2.7754
 1302.5000     0.5419     2.7642
 1303.0000     0.5409     2.7509
 1303.5000     0.5398     2.5491
 1304.0000     0.5387     2.5358
 1304.5000     0.5376     2.3314
 1305.0000     0.5366     2.1298
 1305.5000     0.5355     2.1169
 1306.0000     0.7786     2.1040
 1306.5000     0.7880     2.0911
 1307.0000     0.7880     2.0782
 1307.5000     0.7974     2.0653
 1308.0000     0.7974     2.0528
 1308.5000     0.7880     2.0396
 1309.0000     0.7880     1.9286
 1309.5000     0.7974     1.8245
 1310.0000     0.6473     1.8090
 1310.5000     0.6379     1.7981
 1311.0000     0.6473     1.7832
 1311.5000     0.6473     1.7703
 1312.0000     0.6473     1.9493
 1312.5000     0.6473     1.9332
 1313.0000     0.6473     1.4443
 1313.5000     0.6473     1.4283
 1314.0000     0.6473     1.4113
 1314.5000     0.6473     1.3943
 1315.0000     0.6473     1.3774
 1315.5000     0.6473     1.3575
 1316.0000     0.5441     1.3410
 1316.5000     0.5253     1.3264
 1317.0000     0.5347     1.3094
 1317.5000     0.5347     1.4800
 1318.0000     0.5347     1.4635
 1318.5000     0.5347     1.4918
 1319.0000     0.5347     1.6191
 1319.5000     0.5441     1.6019
 1320.0000     0.5441     1.5819
 1320.5000     0.5536     1.5653
 1321.0000     0.5542     1.5488
 1321.5000     0.5548     1.5340
 1322.0000     0.5554     1.5170
 1322.5000     0.5561     1.4992
 1323.0000     0.5567     1.6717
 1323.5000     0.5573     1.7503
 1324.0000     0.5579     1.8269
 1324.5000     0.5585     1.8094
 1325.0000     0.5591     1.7925
 1325.5000     0.5598     1.9660
 1326.0000     0.5604     1.9453
 1326.5000     0.5610     2.0082
 1327.0000     0.5616     2.1019
 1327.5000     0.5622     2.0844
 1328.0000     0.5629     2.0679
 1328.5000     0.5635     2.0509
 1329.0000     0.5581     2.0306
 1329.5000     0.5521     2.0170
 1330.0000     0.5461     2.0000
 1330.5000     0.5400     1.9830
 1331.0000     0.5342     1.9644
 1331.5000     0.5348     1.9479
 1332.0000     0.5354     1.7434
 1332.5000     0.5359     1.7261
 1333.0000     0.5365     1.7094
 1333.5000     0.5370     1.5038
 1334.0000     0.5376     1.4837
 1334.5000     0.5381     1.6600
 1335.0000     0.5387     1.6393
 1335.5000     0.5392     1.8132
 1336.0000     0.5398     1.8604
 1336.5000     0.5403     1.9712
 1337.0000     0.5409     2.1396
 1337.5000     0.5414     2.1226
 1338.0000     0.5420     2.1057
 1338.5000     0.5425     2.0887
 1339.0000     0.5431     2.0717
 1339.5000     0.5437     2.0523
 1340.0000     0.5440     2.0358
 1340.5000     0.5437     2.2121
 1341.0000     0.5434     2.1914
 1341.5000     0.5431     2.1755
 1342.0000     0.5428     2.1585
 1342.5000     0.5425     2.1415
 1343.0000     0.5422     2.1239
 1343.5000     0.5419     2.1046
 1344.0000     0.5416     2.0396
 1344.5000     0.5413     1.8828
 1345.0000     0.5410     1.8663
 1345.5000     0.5406     1.8509
 1346.0000     0.5403     1.8340
 1346.5000     0.5400     1.8167
 1347.0000     0.5397     1.8000
 1347.5000     0.5394     1.7295
 1348.0000     0.5391     1.5774
 1348.5000     0.5388     1.5604
 1349.0000     0.5385     1.5411
 1349.5000     0.5382     1.5246
 1350.0000     0.5379     1.5094
 1350.5000     0.5376     1.6843
 1351.0000     0.5373     1.6637
 1351.5000     0.5370     1.6472
 1352.0000     0.5367     1.6302
 1352.5000     0.5364     1.8181
 1353.0000     0.5360     1.9736
 1353.5000     0.5357     1.9566
 1354.0000     0.5354     2.1263
 1354.5000     0.5351     2.1098
 1355.0000     0.5348     2.0943
 1355.5000     0.5349     2.0767
 1356.0000     0.5351     2.0604
 1356.5000     0.5354     2.0434
 1357.0000     0.5356     2.0243
 1357.5000     0.5359     2.0094
 1358.0000     0.5361     1.8967
 1358.5000     0.5363     1.7868
 1359.0000     0.5366     1.7667
 1359.5000     0.5368     1.8491
 1360.0000     0.5371     1.9245
 1360.5000     0.5373     1.9058
 1361.0000     0.5376     1.8906
 1361.5000     0.5378     1.8736
 1362.0000     0.5381     1.8534
 1362.5000     0.5383     2.0255
 1363.0000     0.5386     2.0113
 1363.5000     0.5388     1.9943
 1364.0000     0.5391     1.9759
 1364.5000     0.5393     1.9594
 1365.0000     0.5396     1.6594
 1365.5000     0.5400     1.8407
 1366.0000     0.6717     2.0238
 1366.5000     0.6722     2.0146
 1367.0000     0.6820     2.0073
 1367.5000     0.6825     1.9999
 1368.0000     0.6735     1.9925
 1368.5000     0.7772     1.9849
 1369.0000     0.7871     1.9759
 1369.5000     0.7875     1.9685
 1370.0000     0.7880     1.9612
 1370.5000     0.7885     1.9538
 1371.0000     0.7889     1.9464
 1371.5000     0.7988     1.9396
 1372.0000     0.7377     1.9321
 1372.5000     0.5337     1.9243
 1373.0000     0.4811     1.9170
 1373.5000     0.4814     2.0982
 1374.0000     0.4818     2.0906
 1374.5000     0.4821     1.8929
 1375.0000     0.4824     1.8856
 1375.5000     0.4827     1.8782
 1376.0000     0.4830     1.8717
 1376.5000     0.4834     1.8642
 1377.0000     0.4837     1.8561
 1377.5000     0.4840     1.8487
 1378.0000     0.4843     2.0302
 1378.5000     0.4846     2.0226
 1379.0000     0.4849     2.2039
 1379.5000     0.4853     2.1962
 1380.0000     0.4856     2.1873
 1380.5000     0.4859     2.1811
 1381.0000     0.4862     2.1726
 1381.5000     0.4865     2.1652
 1382.0000     0.4869     2.1578
 1382.5000     0.4872     2.2201
 1383.0000     0.4875     2.1431
 1383.5000     0.4878     2.1357
 1384.0000     0.4881     2.1283
 1384.5000     0.4884     2.1208
 1385.0000     0.4888     2.1130
 1385.5000     0.4891     2.1044
 1386.0000     0.4894     2.0981
 1386.5000     0.4897     2.0896
 1387.0000     0.4900     2.0830
 1387.5000     0.4904     2.0742
 1388.0000     0.4907     2.0679
 1388.5000     0.4910     2.0604
 1389.0000     0.4913     2.0527
 1389.5000     0.4916     2.0453
 1390.0000     0.4919     2.0377
 1390.5000     0.4923     2.0300
 1391.0000     0.4926     2.0214
 1391.5000     0.4929     2.0140
 1392.0000     0.4932     2.0075
 1392.5000     0.4935     2.0000
 1393.0000     0.4939     1.9919
 1393.5000     0.4942     1.9849
 1394.0000     0.4945     1.9771
 1394.5000     0.4948     1.9698
 1395.0000     0.4951     1.9623
 1395.5000     0.4955     1.9547
 1396.0000     0.4958     1.9472
 1396.5000     0.4961     1.9384
 1397.0000     0.4964     1.9321
 1397.5000     0.4967     1.9237
 1398.0000     0.4970     1.9163
 1398.5000     0.4974     1.9094
 1399.0000     0.4977     1.9015
 1399.5000     0.4980     1.8942
 1400.0000     0.4983     1.8868
 1400.5000     0.4986     1.8792
 1401.0000     0.4990     1.8702
 1401.5000     0.4993     1.8628
 1402.0000     0.4996     2.0194
 1402.5000     0.4999     1.9673
 1403.0000     0.5002     1.9152
 1403.5000     0.5005     1.8631
 1404.0000     0.5013     1.8109
 1404.5000     0.5025     1.7678
 1405.0000     0.5036     1.7547
 1405.5000     0.5048     1.7415
 1406.0000     0.5060     1.7260
 1406.5000     0.5072     1.7131
 1407.0000     0.5083     1.7019
 1407.5000     0.5095     1.6887
 1408.0000     0.5107     1.6755
 1408.5000     0.5118     1.6617
 1409.0000     0.5130     1.6491
 1409.5000     0.5142     1.6358
