~VERSION INFORMATION
 VERS.                2.0:   CWLS LOG ASCII STANDARD - VERSION 2.0
 WRAP.                 NO:   ONE LINE PER DEPTH STEP
~WELL INFORMATION
#MNEM.UNIT      DATA TYPE    INFORMATION
#----------   ------------   ------------------------------
 STRT.F           34.0000:   START DEPTH
 STOP.F          582.0000:   STOP DEPTH
 STEP.F            0.5000:   STEP LENGTH
 NULL.          -999.2500:   NO VALUE
 COMP. FENIX & SCISSON INC:   COMPANY
 WELL. NPR 3 SX-33 #88-33:   WELL
 FLD .             TEAPOT:   FIELD
 LOC .      S33 T39N R78W:   LOCATION
 CNTY.            NATRONA:   COUNTY
 STAT.            WYOMING:   STATE
 CTRY. UNITED STATES OF AMERICA:   COUNTRY
 SRVC.           BIRDWELL:   SERVICE COMPANY
 DATE.        04-AUG-1978:   LOGDATE
 API .       490251068000:   API NUMBER
~CURVE INFORMATION
#MNEM.UNIT       API CODE    CURVE DESCRIPTION
#----------   ------------   ------------------------------
 DEPT.F                  :   
 SPR .MV     05 010 01 00:   SPONTANEOUS POTENTIAL FROM RES.
 ILD .OHMM   05 120 46 00:   INDUCTION LOG DEEP
 SN  .OHMM   05 040 16 00:   SHORT NORMAL 16"
 CALD.IN     45 280 60 00:   CALIPER
 GRD .GAPI   45 310 01 00:   GAMMA RAY FROM DENSITY LOG
 DEN .G/C3   45 350 01 00:   COMPENSATED BULK DENSTIY
 CORR.G/C3   45 356 01 00:   DENSITY CORRECTION
 DPHI.DEC    45 890 12 00:   DENSITY POROSITY SANDSTONE
~PARAMETER INFORMATION
#MNEM.UNIT          VALUE    DESCRIPTION
#----------   ------------   ------------------------------
 PD  .                 GL:   PERMANENT DATUM
 EPD .F              5146:   ELEVATION PERMANENT DATUM
 LMF .                 KB:   LOG MEASURED FROM
 DAPD.F                 4:   FEET ABOVE PERMANENT DATUM
 DMF .                 KB:   DRILLING MEASURED FROM
 EKB .F              5150:   KELLING BUSHING
 EGL .F              5146:   GROUND LEVEL
 DATE.             8-4-78:   RUN DATE
 RUN .                  1:   RUN NUMBER
 DD  .F               570:   DEPTH DRILLER
 DL  .F               588:   DEPTH LOGGER
 BLI .F               582:   BOTTOM LOG INTERVAL
 TLI .F                50:   TOP LOG INTERVAL
 CS  .IN            8.625:   CASING SIZE
 CBD .F                40:   CASING BOTTOM DRILLER
 BS  .IN            7.875:   BIT SIZE
 BSD .F               570:   BIT SIZE AT DEPTH
 DFT .                KCL:   DRILLING FLUID TYPE
 DFD .                8.7:   DRILLING FLUID DENSITY
 DFV .                 34:   DRILLING FLUID VISCOSITY
 DFPH.                  9:   DRILLING FLUID PH
 DFL .                9.6:   DRILLING FLUID LOSS
 MSS .          FLOW LINE:   MUD SAMPLE SOURCE
 RMS .OHMM            .24:   RESISTIVITY MUD SAMPLE
 MST .F                70:   MUD SAMPLE TEMPERATURE
 RMF .OHMM            .24:   RESISTIVITY MUD FILTRATE SAMPLE
 MFST.F                80:   MUD FILTRATE SAMPLE TEMPERATURE
 RMC .OHMM             .3:   RESISTIVITY MUD CAKE
 MCST.F                75:   MUD CAKE SAMPLE TEMPERATURE
 MFSS.               MEAS:   MUD FILTRATE SAMPLE SOURCE
 TCS .HRS               2:   TIME CURCULATED STOPPED
 LUN .               3006:   LOGGING UNIT NUMBER
 LUL .               CASP:   LOGGING UNIT LOCATION
 ENGI.             MILLER:   RECORDING ENGINEER
 WITN.           MCGINLEY:   WITNESSED BY
 CLNT.            A2DTECH:   CLIENT CODE
 ORIG.        2" 5" PRINT:   ORIGIN OF DATA
 UWI .       490251068000:   UNIQUE WELL ID
 DICO. A2D Technologies, Inc.:   DIGITIZING COMPANY
~OTHER INFORMATION
~A   DEPT      SPR        ILD         SN       CALD         GRD       DEN       CORR       DPHI   
# ...
  317.5000   -25.7821     7.3955     7.7381     7.5711   103.1716     2.4836     0.0401     0.1158
  318.0000   -25.7605     7.2436     7.5827     7.5203   107.4600     2.4830     0.0411     0.1144
  318.5000   -25.7383     7.0949     7.4305     7.4480   100.5264     2.4795     0.0418     0.1296
  319.0000   -25.7160     6.9567     7.2813     7.3397   101.2430     2.4636     0.0355     0.1425
  319.5000   -25.6938     6.6490     7.1351     7.2301   105.8939     2.4415     0.0199     0.1469
  320.0000   -25.6715     6.3689     6.9752     7.1757   103.3504     2.4312     0.0068     0.1496
  320.5000   -25.6506     6.1175     6.8105     7.1640   107.6003     2.4281     0.0041     0.1526
  321.0000   -25.6268     5.9295     6.6496     7.1575   109.9448     2.4253     0.0050     0.1577
  321.5000   -25.5914     5.7357     6.4926     7.1502   106.4957     2.4154     0.0063     0.1658
  322.0000   -24.8716     5.7356     6.3392     7.1782   111.5996     2.4087     0.0075     0.1688
  322.5000   -24.3964     5.8401     6.2309     7.2116   111.5541     2.4049     0.0126     0.1514
  323.0000   -24.3819     5.9225     6.2309     7.2477   108.7319     2.4330     0.0239     0.1357
  323.5000   -24.3708     6.0055     6.3549     7.3612   115.7501     2.4644     0.0411     0.1259
  324.0000   -24.3601     6.0915     6.5903     7.7945   115.8820     2.4734     0.0494     0.1226
  324.5000   -24.3486     6.2775     6.9854     7.2316   107.4322     2.4711     0.0391     0.1273
  325.0000   -24.3371     6.6717     7.4043     7.2349   108.7831     2.4660     0.0320     0.1294
  325.5000   -24.3256     7.2170     7.8482     7.2446   111.0756     2.4615     0.0331     0.1310
  326.0000   -24.3141     7.3910     8.0622     7.2790   107.8608     2.4622     0.0339     0.1289
  326.5000   -24.3027     7.5883     8.1036     7.3357   108.2801     2.4719     0.0348     0.1235
  327.0000   -24.2912     7.7738     8.1452     7.3921   105.5130     2.4717     0.0358     0.1196
  327.5000   -24.2797     7.8313     8.1870     7.4544   106.2468     2.4752     0.0338     0.1179
  328.0000   -24.2682     7.8893     8.2291     7.5272   101.9795     2.4873     0.0310     0.1162
  328.5000   -24.2567     7.9477     8.2713     7.6002   110.8808     2.4882     0.0281     0.1145
  329.0000   -24.2452     8.0065     8.3138     7.6743   111.2571     2.4885     0.0252     0.1127
  329.5000   -24.2337     8.0578     8.3592     7.7218   106.6947     2.4927     0.0245     0.1110
  330.0000   -24.2222     8.0407     8.3818     7.7634   106.0109     2.5001     0.0260     0.1088
  330.5000   -24.2108     8.0257     8.4060     7.8047   109.6615     2.5023     0.0275     0.1071
  331.0000   -24.2056     8.0107     8.4363     7.8386   109.5226     2.5038     0.0291     0.1063
  331.5000   -24.2132     7.9957     8.4218     7.8601   108.3306     2.5153     0.0339     0.1056
  332.0000   -24.2207     7.9808     8.4024     7.8818   112.6878     2.5138     0.0441     0.1050
  332.5000   -24.2282     7.9659     8.3831     7.8983   106.5290     2.5049     0.0463     0.1050
  333.0000   -24.2356     7.9510     8.3638     7.9116   108.0803     2.5005     0.0426     0.1044
  333.5000   -24.2431     7.9362     8.3445     7.9260   108.5045     2.5004     0.0389     0.1061
  334.0000   -24.2505     7.9214     8.3253     7.8784   103.3992     2.4964     0.0352     0.1144
  334.5000   -24.2580     7.9066     8.3061     7.7997   105.2880     2.4868     0.0314     0.1182
  335.0000   -24.2655     7.8918     8.2870     7.7196   108.2794     2.4859     0.0280     0.1157
  335.5000   -24.2729     7.8771     8.2679     7.6396   111.2879     2.4867     0.0270     0.1175
  336.0000   -24.2804     7.8623     8.2489     7.6082   112.3310     2.4876     0.0262     0.1186
  336.5000   -24.2879     7.8477     8.2299     7.6234   109.6192     2.4884     0.0266     0.1144
  337.0000   -24.2953     7.8299     8.2110     7.6438   112.0730     2.4893     0.0292     0.1110
  337.5000   -24.3028     7.8074     8.1023     7.6642   109.1813     2.4901     0.0317     0.1110
  338.0000   -24.3102     7.7849     7.9726     7.6837   111.6694     2.4903     0.0335     0.1205
  338.5000   -24.3177     7.6933     7.8450     7.7108   113.6239     2.4857     0.0291     0.1277
  339.0000   -24.3252     7.3467     7.7194     7.7052   109.4291     2.4623     0.0246     0.1337
  339.5000   -24.3326     7.0209     7.5757     7.7011   113.5893     2.4588     0.0202     0.1343
  340.0000   -24.3401     6.9583     7.4301     7.6968   108.1897     2.4619     0.0215     0.1331
  340.5000   -24.3476     6.8822     7.2873     7.6934   111.0671     2.4720     0.0265     0.1224
  341.0000   -24.3550     6.8075     7.1511     7.7120   114.8199     2.4821     0.0438     0.1117
  341.5000   -24.3625     6.7323     7.0687     7.7747   117.1481     2.4921     0.0654     0.1049
  342.0000   -24.3699     6.5958     6.9895     7.5490   115.0769     2.4997     0.0733     0.1046
  342.5000   -24.3774     6.4234     6.9112     7.4113   118.1505     2.4995     0.0740     0.1126
  343.0000   -24.3849     6.2564     6.8337     7.4110   110.4556     2.4938     0.0686     0.1208
  343.5000   -24.3922     6.0938     6.7572     7.3301   113.3708     2.4764     0.0599     0.1305
  344.0000   -24.4007     6.0062     6.6814     7.2298   110.9221     2.4532     0.0512     0.1406
  344.5000   -24.3514     5.9513     6.6066     7.1288   114.1805     2.4434     0.0490     0.1473
  345.0000   -24.2753     6.0103     6.5326     7.0272   114.7978     2.4364     0.0505     0.1402
  345.5000   -24.1984     6.0616     6.4642     6.9719   112.5695     2.4407     0.0525     0.1269
  346.0000   -24.1214     6.0267     6.5031     6.9563   115.6313     2.4825     0.0683     0.1182
  346.5000   -24.0444     5.9941     6.5417     7.1225   116.3965     2.4818     0.0715     0.1184
  347.0000   -23.9674     5.9513     6.5753     7.9248   113.9874     2.4780     0.0519     0.1203
  347.5000   -23.8897     6.0616     6.9335     7.1068   113.1293     2.4771     0.0344     0.1230
  348.0000   -23.8100     6.5263     7.3500     7.1831   113.2783     2.4700     0.0315     0.1218
  348.5000   -23.9306     7.0834     7.4870     7.2321   106.2476     2.4691     0.0310     0.1322
  349.0000   -24.0735     7.2524     7.5212     7.2839   110.6299     2.4537     0.0303     0.1352
  349.5000   -24.2172     7.2977     7.5528     7.3341   109.0390     2.4509     0.0306     0.1347
  350.0000   -24.3604     7.3508     7.5561     7.3846   105.0069     2.4521     0.0320     0.1343
  350.5000   -24.5010     7.1995     7.4523     7.4344   105.0322     2.4532     0.0333     0.1343
  351.0000   -24.5751     7.0351     7.3838     7.4996   108.2839     2.4512     0.0347     0.1345
  351.5000   -24.4764     6.7472     7.2867     7.5692   108.4345     2.4462     0.0359     0.1433
  352.0000   -24.3818     6.3582     7.0293     7.6392   106.9264     2.4414     0.0346     0.1405
  352.5000   -24.2864     5.9916     6.7667     7.6959   106.8754     2.4355     0.0287     0.1591
  353.0000   -24.1498     5.8969     6.5059     7.7229   107.3259     2.4107     0.0230     0.1681
  353.5000   -23.7620     5.8765     6.2309     7.7773   108.4573     2.4032     0.0203     0.1399
  354.0000   -23.3714     5.8548     6.1739     7.8273   111.0795     2.4299     0.0361     0.1102
  354.5000   -22.9815     5.8332     6.2245     7.8707   113.8281     2.4824     0.0693     0.1024
  355.0000   -22.5919     5.8117     6.2688     8.5783   116.0073     2.5013     0.0700     0.0956
  355.5000   -22.2017     5.7895     6.3998     8.2330   117.5235     2.5189     0.0695     0.0882
  356.0000   -21.8097     6.0460     6.7334     7.9248   116.9779     2.5367     0.0838     0.0810
  356.5000   -21.4283     6.5005     7.0841     7.8956   111.8776     2.5433     0.0913     0.0818
  357.0000   -21.4270     6.8868     7.4537     8.3519   109.5241     2.5385     0.0888     0.0835
  357.5000   -21.4447     7.2962     7.8426     7.6076   108.7245     2.5413     0.0878     0.0807
