~VERSION INFORMATION
 VERS.                2.0:   CWLS LOG ASCII STANDARD - VERSION 2.0
 WRAP.                 NO:   ONE LINE PER DEPTH STEP
~WELL INFORMATION
#MNEM.UNIT      DATA TYPE    INFORMATION
#----------   ------------   ------------------------------
 STRT.F           28.0000:   START DEPTH
 STOP.F          856.0000:   STOP DEPTH
 STEP.F            0.5000:   STEP LENGTH
 NULL.          -999.2500:   NO VALUE
 COMP. FENIX & SCISSON INC:   COMPANY
 WELL. NPR 3  76 SX #76-27:   WELL
 FLD .             TEAPOT:   FIELD
 LOC .      S27 T39N R78W:   LOCATION
 CNTY.            NATRONA:   COUNTY
 STAT.            WYOMING:   STATE
 CTRY. UNITED STATES OF AMERICA:   COUNTRY
 SRVC.            Unknown:   SERVICE COMPANY
 DATE.        06-SEP-1978:   LOGDATE
 API .       490251069600:   API NUMBER
~CURVE INFORMATION
#MNEM.UNIT       API CODE    CURVE DESCRIPTION
#----------   ------------   ------------------------------
 DEPT.F                  :   
 SPR .MV     05 010 01 00:   SPONTANEOUS POTENTIAL FROM RES.
 SN  .OHMM   05 040 16 00:   SHORT NORMAL 16"
 ILD .OHMM   05 120 46 00:   INDUCTION LOG DEEP
 NPHI.DEC    42 890 03 00:   NEUTRON POROSITY SANDSTONE
 GRD .GAPI   45 310 01 00:   GAMMA RAY FROM DENSITY LOG
 CALD.IN     45 280 60 00:   CALIPER
 RHOB.G/C3   45 350 01 00:   BULK DENSITY
 DPHI.DEC    45 890 12 00:   DENSITY POROSITY SANDSTONE
 CORR.G/C3   45 356 01 00:   DENSITY CORRECTION
~PARAMETER INFORMATION
#MNEM.UNIT          VALUE    DESCRIPTION
#----------   ------------   ------------------------------
 PD  .                 GL:   PERMANENT DATUM
 EPD .F              5062:   ELEVATION PERMANENT DATUM
 LMF .                 KB:   LOG MEASURED FROM
 DAPD.F                 4:   FEET ABOVE PERMANENT DATUM
 DMF .                 KB:   DRILLING MEASURED FROM
 EKB .F              5066:   KELLING BUSHING
 EGL .F              5062:   GROUND LEVEL
 DATE.             9-6-78:   RUN DATE
 RUN .                  1:   RUN NUMBER
 DD  .F               865:   DEPTH DRILLER
 DL  .F               857:   DEPTH LOGGER
 BLI .F               851:   BOTTOM LOG INTERVAL
 TLI .F                40:   TOP LOG INTERVAL
 CS  .IN            8.625:   CASING SIZE
 CBD .F                43:   CASING BOTTOM DRILLER
 CBL .F                43:   CASING BOTTOM LOGGER
 BS  .IN            7.875:   BIT SIZE
 BSD .F               865:   BIT SIZE AT DEPTH
 DFT .                KCL:   DRILLING FLUID TYPE
 DFD .                8.4:   DRILLING FLUID DENSITY
 DFV .                 40:   DRILLING FLUID VISCOSITY
 DFPH.                  9:   DRILLING FLUID PH
 DFL .                  6:   DRILLING FLUID LOSS
 MSS .           FLOWLINE:   MUD SAMPLE SOURCE
 RMS .OHMM            .14:   RESISTIVITY MUD SAMPLE
 MST .F                84:   MUD SAMPLE TEMPERATURE
 RMF .OHMM             .1:   RESISTIVITY MUD FILTRATE SAMPLE
 MFST.F                94:   MUD FILTRATE SAMPLE TEMPERATURE
 RMC .OHMM            .18:   RESISTIVITY MUD CAKE
 MCST.F                92:   MUD CAKE SAMPLE TEMPERATURE
 MFSS.               MEAS:   MUD FILTRATE SAMPLE SOURCE
 MCSS.               MEAS:   MUD CAKE SAMPLE SOURCE
 RMB .OHMM           .145:   RESISTIVITY MUD AT BHT
 BHT .F                82:   BOTTOM HOLE TEMPERATURE
 TCS .HRS               3:   TIME CURCULATED STOPPED
 MRT .F                82:   MAXIMUM RECORDED TEMPERATURE
 LUN .               2958:   LOGGING UNIT NUMBER
 LUL .               CASP:   LOGGING UNIT LOCATION
 ENGI.           REYNOLDS:   RECORDING ENGINEER
 WITN.           MCGINLEY:   WITNESSED BY
 CLNT.            A2DTECH:   CLIENT CODE
 ORIG.           5" PRINT:   ORIGIN OF DATA
 UWI .       490251069600:   UNIQUE WELL ID
 DICO. A2D Technologies, Inc.:   DIGITIZING COMPANY
~OTHER INFORMATION
~A   DEPT      SPR         SN        ILD       NPHI         GRD      CALD       RHOB       DPHI       CORR   
# ...
  466.0000   -87.8021     7.5838     6.3766  -999.2500    87.0618     7.7161     2.5067     0.1049     0.0085
  466.5000   -87.6774     7.6321     6.4276  -999.2500    88.1458     7.6156     2.5112     0.1091     0.0070
  467.0000   -87.5528     7.6807     6.4791  -999.2500    89.2506     7.5290     2.5101     0.1118     0.0070
  467.5000   -87.4285     7.7296     6.6056  -999.2500    88.6306     7.4510     2.5032     0.1122     0.0069
  468.0000   -87.3030     7.7788     6.7915  -999.2500    87.4145     7.3734     2.4965     0.1129     0.0055
  468.5000   -87.2538     7.8283     6.8798  -999.2500    89.2731     7.2958     2.4973     0.1143     0.0054
  469.0000   -87.2529     7.8781     6.8956  -999.2500    90.7112     7.2185     2.4980     0.1164     0.0059
  469.5000   -87.2529     7.9283     6.9124  -999.2500    88.6022     7.1547     2.4969     0.1198     0.0064
  470.0000   -87.2530     7.9788     6.9286  -999.2500    86.0667     7.1297     2.4929     0.1240     0.0069
  470.5000   -87.2530     8.0281     6.9983  -999.2500    83.7740     7.1026     2.4888     0.1282     0.0074
  471.0000   -87.2530     8.0328     7.0797  -999.2500    81.7591     7.1199     2.4837     0.1303     0.0080
  471.5000   -87.2530     8.0373     7.1620  -999.2500    82.1014     7.1441     2.4769     0.1315     0.0085
  472.0000   -87.2530     8.0419     7.1995  -999.2500    85.7300     7.1694     2.4706     0.1326     0.0090
  472.5000   -87.2530     8.0464     7.2117  -999.2500    87.3142     7.1950     2.4680     0.1333     0.0090
  473.0000   -87.2530     8.0509     7.2239  -999.2500    86.6547     7.2205     2.4656     0.1303     0.0090
  473.5000   -87.2530     8.0555     7.2364  -999.2500    87.5543     7.2460     2.4646     0.1310     0.0090
  474.0000   -87.2530     8.0600     7.2489  -999.2500    88.1359     7.2715     2.4690     0.1364     0.0090
  474.5000   -87.2530     8.0646     7.2758  -999.2500    87.4731     7.2971     2.4686     0.1338     0.0090
  475.0000   -87.2531     8.0691     7.3446  -999.2500    86.8468     7.3212     2.4621     0.1300     0.0090
  475.5000   -87.1972     8.0737     7.4129  -999.2500    86.4168     7.3560     2.4647     0.1262     0.0090
  476.0000   -87.0866     8.0782     7.4669  -999.2500    87.6715     7.3548     2.4704     0.1221     0.0090
  476.5000   -86.9760     8.0828     7.5267  -999.2500    88.9921     7.3548     2.4761     0.1213     0.0090
  477.0000   -86.8604     8.0873     7.5869  -999.2500    88.2307     7.3543     2.4819     0.1201     0.0090
  477.5000   -86.6791     8.0919     7.6476  -999.2500    86.8246     7.3338     2.4859     0.1189     0.0090
  478.0000   -86.4877     8.0965     7.7088  -999.2500    85.3959     7.3065     2.4884     0.1171     0.0090
  478.5000   -86.2960     8.1006     7.7705  -999.2500    83.9507     7.2564     2.4909     0.1157     0.0090
  479.0000   -86.1038     8.1727     7.8102  -999.2500    82.9755     7.3083     2.4934     0.1163     0.0090
  479.5000   -85.9059     8.2522     7.9222  -999.2500    83.3300     7.5384     2.4952     0.1173     0.0089
  480.0000   -85.9566     8.3933     8.0314  -999.2500    84.4138     7.4659     2.4924     0.1177     0.0090
  480.5000   -86.0611     8.5411     8.1422  -999.2500    85.9543     7.4337     2.4896     0.1177     0.0127
  481.0000   -85.9846     8.6914     8.2545  -999.2500    87.4322     7.4902     2.4890     0.1143     0.0229
  481.5000   -85.9086     8.8444     8.3684  -999.2500    87.3584     7.5613     2.4911     0.1076     0.0329
  482.0000   -85.2638     9.0000     8.4824  -999.2500    86.7254     7.6326     2.5001     0.1010     0.0429
  482.5000   -84.6787     9.1584     8.6073  -999.2500    85.8149     7.7044     2.5090     0.0943     0.0489
  483.0000   -84.6853     9.3196     8.7326  -999.2500    84.8665     7.7312     2.5178     0.0878     0.0473
  483.5000   -84.6833     9.4836     8.8597  -999.2500    83.0689     7.7527     2.5266     0.0930     0.0450
  484.0000   -84.6839     9.6506     8.9243  -999.2500    81.3719     7.7741     2.5355     0.1011     0.0426
  484.5000   -84.6835     9.8204     9.0245  -999.2500    80.9416     7.7905     2.5405     0.1092     0.0410
  485.0000   -84.6861    10.0126     9.1258  -999.2500    80.4683     7.7901     2.5280     0.1174     0.0391
  485.5000   -84.5427    10.0407     9.2282  -999.2500    78.3425     7.7907     2.5147     0.1217     0.0368
  486.0000   -84.3353    10.0689     9.3319  -999.2500    76.7259     7.7562     2.5013     0.1241     0.0394
  486.5000   -84.1247    10.0971     9.4366  -999.2500    78.3786     7.7070     2.4882     0.1205     0.0453
  487.0000   -83.9163    10.1255     9.4696  -999.2500    80.1811     7.6571     2.4829     0.1172     0.0501
  487.5000   -83.8927    10.1538     9.4603  -999.2500    79.6317     7.6061     2.4858     0.1143     0.0509
  488.0000   -83.8932    10.1826     9.4531  -999.2500    78.7947     7.5318     2.4896     0.1196     0.0413
  488.5000   -83.8975    10.2035     9.4460  -999.2500    78.7001     7.4460     2.4934     0.1262     0.0306
  489.0000   -83.6882    10.2220     9.4388  -999.2500    79.2869     7.3601     2.4913     0.1325     0.0201
  489.5000   -83.4047    10.2403     9.4317  -999.2500    79.8924     7.2740     2.4813     0.1337     0.0103
  490.0000   -83.1203    10.2587     9.4245  -999.2500    79.2181     7.1875     2.4712     0.1371     0.0090
  490.5000   -82.8342    10.2772     9.4174  -999.2500    77.4741     7.1014     2.4637     0.1425     0.0089
  491.0000   -82.6867    10.2957     9.4102  -999.2500    75.7925     7.0971     2.4581     0.1456     0.0095
  491.5000   -82.6430    10.3142     9.4031  -999.2500    77.0925     7.0976     2.4526     0.1389     0.0131
  492.0000   -82.6014    10.3327     9.3961  -999.2500    78.8295     7.0975     2.4470     0.1317     0.0167
  492.5000   -82.5600    10.3513     9.3897  -999.2500    79.5538     7.1101     2.4515     0.1245     0.0192
  493.0000   -82.5176    10.3699     9.3919  -999.2500    79.3641     7.1261     2.4630     0.1237     0.0130
  493.5000   -82.5099    10.3885     9.2839  -999.2500    78.7564     7.1420     2.4745     0.1237     0.0069
  494.0000   -82.5098    10.4072     9.2512  -999.2500    76.3500     7.1584     2.4816     0.1237     0.0069
  494.5000   -82.5099    10.4259     9.2254  -999.2500    74.0796     7.1757     2.4816     0.1188     0.0070
  495.0000   -82.5099    10.4446     9.1998  -999.2500    73.9547     7.1485     2.4828     0.1173     0.0070
  495.5000   -82.5099    10.4634     9.1742  -999.2500    75.7560     7.1332     2.4889     0.1230     0.0066
  496.0000   -82.5099    10.4822     9.1487  -999.2500    75.1839     7.1179     2.4922     0.1276     0.0003
  496.5000   -82.5099    10.5010     9.1233  -999.2500    74.1946     7.1026     2.4846     0.1321    -0.0087
  497.0000   -82.5099    10.5200     9.0979  -999.2500    75.2822     7.1022     2.4773     0.1317    -0.0072
  497.5000   -82.5099    10.5390     9.0726  -999.2500    77.1830     7.1514     2.4700     0.1303     0.0025
  498.0000   -82.5099    10.5577     9.0474  -999.2500    79.0910     7.2034     2.4694     0.1279     0.0109
  498.5000   -82.5099    10.5715     9.0222  -999.2500    81.0040     7.2552     2.4720     0.1255     0.0196
  499.0000   -82.5099    10.3864     8.9971  -999.2500    82.7733     7.3073     2.4746     0.1233     0.0308
  499.5000   -82.5099    10.2845     8.9721  -999.2500    81.9144     7.3580     2.4772     0.1187     0.0416
  500.0000   -82.5099    10.0872     8.9472  -999.2500    78.4553     7.4585     2.4821     0.1144     0.0525
  500.5000   -82.5099     9.9097     8.9224  -999.2500    76.8363     7.5756     2.4873     0.1106     0.0632
  501.0000   -82.5099     9.7354     8.8973  -999.2500    76.5599     7.6949     2.4981     0.1147     0.0706
  501.5000   -82.5099     9.5641     8.8713  -999.2500    74.5398     7.7495     2.5003     0.1186     0.0748
  502.0000   -82.5099     9.3958     8.7929  -999.2500    73.6969     7.7469     2.4948     0.1188     0.0768
