~VERSION INFORMATION
 VERS.                2.0:   CWLS LOG ASCII STANDARD - VERSION 2.0
 WRAP.                 NO:   ONE LINE PER DEPTH STEP
~WELL INFORMATION
#MNEM.UNIT      DATA TYPE    INFORMATION
#----------   ------------   ------------------------------
 STRT.F            5.0000:   START DEPTH
 STOP.F          610.0000:   STOP DEPTH
 STEP.F            0.5000:   STEP LENGTH
 NULL.          -999.2500:   NO VALUE
 COMP. FENIX & SCISSON INC:   COMPANY
 WELL.        NPR 3 #25-3:   WELL
 FLD .        TEAPOT DOME:   FIELD
 LOC .       S3 T38N R78W:   LOCATION
 CNTY.            NATRONA:   COUNTY
 STAT.            WYOMING:   STATE
 CTRY. UNITED STATES OF AMERICA:   COUNTRY
 SRVC.           BIRDWELL:   SERVICE COMPANY
 DATE.        28-SEP-1978:   LOGDATE
 API .       490251068900:   API NUMBER
~CURVE INFORMATION
#MNEM.UNIT       API CODE    CURVE DESCRIPTION
#----------   ------------   ------------------------------
 DEPT.F                  :   
 SPR .MV     05 010 01 00:   SPONTANEOUS POTENTIAL FROM RES.
 IL  .OHMM   05 120 00 00:   INDUCTION LOG
 SN  .OHMM   05 040 16 00:   SHORT NORMAL 16"
 CALD.IN     45 280 60 00:   CALIPER
 GRD .GAPI   45 310 01 00:   GAMMA RAY FROM DENSITY LOG
 CORR.G/C3   45 356 01 00:   DENSITY CORRECTION
 DEN .G/C3   45 350 01 00:   COMPENSATED BULK DENSTIY
 DPHI.DEC    45 890 12 00:   DENSITY POROSITY SANDSTONE
~PARAMETER INFORMATION
#MNEM.UNIT          VALUE    DESCRIPTION
#----------   ------------   ------------------------------
 PD  .                 GL:   PERMANENT DATUM
 EPD .F              5249:   ELEVATION PERMANENT DATUM
 LMF .                 KB:   LOG MEASURED FROM
 DAPD.F                 4:   FEET ABOVE PERMANENT DATUM
 DMF .                 KB:   DRILLING MEASURED FROM
 EKB .F              5253:   KELLING BUSHING
 EGL .F              5249:   GROUND LEVEL
 DATE.            9-28-78:   RUN DATE
 RUN .                  1:   RUN NUMBER
 DD  .F               616:   DEPTH DRILLER
 DL  .F               613:   DEPTH LOGGER
 BLI .F               607:   BOTTOM LOG INTERVAL
 TLI .F                40:   TOP LOG INTERVAL
 BS  .IN            7.875:   BIT SIZE
 BSD .F               616:   BIT SIZE AT DEPTH
 DFT .                KCL:   DRILLING FLUID TYPE
 DFD .                8.7:   DRILLING FLUID DENSITY
 DFV .                 33:   DRILLING FLUID VISCOSITY
 DFPH.                  9:   DRILLING FLUID PH
 DFL .                  5:   DRILLING FLUID LOSS
 MSS .            MUD PIT:   MUD SAMPLE SOURCE
 RMS .OHMM            .14:   RESISTIVITY MUD SAMPLE
 MST .F                65:   MUD SAMPLE TEMPERATURE
 RMF .OHMM            2.1:   RESISTIVITY MUD FILTRATE SAMPLE
 MFST.F                65:   MUD FILTRATE SAMPLE TEMPERATURE
 RMC .OHMM            .32:   RESISTIVITY MUD CAKE
 MCST.F                65:   MUD CAKE SAMPLE TEMPERATURE
 MFSS.               MEAS:   MUD FILTRATE SAMPLE SOURCE
 TCS .HRS               2:   TIME CURCULATED STOPPED
 LUN .               2958:   LOGGING UNIT NUMBER
 LUL .               CASP:   LOGGING UNIT LOCATION
 ENGI.            ROLLINS:   RECORDING ENGINEER
 WITN.              AMEND:   WITNESSED BY
 CLNT.            A2DTECH:   CLIENT CODE
 ORIG.           5" PRINT:   ORIGIN OF DATA
 UWI .       490251068900:   UNIQUE WELL ID
 DICO. A2D Technologies, Inc.:   DIGITIZING COMPANY
~OTHER INFORMATION
~A    DEPT     SPR         IL         SN         CALD       GRD      CORR        DEN       DPHI   
# ...
   45.5000   -40.8317     6.6503     2.8386     7.7062   135.4652     0.0016     2.4333     0.1581
   46.0000   -40.8184     6.6643     3.4498     7.7062   135.5600    -0.0001     2.4223     0.1686
   46.5000   -40.8182     6.6783     4.3556     7.7062   135.4940    -0.0012     2.4117     0.1703
   47.0000   -40.8183     6.6918     5.4147     7.7062   135.4083    -0.0023     2.4018     0.1702
   47.5000   -40.8184     6.7270     6.3904     7.7062   135.9574    -0.0035     2.4027     0.1616
   48.0000   -40.8183     6.7604     6.5338     7.7062   136.4438    -0.0047     2.4126     0.1607
   48.5000   -40.8190     6.7939     6.6299     7.7062   135.7982    -0.0058     2.4190     0.1603
   49.0000   -40.7805     6.8276     6.6164     7.7062   135.0913    -0.0070     2.4205     0.1588
   49.5000   -40.7254     6.8614     6.6059     7.7062   134.9937    -0.0082     2.4221     0.1574
   50.0000   -40.6696     6.8898     6.5953     7.7062   135.2599    -0.0088     2.4185     0.1638
   50.5000   -40.6138     6.9125     6.5847     7.7062   135.8745    -0.0077     2.4149     0.1629
   51.0000   -40.5580     6.9352     6.5745     7.7062   138.3997    -0.0067     2.4195     0.1564
   51.5000   -40.5025     6.9421     6.5376     7.7062   143.1878    -0.0057     2.4244     0.1431
   52.0000   -40.4464     6.8342     6.4768     7.7064   147.7912    -0.0047     2.4347     0.1432
   52.5000   -40.4646     6.7523     6.4155     7.7183   151.4300    -0.0037     2.4461     0.1478
   53.0000   -40.5523     6.6715     6.3550     7.7434   152.1706    -0.0027     2.4410     0.1520
   53.5000   -40.6404     6.5916     6.2951     7.7684   151.4587    -0.0018     2.4332     0.1545
   54.0000   -40.7288     6.5126     6.2358     7.7940   145.6532    -0.0048     2.4296     0.1536
   54.5000   -40.8170     6.4346     6.1770     7.8417   139.9263    -0.0155     2.4295     0.1538
   55.0000   -40.9054     6.3576     6.1529     7.9172   134.7026    -0.0254     2.4293     0.1596
   55.5000   -40.9982     6.2738     6.1428     7.9926   134.4059    -0.0196     2.4199     0.1638
   56.0000   -40.9598     6.3282     6.1331     8.0643   134.5314    -0.0122     2.4117     0.1587
   56.5000   -40.8805     6.3891     6.1234     8.0811   134.6300    -0.0047     2.4270     0.1526
   57.0000   -40.8003     6.4507     6.1136     8.0883   134.2853     0.0008     2.4303     0.1585
   57.5000   -40.7204     6.5128     6.1041     8.0781   132.9748     0.0081     2.4274     0.1647
   58.0000   -40.6411     6.5692     6.0808     8.0682   127.9846     0.0709     2.4137     0.1678
   58.5000   -40.4353     6.6299     6.0561     8.0587   123.0784     0.1774     2.4052     0.1555
   59.0000   -40.1859     6.6299     6.0316     8.0457   120.8631     0.1575     2.4254     0.1401
   59.5000   -39.9366     6.6299     6.0072     7.9460   121.8537     0.1135     2.4530     0.1340
   60.0000   -39.6890     6.6299     5.9828     7.8449   126.5643     0.0698     2.4602     0.1342
   60.5000   -39.4171     6.6304     5.9586     7.8066   131.1830     0.0256     2.4581     0.1430
   61.0000   -38.3439     6.5967     5.9362     7.8362   135.1082     0.0043     2.4504     0.1475
   61.5000   -37.8355     6.5685     6.0120     7.8722   135.4490    -0.0094     2.4400     0.1564
   62.0000   -37.8252     6.6452     6.0819     7.9084   134.8482    -0.0110     2.4295     0.1582
   62.5000   -37.7764     6.7151     6.1524     7.9446   134.1355    -0.0100     2.4241     0.1546
   63.0000   -37.4003     6.7856     6.2235     7.9813   133.4326    -0.0075     2.4237     0.1518
   63.5000   -36.9852     6.8785     6.3086     7.9880   132.9992    -0.0049     2.4293     0.1516
   64.0000   -36.5739     6.8724     6.4262     7.9835   132.9993     0.0011     2.4321     0.1502
   64.5000   -36.2178     6.8638     6.5465     7.9777   132.5342     0.0069     2.4331     0.1443
   65.0000   -36.2050     6.8551     6.6438     7.9720   129.7336     0.0019     2.4422     0.1386
   65.5000   -36.1451     6.8465     6.6964     7.9662   128.1595    -0.0062     2.4517     0.1382
   66.0000   -36.0846     6.8379     6.7531     7.9605   128.6635    -0.0094     2.4490     0.1456
   66.5000   -36.0239     6.8293     6.7252     7.9547   129.3925    -0.0054     2.4436     0.1466
   67.0000   -35.9633     6.8207     6.6943     7.9490   129.3777    -0.0015     2.4398     0.1464
   67.5000   -35.9024     6.8121     6.6636     7.9552   129.4476     0.0023     2.4412     0.1461
   68.0000   -35.8387     6.8035     6.6330     7.9767   129.9259     0.0076     2.4428     0.1458
   68.5000   -35.9032     6.7949     6.6025     7.9998   130.4034     0.0131     2.4452     0.1339
   69.0000   -35.9995     6.7863     6.5692     7.9864   130.8746     0.0149     2.4633     0.1225
   69.5000   -36.0966     6.7778     6.5391     7.9881   131.1819     0.0139     2.4816     0.1122
   70.0000   -36.1936     6.7693     6.5057     7.9880   130.5105     0.0129     2.4985     0.1118
   70.5000   -36.2898     6.7608     6.4726     7.9879   128.4063     0.0119     2.4980     0.1202
   71.0000   -36.3894     6.7518     6.4487     7.9879   129.0493     0.0108     2.4909     0.1206
   71.5000   -36.2495     6.8390     6.5575     7.9879   131.1614     0.0098     2.4845     0.1207
   72.0000   -35.9518     6.9182     6.6417     7.9879   133.2849     0.0088     2.4835     0.1253
   72.5000   -35.6522     6.9982     6.7272     7.9877   133.6120     0.0077     2.4818     0.1290
   73.0000   -35.3506     7.0792     6.8138     7.9883   133.6062     0.0073     2.4697     0.1274
   73.5000   -35.1498     7.1610     6.9015     8.0245   133.2127     0.0088     2.4705     0.1251
   74.0000   -35.0122     7.2439     6.9897     8.0650   131.6673     0.0103     2.4750     0.1228
   74.5000   -34.8759     7.3277     7.0721     8.1064   129.4549     0.0116     2.4794     0.1204
   75.0000   -34.7396     7.4039     7.0719     8.1140   125.0870     0.0132     2.4826     0.1206
   75.5000   -34.6021     7.4039     7.0710     8.1208   120.7074     0.0219     2.4815     0.1338
   76.0000   -34.4591     7.4040     7.0710     8.1285   114.0086     0.0480     2.4720     0.1346
   76.5000   -34.3162     7.4039     7.0710     8.0981   106.5635     0.0800     2.4622     0.1296
   77.0000   -34.1733     7.4039     7.0709     8.0548   104.0244     0.1183     2.4689     0.1215
   77.5000   -34.0305     7.4049     7.0722     8.0098   104.7933     0.1600     2.4796     0.1133
   78.0000   -33.8872     7.3616     7.0008     7.9251   107.9456     0.1630     2.5044     0.0846
   78.5000   -33.7815     7.3146     6.9474     7.7927   111.0246     0.1351     2.5332     0.0838
   79.0000   -33.6979     7.2680     6.8943     7.6612   114.0784     0.0892     2.5357     0.0904
   79.5000   -33.6145     7.2217     6.8417     7.5285   114.7400     0.0432     2.5316     0.1045
   80.0000   -33.5304     7.1756     6.7894     7.4430   114.8657    -0.0035     2.5102     0.1186
   80.5000   -33.4424     7.1300     6.7531     7.3849   115.3481    -0.0073     2.4876     0.1326
   81.0000   -33.5974     7.0710     6.7531     7.3946   116.3542    -0.0071     2.4668     0.1474
   81.5000   -33.7969     7.1048     6.7531     7.4075   117.1002    -0.0070     2.4497     0.1581
   82.0000   -33.9976     7.1534     6.7531     7.4200   116.6289    -0.0070     2.4323     0.1666
   82.5000   -34.1990     7.2023     6.7531     7.4323   116.1657    -0.0070     2.4130     0.1666
   83.0000   -34.4054     7.2516     6.7531     7.4464   116.0983    -0.0070     2.4045     0.1640
   83.5000   -34.2406     7.3012     6.7528     7.5020   116.1064    -0.0070     2.4197     0.1601
   84.0000   -34.0089     7.3361     6.7516     7.5691   116.0309    -0.0070     2.4212     0.1562
   84.5000   -33.7003     7.2272     6.8029     7.6844   114.3717    -0.0052     2.4158     0.1503
   85.0000   -33.0722     7.1446     6.8582     7.7978   114.0072    -0.0033     2.4197     0.1409
   85.5000   -32.4490     7.0710     6.9137     7.9110   113.8434    -0.0015     2.4578     0.1315
