~VERSION INFORMATION
 VERS.                2.0:   CWLS LOG ASCII STANDARD - VERSION 2.0
 WRAP.                 NO:   ONE LINE PER DEPTH STEP
~WELL INFORMATION
#MNEM.UNIT      DATA TYPE    INFORMATION
#----------   ------------   ------------------------------
 STRT.F           21.0000:   START DEPTH
 STOP.F          484.0000:   STOP DEPTH
 STEP.F            0.5000:   STEP LENGTH
 NULL.          -999.2500:   NO VALUE
 COMP.       F D SERV INC:   COMPANY
 WELL. N P R 3 SX-3 #78-3:   WELL
 FLD .             TEAPOT:   FIELD
 LOC .       S3 T38N R78W:   LOCATION
 CNTY.            NATRONA:   COUNTY
 STAT.            WYOMING:   STATE
 CTRY. UNITED STATES OF AMERICA:   COUNTRY
 SRVC.     Atlas Wireline:   SERVICE COMPANY
 DATE.        04-DEC-1992:   LOGDATE
 API .       490252254500:   API NUMBER
~CURVE INFORMATION
#MNEM.UNIT       API CODE    CURVE DESCRIPTION
#----------   ------------   ------------------------------
 DEPT.F                  :   
 DPHI.DEC    45 890 12 00:   DENSITY POROSITY SANDSTONE
 NPHI.DEC    42 890 03 00:   NEUTRON POROSITY SANDSTONE
 C13 .IN     45 280 13 00:   CALIPER 1 - 3
 GRD .GAPI   45 310 01 00:   GAMMA RAY FROM DENSITY LOG
 ZCOR.G/C3   45 356 01 00:   DENSITY CORRECTION
 ZDEN.G/C3   45 350 01 00:   BULK DENSITY
 RILD.OHMM   07 120 46 00:   INDUCTION LOG DEEP RESISTIVITY
 RILM.OHMM   07 120 44 00:   INDUCTION LOG MEDIUM RESISTIVITY
~PARAMETER INFORMATION
#MNEM.UNIT          VALUE    DESCRIPTION
#----------   ------------   ------------------------------
 PD  .                 GL:   PERMANENT DATUM
 EPD .F              5120:   ELEVATION PERMANENT DATUM
 LMF .                 KB:   LOG MEASURED FROM
 DAPD.F                10:   FEET ABOVE PERMANENT DATUM
 DMF .                 KB:   DRILLING MEASURED FROM
 EKB .F              5130:   KELLING BUSHING
 EDF .F              5129:   DRILLING FLOOR
 EGL .F              5120:   GROUND LEVEL
 DATE.        04-DEC-1992:   RUN DATE
 RUN .                  1:   RUN NUMBER
 DD  .F               488:   DEPTH DRILLER
 DL  .F               488:   DEPTH LOGGER
 BLI .F               479:   BOTTOM LOG INTERVAL
 CS  .IN            8.625:   CASING SIZE
 CBD .F                50:   CASING BOTTOM DRILLER
 CBL .F                54:   CASING BOTTOM LOGGER
 BS  .IN            7.875:   BIT SIZE
 BSD .F               488:   BIT SIZE AT DEPTH
 DFT .           AIR FOAM:   DRILLING FLUID TYPE
 MRT .F                66:   MAXIMUM RECORDED TEMPERATURE
 LUN .           HL- 6274:   LOGGING UNIT NUMBER
 LUL .             CASPER:   LOGGING UNIT LOCATION
 ENGI.             RAUTIO:   RECORDING ENGINEER
 WITN.        GARY STRONG:   WITNESSED BY
 CLNT.            A2DTECH:   CLIENT CODE
 ORIG.           5" PRINT:   ORIGIN OF DATA
 UWI .       490252254500:   UNIQUE WELL ID
 DICO. A2D Technologies, Inc.:   DIGITIZING COMPANY
~OTHER INFORMATION
~A   DEPT     DPHI       NPHI        C13        GRD       ZCOR       ZDEN       RILD       RILM   
# ...
  304.5000     0.2292     0.2578     8.1617   124.1333     0.0228     2.2777    22.2302    22.3373
  305.0000     0.2125     0.2590     8.1608   125.9371     0.0257     2.2989    21.7582    21.8709
  305.5000     0.2041     0.2672     8.1447   128.3495     0.0211     2.3125    21.3062    21.5644
  306.0000     0.2004     0.2736     8.1286   129.2497     0.0134     2.3185    21.1520    21.1141
  306.5000     0.2050     0.2757     8.1278   127.7197     0.0026     2.3063    20.9979    20.8182
  307.0000     0.2192     0.2712     8.1269   126.4958    -0.0018     2.2843    20.9921    20.3835
  307.5000     0.2291     0.2642     8.1411   126.1809     0.0132     2.2706    20.9863    20.0978
  308.0000     0.2257     0.2597     8.1400   127.3811     0.0313     2.2742    20.8346    19.8162
  308.5000     0.2117     0.2594     8.1391   129.4905     0.0403     2.3115    20.8289    19.6755
  309.0000     0.1972     0.2613     8.1383   131.5999     0.0281     2.3433    20.6782    19.3997
  309.5000     0.1724     0.2643     8.1528   132.8132     0.0356     2.3705    20.6726    19.1279
  310.0000     0.1630     0.2665     8.1972   134.6868     0.0446     2.3811    20.6669    18.9920
  310.5000     0.1624     0.2683     8.1963   138.2280     0.0370     2.3810    20.6612    18.9806
  311.0000     0.1642     0.2704     8.2257   140.0343     0.0339     2.3802    20.6556    18.8545
  311.5000     0.1615     0.2714     8.2552   139.7194     0.0323     2.3855    20.6499    18.9842
  312.0000     0.1576     0.2726     8.2543   139.4046     0.0307     2.3900    20.7889    19.1147
  312.5000     0.1548     0.2747     8.2534   138.1806     0.0274     2.3960    20.7831    19.2461
  313.0000     0.1530     0.2741     8.2525   136.6536     0.0230     2.3990    20.9231    19.5143
  313.5000     0.1531     0.2732     8.2668   134.5205     0.0184     2.3997    20.9159    19.7856
  314.0000     0.1581     0.2733     8.2657   131.7814     0.0077     2.3936    21.0567    19.9223
  314.5000     0.1664     0.2730     8.2497   130.5574    -0.0014     2.3800    21.0509    20.0592
  315.0000     0.1695     0.2712     8.2488   132.4042     0.0030     2.3708    21.1926    20.3387
  315.5000     0.1680     0.2694     8.2479   136.6687     0.0166     2.3723    21.1868    20.4778
  316.0000     0.1652     0.2679     8.2470   139.6098     0.0241     2.3783    21.3308    20.3324
  316.5000     0.1659     0.2667     8.2461   140.5100     0.0255     2.3791    21.3235    20.3296
  317.0000     0.1734     0.2664     8.2452   139.8891     0.0118     2.3722    21.3177    20.3268
  317.5000     0.1810     0.2676     8.2443   138.3621    -0.0004     2.3600    21.3118    20.1825
  318.0000     0.1874     0.2667     8.2434   134.7139     0.0013     2.3494    21.1577    20.0392
  318.5000     0.1874     0.2665     8.2423   133.1869     0.0116     2.3410    21.1519    19.7583
  319.0000     0.1850     0.2689     8.2414   133.4810     0.0190     2.3420    20.9989    19.4808
  319.5000     0.1808     0.2732     8.2254   132.2541     0.0235     2.3535    20.8470    19.2078
  320.0000     0.1778     0.2747     8.2093   129.8180     0.0174     2.3576    20.6769    19.0714
  320.5000     0.1766     0.2726     8.1932   127.3818     0.0067     2.3583    20.2603    18.9360
  321.0000     0.1766     0.2729     8.2075   127.4040    -0.0009     2.3620    19.9739    18.6706
  321.5000     0.1781     0.2747     8.2066   130.9916     0.0036     2.3597    19.8294    18.5380
  322.0000     0.1817     0.2760     8.2057   134.3130     0.0171     2.3521    19.5491    18.4064
  322.5000     0.1857     0.2748     8.1894   135.2133     0.0095     2.3453    19.4077    18.2757
  323.0000     0.1860     0.2718     8.1415   133.9863     0.0033     2.3430    19.1333    18.1460
  323.5000     0.1812     0.2697     8.1118   132.7623     0.0109     2.3490    18.8628    17.8917
  324.0000     0.1779     0.2700     8.1109   134.8717     0.0123     2.3565    18.7264    17.6409
  324.5000     0.1782     0.2709     8.1100   135.4689     0.0046     2.3580    18.5910    17.3937
  325.0000     0.1842     0.2712     8.1091   134.2419    -0.0030     2.3507    18.4565    17.3913
  325.5000     0.1855     0.2706     8.1237   134.2071    -0.0031     2.3435    18.3231    17.2598
  326.0000     0.1809     0.2692     8.1225   136.6588     0.0014     2.3503    18.1906    17.2654
  326.5000     0.1758     0.2683     8.1368   140.3606     0.0043     2.3594    18.1855    17.5054
  327.0000     0.1740     0.2686     8.1359   143.5855     0.0058     2.3639    18.3080    17.7494
  327.5000     0.1722     0.2698     8.1350   142.6645     0.0042     2.3669    18.4547    17.9967
  328.0000     0.1704     0.2716     8.1341   139.0163     0.0041     2.3676    18.5553    18.1210
  328.5000     0.1713     0.2729     8.1332   134.1560     0.0040     2.3653    18.5489    18.1179
  329.0000     0.1759     0.2729     8.1322   130.8108     0.0054     2.3584    18.5438    18.1154
  329.5000     0.1801     0.2720     8.1313   129.8899     0.0101     2.3523    18.5387    17.8616
  330.0000     0.1795     0.2702     8.1152   130.4841     0.0144     2.3532    18.5336    17.8591
  330.5000     0.1720     0.2693     8.1143   133.1995     0.0158     2.3655    18.5286    17.8566
  331.0000     0.1683     0.2693     8.1134   137.1270     0.0157     2.3734    18.6545    17.9794
  331.5000     0.1656     0.2697     8.1125   140.1474     0.0172     2.3794    19.0429    18.1031
  332.0000     0.1602     0.2684     8.1269   141.3457     0.0216     2.3908    19.5769    18.6136
  332.5000     0.1487     0.2630     8.1259   138.9067     0.0276     2.4074    20.4090    19.4080
  333.0000     0.1311     0.2512     8.1250   136.4706     0.0366     2.4278    21.5756    20.2552
  333.5000     0.1058     0.2195     8.1241   131.0042     0.0426     2.4891    22.4926    21.1195
  334.0000     0.0490     0.1765     8.1230   123.4166     0.0349     2.5762    22.1457    21.5439
  334.5000     0.0227     0.1626     8.1070   118.2532     0.0182     2.6125    20.7708    20.8006
  335.0000     0.0178     0.1632     8.0909   118.8474    -0.0004     2.6208    19.6803    19.8048
  335.5000     0.0500     0.1808     8.0900   121.8658    -0.0172     2.5785    18.9998    18.7255
  336.0000     0.0909     0.2111     8.1195   125.4904    -0.0259     2.5333    18.2153    17.8291
  336.5000     0.1272     0.2489     8.1641   129.1149    -0.0169     2.4427    17.2209    17.2145
  337.0000     0.1470     0.2665     8.2088   132.4363    -0.0033     2.4123    16.1675    16.5054
  337.5000     0.1491     0.2717     8.2382   133.9396     0.0027     2.4062    15.3920    15.8254
  338.0000     0.1455     0.2738     8.2525   134.2308     0.0011     2.4123    14.8598    15.1735
  338.5000     0.1437     0.2720     8.2516   135.1251     0.0086     2.4160    14.7523    14.7532
  339.0000     0.1437     0.2733     8.2505   136.9314     0.0039     2.4160    14.6457    14.6485
  339.5000     0.1434     0.2733     8.2344   137.8286    -0.0022     2.4159    14.5398    14.6465
  340.0000     0.1415     0.2712     8.2336   137.8168    -0.0054     2.4182    14.5358    14.6445
  340.5000     0.1404     0.2697     8.2327   136.8958    -0.0023     2.4204    14.4303    14.6424
  341.0000     0.1422     0.2703     8.2318   135.9749     0.0021     2.4189    14.5275    14.6404
  341.5000     0.1431     0.2712     8.2309   135.3570     0.0020     2.4149    14.5235    14.5360
  342.0000     0.1441     0.2716     8.2300   135.0421     0.0035     2.4120    14.5195    14.5340
  342.5000     0.1447     0.2710     8.2291   135.0303     0.0110     2.4119    14.6173    14.5320
  343.0000     0.1432     0.2698     8.2282   135.3657     0.0184     2.4179    14.7156    14.4288
  343.5000     0.1395     0.2677     8.2273   137.4798     0.0214     2.4232    14.7023    14.4268
  344.0000     0.1383     0.2659     8.2264   139.2371     0.0092     2.4224    14.5888    14.2246
  344.5000     0.1399     0.2656     8.2253   138.9193     0.0016     2.4186    14.4986    14.0253
