~VERSION INFORMATION
 VERS.                2.0:   CWLS LOG ASCII STANDARD - VERSION 2.0
 WRAP.                 NO:   ONE LINE PER DEPTH STEP
~WELL INFORMATION
#MNEM.UNIT      DATA TYPE    INFORMATION
#----------   ------------   ------------------------------
 STRT.F           28.5000:   START DEPTH
 STOP.F          516.0000:   STOP DEPTH
 STEP.F            0.5000:   STEP LENGTH
 NULL.          -999.2500:   NO VALUE
 COMP. FENIX & SCISSON INC:   COMPANY
 WELL.         SX 3 #54-3:   WELL
 FLD .            WILDCAT:   FIELD
 LOC .       S3 T38N R78W:   LOCATION
 CNTY.            NATRONA:   COUNTY
 STAT.            WYOMING:   STATE
 CTRY. UNITED STATES OF AMERICA:   COUNTRY
 SRVC.            Unknown:   SERVICE COMPANY
 DATE.        22-SEP-1978:   LOGDATE
 API .       490251069000:   API NUMBER
~CURVE INFORMATION
#MNEM.UNIT       API CODE    CURVE DESCRIPTION
#----------   ------------   ------------------------------
 DEPT.F                  :   
 SPR .MV     05 010 01 00:   SPONTANEOUS POTENTIAL FROM RES.
 ILD .OHMM   05 120 46 00:   INDUCTION LOG DEEP
 SN  .OHMM   05 040 16 00:   SHORT NORMAL 16"
 CALD.IN     45 280 60 00:   CALIPER
 GRD .GAPI   45 310 01 00:   GAMMA RAY FROM DENSITY LOG
 CORR.G/C3   45 356 01 00:   DENSITY CORRECTION
 DEN .G/C3   45 350 01 00:   COMPENSATED BULK DENSTIY
 DPHI.DEC    45 890 12 00:   DENSITY POROSITY SANDSTONE
~PARAMETER INFORMATION
#MNEM.UNIT          VALUE    DESCRIPTION
#----------   ------------   ------------------------------
 PD  .                 GL:   PERMANENT DATUM
 EPD .F              5168:   ELEVATION PERMANENT DATUM
 LMF .                 KB:   LOG MEASURED FROM
 DAPD.F                 4:   FEET ABOVE PERMANENT DATUM
 DMF .                 KB:   DRILLING MEASURED FROM
 EKB .F              5172:   KELLING BUSHING
 EGL .F              5168:   GROUND LEVEL
 DATE.            9-22-78:   RUN DATE
 RUN .                  1:   RUN NUMBER
 DD  .F               510:   DEPTH DRILLER
 DL  .F               517:   DEPTH LOGGER
 BLI .F               510:   BOTTOM LOG INTERVAL
 TLI .F                40:   TOP LOG INTERVAL
 CS  .IN            8.625:   CASING SIZE
 CBD .F                40:   CASING BOTTOM DRILLER
 CBL .F                48:   CASING BOTTOM LOGGER
 BS  .IN            7.875:   BIT SIZE
 BSD .F               510:   BIT SIZE AT DEPTH
 DFT .            KCL MUD:   DRILLING FLUID TYPE
 DFD .                8.7:   DRILLING FLUID DENSITY
 DFV .                 39:   DRILLING FLUID VISCOSITY
 DFPH.                  9:   DRILLING FLUID PH
 DFL .                8.9:   DRILLING FLUID LOSS
 MSS .          FLOW LINE:   MUD SAMPLE SOURCE
 RMS .OHMM            .32:   RESISTIVITY MUD SAMPLE
 MST .F                68:   MUD SAMPLE TEMPERATURE
 RMF .OHMM            .26:   RESISTIVITY MUD FILTRATE SAMPLE
 MFST.F                72:   MUD FILTRATE SAMPLE TEMPERATURE
 RMC .OHMM            .28:   RESISTIVITY MUD CAKE
 MCST.F                75:   MUD CAKE SAMPLE TEMPERATURE
 MFSS.               MEAS:   MUD FILTRATE SAMPLE SOURCE
 MCSS.               MEAS:   MUD CAKE SAMPLE SOURCE
 RMB .OHMM            .32:   RESISTIVITY MUD AT BHT
 BHT .F                69:   BOTTOM HOLE TEMPERATURE
 TCS .HRS               3:   TIME CURCULATED STOPPED
 MRT .F                69:   MAXIMUM RECORDED TEMPERATURE
 LUN .               2958:   LOGGING UNIT NUMBER
 LUL .               CASP:   LOGGING UNIT LOCATION
 ENGI.           REYNOLDS:   RECORDING ENGINEER
 WITN.              AMEND:   WITNESSED BY
 CLNT.            A2DTECH:   CLIENT CODE
 ORIG.           5" PRINT:   ORIGIN OF DATA
 UWI .       490251069000:   UNIQUE WELL ID
 DICO. A2D Technologies, Inc.:   DIGITIZING COMPANY
~OTHER INFORMATION
~A   DEPT      SPR        ILD         SN       CALD         GRD      CORR        DEN       DPHI   
# ...
  150.0000   -65.7804     8.3198     9.0394     7.5550   105.6615     0.0153     2.4322     0.1472
  150.5000   -65.7318     8.3526     9.0521     7.5542   105.4475     0.0131     2.4315     0.1461
  151.0000   -65.6831     8.3856     9.0648     7.6079   104.8045     0.0137     2.4346     0.1449
  151.5000   -65.6344     8.4187     9.0775     7.7004   104.1641     0.0146     2.4377     0.1445
  152.0000   -65.5857     8.4520     9.0902     7.7933   103.8794     0.0156     2.4397     0.1446
  152.5000   -65.5368     8.4853     9.1030     7.8839   107.5343     0.0165     2.4339     0.1514
  153.0000   -65.4871     8.5189     9.1158     7.9216   108.0591     0.0168     2.4270     0.1492
  153.5000   -65.4434     8.5525     9.1285     7.9581   107.9957     0.0153     2.4254     0.1449
  154.0000   -65.5912     8.5863     9.1413     7.9965   107.9927     0.0138     2.4414     0.1365
  154.5000   -65.7513     8.6202     9.1542     8.0353   108.0213     0.0123     2.4602     0.1280
  155.0000   -65.9101     8.6542     9.1670     8.0898   105.9433     0.0107     2.4648     0.1241
  155.5000   -66.0391     8.6884     9.1798     8.1645   102.7970     0.0092     2.4688     0.1214
  156.0000   -66.0362     8.7227     9.1927     8.2171    99.6098     0.0077     2.4728     0.1206
  156.5000   -66.0362     8.7571     9.2049     8.2089    98.0664     0.0071     2.4756     0.1243
  157.0000   -66.0379     8.7894     9.2296     8.2011   103.1149     0.0101     2.4722     0.1274
  157.5000   -66.0349     8.7324     9.2672     8.1930   111.1634     0.0133     2.4664     0.1274
  158.0000   -65.8778     8.6673     9.3050     8.1850   118.4926     0.0165     2.4646     0.1305
  158.5000   -65.1550     8.6028     9.3428     8.1770   120.1837     0.0198     2.4644     0.1352
  159.0000   -64.6463     8.5387     9.3765     8.1690   121.4529     0.0230     2.4564     0.1399
  159.5000   -63.9228     8.4705     9.3512     8.1612   120.1680     0.0291     2.4478     0.1414
  160.0000   -64.3187     8.4705     9.3027     8.1622   112.7064     0.0403     2.4463     0.1406
  160.5000   -64.1456     8.5491     9.2545     8.1772   112.0640     0.0517     2.4504     0.1319
  161.0000   -63.7383     8.4599     9.2043     8.1930   118.4267     0.0734     2.4564     0.1283
  161.5000   -63.3271     8.3160     9.2053     8.1517   127.6413     0.0948     2.4624     0.1271
  162.0000   -63.0399     8.3571     9.2049     8.0893   124.1759     0.1164     2.4678     0.1257
  162.5000   -63.0347     8.4101     9.2049     8.0254   117.7765     0.1328     2.4719     0.1199
  163.0000   -63.0236     8.4641     9.2049     7.9140   114.1454     0.1480     2.4762     0.1141
  163.5000   -63.0136     8.5184     9.2049     7.6037   114.2382     0.1634     2.4813     0.1074
  164.0000   -63.0033     8.5491     9.2049     7.2874   113.6133     0.1761     2.4897     0.0938
  164.5000   -62.9930     8.5387     9.2065     7.2155   107.9848     0.1647     2.5032     0.0802
  165.0000   -62.9828     8.5153     9.1758     7.1980   106.8216     0.1327     2.5365     0.0690
  165.5000   -62.9725     8.4921     9.1115     7.2162   108.9294     0.0893     2.5578     0.0832
  166.0000   -62.9622     8.4700     9.0478     7.2323   114.4244     0.0460     2.5589     0.1072
  166.5000   -62.9520     8.4719     8.9846     7.2487   119.8026     0.0231     2.5242     0.1311
  167.0000   -62.9417     8.3090     8.9537     7.3103   121.7896     0.0239     2.4854     0.1522
  167.5000   -62.9314     8.1867     8.9533     7.3698   121.4332     0.0247     2.4457     0.1544
  168.0000   -62.9212     8.0666     8.9533     7.3989   116.4555     0.0254     2.4234     0.1586
  168.5000   -62.9109     7.9401     8.9533     7.4068   112.0464     0.0262     2.4165     0.1590
  169.0000   -62.9006     7.8671     8.9533     7.4207   110.3388     0.0269     2.4164     0.1550
  169.5000   -62.8904     7.7948     8.9542     7.4959   108.1441     0.0277     2.4177     0.1470
  170.0000   -62.8801     7.7948     8.8363     7.6228   107.5870     0.0284     2.4286     0.1519
  170.5000   -62.8702     7.8671     8.7163     7.7513   107.8266     0.0291     2.4331     0.1612
  171.0000   -62.8614     7.8671     8.5981     7.7814   106.3667     0.0278     2.4054     0.1658
  171.5000   -62.8447     7.6248     8.4817     7.7973   102.1543     0.0262     2.4005     0.1670
  172.0000   -62.4991     7.3908     8.3926     7.8853   100.5548     0.0246     2.4081     0.1573
  172.5000   -62.1203     7.1641     8.3926     7.9602   101.4467     0.0230     2.4173     0.1493
  173.0000   -61.7318     7.0293     8.3926     8.0332   109.2867     0.0214     2.4264     0.1436
  173.5000   -61.6535     7.0020     8.3926     8.0407   118.0636     0.0232     2.4354     0.1380
  174.0000   -61.6523     6.9768     8.2663     8.0465   119.4853     0.0242     2.4445     0.1361
  174.5000   -61.6532     6.9768     8.1226     8.0523   118.6924     0.0254     2.4496     0.1374
  175.0000   -61.6534     7.0460     7.9815     8.0582   117.9021     0.0266     2.4478     0.1365
  175.5000   -61.6534     7.0934     7.8428     8.0641   117.1612     0.0278     2.4465     0.1350
  176.0000   -61.6534     7.1410     7.7065     8.0699   114.8285     0.0290     2.4479     0.1309
  176.5000   -61.6534     7.1888     7.5726     8.0758   112.2427     0.0290     2.4568     0.1265
  177.0000   -61.6534     7.2370     7.5120     8.0817   112.1572     0.0290     2.4657     0.1220
  177.5000   -61.6534     7.2855     7.6322     8.0875   112.9765     0.0290     2.4745     0.1210
  178.0000   -61.6534     7.3745     7.7386     8.0935   112.5655     0.0290     2.4755     0.1224
  178.5000   -61.6535     7.3599     7.8466     8.0961   109.5974     0.0290     2.4735     0.1253
  179.0000   -61.6542     7.3218     7.9560     8.1112   109.2708     0.0302     2.4674     0.1282
  179.5000   -61.6486     7.2839     8.0669     8.1354   114.0970     0.0375     2.4613     0.1310
  180.0000   -61.5515     7.2461     8.0919     8.1274   118.2440     0.0447     2.4553     0.1330
  180.5000   -61.4564     7.2085     8.1091     8.1184   121.2711     0.0458     2.4535     0.1331
  181.0000   -61.3620     7.1729     8.1264     8.1096   121.6998     0.0408     2.4536     0.1309
  181.5000   -61.2677     7.1727     8.1437     8.1007   122.6765     0.0359     2.4565     0.1290
  182.0000   -61.1731     7.1634     8.1610     8.0919   121.7852     0.0351     2.4600     0.1316
  182.5000   -61.0746     7.1488     8.1636     8.0831   118.8214     0.0530     2.4505     0.1447
  183.0000   -61.1173     7.1346     8.1641     8.0742   112.1634     0.0730     2.4347     0.1518
  183.5000   -61.1983     7.1202     8.0895     8.0654   106.1630     0.0852     2.4238     0.1514
  184.0000   -61.2802     7.0633     8.0404     8.0566   106.3406     0.0852     2.4257     0.1510
  184.5000   -61.3619     6.6936     7.9916     8.0477   107.5223     0.0792     2.4275     0.1532
  185.0000   -61.4435     6.3433     7.9401     8.0389   108.0235     0.0713     2.4247     0.1542
  185.5000   -61.5251     6.0121     7.6692     8.0301   104.7985     0.0608     2.4217     0.1541
  186.0000   -61.6066     5.7433     7.3913     8.0212    99.9238     0.0419     2.4224     0.1471
  186.5000   -61.6578     5.7437     7.1235     8.0124    99.1768     0.0234     2.4425     0.1388
  187.0000   -61.6611     5.8524     6.8959     8.0035   102.0357     0.0153     2.4513     0.1317
  187.5000   -61.1048     5.9628     6.8062     7.9947   109.2812     0.0164     2.4516     0.1266
  188.0000   -60.2908     5.9762     6.7177     7.9859   112.5719     0.0176     2.4567     0.1202
  188.5000   -59.4867     6.0092     6.6304     7.9772   113.5788     0.0189     2.4678     0.1226
  189.0000   -59.0638     6.0423     6.5441     7.9715   114.5651     0.0187     2.4755     0.1210
  189.5000   -58.9604     6.0740     6.4798     7.9664   117.2911     0.0182     2.4742     0.1186
  190.0000   -58.8127     6.3043     6.4798     7.9613   120.7269     0.0176     2.4730     0.1163
