~VERSION INFORMATION
 VERS.                2.0:   CWLS LOG ASCII STANDARD - VERSION 2.0
 WRAP.                 NO:   ONE LINE PER DEPTH STEP
~WELL INFORMATION
#MNEM.UNIT      DATA TYPE    INFORMATION
#----------   ------------   ------------------------------
 STRT.F           32.0000:   START DEPTH
 STOP.F          517.0000:   STOP DEPTH
 STEP.F            0.5000:   STEP LENGTH
 NULL.          -999.2500:   NO VALUE
 COMP.    FENIX & SCISSON:   COMPANY
 WELL.        NPR #75-S-3:   WELL
 FLD .             TEAPOT:   FIELD
 LOC .       S3 T38N R78W:   LOCATION
 CNTY.            NATRONA:   COUNTY
 STAT.            WYOMING:   STATE
 CTRY. UNITED STATES OF AMERICA:   COUNTRY
 SRVC.              Welex:   SERVICE COMPANY
 DATE.        08-MAR-1977:   LOGDATE
 API .       490251030900:   API NUMBER
~CURVE INFORMATION
#MNEM.UNIT       API CODE    CURVE DESCRIPTION
#----------   ------------   ------------------------------
 DEPT.F                  :   
 SPR .MV     07 010 01 00:   SPONTANEOUS POTENTIAL
 ILD .OHMM   07 120 46 00:   INDUCTION LOG DEEP RES
 ILM .OHMM   07 120 44 00:   INDUCTION LOG MEDIUM RES
 SGRD.OHMM   07 220 05 00:   SHALLOW  GUARD RESISTIVITY
 CALD.IN     45 280 60 00:   CALIPER FROM DENSITY
 GRD .GAPI   45 310 01 00:   GAMMA RAY FROM DENSITY LOG
 CORR.G/C3   45 356 01 00:   DENSITY CORRECTION
 DPHI.DEC    45 890 12 00:   DENSITY POROSITY SANDSTONE
 RHOB.G/C3   45 350 01 00:   BULK DENSITY
~PARAMETER INFORMATION
#MNEM.UNIT          VALUE    DESCRIPTION
#----------   ------------   ------------------------------
 PD  .                 GL:   PERMANENT DATUM
 EPD .F              5141:   ELEVATION PERMANENT DATUM
 LMF .                 GL:   LOG MEASURED FROM
 DMF .                 GL:   DRILLING MEASURED FROM
 EGL .F              5141:   GROUND LEVEL
 DATE.         03-08-1977:   RUN DATE
 RUN .                  1:   RUN NUMBER
 DD  .F               521:   DEPTH DRILLER
 DL  .F               521:   DEPTH LOGGER
 BLI .F               519:   BOTTOM LOG INTERVAL
 TLI .F                35:   TOP LOG INTERVAL
 CS  .IN            8.625:   CASING SIZE
 CBD .F                40:   CASING BOTTOM DRILLER
 CBL .F                42:   CASING BOTTOM LOGGER
 BS  .IN            7.875:   BIT SIZE
 BSD .F               521:   BIT SIZE AT DEPTH
 DFT .            KCL MUD:   DRILLING FLUID TYPE
 DFD .                8.5:   DRILLING FLUID DENSITY
 DFV .                 32:   DRILLING FLUID VISCOSITY
 DFPH.                  8:   DRILLING FLUID PH
 DFL .                8.5:   DRILLING FLUID LOSS
 MSS .            MUD PIT:   MUD SAMPLE SOURCE
 RMS .OHMM            .65:   RESISTIVITY MUD SAMPLE
 MST .F                53:   MUD SAMPLE TEMPERATURE
 RMF .OHMM            .51:   RESISTIVITY MUD FILTRATE SAMPLE
 MFST.F                58:   MUD FILTRATE SAMPLE TEMPERATURE
 RMC .OHMM            .67:   RESISTIVITY MUD CAKE
 MCST.F                54:   MUD CAKE SAMPLE TEMPERATURE
 MFSS.           FANN KIT:   MUD FILTRATE SAMPLE SOURCE
 MCSS.           FANN KIT:   MUD CAKE SAMPLE SOURCE
 RMB .OHMM            .53:   RESISTIVITY MUD AT BHT
 BHT .F                64:   BOTTOM HOLE TEMPERATURE
 TCS .HRS             1.5:   TIME CURCULATED STOPPED
 MRT .F                64:   MAXIMUM RECORDED TEMPERATURE
 LUN .               8611:   LOGGING UNIT NUMBER
 LUL .           GILLETTE:   LOGGING UNIT LOCATION
 ENGI.               DOAK:   RECORDING ENGINEER
 WITN.           S. BURKE:   WITNESSED BY
 CLNT.            A2DTECH:   CLIENT CODE
 ORIG.           5" PRINT:   ORIGIN OF DATA
 UWI .       490251030900:   UNIQUE WELL ID
 DICO. A2D Technologies, Inc.:   DIGITIZING COMPANY
~OTHER INFORMATION
~A   DEPT      SPR        ILD        ILM       SGRD       CALD        GRD        CORR        DPHI       RHOB 
# ...
  105.0000   -43.1437     7.7623     8.7324    13.0215     7.9809   121.4074     0.0309     0.1200     2.4463
  105.5000   -43.1303     7.8219     8.7396    13.4851     7.9802   121.7180     0.0311     0.1196     2.4494
  106.0000   -43.1170     7.8278     8.7469    13.8693     7.9794   120.7970     0.0312     0.1184     2.4547
  106.5000   -43.1037     7.8338     8.7541    13.8875     7.9787   119.0558     0.0314     0.1171     2.4593
  107.0000   -43.0904     7.7844     8.7614    13.5994     7.9780   118.4760     0.0315     0.1153     2.4616
  107.5000   -43.0770     7.7918     8.8293    13.3279     7.9773   118.0770     0.0317     0.1125     2.4639
  108.0000   -43.0637     7.7977     8.9592    13.6134     7.9766   117.3474     0.0318     0.1081     2.4715
  108.5000   -43.2048     7.8576     9.0910    13.9098     7.9758   118.2547     0.0320     0.1022     2.4776
  109.0000   -43.1848     7.8635     9.3528    13.4409     7.9751   120.0472     0.0321     0.0980     2.4815
  109.5000   -43.0237     7.9787     9.4252    13.1725     7.9744   120.2065     0.0323     0.0952     2.4868
  110.0000   -43.0104     8.0399     9.3683    13.4547     7.9735   116.5212     0.0340     0.0944     2.4914
  110.5000   -42.9971     8.2140     8.9964    13.8396     7.9736   116.0879     0.0371     0.0953     2.4906
  111.0000   -42.9837     8.2771     8.6990    13.9410     7.9737   116.9952     0.0388     0.0978     2.4838
  111.5000   -42.9704     8.2834     8.8270    13.6580     7.9738   117.4544     0.0359     0.1013     2.4779
  112.0000   -42.9571     8.2896     9.0812    13.2918     7.9739   116.7284     0.0330     0.1034     2.4759
  112.5000   -42.9438     8.1824     9.3426    13.0250     7.9740   115.2617     0.0332     0.1041     2.4760
  113.0000   -42.9304     8.0751     9.4801    12.7721     7.9741   115.8691     0.0379     0.1001     2.4768
  113.5000   -42.9171     8.0257     9.4880    12.8673     7.9742   116.9209     0.0395     0.0973     2.4791
  114.0000   -42.9038     8.0333     9.4958    13.2461     7.9743   117.6764     0.0442     0.0962     2.4867
  114.5000   -42.7428     8.0394     9.5037    13.6110     7.9744   117.9874     0.0459     0.0980     2.4883
  115.0000   -42.7294     8.0455     9.5116    13.2173     7.9745   118.4467     0.0460     0.1025     2.4756
  115.5000   -42.7161     7.9948     9.4522    12.4104     7.9746   119.4985     0.0446     0.1045     2.4741
  116.0000   -42.7028     7.9460     9.4620    12.9020     7.9747   118.9206     0.0418     0.1084     2.4742
  116.5000   -42.5417     8.0085     9.4698    13.5468     7.9748   119.0835     0.0404     0.1060     2.4743
  117.0000   -42.3807     8.0699     9.6092    13.2764     7.9750   119.6909     0.0406     0.1047     2.4691
  117.5000   -42.3674     8.1881     9.7506    12.8331     7.9751   120.1501     0.0407     0.1077     2.4722
  118.0000   -42.3540     8.3080     9.9624    11.9005     7.9752   120.0130     0.0409     0.1071     2.4633
  118.5000   -42.1930     8.4879    10.1090    12.5834     7.9753   118.9945     0.0425     0.1034     2.4724
  119.0000   -42.0320     8.5515    10.1874    13.4884     7.9754   118.7092     0.0457     0.0983     2.4815
  119.5000   -42.0186     8.4408    10.2663    14.0653     7.9755   119.6166     0.0459     0.0946     2.4890
  120.0000   -42.0053     8.5661    10.3458    14.4660     7.9756   120.9647     0.0475     0.0916     2.4936
  120.5000   -41.8443     8.8730    10.5706    14.6744     7.9757   120.5350     0.0462     0.0934     2.4944
  121.0000   -41.6832     9.2544    10.8750    14.8858     7.9758   117.5868     0.0418     0.0979     2.4863
  121.5000   -41.5222     9.5860    11.1881    14.9965     7.9759   113.8979     0.0404     0.0984     2.4803
  122.0000   -41.3612     9.8613    11.5102    15.1080     7.9760   110.8015     0.0436     0.0966     2.4819
  122.5000   -41.3478    10.1445    11.8416    15.1325     7.9761   108.0015     0.0483     0.0929     2.4910
  123.0000   -41.1868    10.2930    12.1825    15.1698     7.9762   105.7940     0.0514     0.0881     2.5008
  123.5000   -41.0258    10.4437    12.5333    15.1008     7.9763   100.7718     0.0561     0.0827     2.5099
  124.0000   -41.0124    10.5239    12.8056    15.1102     7.9764   100.0421     0.0593     0.0748     2.5228
  124.5000   -40.8514    10.5319    13.0839    15.6499     7.9765   102.1346     0.0609     0.0715     2.5289
  125.0000   -40.6904    10.5399    13.1825    16.2088     7.9766   102.2938     0.0626     0.0729     2.5282
  125.5000   -40.6770    10.6208    12.7467    16.2189     7.9767    99.2012     0.0627     0.0819     2.5125
  126.0000   -40.6637    10.8508    13.0264    16.1150     7.9768    97.8826     0.0614     0.0879     2.5020
  126.5000   -40.6504    11.0858    13.4015    16.8087     7.9769    98.0455     0.0615     0.0897     2.4991
  127.0000   -40.6404    11.4042    13.9786    17.4090     7.9770    99.2455     0.0617     0.0908     2.4962
  127.5000   -40.6270    11.5711    14.3810    17.6617     7.9771   101.0380     0.0603     0.0935     2.4932
  128.0000   -40.6137    11.6600    14.4925    17.6726     7.9772   101.7935     0.0605     0.0977     2.4903
  128.5000   -40.6004    11.5091    14.6047    17.6837     7.9773   102.2527     0.0606     0.0983     2.4896
  129.0000   -40.5871    11.4366    15.2337    17.4496     7.9774   102.4157     0.0608     0.0979     2.4882
  129.5000   -40.5737    11.2112    15.4578    16.5262     7.9775   102.4304     0.0610     0.0961     2.4853
  130.0000   -40.4127    11.0662    15.4681    15.4349     7.9776   102.5933     0.0611     0.1009     2.4786
  130.5000   -40.3994    10.9231    15.3740    16.4331     7.9777   102.9044     0.0613     0.1047     2.4727
  131.0000   -40.3860    10.8563    15.0720    17.1377     7.9778   104.2525     0.0584     0.1068     2.4705
  131.5000   -40.2250    10.6443    14.5424    16.4535     7.9779   105.6006     0.0555     0.1023     2.4751
  132.0000   -40.2128    10.5066    13.9817    15.9059     7.9780   107.5413     0.0572     0.0983     2.4804
  132.5000   -40.3472    10.3688    13.5207    15.6979     7.9781   108.1876     0.0604     0.0965     2.4850
  133.0000   -40.3339    10.3054    13.1758    15.3861     7.9782   105.9412     0.0635     0.0962     2.4858
  133.5000   -40.3205    10.2424    12.9971    14.6704     7.9783   104.9189     0.0637     0.0997     2.4821
  134.0000   -40.3072    10.1798    12.9197    14.6795     7.9784   104.9337     0.0623     0.1036     2.4762
  134.5000   -40.4416    10.1895    12.8496    15.1178     7.9785   107.6151     0.0625     0.1045     2.4755
  135.0000   -40.4282    10.3387    12.9494    15.7648     7.9786   109.1114     0.0626     0.0975     2.4802
  135.5000   -40.4149    10.4901    13.0497    15.6811     7.9787   109.5706     0.0643     0.0891     2.4933
  136.0000   -40.4016    10.5706    13.1508    14.5124     7.9788   107.9557     0.0674     0.0803     2.5075
  136.5000   -40.3883    10.5786    12.9815    15.1505     7.9789   105.6001     0.0721     0.0725     2.5189
  137.0000   -40.3749    10.5120    12.9947    15.6903     7.9792   103.9852     0.0783     0.0698     2.5279
  137.5000   -40.3616    10.5219    13.8347    17.3252     7.9807   103.5556     0.0815     0.0697     2.5301
  138.0000   -40.3483    10.4576    14.4305    21.1272     7.9822   104.1650     0.0816     0.0703     2.5294
  138.5000   -40.3350    10.3937    13.8577    20.9539     7.9837   105.2226     0.0772     0.0736     2.5250
  139.0000   -40.4693    10.2573    13.0354    14.4578     7.9852   106.4268     0.0698     0.0807     2.5183
  139.5000   -40.6037    10.2670    12.6045    14.3761     7.9866   107.7709     0.0609     0.0906     2.5018
  140.0000   -40.5904    10.3459    12.2721    14.7942     7.9881   108.8346     0.0551     0.0963     2.4876
  140.5000   -40.5771    10.3537    12.1140    14.5830     7.9886   109.5704     0.0522     0.1050     2.4741
  141.0000   -40.7115    10.2179    11.8763    13.9069     7.9886   109.1270     0.0493     0.1046     2.4742
