~VERSION INFORMATION
 VERS.                2.0:   CWLS LOG ASCII STANDARD - VERSION 2.0
 WRAP.                 NO:   ONE LINE PER DEPTH STEP
~WELL INFORMATION
#MNEM.UNIT      DATA TYPE    INFORMATION
#----------   ------------   ------------------------------
 STRT.F            5.0000:   START DEPTH
 STOP.F          610.0000:   STOP DEPTH
 STEP.F            0.5000:   STEP LENGTH
 NULL.          -999.2500:   NO VALUE
 COMP. FENIX & SCISSON INC:   COMPANY
 WELL.        NPR 3 #25-3:   WELL
 FLD .        TEAPOT DOME:   FIELD
 LOC .       S3 T38N R78W:   LOCATION
 CNTY.            NATRONA:   COUNTY
 STAT.            WYOMING:   STATE
 CTRY. UNITED STATES OF AMERICA:   COUNTRY
 SRVC.           BIRDWELL:   SERVICE COMPANY
 DATE.        28-SEP-1978:   LOGDATE
 API .       490251068900:   API NUMBER
~CURVE INFORMATION
#MNEM.UNIT       API CODE    CURVE DESCRIPTION
#----------   ------------   ------------------------------
 DEPT.F                  :   
 SPR .MV     05 010 01 00:   SPONTANEOUS POTENTIAL FROM RES.
 IL  .OHMM   05 120 00 00:   INDUCTION LOG
 SN  .OHMM   05 040 16 00:   SHORT NORMAL 16"
 CALD.IN     45 280 60 00:   CALIPER
 GRD .GAPI   45 310 01 00:   GAMMA RAY FROM DENSITY LOG
 CORR.G/C3   45 356 01 00:   DENSITY CORRECTION
 DEN .G/C3   45 350 01 00:   COMPENSATED BULK DENSTIY
 DPHI.DEC    45 890 12 00:   DENSITY POROSITY SANDSTONE
~PARAMETER INFORMATION
#MNEM.UNIT          VALUE    DESCRIPTION
#----------   ------------   ------------------------------
 PD  .                 GL:   PERMANENT DATUM
 EPD .F              5249:   ELEVATION PERMANENT DATUM
 LMF .                 KB:   LOG MEASURED FROM
 DAPD.F                 4:   FEET ABOVE PERMANENT DATUM
 DMF .                 KB:   DRILLING MEASURED FROM
 EKB .F              5253:   KELLING BUSHING
 EGL .F              5249:   GROUND LEVEL
 DATE.            9-28-78:   RUN DATE
 RUN .                  1:   RUN NUMBER
 DD  .F               616:   DEPTH DRILLER
 DL  .F               613:   DEPTH LOGGER
 BLI .F               607:   BOTTOM LOG INTERVAL
 TLI .F                40:   TOP LOG INTERVAL
 BS  .IN            7.875:   BIT SIZE
 BSD .F               616:   BIT SIZE AT DEPTH
 DFT .                KCL:   DRILLING FLUID TYPE
 DFD .                8.7:   DRILLING FLUID DENSITY
 DFV .                 33:   DRILLING FLUID VISCOSITY
 DFPH.                  9:   DRILLING FLUID PH
 DFL .                  5:   DRILLING FLUID LOSS
 MSS .            MUD PIT:   MUD SAMPLE SOURCE
 RMS .OHMM            .14:   RESISTIVITY MUD SAMPLE
 MST .F                65:   MUD SAMPLE TEMPERATURE
 RMF .OHMM            2.1:   RESISTIVITY MUD FILTRATE SAMPLE
 MFST.F                65:   MUD FILTRATE SAMPLE TEMPERATURE
 RMC .OHMM            .32:   RESISTIVITY MUD CAKE
 MCST.F                65:   MUD CAKE SAMPLE TEMPERATURE
 MFSS.               MEAS:   MUD FILTRATE SAMPLE SOURCE
 TCS .HRS               2:   TIME CURCULATED STOPPED
 LUN .               2958:   LOGGING UNIT NUMBER
 LUL .               CASP:   LOGGING UNIT LOCATION
 ENGI.            ROLLINS:   RECORDING ENGINEER
 WITN.              AMEND:   WITNESSED BY
 CLNT.            A2DTECH:   CLIENT CODE
 ORIG.           5" PRINT:   ORIGIN OF DATA
 UWI .       490251068900:   UNIQUE WELL ID
 DICO. A2D Technologies, Inc.:   DIGITIZING COMPANY
~OTHER INFORMATION
~A    DEPT     SPR         IL         SN         CALD       GRD      CORR        DEN       DPHI   
# ...
  207.5000   -22.1150    11.4646     9.9633     8.1489   116.8952    -0.0029     2.5086     0.1032
  208.0000   -21.9659    11.5403    10.0307     8.1489   115.3587    -0.0004     2.5092     0.1027
  208.5000   -21.8149    11.6166     9.9632     8.1489   112.3985     0.0041     2.5096     0.1026
  209.0000   -21.6639    11.6933     9.8717     8.1489   109.4631     0.0086     2.5101     0.1035
  209.5000   -21.6801    11.7706     9.8138     8.1489   106.5397     0.0131     2.5105     0.1046
  210.0000   -21.7073    11.8374     9.7509     8.1489   104.4538     0.0148     2.5088     0.1057
  210.5000   -21.7339    11.6544     9.6884     8.1489   104.2367     0.0134     2.5060     0.1062
  211.0000   -21.7603    11.3052     9.6263     8.1489   105.0093     0.0121     2.5030     0.1057
  211.5000   -21.7866    11.1655     9.5645     8.1489   107.8868     0.0107     2.5026     0.1043
  212.0000   -21.8131    11.0194     9.5032     8.1485   109.6618     0.0094     2.5044     0.1050
  212.5000   -21.8396    10.8834     9.4423     8.1478   108.0933     0.0081     2.5063     0.1080
  213.0000   -21.8543    10.7952     9.3817     8.1471   106.2439     0.0077     2.5051     0.1158
  213.5000   -21.7378    10.7078     9.3188     8.1465   105.2681     0.0121     2.4918     0.1153
  214.0000   -21.6123    10.5992     9.3471     8.1458   105.9089     0.0163     2.4911     0.1140
  214.5000   -21.4831    10.6004     9.3769     8.1451   106.6189     0.0205     2.4939     0.1130
  215.0000   -21.5041    10.5999     9.4068     8.1444   107.3365     0.0230     2.4953     0.1134
  215.5000   -21.5866    10.6000     9.4367     8.1438   108.1043     0.0230     2.4899     0.1200
  216.0000   -21.6702    10.6003     9.4668     8.1431   109.1441     0.0230     2.4854     0.1210
  216.5000   -21.7540    10.5999     9.4919     8.1424   109.9896     0.0230     2.4915     0.1062
  217.0000   -21.8407    10.5060     9.3652     8.1418   110.2629     0.0228     2.5033     0.1027
  217.5000   -21.7970    10.4096     9.2579     8.1411   110.0303     0.0182     2.5150     0.0993
  218.0000   -21.7206    10.3141     9.1489     8.1404   108.0231     0.0136     2.5268     0.0970
  218.5000   -21.6433    10.2193     9.0583     8.1397   106.1334     0.0097     2.5265     0.0970
  219.0000   -21.5666    10.1236     8.9660     8.1391   106.0171     0.0066     2.5219     0.0974
  219.5000   -21.4885    10.0176     8.8746     8.1384   106.5947     0.0036     2.5160     0.1062
  220.0000   -21.5107     9.9105     8.7624     8.1377   109.6223     0.0006     2.5047     0.1133
  220.5000   -21.6006     9.8045     8.6168     8.1371   112.8470    -0.0011     2.4937     0.1198
  221.0000   -21.6916     9.6996     8.4735     8.1364   114.8404    -0.0012     2.4834     0.1258
  221.5000   -21.7824     9.5958     8.3327     8.1357   114.8680    -0.0013     2.4781     0.1267
  222.0000   -21.8575     9.4919     8.1925     8.1351   114.7825    -0.0014     2.4731     0.1275
  222.5000   -21.8564     9.3078     8.1884     8.1344   114.6535    -0.0015     2.4704     0.1277
  223.0000   -21.9097     9.1375     8.1666     8.1337   113.9084    -0.0016     2.4708     0.1276
  223.5000   -22.2221     9.1007     8.1449     8.1330   113.2549    -0.0017     2.4713     0.1274
  224.0000   -22.5306     9.0592     8.1233     8.1324   113.0058    -0.0019     2.4725     0.1266
  224.5000   -22.8388     9.0185     8.1018     8.1317   111.6682    -0.0020     2.4739     0.1248
  225.0000   -23.1488     8.9781     8.0802     8.1310   109.6200    -0.0021     2.4754     0.1246
  225.5000   -23.4507     8.9378     8.0588     8.1304   109.2369    -0.0022     2.4755     0.1250
  226.0000   -23.1874     8.8977     8.0374     8.1297   109.1022    -0.0023     2.4756     0.1258
  226.5000   -22.8553     8.8577     8.0160     8.1290   108.1912    -0.0024     2.4726     0.1294
  227.0000   -22.6520     8.8183     7.9948     8.1288   106.0722    -0.0025     2.4685     0.1306
  227.5000   -22.6788     8.6346     7.9700     8.1288   103.9683    -0.0026     2.4655     0.1302
  228.0000   -22.7077     8.4207     7.9775     8.1288   103.3998    -0.0028     2.4662     0.1298
  228.5000   -22.7373     8.4222     7.9875     8.1288   105.1085    -0.0029     2.4684     0.1313
  229.0000   -22.7667     8.4216     7.9974     8.1288   107.6998    -0.0030     2.4661     0.1322
  229.5000   -22.7959     8.4218     8.0074     8.1288   110.1206    -0.0023     2.4652     0.1322
  230.0000   -22.8246     8.4218     8.0174     8.1287   112.0099    -0.0015     2.4646     0.1322
  230.5000   -22.8591     8.4218     8.0274     8.1292   112.4944    -0.0007     2.4618     0.1369
  231.0000   -23.0148     8.4218     8.0370     8.1005   112.4869     0.0001     2.4567     0.1386
  231.5000   -23.1735     8.4218     8.0429     8.0593   112.4396     0.0009     2.4581     0.1336
  232.0000   -23.3314     8.4218     7.9716     8.0177   111.4774     0.0017     2.4646     0.1302
  232.5000   -23.4752     8.4218     7.9215     7.9855   109.8006     0.0025     2.4660     0.1342
  233.0000   -23.5703     8.4228     7.8718     7.9781   108.4719     0.0027     2.4636     0.1315
  233.5000   -23.6651     8.4251     7.8242     7.9705   107.8435     0.0005     2.4648     0.1274
  234.0000   -23.7589     8.3012     7.7386     7.9630   105.5543    -0.0016     2.4720     0.1238
  234.5000   -23.8634     8.1589     7.6567     7.9554   102.6453    -0.0038     2.4944     0.1166
  235.0000   -24.1958     8.0191     7.5757     7.9478   100.3578    -0.0060     2.4874     0.1166
  235.5000   -24.5286     7.9486     7.4955     7.9402   100.7655    -0.0081     2.4750     0.1330
  236.0000   -24.8726     7.8629     7.4039     7.9328   103.5543    -0.0090     2.4627     0.1340
  236.5000   -25.5426     7.7780     7.4724     7.9337   107.0336    -0.0085     2.4615     0.1341
  237.0000   -26.0555     7.6815     7.4724     7.9533   110.5338    -0.0078     2.4615     0.1304
  237.5000   -25.9624     7.6854     7.4725     7.9726   114.1295    -0.0070     2.4614     0.1253
  238.0000   -25.8775     7.6914     7.4725     7.9919   115.4771    -0.0062     2.4647     0.1211
  238.5000   -25.7939     7.6974     7.4618     8.0093   113.4557    -0.0055     2.4972     0.1178
  239.0000   -25.7106     7.7034     7.4496     8.0146   109.2786    -0.0047     2.4916     0.1198
  239.5000   -25.6273     7.7094     7.4373     8.0202   108.4720    -0.0039     2.4837     0.1284
  240.0000   -25.5439     7.7155     7.4252     8.0257   112.1635    -0.0031     2.4697     0.1334
  240.5000   -25.4605     7.7215     7.4129     8.0469   118.2226    -0.0024     2.4636     0.1325
  241.0000   -25.3772     7.7275     7.4041     8.0787   124.3332    -0.0016     2.4650     0.1314
  241.5000   -25.2946     7.7336     7.4401     8.1108   130.5345    -0.0011     2.4667     0.1299
  242.0000   -25.2802     7.7396     7.4747     8.1433   136.7820    -0.0033     2.4687     0.1278
  242.5000   -25.3475     7.7452     7.5092     8.1489   143.2091    -0.0056     2.4750     0.1186
  243.0000   -25.4139     7.7503     7.5439     8.1490   146.0232    -0.0079     2.4814     0.1203
  243.5000   -25.4805     7.8577     7.5788     8.1489   144.4354    -0.0103     2.4838     0.1272
  244.0000   -25.5473     7.9785     7.6111     8.1489   141.8088    -0.0059     2.4718     0.1338
  244.5000   -25.6154     8.0681     7.6532     8.1489   140.4288     0.0018     2.4611     0.1354
  245.0000   -25.7281     8.1196     7.6925     8.1489   140.4207     0.0096     2.4619     0.1262
  245.5000   -25.8690     8.1717     7.7320     8.1489   140.4750     0.0173     2.4702     0.1176
  246.0000   -25.9433     8.2242     7.7717     8.1489   143.3233     0.0231     2.4802     0.1138
  246.5000   -26.0174     8.2770     7.8117     8.1489   146.2612     0.0239     2.4903     0.1104
  247.0000   -26.0914     8.3303     7.8517     8.1489   146.6723     0.0248     2.4996     0.1117
  247.5000   -26.1662     8.3840     7.8965     8.1497   145.7416     0.0278     2.5018     0.1138
