~VERSION INFORMATION
 VERS.                2.0:   CWLS LOG ASCII STANDARD - VERSION 2.0
 WRAP.                 NO:   ONE LINE PER DEPTH STEP
~WELL INFORMATION
#MNEM.UNIT      DATA TYPE    INFORMATION
#----------   ------------   ------------------------------
 STRT.F           33.0000:   START DEPTH
 STOP.F          694.0000:   STOP DEPTH
 STEP.F            0.5000:   STEP LENGTH
 NULL.          -999.2500:   NO VALUE
 COMP. FENIX & SCISSON INC:   COMPANY
 WELL.  NPR 3 #64 S 34-34:   WELL
 FLD .             TEAPOT:   FIELD
 LOC .      S34 T39N R78W:   LOCATION
 CNTY.            NATRONA:   COUNTY
 STAT.            WYOMING:   STATE
 CTRY. UNITED STATES OF AMERICA:   COUNTRY
 SRVC.              Welex:   SERVICE COMPANY
 DATE.        28-APR-1977:   LOGDATE
 API .       490251034600:   API NUMBER
~CURVE INFORMATION
#MNEM.UNIT       API CODE    CURVE DESCRIPTION
#----------   ------------   ------------------------------
 DEPT.F                  :   
 CALD.IN     45 280 60 00:   CALIPER FROM DENSITY LOG
 GRD .GAPI   45 310 01 00:   GAMMA RAY FROM DENSITY LOG
 CORR.G/C3   45 356 01 00:   DENSITY CORRECTION
 DPHI.DEC    45 890 12 00:   DENSITY POROSITY SANDSTONE
 RHOB.G/C3   45 350 01 00:   BULK DENSITY
 SPR .MV     07 010 01 00:   SPONTANEOUS POTENTIAL
 ILD .OHMM   07 120 46 00:   INDUCTION LOG DEEP
 ILM .OHMM   07 120 44 00:   INDUCTION LOG MEDIUM
 SGRD.OHMM   07 221 05 00:   SHALLOW SHORT GUARD RESISTIVITY
~PARAMETER INFORMATION
#MNEM.UNIT          VALUE    DESCRIPTION
#----------   ------------   ------------------------------
 PD  .                 GL:   PERMANENT DATUM
 EPD .F              5079:   ELEVATION PERMANENT DATUM
 LMF .                 GL:   LOG MEASURED FROM
 DMF .                 GL:   DRILLING MEASURED FROM
 EGL .F              5079:   GROUND LEVEL
 DATE.        28-APR-1977:   RUN DATE
 RUN .                  1:   RUN NUMBER
 DD  .F               735:   DEPTH DRILLER
 DL  .F               697:   DEPTH LOGGER
 BLI .F               695:   BOTTOM LOG INTERVAL
 TLI .F                32:   TOP LOG INTERVAL
 CS  .IN            8.625:   CASING SIZE
 BS  .IN               12:   BIT SIZE
 BSD .F               735:   BIT SIZE AT DEPTH
 DFT .            KCL MUD:   DRILLING FLUID TYPE
 DFD .                9.0:   DRILLING FLUID DENSITY
 BHT .F                74:   BOTTOM HOLE TEMPERATURE
 TCS .HRS            0100:   TIME CURCULATED STOPPED
 MRT .F                74:   MAXIMUM RECORDED TEMPERATURE
 ENGI.            C. DOAK:   RECORDING ENGINEER
 WITN.           ROB LYON:   WITNESSED BY
 CLNT.            A2DTECH:   CLIENT CODE
 ORIG.           5" PRINT:   ORIGIN OF DATA
 UWI .       490251034600:   UNIQUE WELL ID
 DICO. A2D Technologies, Inc.:   DIGITIZING COMPANY
~OTHER INFORMATION
~A   DEPT     CALD        GRD       CORR       DPHI       RHOB        SPR        ILD        ILM       SGRD   
# ...
  617.0000     7.8951    91.2493     0.0454     0.1181     2.4810   -39.9570     9.6723    10.2292    12.6590
  617.5000     7.8963    93.6576     0.0425     0.1264     2.4698   -39.9617     9.8154    10.2370    12.7557
  618.0000     7.8824    91.6030     0.0472     0.1303     2.4564   -39.9665     9.9606    10.3160    12.8532
  618.5000     7.8839    89.6967     0.0548     0.1288     2.4527   -39.9713    10.1079    10.3957    13.2231
  619.0000     7.8851    87.1969     0.0610     0.1275     2.4610   -39.9761    10.2574    10.6222    13.8890
  619.5000     7.9011    83.9553     0.0611     0.1299     2.4540   -39.9809    10.4091    11.0051    14.7918
  620.0000     7.9320    76.7077     0.0597     0.1460     2.4163   -39.9857    10.5631    11.3231    15.2175
  620.5000     7.9480    73.4661     0.0568     0.1699     2.3903   -39.9904    10.7193    11.8129    15.4402
  621.0000     7.9341    71.4058     0.0524     0.1985     2.3435   -39.9952    10.8779    12.1542    11.9608
  621.5000     7.8571    73.8078     0.0510     0.1991     2.3385   -40.0000    11.0388    12.4190    11.8025
  622.0000     7.7867    75.0172     0.0497     0.1978     2.3438   -40.0048    11.2799    12.6896    12.5718
  622.5000     7.7589    74.8913     0.0483     0.1956     2.3476   -40.0096    11.6064    12.8765    13.1139
  623.0000     7.7312    73.4302     0.0484     0.1933     2.3499   -40.0144    11.9423    13.0662    13.4913
  623.5000     7.7324    72.1173     0.0485     0.1923     2.3492   -40.0191    12.2031    13.1671    13.7839
  624.0000     7.7336    71.1012     0.0501     0.1911     2.3538   -40.0239    12.2982    13.3611    13.8892
  624.5000     7.7348    70.6730     0.0518     0.1857     2.3636   -40.0287    12.3084    13.3713    13.7078
  625.0000     7.7360    71.5913     0.0504     0.1862     2.3629   -40.0335    12.3187    13.3815    13.8125
  625.5000     7.7372    73.2458     0.0490     0.1832     2.3645   -40.0383    12.3289    13.3917    14.1121
  626.0000     7.7384    76.2356     0.0491     0.1766     2.3848   -40.0430    12.3392    13.3094    14.3187
  626.5000     7.7396    78.9287     0.0523     0.1700     2.3864   -40.0478    12.1796    13.3195    13.8413
  627.0000     7.7556    80.5075     0.0569     0.1634     2.3962   -40.0526    11.9391    13.2351    13.5663
  627.5000     7.7716    81.9758     0.0570     0.1588     2.4067   -40.0574    11.7034    13.2477    14.6494
  628.0000     7.7877    78.6252     0.0526     0.1570     2.4113   -40.0622    11.6299    13.5364    16.2630
  628.5000     7.8037    75.8661     0.0482     0.1659     2.3994   -40.0670    11.8043    13.2654    16.5011
  629.0000     7.8049    73.8330     0.0423     0.1686     2.3934   -40.0717    12.0622    13.5570    14.9879
  629.5000     7.8061    71.6396     0.0349     0.1665     2.3927   -40.0765    12.1561    13.8524    13.9931
  630.0000     7.8073    70.0300     0.0290     0.1625     2.3998   -40.0813    12.0798    14.5521    16.1957
  630.5000     7.8085    72.4264     0.0216     0.1580     2.4083   -40.0861    12.4320    14.9697    14.3089
  631.0000     7.8097    76.3065     0.0202     0.1535     2.4180   -40.0909    12.7918    13.9780    15.0295
  631.5000     7.8109    78.5545     0.0282     0.1465     2.4329   -40.0957    13.0712    14.9954    16.3421
  632.0000     7.8121    74.7194     0.0342     0.1292     2.4493   -40.1004    13.4495    15.2163    16.2407
  632.5000     7.8131    73.5493     0.0388     0.1195     2.4718   -40.1052    13.8388    14.6077    15.8083
  633.0000     7.8142    73.7258     0.0403     0.1166     2.4809   -40.1100    13.8504    15.0298    28.8847
  633.5000     7.8303    76.4189     0.0389     0.1180     2.4674   -40.1148    13.5769    15.6799    40.0143
  634.0000     7.8463    78.6669     0.0375     0.1338     2.4331   -40.1196    12.8559    14.8455    17.9435
  634.5000     7.8476    80.3214     0.0421     0.1523     2.4159   -40.1244    12.5124    13.4831    13.5205
  635.0000     7.8635    81.9759     0.0483     0.1540     2.4144   -40.1291    12.5234    13.0314    13.4342
  635.5000     7.8647    84.6690     0.0499     0.1508     2.4250   -40.1339    12.1589    13.2258    13.7444
  636.0000     7.8510    82.6143     0.0485     0.1555     2.4124   -40.1387    11.9502    12.7851    15.5107
  636.5000     7.8374    78.7793     0.0441     0.1608     2.4049   -40.1435    12.1274    12.6164    16.2282
  637.0000     7.8090    76.5762     0.0412     0.1632     2.4005   -40.1483    12.1375    12.6284    15.3270
  637.5000     7.7805    78.3791     0.0398     0.1599     2.4096   -40.1531    11.8841    13.1746    13.7325
  638.0000     7.7520    79.1434     0.0415     0.1550     2.4156   -40.1578    11.8251    13.5553    14.0938
  638.5000     7.7381    79.3143     0.0446     0.1541     2.4127   -40.1626    12.0132    12.7454    13.9457
  639.0000     7.7396    78.5949     0.0477     0.1579     2.4097   -40.1674    12.1903    12.5771    15.2112
  639.5000     7.7556    77.3744     0.0494     0.1591     2.4076   -40.1722    12.2727    13.0330    13.5862
  640.0000     7.7717    79.1593     0.0495     0.1465     2.4271   -40.1770    12.2829    13.4096    13.7810
  640.5000     7.8025    82.2873     0.0496     0.1459     2.4242   -40.1817    12.3785    13.0529    15.5741
  641.0000     7.8186    85.6844     0.0497     0.1488     2.4213   -40.1865    12.3888    12.8806    16.1052
  641.5000     7.8198    87.3071     0.0483     0.1521     2.4202   -40.1913    12.3991    13.1638    14.5942
  642.0000     7.8210    84.6589     0.0452     0.1582     2.4078   -40.1961    12.4094    13.3577    14.3374
  642.5000     7.8073    80.0820     0.0426     0.1610     2.4057   -40.2009    12.4197    13.6487    14.3473
  643.0000     7.7789    77.7306     0.0396     0.1615     2.4081   -40.2057    12.4307    14.0431    14.6970
  643.5000     7.7649    76.1210     0.0353     0.1633     2.4051   -40.2104    12.4404    14.3490    15.2904
  644.0000     7.7513    74.7794     0.0324     0.1606     2.4134   -40.2152    12.4505    13.7751    15.5318
  644.5000     7.7376    77.7980     0.0415     0.1410     2.4412   -40.2200    12.1987    13.1328    13.7952
  645.0000     7.7537    80.6395     0.0507     0.1219     2.4667   -40.2248    12.1306    12.9595    15.0678
  645.5000     7.7557    83.0359     0.0553     0.1177     2.4795   -40.2296    12.0569    12.8798    20.8076
  646.0000     7.7858    83.6462     0.0569     0.1371     2.4556   -40.2344    12.0671    12.9817    15.0733
  646.5000     7.8018    83.2236     0.0510     0.1424     2.4377   -40.2391    11.9936    13.1730    13.6501
  647.0000     7.8327    85.3288     0.0542     0.1379     2.4423   -40.2439    12.0036    13.4600    14.7399
  647.5000     7.8487    86.3899     0.0618     0.1352     2.4521   -40.2487    11.7666    13.5613    14.6484
  648.0000     7.8647    87.4509     0.0649     0.1336     2.4462   -40.2535    11.6124    13.1120    16.4886
  648.5000     7.8659    88.3636     0.0681     0.1412     2.4365   -40.2583    11.5423    12.8520    16.0344
  649.0000     7.8226    86.1606     0.0697     0.1512     2.4201   -40.2631    11.4121    12.5971    13.7865
  649.5000     7.7793    83.9575     0.0698     0.1460     2.4292   -40.2678    11.3400    12.4903    12.6148
  650.0000     7.7051    85.8683     0.0669     0.1392     2.4409   -40.2726    11.2678    12.4166    14.4972
  650.5000     7.6040    89.4875     0.0655     0.1389     2.4397   -40.2774    11.1957    12.3627    14.5108
  651.0000     7.6054    90.5445     0.0612     0.1398     2.4256   -40.2822    11.1159    12.1999    13.0861
  651.5000     7.6218    92.3435     0.0522     0.1583     2.4069   -40.2870    10.9697    12.1230    12.8260
  652.0000     7.6381    93.5443     0.0446     0.1556     2.4115   -40.2918    10.9007    12.0466    13.1042
  652.5000     7.6692    90.1550     0.0386     0.1516     2.4199   -40.2965    10.8304    11.9710    14.1504
  653.0000     7.7004    88.2447     0.0389     0.1510     2.4171   -40.2985    10.7639    11.8938    15.0702
