~VERSION INFORMATION
 VERS.                2.0:   CWLS LOG ASCII STANDARD - VERSION 2.0
 WRAP.                 NO:   ONE LINE PER DEPTH STEP
~WELL INFORMATION
#MNEM.UNIT      DATA TYPE    INFORMATION
#----------   ------------   ------------------------------
 STRT.F           20.0000:   START DEPTH
 STOP.F          930.0000:   STOP DEPTH
 STEP.F            0.5000:   STEP LENGTH
 NULL.          -999.2500:   NO VALUE
 COMP. FENIX & SCISSON INC:   COMPANY
 WELL.     NPR 3 #45-S-14:   WELL
 FLD .        TEAPOT DOME:   FIELD
 LOC .      S14 T38N R78W:   LOCATION
 CNTY.            NATRONA:   COUNTY
 STAT.            WYOMING:   STATE
 CTRY. UNITED STATES OF AMERICA:   COUNTRY
 SRVC.           BIRDWELL:   SERVICE COMPANY
 DATE.        02-JAN-1979:   LOGDATE
 API .       490251076200:   API NUMBER
~CURVE INFORMATION
#MNEM.UNIT       API CODE    CURVE DESCRIPTION
#----------   ------------   ------------------------------
 DEPT.F                  :   
 GRD .GAPI   45 310 01 00:   GAMMA RAY FROM DENSITY LOG
 CALD.IN     45 280 60 00:   CALIPER
 RHOB.G/C3   45 350 01 00:   BULK DENSITY
 DPHI.DEC    45 890 12 00:   DENSITY POROSITY SANDSTONE
 CORR.G/C3   45 356 01 00:   DENSITY CORRECTION
~PARAMETER INFORMATION
#MNEM.UNIT          VALUE    DESCRIPTION
#----------   ------------   ------------------------------
 PD  .                 GL:   PERMANENT DATUM
 EPD .F              5261:   ELEVATION PERMANENT DATUM
 LMF .                 KB:   LOG MEASURED FROM
 DAPD.F                 4:   FEET ABOVE PERMANENT DATUM
 DMF .                 KB:   DRILLING MEASURED FROM
 EKB .F              5265:   KELLING BUSHING
 EGL .F              5261:   GROUND LEVEL
 DATE.             1-7-79:   RUN DATE
 RUN .                  1:   RUN NUMBER
 DD  .F               969:   DEPTH DRILLER
 DL  .F               928:   DEPTH LOGGER
 BLI .F               928:   BOTTOM LOG INTERVAL
 TLI .F                20:   TOP LOG INTERVAL
 CS  .IN            8.625:   CASING SIZE
 CBD .F                40:   CASING BOTTOM DRILLER
 CBL .F                46:   CASING BOTTOM LOGGER
 BS  .IN            7.875:   BIT SIZE
 BSD .F               969:   BIT SIZE AT DEPTH
 DFT .                KCL:   DRILLING FLUID TYPE
 DFD .                8.8:   DRILLING FLUID DENSITY
 DFV .                 42:   DRILLING FLUID VISCOSITY
 DFPH.                9.2:   DRILLING FLUID PH
 DFL .                 10:   DRILLING FLUID LOSS
 MSS .           FLOWLINE:   MUD SAMPLE SOURCE
 RMS .OHMM            .95:   RESISTIVITY MUD SAMPLE
 MST .F                60:   MUD SAMPLE TEMPERATURE
 RMF .OHMM            1.7:   RESISTIVITY MUD FILTRATE SAMPLE
 MFST.F                60:   MUD FILTRATE SAMPLE TEMPERATURE
 RMC .OHMM            1.6:   RESISTIVITY MUD CAKE
 MCST.F                60:   MUD CAKE SAMPLE TEMPERATURE
 MFSS.           MEASURED:   MUD FILTRATE SAMPLE SOURCE
 MCSS.           MEASURED:   MUD CAKE SAMPLE SOURCE
 RMB .OHMM            .98:   RESISTIVITY MUD AT BHT
 BHT .F                58:   BOTTOM HOLE TEMPERATURE
 TCS .HRS               4:   TIME CURCULATED STOPPED
 MRT .F                58:   MAXIMUM RECORDED TEMPERATURE
 LUN .               3006:   LOGGING UNIT NUMBER
 LUL .             CASPER:   LOGGING UNIT LOCATION
 ENGI.            ROLLINS:   RECORDING ENGINEER
 WITN.           DINSMORE:   WITNESSED BY
 CLNT.            A2DTECH:   CLIENT CODE
 ORIG.           5" PRINT:   ORIGIN OF DATA
 UWI .       490251076200:   UNIQUE WELL ID
 DICO. A2D Technologies, Inc.:   DIGITIZING COMPANY
~OTHER INFORMATION
~A   DEPT      GRD         CALD     RHOB       DPHI       CORR   
# ...
  813.0000    81.9510     7.8410     2.3850     0.1750    -0.0130
  813.5000    83.2800     7.8390     2.3850     0.1740    -0.0130
  814.0000    80.4880     7.8380     2.3860     0.1720    -0.0130
  814.5000    82.7990     7.8360     2.3850     0.1730    -0.0130
  815.0000    85.5410     7.8350     2.3850     0.1740    -0.0130
  815.5000    85.2640     7.8330     2.3820     0.1780    -0.0130
  816.0000    83.3230     7.8320     2.3800     0.1830    -0.0130
  816.5000    83.4490     7.8300     2.3790     0.1810    -0.0140
  817.0000    85.5330     7.8290     2.3830     0.1730    -0.0150
  817.5000    84.9520     7.8280     2.3940     0.1640    -0.0160
  818.0000    84.0030     7.8260     2.4040     0.1570    -0.0180
  818.5000    83.3810     7.8250     2.4100     0.1550    -0.0190
  819.0000    83.1660     7.8230     2.4120     0.1560    -0.0180
  819.5000    83.7910     7.8220     2.4100     0.1590    -0.0170
  820.0000    85.3490     7.8210     2.4060     0.1610    -0.0160
  820.5000    86.1600     7.8190     2.4030     0.1650    -0.0130
  821.0000    85.3520     7.8180     2.4030     0.1630    -0.0090
  821.5000    84.1030     7.8170     2.4020     0.1620    -0.0040
  822.0000    85.0900     7.8150     2.4020     0.1650     0.0000
  822.5000    87.5890     7.8140     2.3990     0.1700     0.0040
  823.0000    88.3480     7.8120     2.3910     0.1770     0.0130
  823.5000    86.6780     7.8110     2.3810     0.1820     0.0310
  824.0000    83.8310     7.8100     2.3780     0.1770     0.0480
  824.5000    82.3820     7.8080     2.3780     0.1760     0.0610
  825.0000    80.6810     7.8070     2.3780     0.1770     0.0670
  825.5000    74.2890     7.8060     2.3770     0.1770     0.0740
  826.0000    66.5380     7.8040     2.3730     0.1940     0.0730
  826.5000    66.3190     7.8030     2.3550     0.2120     0.0710
  827.0000    74.4090     7.8010     2.3350     0.2230     0.0690
  827.5000    73.6990     7.8000     2.3180     0.2190     0.0700
  828.0000    73.4570     7.7990     2.3170     0.2140     0.0710
  828.5000    74.4290     7.7970     2.3230     0.1980     0.0690
  829.0000    74.5220     7.7960     2.3400     0.2020     0.0650
  829.5000    74.7770     7.7950     2.3430     0.2050     0.0610
  830.0000    76.6690     7.7930     2.3440     0.2040     0.0700
  830.5000    78.4370     7.7920     2.3450     0.2030     0.0800
  831.0000    76.1060     7.7900     2.3460     0.1930     0.0900
  831.5000    76.2340     7.7990     2.3480     0.1940     0.0930
  832.0000    78.3580     7.8090     2.3490     0.1940     0.0900
  832.5000    80.7300     7.8200     2.3470     0.1960     0.0880
  833.0000    80.7700     7.8260     2.3440     0.2070     0.0720
  833.5000    80.4600     7.5780     2.3330     0.2190     0.0550
  834.0000    79.7810     7.5500     2.3220     0.2200     0.0440
  834.5000    78.8220     7.5310     2.3130     0.2200     0.0360
  835.0000    79.2830     7.5330     2.3060     0.2260     0.0220
  835.5000    80.8770     7.5380     2.3030     0.2300     0.0100
  836.0000    80.7360     7.5430     2.3010     0.2300     0.0100
  836.5000    80.4860     7.5480     2.3020     0.2250     0.0090
  837.0000    79.8820     7.5880     2.3070     0.2180     0.0080
  837.5000    78.7050     7.6510     2.3120     0.2210     0.0060
  838.0000    76.5150     7.7300     2.3130     0.2240     0.0050
  838.5000    74.1080     7.7250     2.3120     0.2220     0.0040
  839.0000    75.0270     7.7540     2.3120     0.2210     0.0030
  839.5000    78.5610     7.8350     2.3120     0.2210     0.0040
  840.0000    81.5350     7.8550     2.3120     0.2230     0.0060
  840.5000    81.2670     7.8610     2.3120     0.2240     0.0070
  841.0000    76.6980     7.8670     2.3110     0.2220     0.0090
  841.5000    73.7610     7.8690     2.3140     0.2130     0.0110
  842.0000    75.7160     7.8670     2.3260     0.2050     0.0050
  842.5000    77.7420     7.8650     2.3420     0.1970     0.0020
  843.0000    82.4700     7.8620     2.3570     0.1890    -0.0010
  843.5000    83.5220     7.8600     2.3580     0.1910    -0.0040
  844.0000    85.4400     7.8570     2.3580     0.1940    -0.0070
  844.5000    87.6400     7.8550     2.3580     0.1960    -0.0070
  845.0000    87.9080     7.8530     2.3580     0.1960    -0.0060
  845.5000    85.7550     7.8500     2.3590     0.1930    -0.0030
  846.0000    85.7730     7.8480     2.3600     0.1900     0.0010
  846.5000    85.6420     7.8460     2.3610     0.1890     0.0020
  847.0000    85.0500     7.8430     2.3610     0.1920     0.0010
  847.5000    84.7920     7.8410     2.3610     0.1930    -0.0010
  848.0000    85.6840     7.8390     2.3610     0.1940    -0.0020
  848.5000    89.4450     7.8360     2.3610     0.1930    -0.0040
  849.0000    85.8610     7.8340     2.3610     0.1860    -0.0050
  849.5000    84.6000     7.8320     2.3670     0.1800    -0.0070
  850.0000    85.6840     7.8320     2.3680     0.1790    -0.0080
  850.5000    86.1590     7.8360     2.3670     0.1860    -0.0080
  851.0000    81.2860     7.8390     2.3630     0.1890    -0.0040
  851.5000    78.5470     7.8430     2.3600     0.1900    -0.0010
  852.0000    80.3400     7.8470     2.3580     0.1900    -0.0020
  852.5000    77.4760     7.8500     2.3570     0.1950    -0.0030
  853.0000    77.3690     7.8540     2.3570     0.1980    -0.0040
  853.5000    77.8800     7.8580     2.3570     0.2000    -0.0050
  854.0000    77.7630     7.8610     2.3570     0.1970    -0.0020
  854.5000    78.0020     7.8650     2.3580     0.1960     0.0020
  855.0000    78.8630     7.8690     2.3590     0.1960     0.0070
  855.5000    81.3060     7.8720     2.3600     0.1940     0.0140
  856.0000    79.3840     7.8760     2.3600     0.1930     0.0270
  856.5000    76.5670     7.8800     2.3600     0.1940     0.0400
  857.0000    75.2760     7.8830     2.3600     0.1900     0.0540
  857.5000    79.8200     7.8870     2.3690     0.1810     0.0560
  858.0000    77.4050     7.8900     2.3790     0.1790     0.0430
  858.5000    76.8530     7.8840     2.3810     0.1780     0.0280
  859.0000    77.5070     7.8760     2.3810     0.1800     0.0170
  859.5000    78.9590     7.8440     2.3810     0.1820     0.0170
  860.0000    80.0680     7.7220     2.3830     0.1770     0.0170
  860.5000    79.3360     7.8340     2.3860     0.1720     0.0170
  861.0000    78.8560     7.8920     2.3890     0.1700     0.0160
  861.5000    78.6900     7.9150     2.3890     0.1680     0.0130
  862.0000    78.9690     7.6550     2.3900     0.1710     0.0060
  862.5000    82.2400     7.8830     2.3870     0.1780     0.0030
  863.0000    82.0960     7.8880     2.3840     0.1800     0.0060
  863.5000    80.6970     7.8780     2.3850     0.1750     0.0130
  864.0000    79.2950     7.8690     2.3900     0.1630     0.0260
  864.5000    77.9100     7.8610     2.3990     0.1590     0.0350
  865.0000    76.9850     7.8520     2.4020     0.1610     0.0330
  865.5000    78.2950     7.8420     2.4020     0.1640     0.0240
  866.0000    80.4330     7.8330     2.4030     0.1590     0.0200
  866.5000    81.4670     7.7810     2.4030     0.1610     0.0190
  867.0000    79.7270     7.7020     2.4030     0.1650     0.0180
  867.5000    78.8340     7.6310     2.4020     0.1690     0.0180
  868.0000    74.9970     7.6330     2.4020     0.1700     0.0210
  868.5000    78.5710     7.6370     2.4040     0.1550     0.0320
  869.0000    82.5520     7.6410     2.4100     0.1540     0.0430
  869.5000    83.2560     7.6440     2.4170     0.1560     0.0450
  870.0000    83.4090     7.6480     2.4180     0.1580     0.0450
  870.5000    84.6930     7.6520     2.4180     0.1570     0.0450
  871.0000    85.6180     7.6550     2.4170     0.1550     0.0450
  871.5000    85.1000     7.6590     2.4170     0.1580     0.0450
  872.0000    83.7690     7.6630     2.4160     0.1600     0.0450
  872.5000    83.6780     7.6660     2.4160     0.1590     0.0480
  873.0000    84.2280     7.6700     2.4170     0.1530     0.0520
  873.5000    86.2350     7.6890     2.4200     0.1470     0.0500
