~VERSION INFORMATION
 VERS.                2.0:   CWLS LOG ASCII STANDARD - VERSION 2.0
 WRAP.                 NO:   ONE LINE PER DEPTH STEP
~WELL INFORMATION
#MNEM.UNIT      DATA TYPE    INFORMATION
#----------   ------------   ------------------------------
 STRT.F           10.0000:   START DEPTH
 STOP.F          472.5000:   STOP DEPTH
 STEP.F            0.5000:   STEP LENGTH
 NULL.          -999.2500:   NO VALUE
 COMP. FENIX & SCISSON INC:   COMPANY
 WELL. NAVAL PETROLEUM RESERVE 3 SX-1 #67-10:   WELL
 FLD .             TEAPOT:   FIELD
 LOC .      S10 T38N R78W:   LOCATION
 CNTY.            NATRONA:   COUNTY
 STAT.            WYOMING:   STATE
 CTRY. UNITED STATES OF AMERICA:   COUNTRY
 SRVC.           BIRDWELL:   SERVICE COMPANY
 DATE.        05-DEC-1978:   LOGDATE
 API .       490251075000:   API NUMBER
~CURVE INFORMATION
#MNEM.UNIT       API CODE    CURVE DESCRIPTION
#----------   ------------   ------------------------------
 DEPT.F                  :   
 SPR .MV     05 010 01 00:   SPONTANEOUS POTENTIAL FROM RES.
 SN  .OHMM   05 040 16 00:   SHORT NORMAL 16"
 IL  .OHMM   05 120 00 00:   INDUCTION LOG
 CALD.IN     45 280 60 00:   CALIPER
 GRD .GAPI   45 310 01 00:   GAMMA RAY FROM DENSITY LOG
 RHOB.G/C3   45 350 01 00:   BULK DENSITY
 DPHI.DEC    45 890 12 00:   DENSITY POROSITY SANDSTONE
 CORR.G/C3   45 356 01 00:   DENSITY CORRECTION
~PARAMETER INFORMATION
#MNEM.UNIT          VALUE    DESCRIPTION
#----------   ------------   ------------------------------
 PD  .                 GL:   PERMANENT DATUM
 EPD .F              5189:   ELEVATION PERMANENT DATUM
 LMF .                 KB:   LOG MEASURED FROM
 DAPD.F                 4:   FEET ABOVE PERMANENT DATUM
 DMF .                 KB:   DRILLING MEASURED FROM
 EKB .F              5193:   KELLING BUSHING
 EGL .F              5189:   GROUND LEVEL
 DATE.            12-5-78:   RUN DATE
 RUN .                  1:   RUN NUMBER
 DD  .F               475:   DEPTH DRILLER
 DL  .F               471:   DEPTH LOGGER
 BLI .F               465:   BOTTOM LOG INTERVAL
 TLI .F                40:   TOP LOG INTERVAL
 CS  .IN            8.625:   CASING SIZE
 CBD .F                40:   CASING BOTTOM DRILLER
 CBL .F                40:   CASING BOTTOM LOGGER
 BS  .IN            7.875:   BIT SIZE
 BSD .F               475:   BIT SIZE AT DEPTH
 DFT .                KCL:   DRILLING FLUID TYPE
 DFD .                8.8:   DRILLING FLUID DENSITY
 DFV .                 42:   DRILLING FLUID VISCOSITY
 DFPH.               12.2:   DRILLING FLUID PH
 DFL .               11.6:   DRILLING FLUID LOSS
 MSS .          FLOW LINE:   MUD SAMPLE SOURCE
 RMS .OHMM            .31:   RESISTIVITY MUD SAMPLE
 MST .F                60:   MUD SAMPLE TEMPERATURE
 RMF .OHMM            .29:   RESISTIVITY MUD FILTRATE SAMPLE
 MFST.F                61:   MUD FILTRATE SAMPLE TEMPERATURE
 RMC .OHMM            .42:   RESISTIVITY MUD CAKE
 MCST.F                63:   MUD CAKE SAMPLE TEMPERATURE
 MFSS.           MEASURED:   MUD FILTRATE SAMPLE SOURCE
 MCSS.           MEASURED:   MUD CAKE SAMPLE SOURCE
 RMB .OHMM            .33:   RESISTIVITY MUD AT BHT
 BHT .F                57:   BOTTOM HOLE TEMPERATURE
 TCS .HRS               3:   TIME CURCULATED STOPPED
 MRT .F                57:   MAXIMUM RECORDED TEMPERATURE
 LUN .               2958:   LOGGING UNIT NUMBER
 LUL .                CPR:   LOGGING UNIT LOCATION
 ENGI.            ROLLINS:   RECORDING ENGINEER
 WITN.              AMEND:   WITNESSED BY
 CLNT.            A2DTECH:   CLIENT CODE
 ORIG.       2", 5" PRINT:   ORIGIN OF DATA
 UWI .       490251075000:   UNIQUE WELL ID
 DICO. A2D Technologies, Inc.:   DIGITIZING COMPANY
~OTHER INFORMATION
~A   DEPT      SPR         SN         IL       CALD         GRD      RHOB       DPHI       CORR   
# ...
   91.0000   -52.8060     8.5490     8.0780     8.9200   108.3190     2.4660     0.1340     0.0240
   91.5000   -52.8060     8.6260     8.1830     8.9180   108.4430     2.4680     0.1340     0.0240
   92.0000   -52.8060     8.7030     8.2870     8.9160   108.9070     2.4690     0.1340     0.0240
   92.5000   -52.8060     8.7800     8.3910     8.9140   109.5610     2.4690     0.1340     0.0240
   93.0000   -52.8060     8.8560     8.4920     8.9120   110.4040     2.4690     0.1340     0.0240
   93.5000   -52.8050     8.9330     8.5800     8.9100   111.7320     2.4700     0.1340     0.0240
   94.0000   -52.8050     9.0100     8.6280     8.9080   113.7800     2.4710     0.1320     0.0230
   94.5000   -52.8050     9.0870     8.6280     8.9060   115.2310     2.4730     0.1310     0.0230
   95.0000   -52.8060     9.1640     8.6280     8.9040   111.3880     2.4760     0.1290     0.0230
   95.5000   -52.6550     9.2430     8.6290     8.9020   108.5700     2.4770     0.1280     0.0230
   96.0000   -52.3780     9.3260     8.6280     8.9000   108.2190     2.4770     0.1280     0.0220
   96.5000   -52.1010     9.4090     8.6280     8.8980   105.6930     2.4760     0.1280     0.0220
   97.0000   -51.8110     9.4920     8.6280     8.8960   104.5610     2.4760     0.1280     0.0220
   97.5000   -51.4070     9.5510     8.6290     8.8940   106.5580     2.4760     0.1290     0.0220
   98.0000   -51.1920     9.5330     8.6330     8.8920   107.1840     2.4750     0.1300     0.0220
   98.5000   -51.1710     9.5190     8.6420     8.8900   107.5220     2.4750     0.1300     0.0220
   99.0000   -51.1490     9.5050     8.6510     8.8600   108.4490     2.4750     0.1290     0.0220
   99.5000   -51.1280     9.4910     8.6600     8.8270   108.6860     2.4740     0.1300     0.0220
  100.0000   -51.1060     9.4760     8.6680     8.7940   108.3770     2.4740     0.1310     0.0220
  100.5000   -51.0850     9.4640     8.6770     8.7700   108.0180     2.4740     0.1330     0.0220
  101.0000   -51.0630     9.4870     8.6860     8.7880   107.1960     2.4730     0.1320     0.0220
  101.5000   -51.0420     9.5080     8.6950     8.8080   106.6860     2.4740     0.1310     0.0220
  102.0000   -51.0210     9.5290     8.7040     8.8290   107.2120     2.4790     0.1300     0.0210
  102.5000   -50.9990     9.5510     8.7950     8.8300   107.9370     2.4830     0.1220     0.0200
  103.0000   -50.9780     9.6060     8.9640     8.8300   107.8290     2.4800     0.1270     0.0190
  103.5000   -50.9570     9.6650     9.1340     8.8340   106.8840     2.4730     0.1310     0.0190
  104.0000   -50.9350     9.7300     9.3030     9.0020   105.9380     2.4710     0.1310     0.0200
  104.5000   -50.9140     9.9570     9.4730     8.9850   104.7690     2.4700     0.1320     0.0220
  105.0000   -50.8930    10.2050     9.6420     8.9320   102.8000     2.4690     0.1340     0.0260
  105.5000   -50.8710    10.4540     9.8120     8.7580   100.8210     2.4700     0.1330     0.0300
  106.0000   -50.8500    10.6810     9.9810     8.8460   100.4250     2.4720     0.1310     0.0340
  106.5000   -50.8290    10.7600    10.1720     8.9300   100.7910     2.4720     0.1310     0.0360
  107.0000   -50.8100    10.8390    10.3630     8.9890   101.7290     2.4710     0.1320     0.0350
  107.5000   -50.6750    10.9180    10.5120     8.9440   103.2020     2.4690     0.1330     0.0290
  108.0000   -50.5040    11.0140    10.6710     8.9020   105.7940     2.4690     0.1340     0.0220
  108.5000   -50.3320    11.1430    10.7070     8.8600   108.1060     2.4700     0.1340     0.0160
  109.0000   -50.1600    11.2710    10.7450     8.8280   108.8620     2.4740     0.1300     0.0160
  109.5000   -49.9880    11.4000    10.8370     8.8080   109.4240     2.4770     0.1270     0.0160
  110.0000   -49.8150    11.5290    11.0340     8.7870   107.3940     2.4780     0.1270     0.0170
  110.5000   -49.6400    11.6580    11.2310     8.7670   104.3920     2.4750     0.1320     0.0190
  111.0000   -49.5910    11.7860    11.4280     8.7460    99.7660     2.4700     0.1350     0.0200
  111.5000   -49.5770    11.9220    11.6110     8.7260    93.4070     2.4690     0.1310     0.0210
  112.0000   -49.5640    12.0390    11.7130     8.7050    90.2110     2.4790     0.1260     0.0220
  112.5000   -49.5510    12.1450    11.8150     8.6850    90.6030     2.4820     0.1240     0.0240
  113.0000   -49.5380    12.1450    11.9220     8.6650    91.0530     2.4750     0.1320     0.0250
  113.5000   -49.5250    12.1450    11.9220     8.6520    88.7200     2.4610     0.1410     0.0260
  114.0000   -49.5120    12.1450    11.9220     8.6600    88.0810     2.4470     0.1520     0.0300
  114.5000   -49.5000    12.1450    11.9220     8.6680    94.1480     2.4410     0.1540     0.0340
  115.0000   -49.4870    12.1320    11.9220     8.6760    98.6080     2.4410     0.1510     0.0380
  115.5000   -49.4740    12.0980    11.9220     8.6840    97.1460     2.4450     0.1480     0.0420
  116.0000   -49.4610    12.0650    11.8580     8.6900    95.8290     2.4520     0.1470     0.0450
  116.5000   -49.4480    12.0310    11.7740     8.6870    97.2520     2.4590     0.1380     0.0460
  117.0000   -49.4350    11.9970    11.6990     8.6850    98.0630     2.4550     0.1400     0.0470
  117.5000   -49.4220    11.9640    11.6710     8.6830    95.5950     2.4520     0.1420     0.0480
  118.0000   -49.4100    11.9300    11.6420     8.6810    93.1440     2.4510     0.1440     0.0480
  118.5000   -49.4030    11.8780    11.6130     8.6790    93.3880     2.4510     0.1460     0.0490
  119.0000   -49.4330    11.8200    11.5850     8.6770    94.2890     2.4520     0.1450     0.0500
  119.5000   -49.4620    11.7630    11.5560     8.6740    97.3020     2.4540     0.1440     0.0510
  120.0000   -49.4910    11.7040    11.5270     8.6720   100.3380     2.4560     0.1430     0.0520
  120.5000   -49.5200    11.7040    11.4990     8.6700   100.4190     2.4570     0.1420     0.0530
  121.0000   -49.5490    11.7040    11.4700     8.6890   100.2330     2.4560     0.1420     0.0540
  121.5000   -49.5780    11.7040    11.4420     8.7090    98.8840     2.4540     0.1420     0.0550
  122.0000   -49.6080    11.7040    11.4130     8.7300    97.6680     2.4560     0.1410     0.0560
  122.5000   -49.6370    11.7040    11.3840     8.7500    96.6920     2.4590     0.1410     0.0580
  123.0000   -49.6660    11.7040    11.3840     8.7710    95.7710     2.4620     0.1390     0.0660
  123.5000   -49.6950    11.7040    11.3840     8.7910    95.1600     2.4710     0.1330     0.0830
  124.0000   -49.7240    11.7050    11.3840     8.8080    95.3840     2.4840     0.1230     0.1030
  124.5000   -49.7530    11.6270    11.3860     8.7860    97.0620     2.5020     0.1120     0.1130
  125.0000   -49.7820    11.4340    11.2280     8.7630    96.8440     2.5030     0.1120     0.1070
  125.5000   -49.8000    11.2280    11.0060     8.7410    93.2860     2.4820     0.1330     0.0930
  126.0000   -49.7990    10.9760    10.6770     8.7190    92.2610     2.4630     0.1390     0.0870
  126.5000   -49.8000    10.7230    10.3480     8.6970    95.2150     2.4640     0.1380     0.0870
  127.0000   -49.8000    10.5340    10.2390     8.6740    96.1170     2.4660     0.1350     0.0880
  127.5000   -49.8000    10.4390    10.1820     8.6520    95.9510     2.4690     0.1320     0.0880
  128.0000   -49.7990    10.3440    10.1260     8.6300    95.7670     2.4670     0.1320     0.0940
  128.5000   -49.7990    10.2490    10.0700     8.6080    95.1310     2.4590     0.1410     0.0820
  129.0000   -49.7990    10.1530    10.0130     8.5860    94.3310     2.4510     0.1490     0.0770
  129.5000   -49.8020    10.0580     9.9180     8.5640    94.4060     2.4450     0.1490     0.0780
  130.0000   -49.6070     9.9810     9.8140     8.5420    96.3550     2.4470     0.1490     0.0860
  130.5000   -49.2990     9.9280     9.7100     8.5380    97.1250     2.4480     0.1490     0.0940
  131.0000   -48.9910     9.8750     9.6060     8.5690    93.9140     2.4430     0.1560     0.0830
