~VERSION INFORMATION
 VERS.                2.0:   CWLS LOG ASCII STANDARD - VERSION 2.0
 WRAP.                 NO:   ONE LINE PER DEPTH STEP
~WELL INFORMATION
#MNEM.UNIT      DATA TYPE    INFORMATION
#----------   ------------   ------------------------------
 STRT.F            6.0000:   START DEPTH
 STOP.F          495.0000:   STOP DEPTH
 STEP.F            0.5000:   STEP LENGTH
 NULL.          -999.2500:   NO VALUE
 COMP. FENIX & SCISSON INC:   COMPANY
 WELL. FI NPR-3 #65-25 SX3:   WELL
 FLD .  NAVAL RESERVES #3:   FIELD
 LOC .       S3 T38N R78W:   LOCATION
 CNTY.            NATRONA:   COUNTY
 STAT.            WYOMING:   STATE
 CTRY. UNITED STATES OF AMERICA:   COUNTRY
 SRVC.       Schlumberger:   SERVICE COMPANY
 DATE.        22-MAY-1980:   LOGDATE
 API .       490251080300:   API NUMBER
~CURVE INFORMATION
#MNEM.UNIT       API CODE    CURVE DESCRIPTION
#----------   ------------   ------------------------------
 DEPT.F                  :   
 SPR .MV     07 010 01 00:   SPONTANEOUS POTENTIAL
 SFL .OHMM   07 220 01 00:   SHALLOW FOCUSED LOG RESISTIVITY
 ILD .OHMM   07 120 46 00:   INDUCTION LOG DEEP RESISTIVITY
 ILM .OHMM   07 120 44 00:   INDUCTION LOG MEDIUM
 GRD .GAPI   45 310 01 00:   GAMMA RAY FROM DENSITY LOG
 CALD.IN     45 280 60 00:   CALIPER
 DPHI.DEC    45 890 12 00:   DENSITY POROSITY SANDSTONE
 RHOB.G/C3   45 350 01 00:   BULK DENSITY
 CORR.G/C3   45 356 01 00:   DENSITY CORRECTION
 NPHI.DEC    42 890 03 00:   NEUTRON POROSITY SANDSTONE
~PARAMETER INFORMATION
#MNEM.UNIT          VALUE    DESCRIPTION
#----------   ------------   ------------------------------
 PD  .                 GL:   PERMANENT DATUM
 EPD .F              5162:   ELEVATION PERMANENT DATUM
 LMF .                 KB:   LOG MEASURED FROM
 DAPD.F                 4:   FEET ABOVE PERMANENT DATUM
 DMF .                 KB:   DRILLING MEASURED FROM
 EKB .F              5166:   KELLING BUSHING
 EGL .F              5162:   GROUND LEVEL
 DATE.            5-22-80:   RUN DATE
 RUN .                  1:   RUN NUMBER
 DD  .F               500:   DEPTH DRILLER
 DL  .F               498:   DEPTH LOGGER
 BLI .F               492:   BOTTOM LOG INTERVAL
 TLI .F                10:   TOP LOG INTERVAL
 BS  .IN            9.875:   BIT SIZE
 BSD .F               500:   BIT SIZE AT DEPTH
 DFT .                KCL:   DRILLING FLUID TYPE
 DFD .                9.6:   DRILLING FLUID DENSITY
 DFV .                 45:   DRILLING FLUID VISCOSITY
 DFL .                8.9:   DRILLING FLUID LOSS
 MSS .               PITS:   MUD SAMPLE SOURCE
 RMS .OHMM            .21:   RESISTIVITY MUD SAMPLE
 MST .F                76:   MUD SAMPLE TEMPERATURE
 RMF .OHMM            .19:   RESISTIVITY MUD FILTRATE SAMPLE
 MFST.F                76:   MUD FILTRATE SAMPLE TEMPERATURE
 MFSS.               MEAS:   MUD FILTRATE SAMPLE SOURCE
 TLAB.HRS            0845:   TIME LOGGER AT BOTTOM
 LUN .               8035:   LOGGING UNIT NUMBER
 LUL .               CSPR:   LOGGING UNIT LOCATION
 ENGI.           C. DRAKE:   RECORDING ENGINEER
 WITN.              AMEND:   WITNESSED BY
 CLNT.            A2DTECH:   CLIENT CODE
 ORIG.           5" PRINT:   ORIGIN OF DATA
 UWI .       490251080300:   UNIQUE WELL ID
 DICO. A2D Technologies, Inc.:   DIGITIZING COMPANY
~OTHER INFORMATION
~A    DEPT     SPR        SFL        ILD        ILM         GRD       CALD      DPHI       RHOB       CORR        NPHI  
# ...
  173.5000   -83.6853     7.5235     7.2519     6.6491   109.8037    10.1123     0.1222     2.4776     0.0145     0.3166
  174.0000   -83.5749     7.6227     7.3488     6.7312   110.7390    10.1114     0.1172     2.4864     0.0144     0.3277
  174.5000   -83.4693     7.7233     7.4474     6.7941   115.2176    10.1105     0.1157     2.4808     0.0078     0.3363
  175.0000   -83.3631     7.8252     7.5456     6.8575   118.1481    10.1096     0.1204     2.4686     0.0018     0.3308
  175.5000   -83.2502     7.9284     7.6332     6.9215   117.3192    10.1087     0.1275     2.4562    -0.0006     0.3183
  176.0000   -83.1297     8.0330     7.7516     6.9861   116.1731    10.1078     0.1337     2.4528    -0.0005     0.3126
  176.5000   -82.7711     8.1390     7.8726     7.0563   114.9335    10.1069     0.1347     2.4537    -0.0005     0.3164
  177.0000   -82.3600     8.2536     7.9955     7.1281   116.5600    10.1060     0.1329     2.4565    -0.0010     0.3222
  177.5000   -82.5069     8.2867     8.1069     7.1404   118.1321    10.1051     0.1319     2.4561    -0.0047     0.3312
  178.0000   -82.7565     8.3213     8.1264     7.1527   116.8287    10.1042     0.1333     2.4524    -0.0085     0.3395
  178.5000   -82.9009     8.3563     8.1471     7.1650   113.9508    10.1033     0.1366     2.4460    -0.0108     0.3392
  179.0000   -82.9000     8.3919     8.1688     7.1774   113.5572    10.1024     0.1394     2.4440    -0.0137     0.3325
  179.5000   -82.9009     8.5011     8.3010     7.1876   113.2263    10.1016     0.1403     2.4516    -0.0144     0.3260
  180.0000   -82.8994     8.6691     8.4305     7.3187   111.6533    10.1010     0.1325     2.4809    -0.0134     0.3195
  180.5000   -82.8431     8.8403     8.5622     7.4576   106.7051    10.1024     0.1084     2.5139    -0.0037     0.3072
  181.0000   -82.5759     9.0508     8.7240     7.4328   105.8111    10.1039     0.0906     2.5385     0.0064     0.3026
  181.5000   -82.7077     9.0184     8.7238     7.4015   108.1805    10.1053     0.0853     2.5332     0.0137     0.3022
  182.0000   -83.0076     8.9779     8.6945     7.3704   111.3422    10.1067     0.0886     2.5088     0.0129     0.3074
  182.5000   -83.0635     8.9376     8.6707     7.3240   113.5917    10.1081     0.1094     2.4827     0.0053     0.3161
  183.0000   -82.9934     8.8975     8.6470     7.2524   114.4814    10.1096     0.1210     2.4759    -0.0007     0.3250
  183.5000   -82.9094     8.8576     8.6009     7.2542   115.0283    10.1110     0.1202     2.4839    -0.0003     0.3340
  184.0000   -83.3993     8.8179     8.5345     7.1631   115.8526    10.1124     0.1126     2.4945    -0.0001     0.3423
  184.5000   -83.9090     8.7027     8.4687     7.1079   116.8581    10.1139     0.1085     2.4983     0.0000     0.3377
  185.0000   -83.9582     8.5485     8.4034     7.0531   116.5171    10.1153     0.1106     2.4928     0.0002     0.3279
  185.5000   -84.0777     8.4072     8.3406     6.9987   113.2053    10.1167     0.1149     2.4839     0.0004     0.3180
  186.0000   -83.8731     8.3676     8.1757     6.9447   108.6648    10.1181     0.1186     2.4795     0.0005     0.3122
  186.5000   -83.6729     8.3307     8.1007     6.8911   105.8725    10.1196     0.1192     2.4802    -0.0005     0.3174
  187.0000   -83.5232     8.2940     8.1042     6.8008   104.9539    10.1206     0.1175     2.4827    -0.0014     0.3149
  187.5000   -83.6684     8.2543     8.1003     6.5942   105.1348    10.1206     0.1162     2.4826    -0.0023     0.3083
  188.0000   -83.4102     8.1168     8.1065     6.4313   106.5477    10.1206     0.1178     2.4730    -0.0053     0.3058
  188.5000   -83.4579     7.9671     7.7777     6.2724   109.1211    10.1206     0.1266     2.4644    -0.0077     0.3076
  189.0000   -83.7322     7.8095     7.5072     6.1174   109.9010    10.1206     0.1299     2.4578    -0.0093     0.3125
  189.5000   -84.0097     7.5040     7.2460     5.9662   109.1517    10.1206     0.1311     2.4578    -0.0113     0.3198
  190.0000   -84.2876     7.1872     6.9940     5.7662   108.3650    10.1206     0.1311     2.4597    -0.0098     0.3279
  190.5000   -84.5655     6.8836     6.7384     5.4744   110.2819    10.1206     0.1320     2.4556    -0.0053     0.3402
  191.0000   -84.8467     6.5929     6.2360     5.1973   111.4751    10.1206     0.1355     2.4488    -0.0016     0.3527
  191.5000   -84.9840     6.3145     5.8144     4.9261   110.7687    10.1206     0.1412     2.4374     0.0025     0.3651
  192.0000   -85.0903     5.9160     5.1905     4.5036   108.9075    10.1206     0.1469     2.4306     0.0066     0.3659
  192.5000   -85.1958     5.3376     4.5906     4.0964   108.4999    10.1206     0.1526     2.4235     0.0093     0.3555
  193.0000   -85.3017     4.8157     4.0571     3.5727   109.4936    10.1205     0.1594     2.4085     0.0077     0.3684
  193.5000   -85.4075     4.1940     3.5860     3.1079   111.3137    10.1205     0.1708     2.3857     0.0060     0.3913
  194.0000   -85.5131     3.5645     3.1691     2.7035   111.9176    10.1210     0.2012     2.3588     0.0043     0.4137
  194.5000   -85.6196     3.0295     2.8066     2.3525   109.9280    10.1314     0.2318     2.2996    -0.0011     0.4421
  195.0000   -85.7486     2.5748     2.7322     2.1658   107.4761    10.1416     0.2652     2.2377    -0.0064     0.4650
  195.5000   -85.9763     2.2703     2.6606     2.1683   106.1204    10.1517     0.2902     2.1941    -0.0113     0.4905
  196.0000   -86.1011     2.3674     2.6070     2.1669   106.7532    10.1618     0.2806     2.2094    -0.0133     0.5046
  196.5000   -86.0973     2.5462     2.7442     2.3660   111.1920    10.1717     0.2449     2.2605    -0.0093     0.4646
  197.0000   -85.9863     2.7942     2.9735     2.5148   116.9756    10.1795     0.2215     2.3121    -0.0026     0.4381
  197.5000   -85.6404     3.0663     3.1896     2.6555   122.6349    10.1758     0.2046     2.3372    -0.0046     0.4492
  198.0000   -85.2598     3.4236     3.5337     3.0256   124.1810    10.1725     0.1936     2.3544    -0.0074     0.4581
  198.5000   -84.8750     4.0096     4.0044     3.4461   122.6566    10.1691     0.1748     2.3889    -0.0067     0.4326
  199.0000   -84.4904     4.6958     4.5379     3.9249   120.7240    10.1657     0.1554     2.4295    -0.0056     0.3993
  199.5000   -84.1055     5.4995     5.1424     4.4702   118.6244    10.1626     0.1408     2.4477    -0.0046     0.3702
  200.0000   -83.7174     6.2593     5.8274     4.6419   118.2232    10.1664     0.1367     2.4499    -0.0039     0.3459
  200.5000   -83.3209     6.2501     6.3476     4.7400   118.3027    10.1904     0.1353     2.4517    -0.0056     0.3500
  201.0000   -83.3669     6.2369     6.6483     4.8403   118.6637    10.2137     0.1340     2.4529    -0.0073     0.3559
  201.5000   -83.4446     6.2238     7.0563     4.9425   119.0833    10.2369     0.1343     2.4534    -0.0092     0.3615
  202.0000   -83.4296     6.2108     7.0426     5.0473   121.2002    10.2587     0.1340     2.4569    -0.0024     0.3619
  202.5000   -83.1893     6.2010     7.0235     5.1535   125.1074    10.2431     0.1275     2.4718     0.0080     0.3517
  203.0000   -82.9518     6.3801     7.0044     5.2053   125.5061    10.2187     0.1202     2.4833     0.0125     0.3376
  203.5000   -82.7098     6.5803     6.6766     5.0603   122.6232    10.1943     0.1157     2.4855     0.0130     0.3235
  204.0000   -82.5649     6.7866     6.2355     4.9538   119.5677    10.1698     0.1154     2.4850     0.0220     0.3182
  204.5000   -82.5757     6.9993     5.7928     4.6690   120.6434    10.1629     0.1150     2.4829     0.0346     0.3243
  205.0000   -82.7138     7.1876     5.3816     4.3392   124.8800    10.1671     0.1182     2.4695     0.0423     0.3375
  205.5000   -82.8531     6.5534     4.9996     4.0313   125.3676    10.1713     0.1279     2.4410     0.0383     0.3523
  206.0000   -82.9928     5.3526     4.7469     3.7381   124.6765    10.1757     0.1515     2.3968     0.0170     0.3740
  206.5000   -83.1325     4.2272     4.5750     3.6966   125.5753    10.1800     0.1860     2.3691    -0.0015     0.4230
