~VERSION INFORMATION
 VERS.                2.0:   CWLS LOG ASCII STANDARD - VERSION 2.0
 WRAP.                 NO:   ONE LINE PER DEPTH STEP
~WELL INFORMATION
#MNEM.UNIT      DATA TYPE    INFORMATION
#----------   ------------   ------------------------------
 STRT.F           20.0000:   START DEPTH
 STOP.F          468.0000:   STOP DEPTH
 STEP.F            0.1000:   STEP LENGTH
 NULL.          -999.2500:   NO VALUE
 COMP. LAWRENCE/ALLISON INC:   COMPANY
 WELL.    63-51 SX #10-10:   WELL
 FLD .             TEAPOT:   FIELD
 LOC .      S10 T38N R78W:   LOCATION
 CNTY.            NATRONA:   COUNTY
 STAT.            WYOMING:   STATE
 CTRY. UNITED STATES OF AMERICA:   COUNTRY
 SRVC.           Gearhart:   SERVICE COMPANY
 DATE.        01-OCT-1988:   LOGDATE
 API .       490251125100:   API NUMBER
~CURVE INFORMATION
#MNEM.UNIT       API CODE    CURVE DESCRIPTION
#----------   ------------   ------------------------------
 DEPT.F                  :   
 GRR .GAPI   07 310 01 00:   GAMMA RAY
 RILD.OHMM   07 120 46 00:   INDUCTION LOG DEEP RESISTIVITY
 RILM.OHMM   07 120 44 00:   INDUCTION LOG MEDIUM RESISTIVITY
~PARAMETER INFORMATION
#MNEM.UNIT          VALUE    DESCRIPTION
#----------   ------------   ------------------------------
 PD  .                 GL:   PERMANENT DATUM
 EPD .F              5157:   ELEVATION PERMANENT DATUM
 LMF .                 KB:   LOG MEASURED FROM
 DAPD.F                 5:   FEET ABOVE PERMANENT DATUM
 DMF .                 KB:   DRILLING MEASURED FROM
 EKB .F              5162:   KELLING BUSHING
 EGL .F              5157:   GROUND LEVEL
 DATE.        01-OCT-1988:   RUN DATE
 RUN .                  1:   RUN NUMBER
 DD  .F               475:   DEPTH DRILLER
 DL  .F               476:   DEPTH LOGGER
 BLI .F               468:   BOTTOM LOG INTERVAL
 TLI .F                20:   TOP LOG INTERVAL
 CS  .IN            9.625:   CASING SIZE
 CBD .F                45:   CASING BOTTOM DRILLER
 CBL .F                46:   CASING BOTTOM LOGGER
 BS  .IN             7.87:   BIT SIZE
 BSD .F               475:   BIT SIZE AT DEPTH
 TLAB.HRS            1630:   TIME LOGGER AT BOTTOM
 MRT .F                75:   MAXIMUM RECORDED TEMPERATURE
 LUN .               7597:   LOGGING UNIT NUMBER
 LUL .           GILLETTE:   LOGGING UNIT LOCATION
 ENGI.              BENCK:   RECORDING ENGINEER
 WITN.             STRONG:   WITNESSED BY
 CLNT.            A2DTECH:   CLIENT CODE
 ORIG.           5" PRINT:   ORIGIN OF DATA
 UWI .       490251125100:   UNIQUE WELL ID
 DICO. A2D Technologies, Inc.:   DIGITIZING COMPANY
~OTHER INFORMATION
~A   DEPT       GRR      RILD       RILM   
# ...
  365.8000    94.1876    14.4997    13.8203
  365.9000    94.7646    14.4788    13.8196
  366.0000    95.1572    14.4359    13.8191
  366.1000    95.3655    14.3754    13.8185
  366.2000    95.3662    14.3746    13.8179
  366.3000    95.5884    14.3738    13.8123
  366.4000    95.6727    14.3091    13.7196
  366.5000    95.5726    14.2711    13.7191
  366.6000    95.3684    14.2703    13.7186
  366.7000    95.3692    14.2695    13.6922
  366.8000    94.9202    14.2685    13.6210
  366.9000    94.4311    14.2678    13.6204
  367.0000    94.1496    14.2208    13.6199
  367.1000    94.1502    14.1658    13.6194
  367.2000    94.1509    14.1581    13.6188
  367.3000    94.1514    14.0645    13.6182
  367.4000    94.3193    14.0638    13.6175
  367.5000    94.5649    14.0630    13.5501
  367.6000    94.8571    14.0338    13.5208
  367.7000    95.3753    13.9626    13.5203
  367.8000    95.6068    13.9617    13.5091
  367.9000    96.0226    13.8921    13.4241
  368.0000    96.4031    13.8620    13.4236
  368.1000    96.6486    13.8613    13.4230
  368.2000    96.9051    13.8605    13.4225
  368.3000    96.9056    13.8596    13.4095
  368.4000    96.9063    13.8589    13.3271
  368.5000    96.7940    13.8581    13.3266
  368.6000    96.6021    13.8247    13.2751
  368.7000    96.6028    13.7591    13.1995
  368.8000    96.3664    13.7583    13.1384
  368.9000    96.2986    13.7576    13.1378
  369.0000    96.4152    13.7032    13.1373
  369.1000    96.6051    13.6592    13.0847
  369.2000    96.6058    13.6585    13.0439
  369.3000    96.8464    13.6577    13.0434
  369.4000    97.0919    13.5828    13.0428
  369.5000    97.3373    13.5601    13.0423
  369.6000    97.5828    13.5230    13.0417
  369.7000    97.8302    13.4632    13.0411
  369.8000    97.8308    13.4625    13.0230
  369.9000    98.1967    13.4617    12.9485
  370.0000    98.5649    13.4610    12.8752
  370.1000    98.8104    13.4219    12.8565
  370.2000    99.0546    13.3648    12.8559
  370.3000    99.0552    13.3626    12.8362
  370.4000    99.0559    13.2863    12.7646
  370.5000    99.0565    13.2685    12.7640
  370.6000    98.9925    13.2678    12.7635
  370.7000    98.7441    13.2454    12.7245
  370.8000    98.2545    13.1730    12.6728
  370.9000    97.9541    13.1721    12.6723
  371.0000    97.5815    13.1116    12.6716
  371.1000    97.2281    13.0781    12.6711
  371.2000    97.2214    13.0774    12.6706
  371.3000    96.9771    13.0766    12.6477
  371.4000    96.9246    13.0758    12.5806
  371.5000    97.0564    13.0752    12.5800
  371.6000    97.3020    13.0308    12.5209
  371.7000    97.5581    12.9817    12.4907
  371.8000    98.0485    12.9810    12.4901
  371.9000    98.7333    12.9802    12.4830
  372.0000    99.3343    12.9163    12.4013
  372.1000    99.8989    12.8876    12.4009
  372.2000   100.6206    12.8868    12.3579
  372.3000   101.2050    12.8861    12.3127
  372.4000   101.6012    12.8853    12.3122
  372.5000   102.0915    12.8197    12.3116
  372.6000   102.5050    12.7933    12.3112
  372.7000   102.7669    12.7926    12.2668
  372.8000   103.3455    12.7802    12.2237
  372.9000   103.5470    12.7011    12.2133
  373.0000   103.5114    12.7004    12.1368
  373.1000   103.2671    12.6997    12.1364
  373.2000   103.0228    12.6990    12.1358
  373.3000   102.7378    12.6983    12.1353
  373.4000   102.5343    12.6975    12.1232
  373.5000   102.2901    12.5189    12.0490
  373.6000   102.0458    12.5390    12.0486
  373.7000   101.8016    12.6062    12.0481
  373.8000   101.5195    12.6053    12.0476
  373.9000   101.3131    12.6047    12.0470
  374.0000   101.0687    12.6040    12.0465
  374.1000   100.7381    12.6033    12.0460
  374.2000   100.3004    12.6025    12.0455
  374.3000   100.3012    12.6018    12.0767
  374.4000   100.0916    12.6012    12.1297
  374.5000    99.8474    12.6005    12.1291
  374.6000    99.6031    12.5997    12.1286
  374.7000    99.3588    12.5990    12.1281
  374.8000    99.0828    12.5982    12.1613
  374.9000    98.8703    12.5976    12.2129
  375.0000    98.6259    12.5969    12.2123
  375.1000    98.3816    12.5962    12.2813
  375.2000    98.1374    12.5955    12.2977
  375.3000    97.8645    12.5947    12.2972
  375.4000    97.4326    12.5941    12.2966
  375.5000    97.0992    12.5933    12.2978
  375.6000    96.8550    12.5926    12.3672
  375.7000    96.6454    12.5801    12.3820
  375.8000    96.6462    12.5026    12.3815
  375.9000    96.4276    12.5019    12.3810
  376.0000    96.1832    12.5013    12.3840
  376.1000    96.0373    12.5006    12.4674
  376.2000    96.0000    12.4999    12.4669
  376.3000    95.7332    12.4991    12.4664
  376.4000    95.7337    12.4984    12.4659
  376.5000    95.7343    12.4977    12.4654
  376.6000    95.7350    12.4970    12.4647
  376.7000    95.7356    12.4963    12.4643
  376.8000    95.7362    12.4956    12.4638
  376.9000    95.7368    12.4256    12.4391
  377.0000    95.9023    12.4063    12.3752
  377.1000    96.1479    12.4056    12.3746
  377.2000    96.3934    12.4049    12.3742
  377.3000    96.6553    12.4042    12.3737
  377.4000    97.1128    12.4036    12.3731
  377.5000    97.4352    12.3491    12.3726
  377.6000    97.6807    12.3149    12.3720
  377.7000    97.9732    12.3142    12.3100
  377.8000    98.4904    12.3135    12.2841
  377.9000    98.9538    12.3128    12.2836
  378.0000    99.1023    12.3121    12.2831
  378.1000    99.3238    12.3114    12.2825
  378.2000    99.8142    12.3107    12.2821
  378.3000   100.3255    12.3054    12.2816
  378.4000   100.3261    12.2226    12.2811
  378.5000   100.5009    12.2221    12.2805
  378.6000   100.7463    12.2214    12.2800
  378.7000   100.9917    12.1972    12.2795
  378.8000   101.2446    12.1340    12.2790
  378.9000   101.4827    12.1333    12.2785
  379.0000   101.7282    12.1327    12.2641
  379.1000   101.8571    12.1320    12.1912
  379.2000   101.9138    12.1313    12.1907
  379.3000   102.1637    12.1220    12.1902
  379.4000   102.1642    12.0446    12.1574
  379.5000   102.3450    12.0440    12.1035
  379.6000   102.3511    12.0433    12.1030
  379.7000   102.1661    12.0156    12.1025
  379.8000   102.1667    11.9572    12.1020
  379.9000   102.1673    11.9565    12.1015
  380.0000   101.9848    11.9559    12.0840
  380.1000   101.7405    11.9552    12.0155
  380.2000   101.5585    11.9545    12.0150
  380.3000   101.5552    11.9539    11.9629
  380.4000   101.0660    11.9531    11.9296
  380.5000   100.7633    11.9525    11.9291
  380.6000   100.5191    11.9046    11.9286
  380.7000   100.2748    11.8671    11.9281
  380.8000   100.0305    11.8664    11.9276
  380.9000    99.7862    11.8657    11.9271
  381.0000    99.5420    11.8651    11.9065
  381.1000    99.2977    11.8156    11.8424
  381.2000    99.0535    11.7803    11.8417
  381.3000    98.8171    11.7636    11.7871
  381.4000    98.8177    11.6962    11.7577
  381.5000    98.8183    11.6955    11.7571
  381.6000    98.8189    11.6448    11.7567
  381.7000    98.8196    11.6119    11.7561
  381.8000    98.8201    11.6112    11.7002
  381.9000    98.8208    11.6088    11.6726
  382.0000    98.8214    11.5425    11.6721
  382.1000    98.8220    11.5277    11.6648
  382.2000    98.8226    11.4917    11.5891
  382.3000    98.8372    11.4453    11.5887
  382.4000    99.1293    11.4410    11.5882
  382.5000    99.1298    11.3634    11.5877
  382.6000    99.1304    11.3629    11.5872
  382.7000    99.1310    11.3255    11.5867
  382.8000    99.1316    11.2817    11.5283
  382.9000    99.1323    11.2810    11.5044
  383.0000    99.3343    11.2803    11.4781
  383.1000    99.4388    11.2798    11.4226
  383.2000    99.5199    11.2408    11.4221
  383.3000    99.7654    11.1766    11.3630
  383.4000   100.0514    11.1198    11.3410
  383.5000   100.2564    11.1191    11.3134
  383.6000   100.3579    11.0637    11.2604
  383.7000   100.4422    11.0397    11.2599
  383.8000   100.6877    11.0150    11.2594
  383.9000   100.9705    10.9608    11.1714
