~VERSION INFORMATION
 VERS.                2.0:   CWLS LOG ASCII STANDARD - VERSION 2.0
 WRAP.                 NO:   ONE LINE PER DEPTH STEP
~WELL INFORMATION
#MNEM.UNIT      DATA TYPE    INFORMATION
#----------   ------------   ------------------------------
 STRT.F           39.0000:   START DEPTH
 STOP.F          590.0000:   STOP DEPTH
 STEP.F            0.5000:   STEP LENGTH
 NULL.          -999.2500:   NO VALUE
 COMP. FENIX & SCISSON INC:   COMPANY
 WELL.    NPR-3 SX #41-34:   WELL
 FLD .             TEAPOT:   FIELD
 LOC .      S34 T39N R78W:   LOCATION
 CNTY.            NATRONA:   COUNTY
 STAT.            WYOMING:   STATE
 CTRY. UNITED STATES OF AMERICA:   COUNTRY
 SRVC.           BIRDWELL:   SERVICE COMPANY
 DATE.        28-AUG-1978:   LOGDATE
 API .       490251069800:   API NUMBER
~CURVE INFORMATION
#MNEM.UNIT       API CODE    CURVE DESCRIPTION
#----------   ------------   ------------------------------
 DEPT.F                  :   
 SPR .MV     05 010 01 00:   SPONTANEOUS POTENTIAL FROM RES.
 SN  .OHMM   05 040 16 00:   SHORT NORMAL 16"
 ILD .OHMM   05 120 46 00:   INDUCTION LOG DEEP
 CALD.IN     45 280 60 00:   CALIPER
 GRD .GAPI   45 310 01 00:   GAMMA RAY FROM DENSITY LOG
 RHOB.G/C3   45 350 01 00:   BULK DENSITY
 DPHI.DEC    45 890 12 00:   DENSITY POROSITY SANDSTONE
 CORR.G/C3   45 356 01 00:   DENSITY CORRECTION
~PARAMETER INFORMATION
#MNEM.UNIT          VALUE    DESCRIPTION
#----------   ------------   ------------------------------
 PD  .                 GL:   PERMANENT DATUM
 EPD .F              5064:   ELEVATION PERMANENT DATUM
 LMF .                 KB:   LOG MEASURED FROM
 DAPD.F                 4:   FEET ABOVE PERMANENT DATUM
 DMF .                 KB:   DRILLING MEASURED FROM
 EKB .F              5068:   KELLING BUSHING
 EGL .F              5064:   GROUND LEVEL
 DATE.          8-28-1978:   RUN DATE
 RUN .                  1:   RUN NUMBER
 DD  .F               600:   DEPTH DRILLER
 DL  .F               596:   DEPTH LOGGER
 BLI .F               590:   BOTTOM LOG INTERVAL
 TLI .F                50:   TOP LOG INTERVAL
 CS  .IN            8.625:   CASING SIZE
 CBD .F                40:   CASING BOTTOM DRILLER
 BS  .IN            7.875:   BIT SIZE
 BSD .F               600:   BIT SIZE AT DEPTH
 DFT .                KCL:   DRILLING FLUID TYPE
 DFD .                8.7:   DRILLING FLUID DENSITY
 DFV .                 35:   DRILLING FLUID VISCOSITY
 DFPH.                  9:   DRILLING FLUID PH
 DFL .                 10:   DRILLING FLUID LOSS
 MSS .          FLOW LINE:   MUD SAMPLE SOURCE
 RMS .OHMM             .4:   RESISTIVITY MUD SAMPLE
 MST .F                76:   MUD SAMPLE TEMPERATURE
 RMF .OHMM             .3:   RESISTIVITY MUD FILTRATE SAMPLE
 MFST.F                80:   MUD FILTRATE SAMPLE TEMPERATURE
 RMC .OHMM             .4:   RESISTIVITY MUD CAKE
 MCST.F                80:   MUD CAKE SAMPLE TEMPERATURE
 MFSS.               MEAS:   MUD FILTRATE SAMPLE SOURCE
 MCSS.               MEAS:   MUD CAKE SAMPLE SOURCE
 TCS .HRS               3:   TIME CURCULATED STOPPED
 LUN .               2958:   LOGGING UNIT NUMBER
 LUL .               CASP:   LOGGING UNIT LOCATION
 ENGI.             MILLER:   RECORDING ENGINEER
 WITN.              AMEND:   WITNESSED BY
 CLNT.            A2DTECH:   CLIENT CODE
 ORIG.           5" PRINT:   ORIGIN OF DATA
 UWI .       490251069800:   UNIQUE WELL ID
 DICO. A2D Technologies, Inc.:   DIGITIZING COMPANY
~OTHER INFORMATION
~A   DEPT      SPR         SN        ILD       CALD        GRD         RHOB       DPHI      CORR  
# ...
  565.5000   -28.9661     9.7740     9.2584     7.1981    93.5784     2.5017     0.1031     0.0457
  566.0000   -29.0307     9.7074     9.2505     7.2240    93.4487     2.5107     0.0986     0.0444
  566.5000   -29.0952     9.6263     9.1155     7.2448    93.3247     2.5095     0.0978     0.0405
  567.0000   -29.1598     9.4304     8.9216     7.2143    93.2032     2.4966     0.1161     0.0343
  567.5000   -29.2267     9.2385     8.7317     7.1799    93.0709     2.4779     0.1318     0.0281
  568.0000   -29.2445     9.0505     8.5472     7.1462    92.3889     2.4556     0.1465     0.0268
  568.5000   -29.2651     8.8663     8.4335     7.1108    90.5383     2.4424     0.1521     0.0280
  569.0000   -29.2852     8.8327     8.4695     7.0274    88.6665     2.4351     0.1388     0.0293
  569.5000   -29.3054     8.7520     8.4151     6.4675    89.3846     2.4482     0.1199     0.0322
  570.0000   -29.3257     8.7520     8.3610     7.6997    90.5641     2.4766     0.1010     0.0363
  570.5000   -29.3459     8.6680     8.3072     6.9137    91.4138     2.4979     0.1010     0.0405
  571.0000   -29.3662     8.6768     8.2828  -999.2500    91.1945     2.5093     0.1042     0.0403
  571.5000   -29.3863     8.5679     8.0715  -999.2500    89.8074     2.5036     0.1073     0.0378
  572.0000   -29.4060     8.4087     7.8980  -999.2500    88.4100     2.4984     0.1071     0.0353
  572.5000   -29.4274     8.2565     7.7282  -999.2500    88.1893     2.5001     0.1048     0.0328
  573.0000   -29.5327     8.1070     7.5621  -999.2500    88.3188     2.5018     0.1037     0.0303
  573.5000   -29.8542     7.9602     7.3996  -999.2500    90.9387     2.5033     0.1073     0.0278
  574.0000   -30.1812     7.8161     7.2405  -999.2500    92.8314     2.4994     0.1090     0.0260
  574.5000   -30.0431     7.6746     7.0849  -999.2500    92.2724     2.4967     0.1060     0.0266
  575.0000   -29.7168     7.5356     7.0209  -999.2500    87.6990     2.5027     0.1042     0.0271
  575.5000   -29.3870     7.3508     7.0209  -999.2500    84.7569     2.5047     0.1073     0.0276
  576.0000   -29.0660     7.6539     7.4346  -999.2500    87.5813     2.4988     0.1114     0.0281
  576.5000   -28.7913     8.1520     7.8752  -999.2500    89.9240     2.4986     0.1026     0.0286
  577.0000   -28.6415     8.6826     8.3419  -999.2500    91.4611     2.5020     0.1054     0.0291
  577.5000   -28.6237     9.2054     8.8363  -999.2500    93.0197     2.5035     0.1082     0.0296
  578.0000   -28.6145     9.5002     9.2477  -999.2500    93.1716     2.4986     0.1072     0.0301
  578.5000   -28.6039     9.8045     9.5937  -999.2500  -999.2500     2.4975     0.1066     0.0306
  579.0000   -28.5930    10.0445     9.7067  -999.2500  -999.2500     2.4978     0.1101     0.0310
  579.5000   -28.5821    10.0445     9.7643  -999.2500  -999.2500     2.4945     0.1099     0.0316
  580.0000   -28.5713    10.0445     9.7715  -999.2500  -999.2500     2.4974     0.1054     0.0328
  580.5000   -28.5604    10.0445     9.7715  -999.2500  -999.2500     2.4989     0.1085     0.0373
  581.0000   -28.5495    10.0445     9.7715  -999.2500  -999.2500     2.4958     0.1122     0.0419
  581.5000   -28.5387    10.0445     9.7715  -999.2500  -999.2500     2.4929     0.1137     0.0211
  582.0000   -28.5278    10.0445     9.7715  -999.2500  -999.2500     2.4904     0.1073     0.0182
  582.5000   -28.5169    10.0445     9.7715  -999.2500  -999.2500     2.4908     0.1002     0.0166
  583.0000   -28.5060    10.0445     9.7715  -999.2500  -999.2500     2.5045     0.1050     0.0171
  583.5000   -28.4952    10.0445     9.7715  -999.2500  -999.2500     2.5096     0.1094     0.0180
  584.0000   -28.4843    10.0445     9.7715  -999.2500  -999.2500     2.5095     0.0950     0.0180
  584.5000   -28.4734    10.0445     9.7715  -999.2500  -999.2500  -999.2500  -999.2500  -999.2500
  585.0000   -28.4626    10.0445     9.7715  -999.2500  -999.2500  -999.2500  -999.2500  -999.2500
  585.5000   -28.4521    10.0445     9.7715  -999.2500  -999.2500  -999.2500  -999.2500  -999.2500
  586.0000   -28.4478    10.0445     9.7715  -999.2500  -999.2500  -999.2500  -999.2500  -999.2500
  586.5000   -28.2660    10.0445     9.7715  -999.2500  -999.2500  -999.2500  -999.2500  -999.2500
  587.0000   -28.0507    10.0445     9.7712  -999.2500  -999.2500  -999.2500  -999.2500  -999.2500
  587.5000   -27.8344    10.0443     9.7716  -999.2500  -999.2500  -999.2500  -999.2500  -999.2500
  588.0000   -27.6192    10.0443     9.8310  -999.2500  -999.2500  -999.2500  -999.2500  -999.2500
  588.5000   -27.4404    10.0486     9.8951  -999.2500  -999.2500  -999.2500  -999.2500  -999.2500
  589.0000   -27.4447    10.0384     9.9527  -999.2500  -999.2500  -999.2500  -999.2500  -999.2500
  589.5000   -27.4450    10.2306     9.4191  -999.2500  -999.2500  -999.2500  -999.2500  -999.2500
  590.0000   -27.4451     9.1632     8.9142  -999.2500  -999.2500  -999.2500  -999.2500  -999.2500
