~VERSION INFORMATION
 VERS.                2.0:   CWLS LOG ASCII STANDARD - VERSION 2.0
 WRAP.                 NO:   ONE LINE PER DEPTH STEP
~WELL INFORMATION
#MNEM.UNIT      DATA TYPE    INFORMATION
#----------   ------------   ------------------------------
 STRT.F          484.0000:   START DEPTH
 STOP.F         2291.5000:   STOP DEPTH
 STEP.F            0.5000:   STEP LENGTH
 NULL.          -999.2500:   NO VALUE
 COMP. FENIX & SCISSON INC:   COMPANY
 WELL.     45 SHX 3 #45-3:   WELL
 FLD .             TEAPOT:   FIELD
 LOC .       S3 T38N R78W:   LOCATION
 CNTY.            NATRONA:   COUNTY
 STAT.            WYOMING:   STATE
 CTRY. UNITED STATES OF AMERICA:   COUNTRY
 SRVC.              Welex:   SERVICE COMPANY
 DATE.        20-APR-1980:   LOGDATE
 API .       490251080400:   API NUMBER
~CURVE INFORMATION
#MNEM.UNIT       API CODE    CURVE DESCRIPTION
#----------   ------------   ------------------------------
 DEPT.F                  :   
 CALD.IN     45 280 60 00:   CALIPER
 GRD .GAPI   45 310 01 00:   GAMMA RAY FROM DENSITY LOG
 CORR.G/C3   45 356 01 00:   DENSITY CORRECTION
 RHOB.G/C3   45 350 01 00:   BULK DENSITY
 DPHI.DEC    45 890 12 00:   DENSITY POROSITY SANDSTONE
~PARAMETER INFORMATION
#MNEM.UNIT          VALUE    DESCRIPTION
#----------   ------------   ------------------------------
 PD  .                 GL:   PERMANENT DATUM
 EPD .F              5186:   ELEVATION PERMANENT DATUM
 LMF .                 KB:   LOG MEASURED FROM
 DAPD.F                10:   FEET ABOVE PERMANENT DATUM
 DMF .                 KB:   DRILLING MEASURED FROM
 EKB .F              5196:   KELLING BUSHING
 EGL .F              5186:   GROUND LEVEL
 DATE.            4-20-80:   RUN DATE
 RUN .                  1:   RUN NUMBER
 DD  .F              2341:   DEPTH DRILLER
 DL  .F              2293:   DEPTH LOGGER
 BLI .F              2291:   BOTTOM LOG INTERVAL
 TLI .F               500:   TOP LOG INTERVAL
 CS  .IN            9.625:   CASING SIZE
 BS  .IN             8.75:   BIT SIZE
 BSD .F              2341:   BIT SIZE AT DEPTH
 DFT .                OIL:   DRILLING FLUID TYPE
 TCS .HRS               2:   TIME CURCULATED STOPPED
 MRT .F               218:   MAXIMUM RECORDED TEMPERATURE
 ENGI.            TOTHILL:   RECORDING ENGINEER
 WITN.           DINSMORE:   WITNESSED BY
 CLNT.            A2DTECH:   CLIENT CODE
 ORIG.           5" PRINT:   ORIGIN OF DATA
 UWI .       490251080400:   UNIQUE WELL ID
 DICO. A2D Technologies, Inc.:   DIGITIZING COMPANY
~OTHER INFORMATION
~A   DEPT     CALD         GRD      CORR       RHOB       DPHI   
# ...
  606.0000     9.1170    67.3603     0.0178     2.4553     0.1067
  606.5000     9.1466    67.5125     0.0181     2.4413     0.1173
  607.0000     9.2012    67.6596     0.0105     2.4210     0.1265
  607.5000     9.2542    67.5542     0.0011     2.3965     0.1357
  608.0000     9.2537    67.0118    -0.0008     2.3925     0.1401
  608.5000     9.2468    66.4743     0.0086     2.3822     0.1429
  609.0000     9.2403    65.9600     0.0167     2.3880     0.1421
  609.5000     9.2587    65.9411     0.0248     2.3863     0.1442
  610.0000     9.2971    65.9453     0.0330     2.3858     0.1407
  610.5000     9.3370    66.0363     0.0501     2.4021     0.1333
  611.0000     9.3810    66.4993     0.0702     2.4185     0.1261
  611.5000     9.5119    66.8747     0.0908     2.4345     0.1189
  612.0000     9.6445    67.2651     0.0950     2.4485     0.1123
  612.5000     9.7759    67.6680     0.0465     2.4491     0.1115
  613.0000     9.7470    68.0693     0.0094     2.4583     0.1062
  613.5000     9.4057    68.4703    -0.0091     2.4681     0.1012
  614.0000     9.2000    68.8713    -0.0138     2.4657     0.1024
  614.5000     9.1946    69.2723    -0.0182     2.4592     0.1059
  615.0000     9.2176    69.6733    -0.0162     2.4618     0.1035
  615.5000     9.1349    70.0746    -0.0112     2.4681     0.1010
  616.0000     9.0935    70.4744    -0.0060     2.4717     0.1002
  616.5000     9.1336    70.8768    -0.0083     2.4673     0.1025
  617.0000     9.1770    71.0722    -0.0047     2.4704     0.0990
  617.5000     9.2158    71.0181     0.0007     2.4743     0.0970
  618.0000     9.2056    70.8179    -0.0031     2.4684     0.1003
  618.5000     9.1960    70.6197    -0.0050     2.4676     0.1014
  619.0000     9.1956    70.4217    -0.0062     2.4679     0.1027
  619.5000     9.1920    70.2227    -0.0111     2.4597     0.1054
  620.0000     9.1872    69.8730    -0.0092     2.4657     0.0913
  620.5000     9.1824    69.4687    -0.0061     2.4753     0.0943
  621.0000     9.1774    69.0581    -0.0030     2.4813     0.0938
  621.5000     9.1667    68.6434    -0.0097     2.4763     0.0971
  622.0000     9.1410    68.2182    -0.0140     2.4762     0.0952
  622.5000     9.1157    67.7934    -0.0108     2.4782     0.0940
  623.0000     9.0903    67.3677    -0.0067     2.4858     0.0914
  623.5000     9.0648    66.9361    -0.0007     2.4914     0.0873
  624.0000     9.0560    66.7139     0.0026     2.4971     0.0835
  624.5000     9.0644    66.5380     0.0021     2.4951     0.0800
  625.0000     9.0728    66.3634    -0.0057     2.4837     0.0929
  625.5000     9.0847    66.1885    -0.0178     2.4716     0.0997
  626.0000     9.0975    66.0114    -0.0232     2.4755     0.0986
  626.5000     9.1099    65.9443    -0.0195     2.4708     0.0962
  627.0000     9.1361    65.9573    -0.0149     2.4836     0.0905
  627.5000     9.1696    66.2886    -0.0103     2.4851     0.0925
  628.0000     9.2042    66.6281    -0.0057     2.4927     0.0873
  628.5000     9.1874    66.9658    -0.0011     2.4936     0.0852
  629.0000     9.1445    67.3037     0.0078     2.5056     0.0794
  629.5000     9.1010    67.6405     0.0193     2.5173     0.0680
  630.0000     9.0946    67.9896     0.0206     2.5186     0.0709
  630.5000     9.0838    68.3411     0.0143     2.5115     0.0758
  631.0000     9.0344    68.6402     0.0080     2.5049     0.0800
  631.5000     8.9865    68.2599     0.0080     2.5096     0.0748
  632.0000     8.9390    67.8753     0.0087     2.5097     0.0771
  632.5000     8.9353    67.4933     0.0020     2.4958     0.0808
  633.0000     8.9382    67.6514     0.0045     2.4969     0.0788
  633.5000     8.9412    67.9291     0.0030     2.5001     0.0848
  634.0000     8.9441    68.2114    -0.0064     2.4872     0.0913
  634.5000     8.9470    68.4930    -0.0159     2.4778     0.0950
  635.0000     8.9499    68.7710    -0.0072     2.4890     0.0897
  635.5000     8.9519    68.9908    -0.0047     2.4897     0.0870
  636.0000     9.0015    69.0639    -0.0008     2.4936     0.0854
  636.5000     9.0670    69.1402     0.0029     2.4941     0.0855
  637.0000     9.1320    69.2142     0.0035     2.4957     0.0865
  637.5000     9.1749    69.2698     0.0150     2.5014     0.0809
  638.0000     9.1659    69.4702     0.0186     2.5065     0.0773
  638.5000     9.1578    69.7260     0.0231     2.5101     0.0756
  639.0000     9.1495    70.0119     0.0301     2.5134     0.0739
  639.5000     9.1413    70.2909     0.0281     2.5100     0.0763
  640.0000     9.1331    70.2884     0.0314     2.5051     0.0785
  640.5000     9.1248    69.7749     0.0269     2.5007     0.0831
  641.0000     9.1164    69.2683     0.0178     2.4879     0.0896
  641.5000     9.1149    68.7492     0.0105     2.4794     0.0933
  642.0000     9.1149    68.8133     0.0090     2.4780     0.0932
  642.5000     9.1149    69.0016     0.0108     2.4831     0.0926
  643.0000     9.1149    69.1923     0.0094     2.4792     0.0950
  643.5000     9.1149    69.3796     0.0140     2.4833     0.0921
  644.0000     9.1149    69.5857     0.0168     2.4836     0.0923
  644.5000     9.1149    70.2068     0.0144     2.4808     0.0938
  645.0000     9.1149    70.8347     0.0204     2.4869     0.0901
  645.5000     9.1150    71.4679     0.0183     2.4789     0.0930
  646.0000     9.1144    71.6768     0.0074     2.4708     0.0979
  646.5000     9.1011    71.5745    -0.0002     2.4650     0.1022
  647.0000     9.0878    71.0785     0.0022     2.4783     0.0953
  647.5000     9.0745    70.5982     0.0162     2.4917     0.0861
  648.0000     9.0612    70.1193     0.0183     2.5027     0.0808
  648.5000     9.0500    69.8690     0.0020     2.4868     0.0911
  649.0000     9.0408    69.8724    -0.0058     2.4723     0.0982
  649.5000     9.0341    69.8490    -0.0068     2.4763     0.0953
  650.0000     9.0342    69.4565    -0.0019     2.4819     0.0926
  650.5000     9.0526    69.0714     0.0029     2.4877     0.0901
  651.0000     9.0890    68.6902     0.0067     2.4890     0.0892
  651.5000     9.1267    68.3515     0.0034     2.4773     0.0949
  652.0000     9.1342    68.4350     0.0041     2.4808     0.0938
  652.5000     9.1328    68.5190     0.0147     2.4893     0.0877
  653.0000     9.1311    68.6016     0.0206     2.4982     0.0821
  653.5000     9.1295    68.6840     0.0011     2.4853     0.0928
  654.0000     9.1280    68.7663    -0.0043     2.4673     0.1006
  654.5000     9.1264    68.8491     0.0019     2.4752     0.0966
  655.0000     9.1248    68.9311     0.0008     2.4721     0.1007
  655.5000     9.1233    69.0961    -0.0088     2.4578     0.1080
  656.0000     9.1217    69.2370    -0.0125     2.4523     0.1103
  656.5000     9.1201    69.0599    -0.0087     2.4535     0.1101
  657.0000     9.1186    68.8894    -0.0062     2.4567     0.1082
  657.5000     9.1170    68.7191     0.0002     2.4607     0.1041
  658.0000     9.1156    68.7151    -0.0026     2.4576     0.1038
  658.5000     9.1080    68.9558    -0.0031     2.4467     0.1145
  659.0000     9.0977    69.1982    -0.0068     2.4414     0.1188
  659.5000     9.0815    69.0420    -0.0121     2.4290     0.1224
  660.0000     9.1079    68.7262    -0.0168     2.4167     0.1290
  660.5000     9.1544    68.4024    -0.0211     2.4111     0.1353
  661.0000     9.1963    68.0762    -0.0166     2.4188     0.1349
  661.5000     9.1580    67.9506    -0.0063     2.4265     0.1326
  662.0000     9.1173    67.8080    -0.0030     2.4320     0.1304
  662.5000     9.1379    67.6632    -0.0007     2.4341     0.1304
  663.0000     9.1357    67.5180     0.0059     2.4364     0.1300
  663.5000     9.0781    67.3728     0.0103     2.4378     0.1291
  664.0000     9.0660    67.2275     0.0152     2.4370     0.1292
  664.5000     9.1338    67.0824     0.0224     2.4364     0.1301
  665.0000     9.1762    66.9381     0.0319     2.4277     0.1315
  665.5000     9.1588    66.8492     0.0334     2.4110     0.1390
  666.0000     9.1398    66.8468     0.0209     2.3922     0.1474
  666.5000     9.1135    66.8739     0.0249     2.3744     0.1558
