~VERSION INFORMATION
 VERS.                2.0:   CWLS LOG ASCII STANDARD - VERSION 2.0
 WRAP.                 NO:   ONE LINE PER DEPTH STEP
~WELL INFORMATION
#MNEM.UNIT      DATA TYPE    INFORMATION
#----------   ------------   ------------------------------
 STRT.F            4.0000:   START DEPTH
 STOP.F          693.0000:   STOP DEPTH
 STEP.F            0.5000:   STEP LENGTH
 NULL.          -999.2500:   NO VALUE
 COMP.   FLUOR DANIEL INC:   COMPANY
 WELL. NAVAL PETROLEUM RESERVE 3 SX-3 #1-34:   WELL
 FLD .             TEAPOT:   FIELD
 LOC .      S34 T39N R78W:   LOCATION
 CNTY.            NATRONA:   COUNTY
 STAT.            WYOMING:   STATE
 CTRY. UNITED STATES OF AMERICA:   COUNTRY
 SRVC.      Western Atlas:   SERVICE COMPANY
 DATE.        06-FEB-1994:   LOGDATE
 API .       490252269600:   API NUMBER
~CURVE INFORMATION
#MNEM.UNIT       API CODE    CURVE DESCRIPTION
#----------   ------------   ------------------------------
 DEPT.F                  :   
 GRR .GAPI   07 310 01 00:   GAMMA RAY FROM RES. LOG.
 ILD .OHMM   07 120 46 00:   INDUCTION LOG DEEP
 ILM .OHMM   07 120 44 00:   INDUCTION LOG MEDIUM
~PARAMETER INFORMATION
#MNEM.UNIT          VALUE    DESCRIPTION
#----------   ------------   ------------------------------
 PD  .                 GL:   PERMANENT DATUM
 EPD .F              5097:   ELEVATION PERMANENT DATUM
 LMF .                 KB:   LOG MEASURED FROM
 DAPD.F                10:   FEET ABOVE PERMANENT DATUM
 DMF .                 KB:   DRILLING MEASURED FROM
 EKB .F              5107:   KELLING BUSHING
 EDF .F              5106:   DRILLING FLOOR
 EGL .F              5097:   GROUND LEVEL
 DATE.         6-FEB-1994:   RUN DATE
 RUN .                  1:   RUN NUMBER
 DD  .F               700:   DEPTH DRILLER
 DL  .F               701:   DEPTH LOGGER
 BLI .F               693:   BOTTOM LOG INTERVAL
 CS  .IN            9.625:   CASING SIZE
 CBD .F                56:   CASING BOTTOM DRILLER
 CBL .F                56:   CASING BOTTOM LOGGER
 BS  .IN             8.75:   BIT SIZE
 BSD .F               700:   BIT SIZE AT DEPTH
 DFT .                AIR:   DRILLING FLUID TYPE
 MRT .F                89:   MAXIMUM RECORDED TEMPERATURE
 LUN .            HL-6274:   LOGGING UNIT NUMBER
 LUL .             CASPER:   LOGGING UNIT LOCATION
 ENGI.        VERN RAUTIO:   RECORDING ENGINEER
 WITN.        GARY STRONG:   WITNESSED BY
 CLNT.            A2DTECH:   CLIENT CODE
 ORIG.           5" PRINT:   ORIGIN OF DATA
 UWI .       490252269600:   UNIQUE WELL ID
 DICO. A2D Technologies, Inc.:   DIGITIZING COMPANY
~OTHER INFORMATION
~A    DEPT      GRR       ILD        ILM   
# ...
  459.0000   132.3900     5.4130     5.2870
  459.5000   133.8300     5.3390     5.2870
  460.0000   134.5880     5.2650     5.3970
  460.5000   134.0910     5.1890     5.4720
  461.0000   131.5040     5.2040     5.5470
  461.5000   128.0010     5.2190     5.6210
  462.0000   128.1520     5.2380     5.6980
  462.5000   130.5830     5.1450     5.4200
  463.0000   132.9980     5.0170     5.1740
  463.5000   135.0810     4.8880     4.9270
  464.0000   133.7980     4.7690     4.6800
  464.5000   132.6740     4.7810     4.5080
  465.0000   133.9750     4.7910     4.5960
  465.5000   135.0240     4.8020     4.8490
  466.0000   132.4020     4.8130     5.1010
  466.5000   127.5950     4.9900     5.3540
  467.0000   126.2610     5.2580     5.6070
  467.5000   126.5160     5.5250     5.8590
  468.0000   127.0170     5.7920     6.1120
  468.5000   128.2500     6.0600     6.3650
  469.0000   129.8260     6.2000     6.5580
  469.5000   129.8970     6.2580     6.4970
  470.0000   127.3030     5.8720     6.3100
  470.5000   123.7870     5.4610     5.9260
  471.0000   123.2250     5.0500     5.5410
  471.5000   126.0460     4.6370     5.1560
  472.0000   129.5930     4.5940     4.7720
  472.5000   132.1480     4.6120     4.3840
  473.0000   133.1800     4.6320     4.5780
  473.5000   131.7840     4.6520     4.8980
  474.0000   129.4500     4.6720     5.2180
  474.5000   126.2510     4.7700     5.5380
  475.0000   123.0500     4.9920     5.8580
  475.5000   119.8320     5.4460     6.1780
  476.0000   118.8540     5.8990     6.4980
  476.5000   117.9900     6.3520     6.8180
  477.0000   116.2710     6.7930     7.1380
  477.5000   117.0280     7.1350     7.4080
  478.0000   118.9380     7.2220     7.5480
  478.5000   119.9730     7.2670     7.5560
  479.0000   119.5140     7.3120     7.5640
  479.5000   118.4780     7.3570     7.5720
  480.0000   116.7590     7.4020     7.5790
  480.5000   116.1100     7.4470     7.5870
  481.0000   118.3240     7.4920     7.5950
  481.5000   121.8880     7.5370     7.6020
  482.0000   125.0520     7.5480     7.6100
  482.5000   121.9030     7.5480     7.6190
  483.0000   118.3540     7.5320     7.5730
  483.5000   116.2270     7.4720     7.5180
  484.0000   116.8760     7.4110     7.4630
  484.5000   118.6200     7.3390     7.4080
  485.0000   119.8110     7.4170     7.5290
  485.5000   120.0510     7.5130     7.6500
  486.0000   119.1480     7.6100     7.7720
  486.5000   116.8730     7.6910     7.8930
  487.0000   114.5310     7.5170     8.0140
  487.5000   112.1790     7.2180     8.0600
  488.0000   109.9990     6.7910     7.4600
  488.5000   110.2070     6.0350     6.5580
  489.0000   113.1780     5.2790     5.6560
  489.5000   121.7490     4.6370     4.7690
  490.0000   130.6220     4.6370     4.7250
  490.5000   134.6360     4.7800     5.0310
  491.0000   131.6410     5.0920     5.2440
  491.5000   124.3690     5.1880     5.7130
  492.0000   117.7130     5.3160     6.3820
  492.5000   114.0460     5.9740     7.0510
  493.0000   112.1080     6.7370     7.7200
  493.5000   112.1460     7.5000     8.3890
  494.0000   112.3370     8.2630     9.0580
  494.5000   112.5260     8.9350     9.2760
  495.0000   112.7030     9.0190     9.2760
  495.5000   112.4600     9.0510     9.2760
  496.0000   111.7520     9.0800     9.2760
  496.5000   111.2780     9.1720     9.3640
  497.0000   111.9330     9.5150     9.8110
  497.5000   112.2930     9.8580    10.2590
  498.0000   108.9500    10.5240    11.6590
  498.5000   102.6450    11.8780    13.9730
  499.0000    92.3170    12.7460    16.2870
  499.5000    81.6260    14.5850    18.6020
  500.0000    70.9660    16.6610    20.9160
  500.5000    60.0280    18.7370    23.2300
  501.0000    53.5270    20.8130    25.5440
  501.5000    52.7600    22.8890    27.8580
  502.0000    55.9620    24.9220    28.5530
  502.5000    59.9870    26.2440    27.2260
  503.0000    63.8030    25.9300    26.2090
  503.5000    65.5100    25.4760    25.1910
  504.0000    66.2390    24.7710    24.1740
  504.5000    66.9820    23.8770    23.1560
  505.0000    68.4700    22.9830    22.3800
  505.5000    70.4000    22.1710    22.3800
  506.0000    72.5930    22.1710    23.6600
  506.5000    73.9390    23.1130    25.1740
  507.0000    73.3320    23.8270    26.6880
  507.5000    70.9520    24.5410    28.2020
  508.0000    60.4050    25.2540    29.7160
  508.5000    56.0140    25.9680    31.3580
  509.0000    55.5730    26.6810    31.3580
  509.5000    57.7860    26.9930    31.3580
  510.0000    60.3290    26.8840    30.6350
  510.5000    64.7220    26.6180    29.9010
  511.0000    68.1950    26.3510    29.1660
  511.5000    68.5160    26.0850    28.4320
  512.0000    67.9510    25.8180    27.6970
  512.5000    68.1050    25.5170    27.2470
  513.0000    70.0870    25.6530    26.9930
  513.5000    72.2060    25.8210    27.7870
  514.0000    72.5010    25.9890    28.2870
  514.5000    70.3610    26.1570    28.1840
  515.0000    70.3660    26.3260    27.4380
  515.5000    71.7000    26.4910    26.9930
  516.0000    72.1580    27.4130    27.8560
  516.5000    72.1580    28.3200    28.9050
  517.0000    72.0140    29.2270    29.9550
  517.5000    70.4420    29.6440    31.0050
  518.0000    68.5540    29.3230    31.6530
  518.5000    67.2380    28.4840    30.4490
  519.0000    67.3470    27.2730    28.2700
  519.5000    70.1620    25.2680    26.0910
  520.0000    74.2780    23.1010    23.9120
  520.5000    79.5990    20.9340    21.7330
  521.0000    82.9110    19.3150    19.8080
  521.5000    84.6490    18.5260    18.8690
  522.0000    83.8520    17.7370    17.9310
  522.5000    83.4810    16.9480    16.9920
  523.0000    84.2960    16.5820    16.7380
  523.5000    83.4600    16.5820    16.7380
  524.0000    80.8080    16.5820    17.2350
  524.5000    79.0080    16.9510    17.7930
  525.0000    80.7000    17.2820    18.3520
  525.5000    82.7230    17.7630    18.9100
  526.0000    82.8970    18.3050    19.4690
  526.5000    81.7830    18.8470    20.0280
  527.0000    81.0590    19.3900    20.5860
  527.5000    79.1340    19.9320    21.1450
  528.0000    76.0180    20.4740    21.7040
  528.5000    73.9140    21.0170    21.9650
  529.0000    72.5800    21.3560    21.8270
  529.5000    72.9750    21.2710    21.6820
  530.0000    76.8850    21.1300    21.5380
  530.5000    79.1770    20.9900    21.3930
  531.0000    80.0860    20.8490    21.2490
  531.5000    79.4830    20.7080    21.1040
  532.0000    78.5520    20.5680    20.9600
  532.5000    77.5180    20.4270    20.8160
  533.0000    78.5750    20.2870    20.6710
  533.5000    80.1380    20.0970    20.4740
  534.0000    81.1070    19.7960    20.1550
  534.5000    80.7700    19.4940    19.8360
  535.0000    79.7840    19.1920    19.5170
  535.5000    79.5830    18.8910    19.1970
  536.0000    79.3810    18.5890    18.9070
  536.5000    79.1950    18.3300    18.8670
  537.0000    79.6910    18.1630    18.8300
  537.5000    81.2830    17.9960    18.7940
  538.0000    82.7100    17.8290    18.7570
  538.5000    82.7320    17.6620    18.6840
  539.0000    83.3720    17.4950    18.5060
  539.5000    84.3770    17.3280    18.3280
  540.0000    84.3450    17.1610    18.1500
  540.5000    84.1290    16.9940    17.9720
  541.0000    82.6950    16.8270    17.7940
  541.5000    81.0110    16.6500    17.6160
  542.0000    80.7020    16.4620    17.4380
  542.5000    80.3430    16.2750    17.2600
  543.0000    80.4950    16.1230    17.0830
  543.5000    80.7460    16.1230    16.9050
  544.0000    80.9640    16.1840    16.7380
  544.5000    81.6230    16.3180    16.9860
  545.0000    79.8960    16.4530    17.2190
  545.5000    79.2620    16.5880    17.4520
  546.0000    80.0360    16.7230    17.6850
  546.5000    82.4380    16.8580    17.9170
  547.0000    82.1230    16.9920    18.0410
  547.5000    81.4150    17.1270    17.7230
  548.0000    81.9400    17.2160    17.5070
  548.5000    84.6420    16.9990    17.2910
  549.0000    86.8380    16.8380    17.0750
  549.5000    87.8040    16.6770    16.8600
