~VERSION INFORMATION
 VERS.                2.0:   CWLS LOG ASCII STANDARD - VERSION 2.0
 WRAP.                 NO:   ONE LINE PER DEPTH STEP
~WELL INFORMATION
#MNEM.UNIT      DATA TYPE    INFORMATION
#----------   ------------   ------------------------------
 STRT.F          372.0000:   START DEPTH
 STOP.F         1845.0000:   STOP DEPTH
 STEP.F            0.5000:   STEP LENGTH
 NULL.          -999.2500:   NO VALUE
 COMP.             T.H.E.:   COMPANY
 WELL. 63-1-STX-29 #63-29:   WELL
 FLD .             TEAPOT:   FIELD
 LOC .      S29 T39N R78W:   LOCATION
 CNTY.            NATRONA:   COUNTY
 STAT.            WYOMING:   STATE
 CTRY. UNITED STATES OF AMERICA:   COUNTRY
 SRVC.            Unknown:   SERVICE COMPANY
 DATE.        20-MAY-1996:   LOGDATE
 API .       490252279200:   API NUMBER
~CURVE INFORMATION
#MNEM.UNIT       API CODE    CURVE DESCRIPTION
#----------   ------------   ------------------------------
 DEPT.F                  :   
 ROP .MIN/FT 91 810 01 00:   RATE OF DRILLING PENETRATION
 TGAS.UNITS  91 830 01 00:   TOTAL GAS FROM HOTWIRE
~PARAMETER INFORMATION
#MNEM.UNIT          VALUE    DESCRIPTION
#----------   ------------   ------------------------------
 EKB .F              4983:   KELLING BUSHING
 EGL .F              4973:   GROUND LEVEL
 DATE.          5-20-1996:   RUN DATE
 RUN .                  1:   RUN NUMBER
 BLI .F              1845:   BOTTOM LOG INTERVAL
 TLI .F               372:   TOP LOG INTERVAL
 CS  .IN                7:   CASING SIZE
 CBD .F               354:   CASING BOTTOM DRILLER
 ENGI.   C. TOWER/R. HUSK:   RECORDING ENGINEER
 CLNT.            A2DTECH:   CLIENT CODE
 ORIG.           5" PRINT:   ORIGIN OF DATA
 UWI .       490252279200:   UNIQUE WELL ID
 DICO. A2D Technologies, Inc.:   DIGITIZING COMPANY
~OTHER INFORMATION
~A   DEPT        ROP     TGAS   
# ...
  858.0000     0.8027     2.0241
  858.5000     0.7227     2.0250
  859.0000     0.7182     2.0261
  859.5000     0.7181     2.2384
  860.0000     0.7179     2.2396
  860.5000     0.7242     2.2405
  861.0000     0.7425     2.2415
  861.5000     0.7595     2.2426
  862.0000     0.6015     2.2437
  862.5000     0.6013     2.2447
  863.0000     0.6117     2.2458
  863.5000     0.6115     2.2468
  864.0000     0.6219     2.2479
  864.5000     0.6217     2.2491
  865.0000     0.6183     2.2500
  865.5000     0.6391     2.2511
  866.0000     0.9767     2.2521
  866.5000     0.9868     2.2533
  867.0000     0.9862     2.2542
  867.5000     0.9962     2.2553
  868.0000     0.9957     2.2563
  868.5000     0.9952     2.2575
  869.0000     0.9947     2.3925
  869.5000     0.9942     2.4708
  870.0000     0.9936     2.2605
  870.5000     0.9825     2.2617
  871.0000     0.9502     2.2629
  871.5000     0.9392     2.1629
  872.0000     0.9281     1.8421
  872.5000     0.9275     1.8433
  873.0000     0.9270     1.8445
  873.5000     0.9265     1.5177
  874.0000     0.9259     1.2125
  874.5000     0.9149     1.1950
  875.0000     0.9144     1.0035
  875.5000     0.9138     1.0046
  876.0000     0.9132     1.0056
  876.5000     0.9127     1.2180
  877.0000     0.9017     1.2191
  877.5000     0.9011     1.2202
  878.0000     0.9005     1.2211
  878.5000     0.5935     1.2222
  879.0000     0.5930     1.2244
  879.5000     0.5925     1.4357
  880.0000     0.6026     1.3219
  880.5000     0.6019     1.1606
  881.0000     0.6014     1.0161
  881.5000     0.6009     1.2286
  882.0000     0.7272     1.2296
  882.5000     0.7585     1.2306
  883.0000     0.7578     1.2317
  883.5000     0.7573     1.2328
  884.0000     0.7568     1.2340
  884.5000     0.7563     1.2349
  885.0000     0.7558     1.2359
  885.5000     0.7552     1.2370
  886.0000     0.7547     1.2382
  886.5000     0.7542     1.2391
  887.0000     0.7537     1.2401
  887.5000     0.7531     1.2412
  888.0000     0.6997     1.2423
  888.5000     0.6358     1.2433
  889.0000     0.6352     1.2444
  889.5000     0.6347     1.2454
  890.0000     0.6342     1.2465
  890.5000     0.9297     1.2477
  891.0000     0.9504     1.2486
  891.5000     0.9286     1.2496
  892.0000     0.9069     1.2507
  892.5000     0.8853     1.2519
  893.0000     0.8635     1.2528
  893.5000     0.8630     1.2539
  894.0000     0.8308     1.2549
  894.5000     0.8197     1.2561
  895.0000     0.8086     1.2570
  895.5000     0.7975     1.2581
  896.0000     0.7969     1.2592
  896.5000     0.7964     1.2603
  897.0000     0.7959     1.2615
  897.5000     0.7954     1.3559
  898.0000     0.7949     1.5193
  898.5000     0.7943     1.6870
  899.0000     0.7938     1.6882
  899.5000     0.7933     1.6891
  900.0000     0.8140     2.5352
  900.5000     0.8134     2.5340
  901.0000     0.8128     2.5331
  901.5000     0.8123     2.5320
  902.0000     0.7272     2.5309
  902.5000     0.6950     2.5299
  903.0000     0.7157     2.5289
  903.5000     0.7996     2.5278
  904.0000     0.8520     2.5266
  904.5000     0.8409     2.5257
  905.0000     0.8404     2.5246
  905.5000     0.8398     2.5236
  906.0000     0.8287     2.5223
  906.5000     0.8176     2.5215
  907.0000     0.8171     2.5204
  907.5000     0.8272     2.5193
  908.0000     0.8373     2.5183
  908.5000     0.8577     2.5173
  909.0000     0.8679     2.5162
  909.5000     0.8461     2.5150
  910.0000     0.7716     2.5141
  910.5000     0.7394     2.5130
  911.0000     0.7283     2.5119
  911.5000     0.7277     2.5109
  912.0000     0.7272     2.5099
  912.5000     0.7267     2.5088
  913.0000     0.7262     2.5076
  913.5000     0.7256     2.5067
  914.0000     0.7146     2.5056
  914.5000     0.7140     2.5045
  915.0000     0.7346     2.2920
  915.5000     0.7870     1.9983
  916.0000     0.7971     1.6563
  916.5000     0.7859     1.6552
  917.0000     0.7854     1.5374
  917.5000     0.9539     1.4419
  918.0000     1.0064     1.4408
  918.5000     1.0057     1.4396
  919.0000     0.9947     1.4387
  919.5000     0.9941     1.4377
  920.0000     0.9196     1.4365
  920.5000     0.8663     1.4356
  921.0000     0.8657     1.4345
  921.5000     0.8651     1.4335
  922.0000     0.9598     1.4323
  922.5000     0.9805     1.4313
  923.0000     0.9799     1.4303
  923.5000     0.9794     1.4292
  924.0000     0.9788     1.4280
  924.5000     0.9783     1.4271
  925.0000     0.9672     1.4261
  925.5000     0.8927     1.4249
  926.0000     0.7864     1.4239
  926.5000     0.7966     1.6343
  927.0000     0.8065     1.6322
  927.5000     0.7954     1.6319
  928.0000     0.7631     1.5127
  928.5000     0.7626     1.6300
  929.0000     0.7621     1.6288
  929.5000     0.6982     1.6278
  930.0000     0.5284     1.5573
  930.5000     0.5279     1.6257
  931.0000     0.5274     1.8358
  931.5000     0.6326     2.0461
  932.0000     0.7379     2.3022
  932.5000     0.7267     2.6778
  933.0000     0.7050     2.8878
  933.5000     1.2753     2.9680
  934.0000     1.2642     3.0972
  934.5000     1.2637     3.0960
  935.0000     1.2632     3.0951
  935.5000     0.9772     3.0940
  936.0000     0.8287     3.0930
  936.5000     0.8281     3.3032
  937.0000     0.8384     3.5134
  937.5000     0.8377     3.5123
  938.0000     0.8372     3.5112
  938.5000     0.8473     3.5102
  939.0000     0.8466     3.5092
  939.5000     0.8461     3.5081
  940.0000     0.8456     3.2956
  940.5000     0.8494     3.2947
  941.0000     0.8565     3.0824
  941.5000     0.8637     3.2926
  942.0000     0.8693     3.9251
  942.5000     0.8692     3.9243
  943.0000     0.8692     3.9232
  943.5000     0.8691     3.9221
  944.0000     0.8691     3.9211
  944.5000     0.8690     3.9201
  945.0000     0.8689     3.9190
  945.5000     0.8689     3.9178
  946.0000     0.9008     3.9169
  946.5000     0.9741     3.9158
  947.0000     0.9740     3.9147
  947.5000     0.9772     3.9137
  948.0000     0.9973     3.9127
  948.5000     1.1423     3.9116
  949.0000     1.1422     3.9104
  949.5000     1.1422     3.9095
  950.0000     1.0053     3.9085
  950.5000     1.0052     3.9074
  951.0000     1.0262     3.9061
  951.5000     1.0367     3.9053
  952.0000     1.0122     3.9042
  952.5000     0.9208     3.9031
  953.0000     0.9523     3.9021
  953.5000     0.9628     3.9011
  954.0000     0.9627     3.9000
  954.5000     0.9632     3.8988
  955.0000     0.9837     3.8979
  955.5000     0.9942     3.8968
  956.0000     0.9941     3.8957
  956.5000     1.0046     3.8947
  957.0000     0.8782     3.8937
  957.5000     0.8676     3.8926
  958.0000     0.8720     3.8914
  958.5000     0.9833     3.8905
  959.0000     0.9622     3.8894
  959.5000     0.9621     3.8883
  960.0000     0.9726     3.8871
  960.5000     0.8042     3.8863
  961.0000     0.8148     3.8852
  961.5000     0.8356     3.8840
  962.0000     0.8356     3.8831
  962.5000     0.7513     3.8820
  963.0000     0.7513     3.8810
  963.5000     0.7512     3.8798
  964.0000     0.7512     3.8789
  964.5000     0.8561     3.8778
  965.0000     1.0037     3.8767
  965.5000     1.0036     3.8757
  966.0000     1.0036     3.8064
  966.5000     0.9272     3.6623
  967.0000     0.8245     3.6611
  967.5000     0.8455     3.6602
  968.0000     0.8665     3.4479
  968.5000     0.7717     3.2355
  969.0000     0.7686     3.2343
  969.5000     0.7611     3.2335
  970.0000     0.7716     3.2324
  970.5000     0.9084     3.2312
  971.0000     0.9083     3.2303
  971.5000     0.9188     3.2292
  972.0000     0.9187     3.2282
  972.5000     0.9187     3.2269
  973.0000     0.9186     3.2261
  973.5000     0.9186     3.2250
  974.0000     0.9080     3.2239
  974.5000     0.7816     3.2229
  975.0000     0.7816     3.2218
  975.5000     0.7843     3.2208
  976.0000     0.7992     3.2196
  976.5000     1.0130     3.2187
  977.0000     1.0024     3.2176
  977.5000     1.0024     3.2165
  978.0000     0.9777     3.2155
  978.5000     0.8444     3.2144
  979.0000     0.8683     3.2134
