~VERSION INFORMATION
 VERS.                2.0:   CWLS LOG ASCII STANDARD - VERSION 2.0
 WRAP.                 NO:   ONE LINE PER DEPTH STEP
~WELL INFORMATION
#MNEM.UNIT      DATA TYPE    INFORMATION
#----------   ------------   ------------------------------
 STRT.F          598.0000:   START DEPTH
 STOP.F         2552.0000:   STOP DEPTH
 STEP.F            0.5000:   STEP LENGTH
 NULL.          -999.2500:   NO VALUE
 COMP. FENIX & SCISSON INC:   COMPANY
 WELL.     15-SHX-2 #15-2:   WELL
 FLD .             TEAPOT:   FIELD
 LOC .       S2 T38N R78W:   LOCATION
 CNTY.            NATRONA:   COUNTY
 STAT.            WYOMING:   STATE
 CTRY. UNITED STATES OF AMERICA:   COUNTRY
 SRVC.              Welex:   SERVICE COMPANY
 DATE.        03-JUN-1979:   LOGDATE
 API .       490251002100:   API NUMBER
~CURVE INFORMATION
#MNEM.UNIT       API CODE    CURVE DESCRIPTION
#----------   ------------   ------------------------------
 DEPT.F                  :   
 CALD.IN     45 280 60 00:   CALIPER
 GRD .GAPI   45 310 01 00:   GAMMA RAY FROM DENSITY LOG
 RHOB.G/C3   45 350 01 00:   BULK DENSITY
 DPHI.DEC    45 890 12 00:   DENSITY POROSITY SANDSTONE
 CORR.G/C3   45 356 01 00:   DENSITY CORRECTION
~PARAMETER INFORMATION
#MNEM.UNIT          VALUE    DESCRIPTION
#----------   ------------   ------------------------------
 PD  .                 GL:   PERMANENT DATUM
 EPD .F              5118:   ELEVATION PERMANENT DATUM
 LMF .                 KB:   LOG MEASURED FROM
 DAPD.F                10:   FEET ABOVE PERMANENT DATUM
 DMF .                 KB:   DRILLING MEASURED FROM
 EKB .F              5128:   KELLING BUSHING
 EGL .F              5118:   GROUND LEVEL
 DATE.             6-3-79:   RUN DATE
 RUN .                  1:   RUN NUMBER
 DD  .F              2569:   DEPTH DRILLER
 DL  .F              2554:   DEPTH LOGGER
 BLI .F              2552:   BOTTOM LOG INTERVAL
 TLI .F               622:   TOP LOG INTERVAL
 CS  .IN            9.625:   CASING SIZE
 CBD .F               622:   CASING BOTTOM DRILLER
 BS  .IN             8.75:   BIT SIZE
 BSD .F              2569:   BIT SIZE AT DEPTH
 DFT .        AIR DRILLED:   DRILLING FLUID TYPE
 TCS .HRS             2.5:   TIME CURCULATED STOPPED
 MRT .F               124:   MAXIMUM RECORDED TEMPERATURE
 ENGI.               REIN:   RECORDING ENGINEER
 WITN.              AMEND:   WITNESSED BY
 CLNT.            A2DTECH:   CLIENT CODE
 ORIG.           5" PRINT:   ORIGIN OF DATA
 UWI .       490251002100:   UNIQUE WELL ID
 DICO. A2D Technologies, Inc.:   DIGITIZING COMPANY
~OTHER INFORMATION
~A   DEPT     CALD         GRD      RHOB       DPHI       CORR   
# ...
  964.0000     9.4015    85.3127     2.5494     0.0022     0.0437
  964.5000     9.4153    84.1595     2.5523    -0.0009     0.0465
  965.0000     9.4290    84.3950     2.5450     0.0013     0.0471
  965.5000     9.4287    85.1840     2.5358     0.0073     0.0432
  966.0000     9.4130    83.9796     2.5278     0.0129     0.0382
  966.5000     9.3974    82.2938     2.5308     0.0155     0.0335
  967.0000     9.3817    82.3767     2.5422     0.0065     0.0340
  967.5000     9.3660    82.5863     2.5538    -0.0017     0.0367
  968.0000     9.3503    82.7910     2.5550    -0.0025     0.0391
  968.5000     9.3380    82.9901     2.5445     0.0046     0.0366
  969.0000     9.3526    83.2310     2.5336     0.0119     0.0326
  969.5000     9.3670    84.9052     2.5226     0.0179     0.0285
  970.0000     9.3813    86.7053     2.5118     0.0236     0.0243
  970.5000     9.3956    85.9611     2.5036     0.0283     0.0194
  971.0000     9.4099    85.0642     2.5047     0.0300     0.0190
  971.5000     9.4239    85.6846     2.5086     0.0311     0.0193
  972.0000     9.4416    86.4119     2.5176     0.0250     0.0210
  972.5000     9.4551    87.1374     2.5266     0.0188     0.0226
  973.0000     9.4528    87.8472     2.5356     0.0126     0.0243
  973.5000     9.4497    87.9749     2.5419     0.0063     0.0260
  974.0000     9.4467    85.9589     2.5403     0.0059     0.0270
  974.5000     9.4437    83.9702     2.5393     0.0059     0.0252
  975.0000     9.4407    81.9809     2.5485     0.0059     0.0233
  975.5000     9.4377    79.9992     2.5591    -0.0001     0.0259
  976.0000     9.4347    78.3977     2.5638    -0.0061     0.0294
  976.5000     9.4317    78.6742     2.5674    -0.0101     0.0331
  977.0000     9.4288    79.9691     2.5681    -0.0113     0.0350
  977.5000     9.4258    81.2353     2.5633    -0.0102     0.0355
  978.0000     9.4228    82.5005     2.5540    -0.0047     0.0361
  978.5000     9.4199    83.7578     2.5447     0.0007     0.0366
  979.0000     9.4174    84.6836     2.5380     0.0062     0.0366
  979.5000     9.3932    84.4278     2.5322     0.0115     0.0344
  980.0000     9.3659    85.0109     2.5310     0.0124     0.0322
  980.5000     9.3385    85.7117     2.5331     0.0127     0.0300
  981.0000     9.3111    86.4043     2.5271     0.0163     0.0279
  981.5000     9.2838    87.0419     2.5178     0.0220     0.0257
  982.0000     9.2566    86.6664     2.5083     0.0278     0.0235
  982.5000     9.2368    87.0001     2.5019     0.0307     0.0214
  983.0000     9.2393    88.0031     2.5065     0.0311     0.0221
  983.5000     9.2414    88.9024     2.5241     0.0208     0.0246
  984.0000     9.2434    86.7518     2.5412     0.0095     0.0271
  984.5000     9.2455    86.5746     2.5584    -0.0043     0.0296
  985.0000     9.2476    84.6658     2.5575    -0.0069     0.0320
  985.5000     9.2496    82.7072     2.5493    -0.0011     0.0351
  986.0000     9.2517    83.7278     2.5430     0.0043     0.0350
  986.5000     9.2538    85.8544     2.5461     0.0047     0.0350
  987.0000     9.2558    87.9809     2.5492    -0.0014     0.0350
  987.5000     9.2579    90.1022     2.5521    -0.0014     0.0350
  988.0000     9.2600    91.9109     2.5479     0.0015     0.0350
  988.5000     9.2620    90.8787     2.5571    -0.0024     0.0350
  989.0000     9.2641    89.8117     2.5668    -0.0084     0.0350
  989.5000     9.2662    90.7085     2.5632    -0.0110     0.0350
  990.0000     9.2682    91.9154     2.5545    -0.0061     0.0350
  990.5000     9.2703    91.8608     2.5459     0.0006     0.0350
  991.0000     9.2724    90.2326     2.5373     0.0075     0.0350
  991.5000     9.2745    88.6132     2.5320     0.0128     0.0347
  992.0000     9.2764    88.1923     2.5247     0.0163     0.0343
  992.5000     9.2871    88.7580     2.5063     0.0272     0.0338
  993.0000     9.3037    89.3010     2.4887     0.0392     0.0334
  993.5000     9.3204    89.8442     2.4715     0.0503     0.0328
  994.0000     9.3371    90.3877     2.4576     0.0577     0.0409
  994.5000     9.3538    90.9339     2.4445     0.0662     0.0501
  995.0000     9.3705    91.4705     2.4316     0.0740     0.0592
  995.5000     9.3872    91.6456     2.4193     0.0799     0.0682
  996.0000     9.4039    90.4453     2.3867     0.0958     0.0733
  996.5000     9.4207    89.2595     2.3526     0.1228     0.0535
  997.0000     9.4362    88.5737     2.3491     0.1316     0.0262
  997.5000     9.4276    89.9934     2.4241     0.1124     0.0250
  998.0000     9.4148    91.6290     2.5066     0.0587     0.0294
  998.5000     9.4018    92.5066     2.5486     0.0095     0.0338
  999.0000     9.3889    91.5499     2.5450     0.0039     0.0349
  999.5000     9.3760    90.5453     2.5371     0.0057     0.0329
 1000.0000     9.3630    91.8850     2.5292     0.0116     0.0310
 1000.5000     9.3618    94.6587     2.5213     0.0175     0.0291
 1001.0000     9.3720    93.4492     2.5130     0.0234     0.0271
 1001.5000     9.3822    91.1826     2.5133     0.0251     0.0271
 1002.0000     9.3925    90.3059     2.5178     0.0227     0.0273
 1002.5000     9.4028    90.9303     2.5244     0.0181     0.0275
 1003.0000     9.4130    91.5812     2.5320     0.0134     0.0276
 1003.5000     9.4232    91.2453     2.5397     0.0087     0.0278
 1004.0000     9.4335    91.5455     2.5392     0.0075     0.0280
 1004.5000     9.4412    91.7324     2.5382     0.0080     0.0281
 1005.0000     9.4556    89.8645     2.5372     0.0086     0.0283
 1005.5000     9.4563    88.5381     2.5394     0.0089     0.0285
 1006.0000     9.4562    90.3936     2.5429     0.0076     0.0286
 1006.5000     9.4562    92.8521     2.5375     0.0063     0.0288
 1007.0000     9.4562    93.3898     2.5275     0.0114     0.0290
 1007.5000     9.4562    94.0199     2.5174     0.0182     0.0266
 1008.0000     9.4563    94.3721     2.5070     0.0249     0.0229
 1008.5000     9.4556    92.9358     2.5083     0.0291     0.0238
 1009.0000     9.4312    91.5138     2.5104     0.0265     0.0248
 1009.5000     9.4052    90.0568     2.5066     0.0244     0.0258
 1010.0000     9.3792    90.3235     2.5067     0.0282     0.0268
 1010.5000     9.3533    90.9825     2.5168     0.0252     0.0262
 1011.0000     9.3272    91.5947     2.5269     0.0184     0.0252
 1011.5000     9.3169    91.4587     2.5369     0.0113     0.0258
 1012.0000     9.3146    91.3361     2.5458     0.0058     0.0270
 1012.5000     9.3027    91.2144     2.5526     0.0002     0.0282
 1013.0000     9.2909    91.0851     2.5580    -0.0053     0.0295
 1013.5000     9.2791    90.6417     2.5572    -0.0057     0.0308
 1014.0000     9.2674    88.7606     2.5515    -0.0010     0.0320
 1014.5000     9.2556    86.9089     2.5442     0.0048     0.0327
 1015.0000     9.2439    85.3564     2.5368     0.0106     0.0307
 1015.5000     9.2370    84.2316     2.5301     0.0147     0.0288
 1016.0000     9.2371    83.1456     2.5273     0.0141     0.0271
 1016.5000     9.2370    84.2626     2.5288     0.0149     0.0271
 1017.0000     9.2371    88.0325     2.5239     0.0172     0.0251
 1017.5000     9.2381    89.4802     2.5210     0.0195     0.0250
 1018.0000     9.2431    90.8846     2.5235     0.0197     0.0247
 1018.5000     9.2481    92.5124     2.5269     0.0171     0.0242
 1019.0000     9.2530    93.8739     2.5262     0.0151     0.0237
 1019.5000     9.2579    94.9160     2.5253     0.0147     0.0233
 1020.0000     9.2628    93.5231     2.5245     0.0159     0.0230
 1020.5000     9.2677    91.3354     2.5243     0.0167     0.0228
 1021.0000     9.2726    89.1715     2.5304     0.0143     0.0222
 1021.5000     9.2776    88.6055     2.5399     0.0104     0.0215
 1022.0000     9.2825    88.5833     2.5492     0.0045     0.0210
 1022.5000     9.2875    87.9930     2.5557    -0.0009     0.0224
 1023.0000     9.2926    86.7251     2.5536    -0.0021     0.0253
 1023.5000     9.2908    85.4650     2.5516    -0.0017     0.0282
 1024.0000     9.3117    84.1703     2.5496     0.0001     0.0311
 1024.5000     9.3496    83.7288     2.5476     0.0023     0.0340
