~VERSION INFORMATION
 VERS.                2.0:   CWLS LOG ASCII STANDARD - VERSION 2.0
 WRAP.                 NO:   ONE LINE PER DEPTH STEP
~WELL INFORMATION
#MNEM.UNIT      DATA TYPE    INFORMATION
#----------   ------------   ------------------------------
 STRT.F            0.0000:   START DEPTH
 STOP.F          561.0000:   STOP DEPTH
 STEP.F            0.1000:   STEP LENGTH
 NULL.          -999.2500:   NO VALUE
 COMP.       F D SERV INC:   COMPANY
 WELL.  83-1 sx 10 #83-10:   WELL
 FLD .             TEAPOT:   FIELD
 LOC .      S10 T38N R78W:   LOCATION
 CNTY.            NATRONA:   COUNTY
 STAT.            WYOMING:   STATE
 CTRY. UNITED STATES OF AMERICA:   COUNTRY
 SRVC.     Atlas Wireline:   SERVICE COMPANY
 DATE.        10-DEC-1992:   LOGDATE
 API .       490252258000:   API NUMBER
~CURVE INFORMATION
#MNEM.UNIT       API CODE    CURVE DESCRIPTION
#----------   ------------   ------------------------------
 DEPT.F                  :   
 GRR .GAPI   07 310 01 00:   GAMMA RAY
 RILD.OHMM   07 120 46 00:   INDUCTION LOG DEEP RESISTIVITY
 RILM.OHMM   07 120 44 00:   INDUCTION LOG MEDIUM RESISTIVITY
~PARAMETER INFORMATION
#MNEM.UNIT          VALUE    DESCRIPTION
#----------   ------------   ------------------------------
 PD  .                 GL:   PERMANENT DATUM
 EPD .F              5170:   ELEVATION PERMANENT DATUM
 LMF .                 KB:   LOG MEASURED FROM
 DAPD.F                10:   FEET ABOVE PERMANENT DATUM
 DMF .                 KB:   DRILLING MEASURED FROM
 EKB .F              5180:   KELLING BUSHING
 EDF .F              5179:   DRILLING FLOOR
 EGL .F              5170:   GROUND LEVEL
 DATE.        10-DEC-1992:   RUN DATE
 RUN .                  1:   RUN NUMBER
 DD  .F               567:   DEPTH DRILLER
 DL  .F               569:   DEPTH LOGGER
 BLI .F               560:   BOTTOM LOG INTERVAL
 TLI .F                97:   TOP LOG INTERVAL
 CS  .IN            8.625:   CASING SIZE
 CBD .F                97:   CASING BOTTOM DRILLER
 CBL .F                97:   CASING BOTTOM LOGGER
 BS  .IN            7.875:   BIT SIZE
 BSD .F               567:   BIT SIZE AT DEPTH
 DFT .           AIR FOAM:   DRILLING FLUID TYPE
 MRT .F                65:   MAXIMUM RECORDED TEMPERATURE
 LUN .           HL- 6274:   LOGGING UNIT NUMBER
 LUL .             CASPER:   LOGGING UNIT LOCATION
 ENGI.       P. RASMUSSEN:   RECORDING ENGINEER
 WITN.          G. STRONG:   WITNESSED BY
 CLNT.            A2DTECH:   CLIENT CODE
 ORIG.           5" PRINT:   ORIGIN OF DATA
 UWI .       490252258000:   UNIQUE WELL ID
 DICO. A2D Technologies, Inc.:   DIGITIZING COMPANY
~OTHER INFORMATION
~A    DEPT      GRR      RILD       RILM   
# ...
  218.4000   118.4761     8.1594     8.0309
  218.5000   118.0233     8.1181     8.0314
  218.6000   117.7892     8.1033     8.0320
  218.7000   118.0948     8.1036     8.0325
  218.8000   118.3409     8.1039     8.0331
  218.9000   118.6040     8.1043     8.0336
  219.0000   118.8670     8.1046     7.9980
  219.1000   119.1300     8.1050     7.9793
  219.2000   119.6189     8.1053     7.9798
  219.3000   120.5995     8.0801     7.9804
  219.4000   121.1424     8.0496     7.9755
  219.5000   121.8999     8.0499     7.9264
  219.6000   122.6853     8.0503     7.9269
  219.7000   123.4707     8.0506     7.9651
  219.8000   124.1311     8.0509     7.9831
  219.9000   124.5726     8.0236     7.9837
  220.0000   124.8761     7.9956     7.9842
  220.1000   125.4040     7.9959     7.9919
  220.2000   125.4061     7.9962     8.0409
  220.3000   125.4076     7.9966     8.0415
  220.4000   125.4094     7.9969     8.0420
  220.5000   125.4112     7.9972     8.0426
  220.6000   125.4130     7.9976     8.0431
  220.7000   125.4149     7.9979     8.0437
  220.8000   125.4110     7.9953     8.0442
  220.9000   125.1153     7.9430     8.0448
  221.0000   125.0045     7.9433     8.0454
  221.1000   124.8758     7.9436     8.0459
  221.2000   124.8170     7.9439     8.0465
  221.3000   124.8188     7.9443     8.0212
  221.4000   124.8206     7.9446     7.9920
  221.5000   124.8356     7.9450     7.9822
  221.6000   125.1280     7.9453     7.9379
  221.7000   125.1296     7.9117     7.9385
  221.8000   125.3212     7.8906     7.9390
  221.9000   125.5842     7.8910     7.9049
  222.0000   125.8472     7.8913     7.8584
  222.1000   126.1103     7.8916     7.8313
  222.2000   126.3527     7.8473     7.8202
  222.3000   126.3546     7.8374     7.7783
  222.4000   126.3563     7.8377     7.7789
  222.5000   126.3581     7.8198     7.7364
  222.6000   126.2050     7.7838     7.7262
  222.7000   126.0583     7.7841     7.6989
  222.8000   125.9897     7.7845     7.6739
  222.9000   125.7303     7.7848     7.6745
  223.0000   125.4568     7.7851     7.6693
  223.1000   125.2115     7.7854     7.6225
  223.2000   124.9522     7.7742     7.6232
  223.3000   124.5303     7.7319     7.6236
  223.4000   123.8895     7.7323     7.5950
  223.5000   123.1077     7.7326     7.5720
  223.6000   122.2903     7.7329     7.5581
  223.7000   121.2207     7.7110     7.5206
  223.8000   120.6158     7.6797     7.5212
  223.9000   119.7682     7.6751     7.4699
  224.0000   118.7253     7.6269     7.4332
  224.1000   117.9377     7.5862     7.3895
  224.2000   117.4171     7.5745     7.3236
  224.3000   116.9824     7.4011     7.2523
  224.4000   116.9862     7.3572     7.2097
  224.5000   117.5936     7.2866     7.1672
  224.6000   118.0346     7.2000     7.1196
  224.7000   118.5588     7.1267     7.0832
  224.8000   118.9479     7.0789     7.0415
  224.9000   119.4896     6.9920     6.9774
  225.0000   120.5867     6.9438     6.9109
  225.1000   121.8697     6.9106     6.8702
  225.2000   122.4622     6.8431     6.8298
  225.3000   122.9182     6.7812     6.7857
  225.4000   123.2575     6.7281     6.7134
  225.5000   123.5205     6.6543     6.6636
  225.6000   123.6832     6.6147     6.6244
  225.7000   123.7430     6.5234     6.5855
  225.8000   123.9903     6.4910     6.5467
  225.9000   123.9923     6.4525     6.5120
  226.0000   123.9157     6.4142     6.5125
  226.1000   123.8305     6.3895     6.4766
  226.2000   123.7452     6.3827     6.4461
  226.3000   123.6959     6.3448     6.4179
  226.4000   123.6977     6.3020     6.3897
  226.5000   123.6763     6.2697     6.3615
  226.6000   123.3980     6.2325     6.3320
  226.7000   123.3997     6.1955     6.2937
  226.8000   123.4015     6.1587     6.2076
  226.9000   123.4033     6.1301     6.2080
  227.0000   123.2898     6.1304     6.1844
  227.1000   123.1035     6.1308     6.1659
  227.2000   123.1053     6.1311     6.1664
  227.3000   123.1072     6.1314     6.1668
  227.4000   123.3586     6.1318     6.1672
  227.5000   123.4143     6.1321     6.1677
  227.6000   123.7462     6.1325     6.1681
  227.7000   124.2705     6.1328     6.1685
  227.8000   124.9557     6.1332     6.1883
  227.9000   125.9642     6.1335     6.2123
  228.0000   126.7618     6.1338     6.2202
  228.1000   128.2814     6.1342     6.2563
  228.2000   129.1424     6.1506     6.2568
  228.3000   130.0164     6.1779     6.2902
  228.4000   130.9322     6.1824     6.3011
  228.5000   131.8028     6.2219     6.3226
  228.6000   132.3270     6.2578     6.3609
  228.7000   132.8513     6.2661     6.3904
  228.8000   133.4534     6.2901     6.3937
  228.9000   133.4549     6.3284     6.4358
  229.0000   133.4568     6.3669     6.4714
  229.1000   133.1830     6.4002     6.4814
  229.2000   132.4714     6.4006     6.5048
  229.3000   131.4284     6.4458     6.5442
  229.4000   130.3745     6.4779     6.5732
  229.5000   128.9137     6.5173     6.5780
  229.6000   128.4556     6.5765     6.6199
  229.7000   127.9350     6.6431     6.6579
  229.8000   127.2692     6.6835     6.6668
  229.9000   126.4874     6.7241     6.6673
  230.0000   125.8270     6.7714     6.6863
  230.1000   125.5859     6.8062     6.7146
  230.2000   125.5880     6.8476     6.7151
  230.3000   125.5897     6.8893     6.7155
  230.4000   125.7865     6.9312     6.7628
  230.5000   126.2023     6.9734     6.7632
  230.6000   126.8370     7.0158     6.7903
  230.7000   127.5883     7.0639     6.8315
  230.8000   128.2431     7.1014     6.8590
  230.9000   128.9391     7.1141     6.8667
  231.0000   129.1856     7.1381     6.9076
  231.1000   129.6512     7.1815     6.9082
  231.2000   130.3357     7.2154     6.9440
  231.3000   130.8852     7.2214     6.9571
  231.4000   131.0725     7.3177     6.9798
  231.5000   131.0410     7.3579     7.0065
  231.6000   130.7728     7.3698     7.0158
  231.7000   130.4714     7.3959     7.0562
  231.8000   130.2628     7.4222     7.0567
  231.9000   129.8357     7.4341     7.0947
  232.0000   129.3152     7.4751     7.1067
  232.1000   128.8777     7.4755     7.1313
  232.2000   128.5979     7.4759     7.1745
  232.3000   128.2079     7.4763     7.2180
  232.4000   127.7527     7.5041     7.2580
  232.5000   127.1017     7.5296     7.2586
  232.6000   126.8455     7.5300     7.2992
  232.7000   126.9803     7.5304     7.3100
  232.8000   127.2433     7.5308     7.3368
  232.9000   127.5547     7.5312     7.3619
  233.0000   128.0790     7.5317     7.3747
  233.1000   128.6758     7.5321     7.4193
  233.2000   129.1274     7.5325     7.4662
  233.3000   129.8344     7.5329     7.4667
  233.4000   130.4793     7.5333     7.5028
  233.5000   131.0035     7.5338     7.5197
  233.6000   131.5836     7.5343     7.5415
  233.7000   132.3555     7.5346     7.5730
  233.8000   132.9374     7.5350     7.5667
  233.9000   132.9390     7.5354     7.5218
  234.0000   132.9408     7.5359     7.5224
  234.1000   132.9426     7.5363     7.5228
  234.2000   132.5220     7.5367     7.5233
  234.3000   131.4790     7.4847     7.5011
  234.4000   130.4359     7.4851     7.4724
  234.5000   129.3082     7.4855     7.4647
  234.6000   128.3499     7.4859     7.4218
  234.7000   127.5047     7.4864     7.4224
  234.8000   126.8783     7.4775     7.3847
  234.9000   126.2446     7.4351     7.3413
  235.0000   125.6045     7.4356     7.2981
  235.1000   125.3734     7.4359     7.2716
  235.2000   125.3755     7.4042     7.2626
  235.3000   125.3772     7.3602     7.2199
  235.4000   125.3791     7.3340     7.1731
  235.5000   125.5437     7.3241     7.1735
  235.6000   125.8068     7.2838     7.1426
  235.7000   126.1481     7.2842     7.1250
  235.8000   126.6003     7.2448     7.1079
  235.9000   126.6022     7.2343     7.0767
  236.0000   126.9078     7.2092     7.0733
  236.1000   126.6966     7.1848     7.0289
  236.2000   126.4372     7.1738     6.9904
  236.3000   126.0498     7.1356     6.9813
  236.4000   125.5292     7.1360     6.9564
  236.5000   125.0521     7.0962     6.9340
