~VERSION INFORMATION
 VERS.                2.0:   CWLS LOG ASCII STANDARD - VERSION 2.0
 WRAP.                 NO:   ONE LINE PER DEPTH STEP
~WELL INFORMATION
#MNEM.UNIT      DATA TYPE    INFORMATION
#----------   ------------   ------------------------------
 STRT.F            0.0000:   START DEPTH
 STOP.F          524.0000:   STOP DEPTH
 STEP.F            0.5000:   STEP LENGTH
 NULL.          -999.2500:   NO VALUE
 COMP.       F D SERV INC:   COMPANY
 WELL. NAVAL PETROLEUM RESERVE 3 SX-1 #83-2-10:   WELL
 FLD .             TEAPOT:   FIELD
 LOC .      S10 T38N R78W:   LOCATION
 CNTY.            NATRONA:   COUNTY
 STAT.            WYOMING:   STATE
 CTRY. UNITED STATES OF AMERICA:   COUNTRY
 SRVC.     Atlas Wireline:   SERVICE COMPANY
 DATE.        10-FEB-1993:   LOGDATE
 API .       490252258100:   API NUMBER
~CURVE INFORMATION
#MNEM.UNIT       API CODE    CURVE DESCRIPTION
#----------   ------------   ------------------------------
 DEPT.F                  :   
 RILM.OHMM   07 120 44 00:   RESITIVITY LONG MEDIUM
 RILD.OHMM   07 120 46 00:   INDUCTION LOG DEEP RESISTIVITY
 GRR .GAPI   07 310 01 00:   GAMMA RAY
 PORZ.DEC    45 890 12 00:   DENSITY POROSITY
 ZCOR.G/C3   45 356 01 00:   DENSITY CORRECTION
 ZDEN.G/C3   45 350 01 00:   BULK DENSITY
 NPHI.DEC    42 890 03 00:   NEUTRON POROSITY SANDSTONE
 C13 .IN     45 280 13 00:   CALIPER X
~PARAMETER INFORMATION
#MNEM.UNIT          VALUE    DESCRIPTION
#----------   ------------   ------------------------------
 PD  .                 GL:   PERMANENT DATUM
 EPD .F              5156:   ELEVATION PERMANENT DATUM
 LMF .                 KB:   LOG MEASURED FROM
 DAPD.F                10:   FEET ABOVE PERMANENT DATUM
 DMF .                 KB:   DRILLING MEASURED FROM
 EKB .F              5166:   KELLING BUSHING
 EDF .F              5165:   DRILLING FLOOR
 EGL .F              5156:   GROUND LEVEL
 DATE.        10-FEB-1993:   RUN DATE
 RUN .                  1:   RUN NUMBER
 DD  .F               525:   DEPTH DRILLER
 DL  .F               526:   DEPTH LOGGER
 BLI .F               518:   BOTTOM LOG INTERVAL
 CS  .IN            8.625:   CASING SIZE
 CBD .F                80:   CASING BOTTOM DRILLER
 CBL .F                81:   CASING BOTTOM LOGGER
 BS  .IN            7.875:   BIT SIZE
 BSD .F               525:   BIT SIZE AT DEPTH
 DFT .                AIR:   DRILLING FLUID TYPE
 MRT .F                70:   MAXIMUM RECORDED TEMPERATURE
 LUN .            HL 6274:   LOGGING UNIT NUMBER
 LUL .             CASPER:   LOGGING UNIT LOCATION
 ENGI.          V. RAUTIO:   RECORDING ENGINEER
 WITN.          G. STRONG:   WITNESSED BY
 CLNT.            A2DTECH:   CLIENT CODE
 ORIG.           5" PRINT:   ORIGIN OF DATA
 UWI .       490252258100:   UNIQUE WELL ID
 DICO. A2D Technologies, Inc.:   DIGITIZING COMPANY
~OTHER INFORMATION
~A    DEPT    RILM       RILD         GRR      PORZ       ZCOR       ZDEN       NPHI        C13   
# ...
   81.0000  9914.9287  9867.1348   134.6965     0.2293  -999.2500  -999.2500     0.4204     7.7396
   81.5000  9577.2471  1840.5167   147.3521     0.1654  -999.2500  -999.2500     0.3860     7.8294
   82.0000     4.8476     2.9840   151.5641     0.1350  -999.2500  -999.2500     0.3403     7.9192
   82.5000     3.3571     2.1360   149.7429     0.1277  -999.2500  -999.2500     0.3168     8.0693
   83.0000     3.6486     2.6111   145.1765     0.1184  -999.2500  -999.2500     0.3111     8.1289
   83.5000     4.2202     4.0955   142.7794     0.1088  -999.2500  -999.2500     0.3111     8.1434
   84.0000     5.0535     6.1624   143.3743     0.1025  -999.2500  -999.2500     0.3102     8.1277
   84.5000     6.3081     8.5924   141.8519     0.1032  -999.2500  -999.2500     0.3100     8.1271
   85.0000     7.1192     9.0818   137.6145     0.1052  -999.2500  -999.2500     0.3100     8.1416
   85.5000     7.2460     6.2484   134.5867     0.1028  -999.2500  -999.2500     0.3112     8.1559
   86.0000     6.9509     6.1199   138.7987     0.1001  -999.2500  -999.2500     0.3133     8.1403
   86.5000     7.0479     6.2053   140.5973     0.0992  -999.2500  -999.2500     0.3154     8.1397
   87.0000     7.4047     5.9941   139.9799     0.1010  -999.2500  -999.2500     0.3208     8.1241
   87.5000     7.9842     5.8303   140.5720     0.1010  -999.2500  -999.2500     0.3223     8.0933
   88.0000     8.1520     5.8368   145.3854     0.1016  -999.2500  -999.2500     0.3218     8.0777
   88.5000     8.0957     6.3355   144.4691     0.1052  -999.2500  -999.2500     0.3188     8.0771
   89.0000     7.8200     7.0779   140.8380     0.1100  -999.2500  -999.2500     0.3143     8.0916
   89.5000     7.2460     7.7446   141.1584     0.1118  -999.2500  -999.2500     0.3128     8.0758
   90.0000     7.1959     8.2999   143.8292     0.1115  -999.2500  -999.2500     0.3137     8.0904
   90.5000     7.1959     7.9621   145.3262     0.1118  -999.2500  -999.2500     0.3161     8.1198
   91.0000     7.2964     7.4749   146.5216     0.1133  -999.2500  -999.2500     0.3170     8.1494
   91.5000     7.4043     7.2264   146.8120     0.1142  -999.2500  -999.2500     0.3167     8.1790
   92.0000     7.5015     7.3272   145.2896     0.1118  -999.2500  -999.2500     0.3158     8.1632
   92.5000     7.6591     7.4810   139.2451     0.1082  -999.2500  -999.2500     0.3143     8.1626
   93.0000     7.8200     7.6912   137.1121     0.1046  -999.2500  -999.2500     0.3122     8.1470
   93.5000     8.0398     7.9072   135.2982     0.1031  -999.2500  -999.2500     0.3095     8.1312
   94.0000     7.9842     7.8505   131.6670     0.1013  -999.2500  -999.2500     0.3047     8.1156
   94.5000     7.8743     7.6912   124.7176     0.0950  -999.2500  -999.2500     0.2945     8.1302
   95.0000     7.7123     7.5854   119.5753     0.0788  -999.2500  -999.2500     0.2680     8.1446
   95.5000     7.4497     7.4810   118.6591     0.0694  -999.2500  -999.2500     0.2695     8.1288
   96.0000     7.4497     7.4294   124.3793     0.0785  -999.2500  -999.2500     0.2957     8.1282
   96.5000     7.4497     7.4810   136.7612     0.0992  -999.2500  -999.2500     0.3195     8.1277
   97.0000     7.4497     7.4810   139.7386     0.1110  -999.2500  -999.2500     0.3246     8.1271
   97.5000     7.3982     7.4294   140.9340     0.1176  -999.2500  -999.2500     0.3228     8.1265
   98.0000     7.3982     7.4294   140.9227     0.1161  -999.2500  -999.2500     0.3195     8.1258
   98.5000     7.4497     7.3781   139.7020     0.1134  -999.2500  -999.2500     0.3144     8.1252
   99.0000     7.5536     7.5854   139.3891     0.1101  -999.2500  -999.2500     0.3090     8.1398
   99.5000     7.6062     7.5940   134.8529     0.1035  -999.2500  -999.2500     0.3000     8.1542
  100.0000     7.4497     7.3781   129.4118     0.0932  -999.2500  -999.2500     0.2982     8.1687
  100.5000     7.3453     7.3272   127.5902     0.0902  -999.2500  -999.2500     0.3087     8.1530
  101.0000     7.2931     7.3272   134.5139     0.0944  -999.2500  -999.2500     0.3160     8.1524
  101.5000     7.2916     7.2767   142.0438     0.1032  -999.2500  -999.2500     0.3181     8.1669
  102.0000     7.3412     7.3272   147.4621     0.1032  -999.2500  -999.2500     0.3181     8.1814
  102.5000     7.3908     7.3781   148.9588     0.1032  -999.2500  -999.2500     0.3160     8.1656
  103.0000     7.4404     7.4810   148.6274     0.1056  -999.2500  -999.2500     0.3109     8.1500
  103.5000     7.5427     7.5330   141.9946     0.1134  -999.2500  -999.2500     0.3046     8.1341
  104.0000     7.6461     7.5854   140.1731     0.1188  -999.2500  -999.2500     0.2983     8.1186
  104.5000     7.6981     7.6381   140.4632     0.1122  -999.2500  -999.2500     0.2980     8.1180
  105.0000     7.7501     7.6912   141.3595     0.1050  -999.2500  -999.2500     0.3019     8.1174
  105.5000     7.8563     7.7446   141.9487     0.0996  -999.2500  -999.2500     0.3070     8.1319
  106.0000     7.8547     7.8526   140.7059     0.0953  -999.2500  -999.2500     0.3094     8.1464
  106.5000     7.9628     7.9072   139.5090     0.0939  -999.2500  -999.2500     0.3073     8.1609
  107.0000     8.0165     8.0175   142.5140     0.0939  -999.2500  -999.2500     0.3058     8.1602
  107.5000     8.0707     8.0732   146.1224     0.0939  -999.2500  -999.2500     0.3059     8.1596
  108.0000     8.0687     8.1293   147.6191     0.0923  -999.2500  -999.2500     0.3059     8.1589
  108.5000     8.0671     8.1293   147.9095     0.0903  -999.2500  -999.2500     0.3059     8.1433
  109.0000     8.0654     8.0732   146.0513     0.0900  -999.2500  -999.2500     0.3059     8.1427
  109.5000     7.9524     8.0674   142.4562     0.0927  -999.2500  -999.2500     0.3059     8.1271
  110.0000     7.8959     7.9621   147.5699     0.0960  -999.2500  -999.2500     0.3068     8.1265
  110.5000     7.8398     7.9072   151.1782     0.0987  -999.2500  -999.2500     0.3074     8.1258
  111.0000     7.7304     7.7446   153.2783     0.1017  -999.2500  -999.2500     0.3074     8.1252
  111.5000     7.6225     7.6381   154.7750     0.1020  -999.2500  -999.2500     0.3077     8.1247
  112.0000     7.5683     7.5330   154.7391     0.1008  -999.2500  -999.2500     0.3089     8.1090
  112.5000     7.4623     7.4294   152.9390     0.0987  -999.2500  -999.2500     0.3114     8.1083
  113.0000     7.4092     7.3272   151.4191     0.0978  -999.2500  -999.2500     0.3129     8.1078
  113.5000     7.3058     7.1766   150.8042     0.0990  -999.2500  -999.2500     0.3159     8.1373
  114.0000     7.2038     7.1270   150.1894     0.1029  -999.2500  -999.2500     0.3198     8.1367
  114.5000     7.2024     7.0779   149.5745     0.1057  -999.2500  -999.2500     0.3192     8.1360
  115.0000     7.2009     7.0779   148.6576     0.1051  -999.2500  -999.2500     0.3180     8.1204
  115.5000     7.1994     7.1270   147.1351     0.1039  -999.2500  -999.2500     0.3177     8.1198
  116.0000     7.2477     7.2264   143.8053     0.1018  -999.2500  -999.2500     0.3199     8.1343
  116.5000     7.2967     7.2767   140.1738     0.1012  -999.2500  -999.2500     0.3226     8.1487
  117.0000     7.3463     7.3272   139.5589     0.1012  -999.2500  -999.2500     0.3265     8.1481
  117.5000     7.4470     7.4294   140.4523     0.1012  -999.2500  -999.2500     0.3298     8.1174
  118.0000     7.4973     7.4810   145.1101     0.1012  -999.2500  -999.2500     0.3313     8.1018
  118.5000     7.6004     7.5330   148.8728     0.1009  -999.2500  -999.2500     0.3319     8.1011
  119.0000     7.5985     7.5854   150.0707     0.1003  -999.2500  -999.2500     0.3304     8.1005
  119.5000     7.6502     7.6381   148.5479     0.1000  -999.2500  -999.2500     0.3289     8.1152
  120.0000     7.7195     7.6912   147.3297     0.0997  -999.2500  -999.2500     0.3271     8.1144
  120.5000     7.8074     7.7446   147.6199     0.1000  -999.2500  -999.2500     0.3278     8.1289
  121.0000     7.8602     7.7984   147.9099     0.1003  -999.2500  -999.2500     0.3274     8.1433
