~VERSION INFORMATION
 VERS.                2.0:   CWLS LOG ASCII STANDARD - VERSION 2.0
 WRAP.                 NO:   ONE LINE PER DEPTH STEP
~WELL INFORMATION
#MNEM.UNIT      DATA TYPE    INFORMATION
#----------   ------------   ------------------------------
 STRT.F           10.5000:   START DEPTH
 STOP.F          604.0000:   STOP DEPTH
 STEP.F            0.5000:   STEP LENGTH
 NULL.          -999.2500:   NO VALUE
 COMP. FENIX & SCISSON INC:   COMPANY
 WELL.  NPR 3 #87 S 10-10:   WELL
 FLD .             TEAPOT:   FIELD
 LOC .      S10 T38N R78W:   LOCATION
 CNTY.            NATRONA:   COUNTY
 STAT.            WYOMING:   STATE
 CTRY. UNITED STATES OF AMERICA:   COUNTRY
 SRVC.           BIRDWELL:   SERVICE COMPANY
 DATE.        11-DEC-1978:   LOGDATE
 API .       490251075400:   API NUMBER
~CURVE INFORMATION
#MNEM.UNIT       API CODE    CURVE DESCRIPTION
#----------   ------------   ------------------------------
 DEPT.F                  :   
 SPR .MV     05 010 01 00:   SPONTANEOUS POTENTIAL FROM RES.
 SN  .OHMM   05 040 16 00:   SHORT NORMAL 16"
 IL  .OHMM   05 120 00 00:   INDUCTION LOG
 CALD.IN     45 280 60 00:   CALIPER
 GRD .GAPI   45 310 01 00:   GAMMA RAY FROM DENSITY LOG
 RHOB.G/C3   45 350 01 00:   BULK DENSITY
 DPHI.DEC    45 890 12 00:   DENSITY POROSITY SANDSTONE
 CORR.G/C3   45 356 01 00:   DENSITY CORRECTION
~PARAMETER INFORMATION
#MNEM.UNIT          VALUE    DESCRIPTION
#----------   ------------   ------------------------------
 PD  .                 GL:   PERMANENT DATUM
 LMF .                 KB:   LOG MEASURED FROM
 DAPD.F                 4:   FEET ABOVE PERMANENT DATUM
 DMF .                 KB:   DRILLING MEASURED FROM
 DATE.           12-11-78:   RUN DATE
 RUN .                  1:   RUN NUMBER
 DD  .F               600:   DEPTH DRILLER
 DL  .F               602:   DEPTH LOGGER
 BLI .F               596:   BOTTOM LOG INTERVAL
 TLI .F                60:   TOP LOG INTERVAL
 CBD .F                40:   CASING BOTTOM DRILLER
 CBL .F                35:   CASING BOTTOM LOGGER
 BS  .IN            7.875:   BIT SIZE
 BSD .F               600:   BIT SIZE AT DEPTH
 DFT .                KCC:   DRILLING FLUID TYPE
 DFD .                8.7:   DRILLING FLUID DENSITY
 DFV .                 39:   DRILLING FLUID VISCOSITY
 DFPH.               10.5:   DRILLING FLUID PH
 DFL .                 10:   DRILLING FLUID LOSS
 MSS .           FLOWLINE:   MUD SAMPLE SOURCE
 RMS .OHMM              1:   RESISTIVITY MUD SAMPLE
 MST .F                62:   MUD SAMPLE TEMPERATURE
 RMF .OHMM            .85:   RESISTIVITY MUD FILTRATE SAMPLE
 MFST.F                58:   MUD FILTRATE SAMPLE TEMPERATURE
 RMC .OHMM             .8:   RESISTIVITY MUD CAKE
 MCST.F                66:   MUD CAKE SAMPLE TEMPERATURE
 MFSS.           MEASURED:   MUD FILTRATE SAMPLE SOURCE
 MCSS.           MEASURED:   MUD CAKE SAMPLE SOURCE
 BHT .F                72:   BOTTOM HOLE TEMPERATURE
 TCS .HRS               3:   TIME CURCULATED STOPPED
 MRT .F                72:   MAXIMUM RECORDED TEMPERATURE
 LUN .               2958:   LOGGING UNIT NUMBER
 LUL .             CASPER:   LOGGING UNIT LOCATION
 ENGI.            ROLLINS:   RECORDING ENGINEER
 WITN.           DINSMORE:   WITNESSED BY
 CLNT.            A2DTECH:   CLIENT CODE
 ORIG.       2", 5" PRINT:   ORIGIN OF DATA
 UWI .       490251075400:   UNIQUE WELL ID
 DICO. A2D Technologies, Inc.:   DIGITIZING COMPANY
~OTHER INFORMATION
~A   DEPT      SPR         SN         IL       CALD        GRD       RHOB       DPHI       CORR   
# ...
  172.5000   -14.0490     9.3710     8.1930     8.5540   122.1530     2.4520     0.1460     0.0060
  173.0000   -14.0650     9.1350     8.1670     8.5530   122.6520     2.4640     0.1410     0.0060
  173.5000   -14.0810     9.0200     8.1330     8.5520   123.0640     2.4700     0.1340     0.0070
  174.0000   -14.1010     8.9050     8.2660     8.5510   122.9980     2.4710     0.1320     0.0070
  174.5000   -13.9640     8.7560     8.4280     8.5500   121.8960     2.4720     0.1320     0.0080
  175.0000   -13.8000     8.8340     8.5610     8.5490   119.7860     2.4730     0.1310     0.0090
  175.5000   -13.6360     8.9460     8.6930     8.5480   118.8960     2.4780     0.1290     0.0090
  176.0000   -13.4950     9.2690     8.8260     8.5470   118.0590     2.4850     0.1270     0.0100
  176.5000   -13.5360     9.8030     8.9190     8.5460   117.4900     2.4850     0.1240     0.0100
  177.0000   -13.5820    10.0180     8.9080     8.5450   117.3250     2.4840     0.1250     0.0110
  177.5000   -13.6270    10.0960     8.9000     8.5440   117.1160     2.4890     0.1240     0.0110
  178.0000   -13.6750    10.1740     8.8910     8.5430   118.6590     2.4960     0.1200     0.0120
  178.5000   -13.7780    10.2440     8.8830     8.5420   120.0620     2.5030     0.1080     0.0180
  179.0000   -14.2110    10.2250     8.8740     8.5410   116.2520     2.5090     0.1070     0.0280
  179.5000   -14.3260    10.2080     8.8650     8.5560   110.5910     2.5100     0.1070     0.0290
  180.0000   -14.3650    10.1910     8.8570     8.5750   109.8440     2.5100     0.1070     0.0250
  180.5000   -14.4030    10.1740     8.8480     8.5940   115.7390     2.5090     0.1080     0.0130
  181.0000   -14.4410    10.1570     8.8400     8.5990   112.8600     2.5060     0.1080     0.0140
  181.5000   -14.4790    10.1400     8.7320     8.5980   108.9530     2.4920     0.1150     0.0230
  182.0000   -14.6040    10.1230     8.5960     8.5960   107.5520     2.4790     0.1230     0.0280
  182.5000   -14.8900    10.1060     8.5440     8.5940   111.9010     2.4780     0.1280     0.0120
  183.0000   -15.1770    10.0890     8.4970     8.5920   116.4660     2.4700     0.1310     0.0090
  183.5000   -15.2400    10.0720     8.4500     8.5900   120.1290     2.4580     0.1360     0.0090
  184.0000   -15.1390    10.0560     8.4020     8.5880   121.6470     2.4570     0.1400     0.0090
  184.5000   -15.0390     9.8490     8.3550     8.5860   119.3240     2.4560     0.1410     0.0090
  185.0000   -14.9390     9.6610     8.3080     8.5840   115.6160     2.4550     0.1410     0.0090
  185.5000   -14.8380     9.4720     8.2610     8.5820   113.7060     2.4500     0.1420     0.0080
  186.0000   -14.7360     9.3360     8.2130     8.5800   111.5820     2.4460     0.1460     0.0080
  186.5000   -14.6350     9.3200     8.1660     8.5780   114.2120     2.4460     0.1480     0.0080
  187.0000   -14.5340     9.3040     8.1330     8.5760   115.7160     2.4470     0.1490     0.0080
  187.5000   -14.4330     9.2880     8.1400     8.5740   116.6770     2.4480     0.1490     0.0080
  188.0000   -14.3310     9.2720     8.1460     8.5720   117.8680     2.4510     0.1490     0.0080
  188.5000   -14.2310     9.2550     8.1520     8.5700   125.4920     2.4520     0.1440     0.0080
  189.0000   -14.1320     9.2550     8.1580     8.5680   124.3370     2.4500     0.1450     0.0080
  189.5000   -14.0330     9.2550     8.1630     8.5660   122.0900     2.4490     0.1460     0.0090
  190.0000   -13.9220     9.2550     8.1690     8.5640   126.0190     2.4510     0.1450     0.0090
  190.5000   -14.4420     9.2550     8.1750     8.5620   126.0330     2.4530     0.1440     0.0090
  191.0000   -14.9130     9.2550     8.1800     8.5610   124.0160     2.4550     0.1420     0.0040
  191.5000   -14.8830     9.2550     8.1860     8.5610   123.0210     2.4540     0.1410    -0.0020
  192.0000   -14.8670     9.2550     8.1920     8.5610   119.9030     2.4480     0.1460    -0.0080
  192.5000   -14.8550     9.2550     8.1970     8.5610   118.5710     2.4420     0.1500    -0.0070
  193.0000   -14.8420     9.2550     8.2080     8.5610   118.1730     2.4370     0.1530    -0.0060
  193.5000   -14.8290     9.2550     8.2060     8.5610   114.6560     2.4360     0.1540    -0.0050
  194.0000   -14.8150     9.2560     8.4230     8.5610   110.8940     2.4530     0.1470    -0.0030
  194.5000   -14.8020     9.2550     8.6760     8.5610   108.4310     2.4710     0.1380    -0.0010
  195.0000   -14.7880     9.2550     8.6520     8.5610   112.0680     2.4880     0.1230     0.0040
  195.5000   -14.7750     9.5630     8.6170     8.5610   113.6530     2.4850     0.1210     0.0070
  196.0000   -14.7620     9.9110     8.5830     8.5610   113.7000     2.4770     0.1260     0.0060
  196.5000   -14.7480     9.9880     8.5480     8.5610   111.8060     2.4700     0.1310     0.0050
  197.0000   -14.7350    10.0650     8.5170     8.5610   109.2300     2.4650     0.1350     0.0040
  197.5000   -14.7210    10.1490     8.4910     8.5610   108.3920     2.4590     0.1380     0.0050
  198.0000   -14.7080    10.1120     8.4670     8.5610   115.1450     2.4550     0.1400     0.0060
  198.5000   -14.6950    10.0710     8.4440     8.5610   113.6140     2.4570     0.1410     0.0070
  199.0000   -14.6810    10.0290     8.4200     8.5610   112.8620     2.4620     0.1390     0.0070
  199.5000   -14.6680     9.9880     8.3960     8.5610   112.6940     2.4650     0.1350     0.0070
  200.0000   -14.6540     9.9460     8.3730     8.5610   112.5490     2.4660     0.1350     0.0070
  200.5000   -14.6410     9.9050     8.3490     8.5610   112.3660     2.4660     0.1340     0.0060
  201.0000   -14.6280     9.8630     8.3250     8.5610   112.1940     2.4670     0.1340     0.0060
  201.5000   -14.6140     9.8220     8.3020     8.5610   112.0270     2.4650     0.1360     0.0050
  202.0000   -14.6010     9.7800     8.2650     8.5610   111.8610     2.4510     0.1410     0.0040
  202.5000   -14.5870     9.7390     8.1940     8.5610   111.9660     2.4480     0.1460     0.0030
  203.0000   -14.5740     9.6970     8.1230     8.5610   113.8110     2.4480     0.1470     0.0030
  203.5000   -14.5610     9.6120     8.0520     8.5610   117.1170     2.4500     0.1470     0.0020
  204.0000   -14.5470     9.5210     7.9840     8.5610   117.4370     2.4520     0.1450     0.0000
  204.5000   -14.5340     9.4290     7.9840     8.5610   114.8620     2.4540     0.1430    -0.0010
  205.0000   -14.5210     9.3400     7.9840     8.5610   113.6230     2.4530     0.1440    -0.0010
  205.5000   -14.5070     9.2150     7.9840     8.5610   113.6300     2.4520     0.1440     0.0000
  206.0000   -14.5180     9.0940     7.9840     8.5610   114.8370     2.4510     0.1440     0.0000
  206.5000   -14.5570     8.9730     7.9840     8.5610   120.2090     2.4500     0.1450     0.0030
  207.0000   -14.5950     8.8520     8.0170     8.5610   125.3800     2.4490     0.1460     0.0050
  207.5000   -14.6330     8.7560     8.0710     8.5610   123.0150     2.4480     0.1460     0.0070
  208.0000   -14.6720     8.7930     8.1240     8.5610   118.7110     2.4520     0.1450     0.0050
  208.5000   -14.7100     8.8230     8.1770     8.5610   117.4670     2.4610     0.1400     0.0040
  209.0000   -14.7490     8.8530     8.2300     8.5610   118.0280     2.4670     0.1340     0.0020
  209.5000   -14.7870     8.8830     8.2840     8.5610   117.0720     2.4610     0.1340     0.0020
  210.0000   -14.8250     8.9130     8.4020     8.5610   115.4390     2.4540     0.1440     0.0030
  210.5000   -14.8640     9.0710     8.5220     8.5610   114.3030     2.4530     0.1440     0.0040
  211.0000   -14.9020     9.2660     8.6410     8.5610   113.2890     2.4560     0.1430     0.0050
  211.5000   -14.9410     9.4610     8.7610     8.5610   113.5140     2.4680     0.1400     0.0060
  212.0000   -14.9790     9.6550     8.8370     8.5610   113.9520     2.4770     0.1320     0.0070
  212.5000   -15.0170     9.8100     8.8370     8.5610   112.2310     2.4780     0.1280     0.0070
