~VERSION INFORMATION
 VERS.                2.0:   CWLS LOG ASCII STANDARD - VERSION 2.0
 WRAP.                 NO:   ONE LINE PER DEPTH STEP
~WELL INFORMATION
#MNEM.UNIT      DATA TYPE    INFORMATION
#----------   ------------   ------------------------------
 STRT.F          248.0000:   START DEPTH
 STOP.F         2495.0000:   STOP DEPTH
 STEP.F            0.5000:   STEP LENGTH
 NULL.          -999.2500:   NO VALUE
 COMP. FENIX & SCISSON INC:   COMPANY
 WELL.      85 SHX #28-28:   WELL
 FLD .             TEAPOT:   FIELD
 LOC .      S28 T39N R78W:   LOCATION
 CNTY.            NATRONA:   COUNTY
 STAT.            WYOMING:   STATE
 CTRY. UNITED STATES OF AMERICA:   COUNTRY
 SRVC.           BIRDWELL:   SERVICE COMPANY
 DATE.        18-AUG-1979:   LOGDATE
 API .       490251079700:   API NUMBER
~CURVE INFORMATION
#MNEM.UNIT       API CODE    CURVE DESCRIPTION
#----------   ------------   ------------------------------
 DEPT.F                  :   
 CALD.IN     45 280 60 00:   CALIPER
 CORR.G/C3   45 356 01 00:   DENSITY CORRECTION
 RHOB.G/C3   45 350 01 00:   BULK DENSITY
 DPHI.DEC    45 890 12 00:   DENSITY POROSITY SANDSTONE
 GRD .GAPI   45 310 01 00:   GAMMA RAY FROM DENSITY LOG
~PARAMETER INFORMATION
#MNEM.UNIT          VALUE    DESCRIPTION
#----------   ------------   ------------------------------
 PD  .                 GL:   PERMANENT DATUM
 EPD .F              5044:   ELEVATION PERMANENT DATUM
 LMF .                 DF:   LOG MEASURED FROM
 DMF .                 KB:   DRILLING MEASURED FROM
 EKB .F              5054:   KELLING BUSHING
 EDF .F              5052:   DRILLING FLOOR
 EGL .F              5044:   GROUND LEVEL
 DATE.            8-18-79:   RUN DATE
 RUN .                  1:   RUN NUMBER
 DD  .F              2500:   DEPTH DRILLER
 DL  .F              2495:   DEPTH LOGGER
 BLI .F              2495:   BOTTOM LOG INTERVAL
 CS  .IN            9.625:   CASING SIZE
 CBD .F               520:   CASING BOTTOM DRILLER
 CBL .F               505:   CASING BOTTOM LOGGER
 BS  .IN             8.75:   BIT SIZE
 BSD .F              2500:   BIT SIZE AT DEPTH
 DFT .                AIR:   DRILLING FLUID TYPE
 TCS .HRS               2:   TIME CURCULATED STOPPED
 ENGI.          B. MILLER:   RECORDING ENGINEER
 WITN.           DINSMORE:   WITNESSED BY
 CLNT.            A2DTECH:   CLIENT CODE
 ORIG.           5" PRINT:   ORIGIN OF DATA
 UWI .       490251079700:   UNIQUE WELL ID
 DICO. A2D Technologies, Inc.:   DIGITIZING COMPANY
~OTHER INFORMATION
~A   DEPT     CALD       CORR       RHOB       DPHI         GRD  
# ...
 2078.0000     9.1358    -0.0066     2.4766     0.0385   121.8472
 2078.5000     9.1239     0.0009     2.4889     0.0309   128.0215
 2079.0000     9.1123     0.0089     2.4965     0.0273   135.3470
 2079.5000     9.1473     0.0272     2.5044     0.0203   139.8654
 2080.0000     9.1811     0.0448     2.5191     0.0134   138.2280
 2080.5000     9.1910     0.0262     2.5233     0.0136   133.1787
 2081.0000     9.1398     0.0050     2.4943     0.0358   128.1860
 2081.5000     9.0863    -0.0097     2.4752     0.0399   123.1770
 2082.0000     9.0688    -0.0048     2.4663     0.0443   120.7753
 2082.5000     9.0604     0.0091     2.4689     0.0441   127.1751
 2083.0000     9.0999     0.0143     2.4715     0.0426   135.4363
 2083.5000     9.1397     0.0169     2.4626     0.0460   134.7426
 2084.0000     9.1793     0.0278     2.4571     0.0490   131.1303
 2084.5000     9.2188     0.0392     2.4595     0.0496   131.1853
 2085.0000     9.2584     0.0505     2.4625     0.0463   136.2909
 2085.5000     9.2979     0.0620     2.4655     0.0441   140.9961
 2086.0000     9.3374     0.0679     2.4690     0.0420   132.4716
 2086.5000     9.3770     0.0660     2.4766     0.0379   133.7640
 2087.0000     9.4165     0.0601     2.4756     0.0412   135.9715
 2087.5000     9.4548     0.0500     2.4686     0.0454   132.1385
 2088.0000     9.4825     0.0290     2.4616     0.0494   128.0283
 2088.5000     9.5100     0.0246     2.4547     0.0540   131.0157
 2089.0000     9.5376     0.0194     2.4477     0.0560   134.5742
 2089.5000     9.5652     0.0117     2.4408     0.0582   132.4297
 2090.0000     9.5927     0.0036     2.4337     0.0626   131.1038
 2090.5000     9.6205    -0.0031     2.4311     0.0660   139.9101
 2091.0000     9.6485    -0.0036     2.4366     0.0643   140.4576
 2091.5000     9.6672    -0.0035     2.4410     0.0622   139.8772
 2092.0000     9.6519    -0.0023     2.4399     0.0604   139.1328
 2092.5000     9.6512    -0.0005     2.4440     0.0594   137.3232
 2093.0000     9.6512     0.0013     2.4482     0.0588   134.8117
 2093.5000     9.6526     0.0031     2.4415     0.0595   134.2066
 2094.0000     9.6281     0.0040     2.4329     0.0644   137.8016
 2094.5000     9.6104     0.0005     2.4241     0.0700   141.4580
 2095.0000     9.5908    -0.0030     2.4197     0.0712   142.2543
 2095.5000     9.5715    -0.0064     2.4250     0.0693   143.9393
 2096.0000     9.5522    -0.0098     2.4310     0.0644   147.2439
 2096.5000     9.5328    -0.0132     2.4371     0.0596   144.1624
 2097.0000     9.5128    -0.0130     2.4411     0.0600   138.3260
 2097.5000     9.5121    -0.0048     2.4407     0.0600   132.5791
 2098.0000     9.5329    -0.0067     2.4256     0.0676   128.5430
 2098.5000     9.5553    -0.0139     2.4127     0.0754   129.1400
 2099.0000     9.5777     0.0032     2.4175     0.0772   135.7863
 2099.5000     9.6000     0.0290     2.4349     0.0615   142.5601
 2100.0000     9.6116     0.0547     2.4523     0.0489   149.3560
 2100.5000     9.6102     0.0681     2.4741     0.0415   152.4606
 2101.0000     9.6059     0.0524     2.4650     0.0459   146.4387
 2101.5000     9.6016     0.0371     2.4488     0.0556   139.7742
 2102.0000     9.5974     0.0307     2.4400     0.0592   133.1243
 2102.5000     9.5928     0.0260     2.4401     0.0612   126.4906
 2103.0000     9.5834     0.0167     2.4325     0.0656   119.8390
 2103.5000     9.5662     0.0044     2.4220     0.0733   117.6504
 2104.0000     9.5512     0.0211     2.4113     0.0794   118.9330
 2104.5000     9.5524     0.0449     2.4006     0.0846   126.3280
 2105.0000     9.5788     0.0561     2.3920     0.0925   131.5370
 2105.5000     9.6064     0.0673     2.3695     0.1019   136.6814
 2106.0000     9.6313     0.0888     2.3537     0.1074   141.8341
 2106.5000     9.5949     0.1195     2.3616     0.1092   142.3691
 2107.0000     9.5212     0.1477     2.4033     0.0824   133.9279
 2107.5000     9.4465     0.1380     2.4096     0.0784   127.4193
 2108.0000     9.4336     0.1273     2.4183     0.0774   120.9130
 2108.5000     9.4129     0.1441     2.4353     0.0612   117.7135
 2109.0000     9.4124     0.1637     2.4528     0.0522   116.4739
 2109.5000     9.4123     0.1777     2.4704     0.0435   115.1751
 2110.0000     9.4258     0.1637     2.4789     0.0401   116.7734
 2110.5000     9.4515     0.1297     2.4531     0.0381   124.7422
 2111.0000     9.4772     0.0959     2.4288     0.0688   126.8159
 2111.5000     9.5029     0.0858     2.4221     0.0671   128.3992
 2112.0000     9.5286     0.0749     2.4261     0.0724   125.8331
 2112.5000     9.5543     0.0604     2.3992     0.0824   120.0413
 2113.0000     9.5800     0.0623     2.4167     0.0753   114.9700
 2113.5000     9.6064     0.0649     2.4388     0.0641   115.2531
 2114.0000     9.6113     0.0470     2.4612     0.0488   122.7601
 2114.5000     9.6219     0.0233     2.4683     0.0422   120.8776
 2115.0000     9.6345     0.0004     2.4536     0.0529   117.6952
 2115.5000     9.6479    -0.0074     2.4385     0.0614   114.4748
 2116.0000     9.6671     0.0035     2.4234     0.0705   111.7612
 2116.5000     9.7265     0.0145     2.4083     0.0795   118.8663
 2117.0000     9.7855     0.0389     2.3932     0.0882   126.0787
 2117.5000     9.8449     0.0645     2.3781     0.0969   132.5021
 2118.0000     9.9045     0.0842     2.3665     0.1000   134.9171
 2118.5000     9.9644     0.0967     2.3719     0.0996   131.6414
 2119.0000     9.9378     0.1091     2.3810     0.0948   127.6276
 2119.5000     9.9008     0.1263     2.3868     0.0913   123.5024
 2120.0000     9.8685     0.1467     2.3839     0.0927   122.3009
 2120.5000     9.9159     0.1959     2.3788     0.0944   128.2784
 2121.0000     9.9737     0.2624     2.4303     0.0637   136.6235
 2121.5000    10.0324     0.3071     2.4760     0.0383   132.2416
 2122.0000    10.0497     0.2961     2.4664     0.0439   130.3477
 2122.5000    10.0480     0.3110     2.4623     0.0243   138.0329
 2123.0000    10.0442     0.3173     2.5038     0.0324   148.9595
 2123.5000    10.0406     0.2637     2.4728     0.0459   146.2160
 2124.0000    10.0370     0.2354     2.4505     0.0495   141.3214
 2124.5000    10.0332     0.2117     2.4691     0.0443   136.8882
 2125.0000    10.0199     0.1721     2.4469     0.0607   137.0231
 2125.5000    10.0028     0.1297     2.4254     0.0706   142.1440
 2126.0000     9.9888     0.1015     2.4189     0.0703   144.7067
 2126.5000     9.9750     0.1059     2.4236     0.0663   141.9224
 2127.0000     9.9611     0.1161     2.4435     0.0555   139.0684
 2127.5000     9.9472     0.1265     2.4631     0.0448   135.7533
 2128.0000     9.9333     0.1336     2.4857     0.0363   130.4391
 2128.5000     9.9198     0.1094     2.4762     0.0388   125.6951
 2129.0000     9.9096     0.0712     2.4608     0.0503   120.9938
 2129.5000     9.8742     0.0683     2.4570     0.0476   119.8837
 2130.0000     9.8359     0.0690     2.4853     0.0319   126.8900
 2130.5000     9.7978     0.0488     2.4813     0.0363   129.8156
 2131.0000     9.7597     0.0237     2.4808     0.0363   120.5916
 2131.5000     9.7201     0.0072     2.4750     0.0398   114.1600
 2132.0000     9.7114     0.0026     2.4676     0.0449   108.5548
 2132.5000     9.7240     0.0034     2.4644     0.0500   108.7574
 2133.0000     9.7379     0.0042     2.4503     0.0528   118.2387
 2133.5000     9.7510     0.0083     2.4553     0.0528   124.7016
 2134.0000     9.7339     0.0164     2.4620     0.0479   123.5890
 2134.5000     9.7087     0.0111     2.4581     0.0515   124.3794
 2135.0000     9.6911     0.0020     2.4355     0.0643   127.4760
 2135.5000     9.7000     0.0152     2.4015     0.0841   128.1435
 2136.0000     9.7251     0.0526     2.3680     0.0980   127.0239
 2136.5000     9.7500     0.1423     2.3814     0.0875   135.0817
 2137.0000     9.7750     0.2307     2.4098     0.0718   141.4517
 2137.5000     9.7999     0.3004     2.4379     0.0561   143.8065
 2138.0000     9.8251     0.3482     2.4778     0.0455   149.3857
 2138.5000     9.8511     0.3235     2.4553     0.0384   155.2941
