~VERSION INFORMATION
 VERS.                2.0:   CWLS LOG ASCII STANDARD - VERSION 2.0
 WRAP.                 NO:   ONE LINE PER DEPTH STEP
~WELL INFORMATION
#MNEM.UNIT      DATA TYPE    INFORMATION
#----------   ------------   ------------------------------
 STRT.F           34.0000:   START DEPTH
 STOP.F          458.0000:   STOP DEPTH
 STEP.F            0.5000:   STEP LENGTH
 NULL.          -999.2500:   NO VALUE
 COMP. FENIX & SCISSON INC:   COMPANY
 WELL.    42 SX 3FO #42-3:   WELL
 FLD .             TEAPOT:   FIELD
 LOC .       S3 T38N R78W:   LOCATION
 CNTY.            NATRONA:   COUNTY
 STAT.            WYOMING:   STATE
 CTRY. UNITED STATES OF AMERICA:   COUNTRY
 SRVC.              Welex:   SERVICE COMPANY
 DATE.        29-JUN-1980:   LOGDATE
 API .       490251081500:   API NUMBER
~CURVE INFORMATION
#MNEM.UNIT       API CODE    CURVE DESCRIPTION
#----------   ------------   ------------------------------
 DEPT.F                  :   
 RHOB.G/C3   45 350 01 00:   BULK DENSITY
 CORR.G/C3   45 356 01 00:   DENSITY CORRECTION
 DPHI.DEC    45 890 12 00:   DENSITY POROSITY SANDSTONE
 GRD .GAPI   45 310 01 00:   GAMMA RAY FROM DENSITY LOG
 CALD.IN     45 280 60 00:   CALIPER
~PARAMETER INFORMATION
#MNEM.UNIT          VALUE    DESCRIPTION
#----------   ------------   ------------------------------
 PD  .                 GL:   PERMANENT DATUM
 EPD .F              5162:   ELEVATION PERMANENT DATUM
 LMF .                 KB:   LOG MEASURED FROM
 DAPD.F                 5:   FEET ABOVE PERMANENT DATUM
 DMF .                 KB:   DRILLING MEASURED FROM
 EKB .F              5167:   KELLING BUSHING
 EGL .F              5162:   GROUND LEVEL
 DATE.            6-29-80:   RUN DATE
 RUN .                  1:   RUN NUMBER
 DD  .F               470:   DEPTH DRILLER
 DL  .F               460:   DEPTH LOGGER
 BLI .F               458:   BOTTOM LOG INTERVAL
 TLI .F                46:   TOP LOG INTERVAL
 CS  .IN                7:   CASING SIZE
 BS  .IN             6.25:   BIT SIZE
 BSD .F               470:   BIT SIZE AT DEPTH
 DFT .        AIR DRILLED:   DRILLING FLUID TYPE
 BHT .F                73:   BOTTOM HOLE TEMPERATURE
 TCS .HRS               2:   TIME CURCULATED STOPPED
 MRT .F                73:   MAXIMUM RECORDED TEMPERATURE
 ENGI.            TOTHILL:   RECORDING ENGINEER
 WITN.              AMEND:   WITNESSED BY
 CLNT.            A2DTECH:   CLIENT CODE
 ORIG.           5" PRINT:   ORIGIN OF DATA
 UWI .       490251081500:   UNIQUE WELL ID
 DICO. A2D Technologies, Inc.:   DIGITIZING COMPANY
~OTHER INFORMATION
~A   DEPT       RHOB      CORR      DPHI         GRD        CALD 
# ...
   95.0000     2.5231     0.1106     0.0997    98.8768     6.4281
   95.5000     2.5240     0.1160     0.0982   100.0182     6.4380
   96.0000     2.5148     0.1083     0.1003   101.0619     6.4481
   96.5000     2.5055     0.0990     0.1081   101.7821     6.4580
   97.0000     2.4998     0.0905     0.1085   102.2914     6.4681
   97.5000     2.5078     0.0988     0.1061   100.9638     6.4571
   98.0000     2.5121     0.1104     0.1040    99.8067     6.4261
   98.5000     2.5135     0.1199     0.1018    99.1636     6.3946
   99.0000     2.5203     0.1239     0.1001    98.6090     6.4106
   99.5000     2.5180     0.1278     0.0984    98.5382     6.4309
  100.0000     2.5218     0.1298     0.0972    98.4220     6.4509
  100.5000     2.5083     0.1214     0.1043    99.3777     6.4500
  101.0000     2.5010     0.1128     0.1131   100.4141     6.4466
  101.5000     2.4952     0.1070     0.1166   101.5073     6.4432
  102.0000     2.4890     0.0998     0.1252   101.2646     6.4398
  102.5000     2.4694     0.0794     0.1336    99.6969     6.4366
  103.0000     2.4529     0.0858     0.1371    97.5150     6.4327
  103.5000     2.4544     0.0960     0.1308    95.5626     6.4078
  104.0000     2.4704     0.1064     0.1260    95.8223     6.3806
  104.5000     2.4801     0.1095     0.1266    96.0576     6.3539
  105.0000     2.4747     0.1103     0.1273    96.0092     6.3561
  105.5000     2.4699     0.0989     0.1263    95.4080     6.3600
  106.0000     2.4711     0.1033     0.1239    94.8197     6.3637
  106.5000     2.4781     0.1083     0.1216    95.3958     6.3675
  107.0000     2.4852     0.1160     0.1196    96.0609     6.3712
  107.5000     2.4860     0.1107     0.1200    94.5964     6.3749
  108.0000     2.4828     0.1057     0.1227    92.1773     6.3787
  108.5000     2.4795     0.1031     0.1225    90.6305     6.3824
  109.0000     2.4809     0.1051     0.1215    90.9052     6.3861
  109.5000     2.4832     0.1186     0.1208    91.3652     6.3899
  110.0000     2.4839     0.1090     0.1248    92.6765     6.3943
  110.5000     2.4500     0.0950     0.1315    94.2327     6.4018
  111.0000     2.4596     0.0923     0.1352    94.8872     6.4092
  111.5000     2.4745     0.1021     0.1276    95.2325     6.4165
  112.0000     2.4762     0.0839     0.1377    96.6508     6.4239
  112.5000     2.4469     0.0668     0.1448    98.5631     6.4313
  113.0000     2.4423     0.0704     0.1425   100.0758     6.4387
  113.5000     2.4515     0.0762     0.1388   100.1915     6.4462
  114.0000     2.4614     0.0805     0.1368   100.1136     6.4517
  114.5000     2.4517     0.0796     0.1425   103.2710     6.4262
  115.0000     2.4382     0.0789     0.1478   105.4498     6.4008
  115.5000     2.4374     0.0813     0.1476   104.4929     6.3758
  116.0000     2.4396     0.0871     0.1463   103.4067     6.3507
  116.5000     2.4416     0.0929     0.1450   102.3949     6.3125
  117.0000     2.4440     0.0949     0.1446   101.6942     6.3014
  117.5000     2.4442     0.0957     0.1463   100.9438     6.2920
  118.0000     2.4409     0.0964     0.1481   100.0274     6.3065
  118.5000     2.4375     0.0990     0.1492    98.9726     6.3260
  119.0000     2.4338     0.1024     0.1489    97.1851     6.3455
  119.5000     2.4393     0.1058     0.1430    95.4608     6.3650
  120.0000     2.4510     0.1103     0.1401    94.6924     6.3845
  120.5000     2.4578     0.1154     0.1398    93.9683     6.4041
  121.0000     2.4490     0.1215     0.1408    93.8396     6.4096
  121.5000     2.4489     0.1279     0.1376    93.7049     6.4042
  122.0000     2.4579     0.1345     0.1336    93.9370     6.3985
  122.5000     2.4722     0.1387     0.1288    94.8886     6.3931
  123.0000     2.4728     0.1430     0.1331    95.8299     6.3962
  123.5000     2.4596     0.1387     0.1383    96.9088     6.3997
  124.0000     2.4463     0.1341     0.1436    98.2120     6.4033
  124.5000     2.4409     0.1330     0.1447    98.9989     6.4068
  125.0000     2.4437     0.1331     0.1458    98.8215     6.4104
  125.5000     2.4370     0.1339     0.1475    98.6883     6.4139
  126.0000     2.4310     0.1347     0.1494    96.7834     6.4174
  126.5000     2.4345     0.1354     0.1519    94.9869     6.4210
  127.0000     2.4325     0.1361     0.1568    95.6222     6.4245
  127.5000     2.4248     0.1295     0.1645    98.5989     6.4281
  128.0000     2.3997     0.1125     0.1757   100.9985     6.4313
  128.5000     2.3829     0.1116     0.1726   102.4225     6.4153
  129.0000     2.3997     0.1351     0.1616   101.4908     6.3747
  129.5000     2.4266     0.1472     0.1522   100.5697     6.3345
  130.0000     2.4479     0.1575     0.1448    99.6498     6.2942
  130.5000     2.4484     0.1528     0.1491    98.9010     6.2728
  131.0000     2.4283     0.1413     0.1535   100.4960     6.2821
  131.5000     2.4209     0.1305     0.1557   104.1038     6.2912
  132.0000     2.4278     0.1380     0.1532   106.1510     6.3002
  132.5000     2.4433     0.1467     0.1407   105.0678     6.3092
  133.0000     2.4607     0.1566     0.1290   103.9250     6.3183
  133.5000     2.4825     0.1697     0.1237   101.7126     6.3273
  134.0000     2.4721     0.1564     0.1299    97.9887     6.3363
  134.5000     2.4637     0.1442     0.1350    95.6689     6.3453
  135.0000     2.4515     0.1326     0.1415    96.0425     6.3544
  135.5000     2.4355     0.1196     0.1510    96.5814     6.3634
  136.0000     2.4243     0.1089     0.1593    98.9045     6.3724
  136.5000     2.4172     0.1040     0.1589   102.1607     6.3815
  137.0000     2.4179     0.0988     0.1577   104.1887     6.3907
  137.5000     2.4258     0.1010     0.1482   103.9346     6.3946
  138.0000     2.4474     0.1089     0.1359   100.3819     6.3971
  138.5000     2.4695     0.1171     0.1313    98.8562     6.3995
  139.0000     2.4657     0.1137     0.1343    97.9927     6.4020
  139.5000     2.4581     0.1072     0.1376    98.3802     6.4044
  140.0000     2.4537     0.1009     0.1372    99.2369     6.4069
  140.5000     2.4656     0.1044     0.1312   101.5574     6.4094
  141.0000     2.4717     0.1082     0.1306   103.9794     6.4119
  141.5000     2.4681     0.1096     0.1312   104.9082     6.4073
  142.0000     2.4678     0.1034     0.1347   105.0042     6.3983
  142.5000     2.4612     0.0973     0.1381   102.5608     6.3957
  143.0000     2.4523     0.0926     0.1408   100.2401     6.4031
  143.5000     2.4507     0.0972     0.1332    99.2625     6.4104
  144.0000     2.4692     0.1063     0.1258    99.7788     6.4177
  144.5000     2.4854     0.1292     0.1192    99.3876     6.4250
  145.0000     2.4898     0.1298     0.1231    98.9579     6.4323
  145.5000     2.4820     0.1228     0.1299    98.5358     6.4396
  146.0000     2.4510     0.1049     0.1380    98.3195     6.4469
  146.5000     2.4585     0.1095     0.1331    98.8510     6.4542
  147.0000     2.4689     0.1154     0.1322    99.3534     6.4615
  147.5000     2.4546     0.0918     0.1478    99.5034     6.4688
  148.0000     2.4228     0.0683     0.1599    98.0026     6.4761
  148.5000     2.4023     0.0565     0.1693    96.5479     6.4835
  149.0000     2.4002     0.0615     0.1656    97.5173     6.4907
  149.5000     2.4156     0.0663     0.1601    98.7785     6.4827
  150.0000     2.4230     0.0746     0.1553   100.0963     6.4395
  150.5000     2.4278     0.0869     0.1439   100.1440     6.3977
  151.0000     2.4480     0.0994     0.1335    99.7361     6.3549
  151.5000     2.4707     0.1084     0.1261   100.8501     6.3574
  152.0000     2.4826     0.1165     0.1249   101.9910     6.3632
  152.5000     2.4762     0.1247     0.1256   100.7908     6.3689
  153.0000     2.4763     0.1230     0.1296    99.0452     6.3745
  153.5000     2.4527     0.1121     0.1406    97.2887     6.3801
  154.0000     2.4314     0.1013     0.1488    95.5403     6.3856
  154.5000     2.4482     0.1154     0.1350    93.9709     6.3912
  155.0000     2.4740     0.1313     0.1261    94.7235     6.3968
  155.5000     2.4773     0.1377     0.1316    97.1252     6.4024
