~VERSION INFORMATION
 VERS.                2.0:   CWLS LOG ASCII STANDARD - VERSION 2.0
 WRAP.                 NO:   ONE LINE PER DEPTH STEP
~WELL INFORMATION
#MNEM.UNIT      DATA TYPE    INFORMATION
#----------   ------------   ------------------------------
 STRT.F           38.0000:   START DEPTH
 STOP.F          483.5000:   STOP DEPTH
 STEP.F            0.5000:   STEP LENGTH
 NULL.          -999.2500:   NO VALUE
 COMP. FENIX & SCISSON INC:   COMPANY
 WELL.    43 SX 10 #43-10:   WELL
 FLD .             TEAPOT:   FIELD
 LOC .      S10 T38N R78W:   LOCATION
 CNTY.            NATRONA:   COUNTY
 STAT.            WYOMING:   STATE
 CTRY. UNITED STATES OF AMERICA:   COUNTRY
 SRVC.            Unknown:   SERVICE COMPANY
 DATE.        12-NOV-1978:   LOGDATE
 API .       490251072700:   API NUMBER
~CURVE INFORMATION
#MNEM.UNIT       API CODE    CURVE DESCRIPTION
#----------   ------------   ------------------------------
 DEPT.F                  :   
 SPR .MV     05 010 01 00:   SPONTANEOUS POTENTIAL FROM RES.
 SN  .OHMM   05 040 16 00:   SHORT NORMAL 16"
 IL  .OHMM   05 120 00 00:   INDUCTION LOG
 GRD .GAPI   45 310 01 00:   GAMMA RAY FROM DENSITY LOG
 CALD.IN     45 280 60 00:   CALIPER
 DEN .G/C3   45 350 01 00:   COMPENSATED BULK DENSTIY
 DPHI.DEC    45 890 12 00:   DENSITY POROSITY SANDSTONE
 CORR.G/C3   45 356 01 00:   DENSITY CORRECTION
~PARAMETER INFORMATION
#MNEM.UNIT          VALUE    DESCRIPTION
#----------   ------------   ------------------------------
 PD  .                 GL:   PERMANENT DATUM
 EPD .F              5193:   ELEVATION PERMANENT DATUM
 LMF .                 KB:   LOG MEASURED FROM
 DAPD.F                 4:   FEET ABOVE PERMANENT DATUM
 DMF .                 KB:   DRILLING MEASURED FROM
 EKB .F              5197:   KELLING BUSHING
 EGL .F              5193:   GROUND LEVEL
 DATE.           11-12-78:   RUN DATE
 RUN .                  1:   RUN NUMBER
 DD  .F               480:   DEPTH DRILLER
 DL  .F               485:   DEPTH LOGGER
 BLI .F               479:   BOTTOM LOG INTERVAL
 TLI .F                50:   TOP LOG INTERVAL
 CS  .IN            8.625:   CASING SIZE
 CBD .F                40:   CASING BOTTOM DRILLER
 CBL .F                45:   CASING BOTTOM LOGGER
 BS  .IN            7.875:   BIT SIZE
 BSD .F               480:   BIT SIZE AT DEPTH
 DFT .            SEA MUD:   DRILLING FLUID TYPE
 DFD .                8.7:   DRILLING FLUID DENSITY
 DFV .                 36:   DRILLING FLUID VISCOSITY
 DFPH.               10.5:   DRILLING FLUID PH
 MSS .            MUD PIT:   MUD SAMPLE SOURCE
 RMS .OHMM            .42:   RESISTIVITY MUD SAMPLE
 MST .F                52:   MUD SAMPLE TEMPERATURE
 RMF .OHMM            .42:   RESISTIVITY MUD FILTRATE SAMPLE
 MFST.F                52:   MUD FILTRATE SAMPLE TEMPERATURE
 RMC .OHMM            .48:   RESISTIVITY MUD CAKE
 MCST.F                54:   MUD CAKE SAMPLE TEMPERATURE
 MFSS.               MEAS:   MUD FILTRATE SAMPLE SOURCE
 MCSS.               MEAS:   MUD CAKE SAMPLE SOURCE
 RMB .OHMM            .34:   RESISTIVITY MUD AT BHT
 BHT .F                71:   BOTTOM HOLE TEMPERATURE
 TCS .HRS               3:   TIME CURCULATED STOPPED
 MRT .F                71:   MAXIMUM RECORDED TEMPERATURE
 LUN .               3006:   LOGGING UNIT NUMBER
 LUL .               CASP:   LOGGING UNIT LOCATION
 ENGI.             MILLER:   RECORDING ENGINEER
 WITN.           DINSMORE:   WITNESSED BY
 CLNT.            A2DTECH:   CLIENT CODE
 ORIG.       2", 5" PRINT:   ORIGIN OF DATA
 UWI .       490251072700:   UNIQUE WELL ID
 DICO. A2D Technologies, Inc.:   DIGITIZING COMPANY
~OTHER INFORMATION
~A   DEPT      SPR         SN         IL         GRD      CALD        DEN       DPHI       CORR   
# ...
  281.0000   -20.5969    18.0911    21.0364    74.8139     8.3924     2.3371     0.2057     0.0424
  281.5000   -20.5743    19.0990    22.9977    76.9681     8.4015     2.3241     0.2158     0.0440
  282.0000   -20.5389    19.5497    24.6292    77.9088     8.4106     2.3146     0.2181     0.0405
  282.5000   -20.5030    20.0092    25.8906    78.3739     8.4197     2.3205     0.2151     0.0371
  283.0000   -20.4671    20.4795    25.7897    78.2853     8.4287     2.3249     0.2122     0.0337
  283.5000   -20.4313    20.9435    25.7072    77.8788     8.4339     2.3224     0.2141     0.0370
  284.0000   -20.3954    21.1351    25.6250    77.6022     8.4240     2.3170     0.2171     0.0509
  284.5000   -20.3596    21.3217    25.5430    77.7890     8.4145     2.3179     0.2169     0.0747
  285.0000   -20.3237    21.5100    25.4585    76.4396     8.4053     2.3272     0.2103     0.0837
  285.5000   -20.2878    21.6999    25.4192    75.4909     8.3937     2.3364     0.2044     0.0796
  286.0000   -20.2520    21.8916    25.8525    75.2749     8.3395     2.3459     0.2007     0.0755
  286.5000   -20.2161    22.0851    26.1557    74.6966     8.2860     2.3542     0.1973     0.0714
  287.0000   -20.1803    22.3397    26.4613    73.9825     8.2391     2.3942     0.1707     0.0635
  287.5000   -20.1444    22.3311    26.7705    74.1570     8.2284     2.4264     0.1461     0.0447
  288.0000   -20.1086    22.3186    27.0833    74.5170     8.2947     2.4453     0.1389     0.0304
  288.5000   -20.0727    22.3061    27.3631    75.3080     8.3609     2.4365     0.1404     0.0215
  289.0000   -20.0368    22.2936    27.2919    74.4268     8.3761     2.4044     0.1617     0.0277
  289.5000   -20.0010    22.2811    27.2144    74.2971     8.3764     2.3726     0.1865     0.0436
  290.0000   -19.9651    22.2686    27.1371    74.9521     8.3763     2.3403     0.1992     0.0647
  290.5000   -19.9293    22.2562    27.0599    76.9343     8.3762     2.3202     0.2145     0.0840
  291.0000   -19.8934    22.2437    26.9831    78.6801     8.3762     2.3230     0.2089     0.0900
  291.5000   -19.8576    22.2313    26.9064    78.9346     8.3765     2.3414     0.2014     0.0904
  292.0000   -19.8217    22.2188    26.8300    78.9567     8.3899     2.3544     0.1939     0.0766
  292.5000   -19.7859    22.2064    26.7539    78.8142     8.4043     2.3600     0.1893     0.0535
  293.0000   -19.7500    22.1940    26.6778    80.4156     8.4160     2.3365     0.2019     0.0369
  293.5000   -19.7141    22.1815    26.6167    84.4057     8.4091     2.3234     0.2110     0.0403
  294.0000   -19.6782    22.1693    27.3073    84.9595     8.4022     2.3211     0.2163     0.0448
  294.5000   -19.6430    22.1576    27.8993    84.6622     8.3953     2.3253     0.2132     0.0481
  295.0000   -19.6493    22.1443    28.1305    81.7122     8.3883     2.3405     0.2029     0.0430
  295.5000   -19.7181    22.0573    28.1305    81.2373     8.3815     2.3645     0.1927     0.0346
  296.0000   -19.7860    21.7303    28.0503    81.7417     8.3836     2.3713     0.1849     0.0318
  296.5000   -19.8542    21.6712    27.7103    85.4379     8.4212     2.3692     0.1867     0.0292
  297.0000   -19.9223    21.6142    27.3744    88.0726     8.4544     2.3694     0.1858     0.0266
  297.5000   -19.9904    21.5574    27.0426    88.4720     8.4449     2.3769     0.1816     0.0239
  298.0000   -20.0585    21.5008    26.7148    89.5379     8.4345     2.3841     0.1774     0.0208
  298.5000   -20.1266    21.4443    26.3910    91.3962     8.4241     2.3913     0.1732     0.0129
  299.0000   -20.1947    21.3879    26.0711    91.3622     8.4139     2.3980     0.1690     0.0053
  299.5000   -20.2628    21.3317    25.7551    90.6218     8.4036     2.3996     0.1694     0.0060
  300.0000   -20.3309    21.2758    25.4429    90.0989     8.3933     2.3929     0.1728     0.0147
  300.5000   -20.4021    21.2201    25.1345    89.7592     8.3833     2.3864     0.1765     0.0240
  301.0000   -20.4008    21.1646    24.8299    91.0564     8.3869     2.3799     0.1803     0.0226
  301.5000   -20.3769    20.9661    24.5301    91.9777     8.4212     2.3732     0.1841     0.0191
  302.0000   -20.3524    20.6432    24.2069    91.8062     8.4542     2.3744     0.1865     0.0153
  302.5000   -20.3281    20.3253    23.7388    91.1859     8.4557     2.3842     0.1789     0.0141
  303.0000   -20.3038    20.0123    23.2798    90.2296     8.4555     2.3941     0.1733     0.0135
  303.5000   -20.2795    19.7041    22.8297    88.7880     8.4555     2.3985     0.1692     0.0130
  304.0000   -20.2552    19.4007    22.3879    88.2700     8.4555     2.3981     0.1709     0.0124
  304.5000   -20.2309    19.1019    21.9536    88.5756     8.4555     2.3938     0.1726     0.0119
  305.0000   -20.2066    18.9108    21.5319    89.0421     8.4555     2.3899     0.1744     0.0113
  305.5000   -20.1824    18.8782    21.5309    89.5348     8.4555     2.3897     0.1753     0.0108
  306.0000   -20.1581    18.8457    21.5309    89.4971     8.4555     2.3922     0.1724     0.0097
  306.5000   -20.1338    18.8132    21.5309    89.1928     8.4555     2.3977     0.1696     0.0080
  307.0000   -20.1095    18.7808    21.5308    88.8825     8.4555     2.3959     0.1717     0.0063
  307.5000   -20.0850    18.7492    21.5305    88.5627     8.4555     2.3851     0.1772     0.0046
  308.0000   -20.0603    18.5797    21.5311    88.2990     8.4555     2.3733     0.1827     0.0053
  308.5000   -20.0381    18.4174    21.5655    89.6437     8.4555     2.3613     0.1882     0.0061
  309.0000   -20.1304    18.2575    21.6954    93.3740     8.4555     2.3520     0.1937     0.0084
  309.5000   -20.5016    18.2165    21.8262    96.4127     8.4555     2.3508     0.1981     0.0116
  310.0000   -20.8298    18.1916    21.9578    96.9925     8.4555     2.3510     0.1974     0.0148
  310.5000   -20.8538    18.1667    22.0905    97.4349     8.4555     2.3560     0.1940     0.0181
  311.0000   -20.8841    18.1419    22.2227    97.4957     8.4555     2.3612     0.1907     0.0177
  311.5000   -20.9156    18.1169    22.3392    95.8856     8.4555     2.3611     0.1893     0.0168
  312.0000   -20.9471    18.0922    22.0677    94.9164     8.4555     2.3586     0.1914     0.0158
  312.5000   -20.9786    18.0514    21.8293    94.0844     8.4555     2.3560     0.1935     0.0149
  313.0000   -21.0101    17.9192    21.5931    93.6980     8.4555     2.3568     0.1941     0.0139
  313.5000   -21.0416    17.7880    21.3597    93.4219     8.4555     2.3602     0.1914     0.0130
  314.0000   -21.0731    17.6577    21.1294    93.3643     8.4555     2.3635     0.1888     0.0121
  314.5000   -21.1046    17.5284    20.9259    93.3151     8.4555     2.3669     0.1861     0.0113
  315.0000   -21.1362    17.4000    20.8324    93.2644     8.4554     2.3603     0.1882     0.0104
  315.5000   -21.1676    17.2725    20.7394    93.2018     8.4529     2.3561     0.1903     0.0096
  316.0000   -21.1986    17.1460    20.6467    93.5777     8.4473     2.3548     0.1925     0.0088
  316.5000   -21.1892    17.0491    20.5545    94.9976     8.4417     2.3534     0.1917     0.0091
  317.0000   -21.1360    16.9699    20.4627    99.6787     8.4361     2.3521     0.1908     0.0121
  317.5000   -21.0831    16.8911    20.3713   101.5894     8.4305     2.3508     0.1901     0.0150
  318.0000   -21.0300    16.8126    20.2803   101.8729     8.4249     2.3498     0.1902     0.0179
  318.5000   -20.9769    16.7345    20.1897   101.9977     8.4193     2.3513     0.1908     0.0204
  319.0000   -20.9237    16.6568    20.0995   100.1731     8.4137     2.3573     0.1914     0.0181
  319.5000   -20.8699    16.6322    20.0097    98.2313     8.4081     2.3632     0.1920     0.0166
  320.0000   -20.8210    16.6322    19.9829    97.5935     8.4025     2.3643     0.1926     0.0171
  320.5000   -20.9146    16.6322    19.9640    98.7956     8.3970     2.3615     0.1931     0.0175
  321.0000   -21.0161    16.6322    19.9451   101.2281     8.3918     2.3587     0.1937     0.0180
