~VERSION INFORMATION
 VERS.                2.0:   CWLS LOG ASCII STANDARD - VERSION 2.0
 WRAP.                 NO:   ONE LINE PER DEPTH STEP
~WELL INFORMATION
#MNEM.UNIT      DATA TYPE    INFORMATION
#----------   ------------   ------------------------------
 STRT.F            1.0000:   START DEPTH
 STOP.F          508.0000:   STOP DEPTH
 STEP.F            0.1000:   STEP LENGTH
 NULL.          -999.2500:   NO VALUE
 COMP.       F D SERV INC:   COMPANY
 WELL. NAVAL PETROLEUM RESERVE 3 SX-1 #83-4-10:   WELL
 FLD .             TEAPOT:   FIELD
 LOC .      S10 T38N R78W:   LOCATION
 CNTY.            NATRONA:   COUNTY
 STAT.            WYOMING:   STATE
 CTRY. UNITED STATES OF AMERICA:   COUNTRY
 SRVC.     Atlas Wireline:   SERVICE COMPANY
 DATE.        26-JAN-1993:   LOGDATE
 API .       490252258300:   API NUMBER
~CURVE INFORMATION
#MNEM.UNIT       API CODE    CURVE DESCRIPTION
#----------   ------------   ------------------------------
 DEPT.F                  :   
 GRR .GAPI   07 310 01 00:   GAMMA RAY
 RILD.OHMM   07 120 46 00:   INDUCTION LOG DEEP RESISTIVITY
 RILM.OHMM   07 120 44 00:   INDUCTION LOG MEDIUM RESISTIVITY
~PARAMETER INFORMATION
#MNEM.UNIT          VALUE    DESCRIPTION
#----------   ------------   ------------------------------
 PD  .                 GL:   PERMANENT DATUM
 EPD .F              5152:   ELEVATION PERMANENT DATUM
 LMF .                 KB:   LOG MEASURED FROM
 DAPD.F                10:   FEET ABOVE PERMANENT DATUM
 DMF .                 KB:   DRILLING MEASURED FROM
 EKB .F              5162:   KELLING BUSHING
 EDF .F              5161:   DRILLING FLOOR
 EGL .F              5152:   GROUND LEVEL
 DATE.        26-JAN-1993:   RUN DATE
 RUN .                  1:   RUN NUMBER
 DD  .F               515:   DEPTH DRILLER
 DL  .F               516:   DEPTH LOGGER
 BLI .F               508:   BOTTOM LOG INTERVAL
 CS  .IN            8.625:   CASING SIZE
 CBD .F                55:   CASING BOTTOM DRILLER
 CBL .F                55:   CASING BOTTOM LOGGER
 BS  .IN            7.875:   BIT SIZE
 BSD .F               515:   BIT SIZE AT DEPTH
 DFT .                AIR:   DRILLING FLUID TYPE
 MRT .F                63:   MAXIMUM RECORDED TEMPERATURE
 LUN .           HL- 6274:   LOGGING UNIT NUMBER
 LUL .             CASPER:   LOGGING UNIT LOCATION
 ENGI.       P. RASMUSSEN:   RECORDING ENGINEER
 WITN.          G. STRONG:   WITNESSED BY
 CLNT.            A2DTECH:   CLIENT CODE
 ORIG.           5" PRINT:   ORIGIN OF DATA
 UWI .       490252258300:   UNIQUE WELL ID
 DICO. A2D Technologies, Inc.:   DIGITIZING COMPANY
~OTHER INFORMATION
~A    DEPT     GRR       RILD       RILM   
# ...
  492.4000  -999.2500     8.4711     8.5359
  492.5000  -999.2500     8.4332     8.4850
  492.6000  -999.2500     8.4330     8.4330
  492.7000  -999.2500     8.4327     8.4327
  492.8000  -999.2500     8.3863     8.4325
  492.9000  -999.2500     8.3741     8.3997
  493.0000  -999.2500     8.3442     8.3496
  493.1000  -999.2500     8.3158     8.3158
  493.2000  -999.2500     8.3156     8.3075
  493.3000  -999.2500     8.3154     8.2580
  493.4000  -999.2500     8.3151     8.2577
  493.5000  -999.2500     8.2684     8.2163
  493.6000  -999.2500     8.2573     8.2003
  493.7000  -999.2500     8.2269     8.2001
  493.8000  -999.2500     8.1999     8.1999
  493.9000  -999.2500     8.1996     8.1996
  494.0000  -999.2500     8.1934     8.1979
  494.1000  -999.2500     8.1426     8.1426
  494.2000  -999.2500     8.1424     8.1424
  494.3000  -999.2500     8.1037     8.1421
  494.4000  -999.2500     8.0857     8.1419
  494.5000  -999.2500     8.0855     8.1417
  494.6000  -999.2500     8.0853     8.1307
  494.7000  -999.2500     8.0782     8.0850
  494.8000  -999.2500     8.0290     8.0848
  494.9000  -999.2500     7.9734     8.0846
  495.0000  -999.2500     7.9732     8.0844
  495.1000  -999.2500     7.9730     8.0842
  495.2000  -999.2500     7.9497     8.0839
  495.3000  -999.2500     7.9175     8.0717
  495.4000  -999.2500     7.9098     8.0277
  495.5000  -999.2500     7.8624     8.0275
  495.6000  -999.2500     7.8622     7.9831
  495.7000  -999.2500     7.8620     7.9716
  495.8000  -999.2500     7.8618     7.9429
  495.9000  -999.2500     7.8616     7.8955
  496.0000  -999.2500     7.8454     7.8613
  496.1000  -999.2500     7.7986     7.8502
  496.2000  -999.2500     7.7528     7.7528
  496.3000  -999.2500     7.7525     7.7526
  496.4000  -999.2500     7.7133     7.7523
  496.5000  -999.2500     7.6673     7.6942
  496.6000  -999.2500     7.6453     7.6240
  496.7000  -999.2500     7.6288     7.5784
  496.8000  -999.2500     7.5833     7.5397
  496.9000  -999.2500     7.5381     7.5395
  497.0000  -999.2500     7.4872     7.4872
  497.1000  -999.2500     7.4485     7.4505
  497.2000  -999.2500     7.4352     7.4352
  497.3000  -999.2500     7.3875     7.4130
  497.4000  -999.2500     7.3325     7.3687
  497.5000  -999.2500     7.3230     7.3323
  497.6000  -999.2500     7.2794     7.3321
  497.7000  -999.2500     7.2310     7.3319
  497.8000  -999.2500     7.2309     7.2947
  497.9000  -999.2500     7.1997     7.2809
  498.0000  -999.2500     7.1568     7.2579
  498.1000  -999.2500     7.1308     7.2302
  498.2000  -999.2500     7.1306     7.2300
  498.3000  -999.2500     7.1304     7.2281
  498.4000  -999.2500     7.1302     7.1797
  498.5000  -999.2500     7.1300     7.1796
  498.6000  -999.2500     7.1298     7.1488
  498.7000  -999.2500     7.1296     7.1533
  498.8000  -999.2500     7.1294     7.1790
  498.9000  -999.2500     7.1292     7.1887
  499.0000  -999.2500     7.1290     7.2285
  499.1000  -999.2500     7.1288     7.2282
  499.2000  -999.2500     7.1286     7.2673
  499.3000  -999.2500     7.1284     7.3105
  499.4000  -999.2500     7.1535     7.3284
  499.5000  -999.2500     7.1776     7.3282
  499.6000  -999.2500     7.1888     7.3394
  499.7000  -999.2500     7.2271     7.3831
  499.8000  -999.2500     7.2268     7.4298
  499.9000  -999.2500     7.2266     7.4296
  500.0000  -999.2500     7.2936     7.4985
  500.1000  -999.2500     7.3538     7.5328
  500.2000  -999.2500     7.3975     7.5734
  500.3000  -999.2500     7.4414     7.6507
  500.4000  -999.2500     7.4856     7.6962
  500.5000  -999.2500     7.5320     7.7435
  500.6000  -999.2500     7.6182     7.8513
  500.7000  -999.2500     7.6366     7.9268
  500.8000  -999.2500     7.6941     7.9909
  500.9000  -999.2500     7.7642     8.0385
  501.0000  -999.2500     7.8104     8.1017
  501.1000  -999.2500     7.8567     8.1909
  501.2000  -999.2500     7.9046     8.2399
  501.3000  -999.2500     7.9592     8.2969
  501.4000  -999.2500     7.9976     8.3796
  501.5000  -999.2500     8.0451     8.4459
  501.6000  -999.2500     8.1164     8.4962
  501.7000  -999.2500     8.1976     8.5645
  501.8000  -999.2500     8.2463     8.6478
  501.9000  -999.2500     8.2956     8.6499
  502.0000  -999.2500     8.3530     8.7678
  502.1000  -999.2500     8.3941     8.7676
  502.2000  -999.2500     8.4777     8.8040
  502.3000  -999.2500     8.5276     8.8564
  502.4000  -999.2500     8.5620     8.8892
  502.5000  -999.2500     8.6551     8.9003
  502.6000  -999.2500     8.7065     8.9532
  502.7000  -999.2500     8.7661     9.0124
  502.8000  -999.2500     8.7659     9.0601
  502.9000  -999.2500     8.8015     9.1140
  503.0000  -999.2500     8.8538     9.1373
  503.1000  -999.2500     8.9254     9.1371
  503.2000  -999.2500     9.0112     9.1500
  503.3000  -999.2500     9.0124     9.2045
  503.4000  -999.2500     9.0732     9.2637
  503.5000  -999.2500     9.1199     9.2635
  503.6000  -999.2500     9.1741     9.3473
  503.7000  -999.2500     9.2286     9.3922
  503.8000  -999.2500     9.2627     9.3919
  503.9000  -999.2500     9.2741     9.4068
  504.0000  -999.2500     9.3292     9.4628
  504.1000  -999.2500  -999.2500     9.5221
  504.2000  -999.2500  -999.2500     9.5218
  504.3000  -999.2500  -999.2500     9.5216
  504.4000  -999.2500  -999.2500     9.5568
  504.5000  -999.2500  -999.2500     9.6136
  504.6000  -999.2500  -999.2500     9.6536
  504.7000  -999.2500  -999.2500     9.6533
  504.8000  -999.2500  -999.2500     9.6530
  504.9000  -999.2500  -999.2500     9.7198
  505.0000  -999.2500  -999.2500     9.7668
  505.1000  -999.2500  -999.2500     9.7868
  505.2000  -999.2500  -999.2500     9.8152
  505.3000  -999.2500  -999.2500     9.8543
  505.4000  -999.2500  -999.2500     9.8638
  505.5000  -999.2500  -999.2500     9.9222
  505.6000  -999.2500  -999.2500     9.9219
  505.7000  -999.2500  -999.2500     9.9217
  505.8000  -999.2500  -999.2500     9.9214
  505.9000  -999.2500  -999.2500     9.9211
  506.0000  -999.2500  -999.2500     9.9208
  506.1000  -999.2500  -999.2500     9.9321
  506.2000  -999.2500  -999.2500     9.9892
  506.3000  -999.2500  -999.2500     9.9889
  506.4000  -999.2500  -999.2500     9.9887
  506.5000  -999.2500  -999.2500     9.9884
  506.6000  -999.2500  -999.2500     9.9881
  506.7000  -999.2500  -999.2500     9.9879
  506.8000  -999.2500  -999.2500     9.9876
  506.9000  -999.2500  -999.2500     9.9873
  507.0000  -999.2500  -999.2500     9.9870
  507.1000  -999.2500  -999.2500     9.9867
  507.2000  -999.2500  -999.2500     9.9865
  507.3000  -999.2500  -999.2500     9.9862
  507.4000  -999.2500  -999.2500     9.9859
  507.5000  -999.2500  -999.2500     9.9856
  507.6000  -999.2500  -999.2500     9.9854
  507.7000  -999.2500  -999.2500     9.9851
  507.8000  -999.2500  -999.2500     9.9848
  507.9000  -999.2500  -999.2500     9.9845
  508.0000  -999.2500  -999.2500     9.9843
