~VERSION INFORMATION
 VERS.                2.0:   CWLS LOG ASCII STANDARD - VERSION 2.0
 WRAP.                 NO:   ONE LINE PER DEPTH STEP
~WELL INFORMATION
#MNEM.UNIT      DATA TYPE    INFORMATION
#----------   ------------   ------------------------------
 STRT.F           12.5000:   START DEPTH
 STOP.F          604.0000:   STOP DEPTH
 STEP.F            0.5000:   STEP LENGTH
 NULL.          -999.2500:   NO VALUE
 COMP. FENIX & SCISSON INC:   COMPANY
 WELL.   SX-3 NPR 3 #61-3:   WELL
 FLD .             TEAPOT:   FIELD
 LOC .       S3 T38N R78W:   LOCATION
 CNTY.            NATRONA:   COUNTY
 STAT.            WYOMING:   STATE
 CTRY. UNITED STATES OF AMERICA:   COUNTRY
 SRVC.           BIRDWELL:   SERVICE COMPANY
 DATE.        03-DEC-1978:   LOGDATE
 API .       490251074100:   API NUMBER
~CURVE INFORMATION
#MNEM.UNIT       API CODE    CURVE DESCRIPTION
#----------   ------------   ------------------------------
 DEPT.F                  :   
 SPR .MV     05 010 01 00:   SPONTANEOUS POTENTIAL FROM RES.
 SN  .OHMM   05 040 16 00:   SHORT NORMAL 16"
 IL  .OHMM   05 120 00 00:   INDUCTION LOG
 CALD.IN     45 280 60 00:   CALIPER
 GRD .GAPI   45 310 01 00:   GAMMA RAY FROM DENSITY LOG
 DEN .G/C3   45 350 01 00:   COMPENSATED BULK DENSTIY
 CORR.G/C3   45 356 01 00:   DENSITY CORRECTION
 DPHI.DEC    45 890 12 00:   DENSITY POROSITY SANDSTONE
~PARAMETER INFORMATION
#MNEM.UNIT          VALUE    DESCRIPTION
#----------   ------------   ------------------------------
 PD  .                 GL:   PERMANENT DATUM
 EPD .F              5099:   ELEVATION PERMANENT DATUM
 LMF .                 KB:   LOG MEASURED FROM
 DAPD.F                 4:   FEET ABOVE PERMANENT DATUM
 DMF .                 KB:   DRILLING MEASURED FROM
 EKB .F              5103:   KELLING BUSHING
 EGL .F              5099:   GROUND LEVEL
 DATE.            12-3-78:   RUN DATE
 RUN .                  1:   RUN NUMBER
 DD  .F               615:   DEPTH DRILLER
 DL  .F               604:   DEPTH LOGGER
 BLI .F               598:   BOTTOM LOG INTERVAL
 TLI .F                40:   TOP LOG INTERVAL
 CS  .IN            8.625:   CASING SIZE
 CBL .F                35:   CASING BOTTOM LOGGER
 BS  .IN            7.875:   BIT SIZE
 BSD .F               615:   BIT SIZE AT DEPTH
 DFT .                KCL:   DRILLING FLUID TYPE
 DFD .                8.8:   DRILLING FLUID DENSITY
 DFV .                 42:   DRILLING FLUID VISCOSITY
 DFPH.               12.2:   DRILLING FLUID PH
 DFL .                 10:   DRILLING FLUID LOSS
 MSS .           FLOWLINE:   MUD SAMPLE SOURCE
 RMS .OHMM            .24:   RESISTIVITY MUD SAMPLE
 MST .F                58:   MUD SAMPLE TEMPERATURE
 RMF .OHMM             .3:   RESISTIVITY MUD FILTRATE SAMPLE
 MFST.F                54:   MUD FILTRATE SAMPLE TEMPERATURE
 RMC .OHMM            .34:   RESISTIVITY MUD CAKE
 MCST.F                56:   MUD CAKE SAMPLE TEMPERATURE
 MFSS.           MEASURED:   MUD FILTRATE SAMPLE SOURCE
 MCSS.           MEASURED:   MUD CAKE SAMPLE SOURCE
 RMB .OHMM            .27:   RESISTIVITY MUD AT BHT
 BHT .F                56:   BOTTOM HOLE TEMPERATURE
 TCS .HRS               3:   TIME CURCULATED STOPPED
 MRT .F                52:   MAXIMUM RECORDED TEMPERATURE
 LUN .               2958:   LOGGING UNIT NUMBER
 LUL .                CPR:   LOGGING UNIT LOCATION
 ENGI.            ROLLINS:   RECORDING ENGINEER
 WITN.              AMEND:   WITNESSED BY
 CLNT.            A2DTECH:   CLIENT CODE
 ORIG.       2", 5" PRINT:   ORIGIN OF DATA
 UWI .       490251074100:   UNIQUE WELL ID
 DICO. A2D Technologies, Inc.:   DIGITIZING COMPANY
~OTHER INFORMATION
~A   DEPT      SPR         SN         IL       CALD         GRD       DEN       CORR       DPHI   
# ...
  336.5000   -53.6230     8.9439     7.6282     8.0808   109.5208     2.4736     0.0105     0.1272
  337.0000   -53.8668     8.8886     7.5164     8.0808   112.7524     2.4786     0.0063     0.1336
  337.5000   -54.1101     8.8337     7.3532     8.0808   108.6975     2.4706     0.0037     0.1435
  338.0000   -54.3115     8.7333     7.0915     8.0808   105.9915     2.4591     0.0046     0.1534
  338.5000   -54.2170     8.4303     6.8391     8.0808   106.8134     2.4426     0.0053     0.1633
  339.0000   -54.1209     8.1393     6.5797     8.0808   108.7949     2.4262     0.0077     0.1732
  339.5000   -54.3885     7.8581     6.2896     8.0808   107.4375     2.4097     0.0104     0.1810
  340.0000   -54.7105     7.5868     6.0122     8.0808   104.5938     2.3932     0.0132     0.1867
  340.5000   -55.0331     7.3248     5.5981     8.0808   103.5237     2.3691     0.0158     0.1923
  341.0000   -55.3546     7.0719     5.0210     8.0811   107.2524     2.3425     0.0168     0.2119
  341.5000   -55.6764     6.6460     4.5012     8.0823   105.1674     2.3159     0.0148     0.2353
  342.0000   -55.9999     6.2222     4.0356     8.0835   101.7830     2.2892     0.0130     0.2588
  342.5000   -56.3151     5.6720     3.6182     8.0848    99.3531     2.2625     0.0111     0.2699
  343.0000   -56.3276     5.1294     3.2596     8.0860    99.2411     2.2411     0.0094     0.2597
  343.5000   -56.3256     4.6386     2.9549     8.0872   100.0673     2.2731     0.0095     0.2342
  344.0000   -56.3253     4.1946     2.9283     8.0884   104.4283     2.3153     0.0123     0.2135
  344.5000   -56.3253     3.7901     2.9128     8.0897   109.9135     2.3392     0.0188     0.2095
  345.0000   -56.3253     3.6525     2.8999     8.0909   114.7381     2.3413     0.0211     0.1957
  345.5000   -56.3253     3.6526     2.8998     8.0921   111.7294     2.3518     0.0128     0.1787
  346.0000   -56.3253     3.7352     3.0642     8.0933   107.1095     2.3900     0.0048     0.1616
  346.5000   -56.3253     3.8947     3.5426     8.0946   105.3970     2.4279     0.0016     0.1451
  347.0000   -56.3253     4.0610     3.9198     8.0958   108.3580     2.4576     0.0017     0.1439
  347.5000   -56.3253     4.3333     4.2013     8.0970   113.5949     2.4582     0.0019     0.1432
  348.0000   -56.3253     4.6911     4.5084     8.0982   117.3525     2.4552     0.0021     0.1432
  348.5000   -56.3253     4.9105     4.8264     8.0995   117.0653     2.4522     0.0023     0.1461
  349.0000   -56.3253     5.3370     5.1699     8.1007   114.1043     2.4492     0.0025     0.1491
  349.5000   -56.3253     6.0248     5.5378     8.1019   112.1518     2.4471     0.0026     0.1449
  350.0000   -56.3253     6.8014     5.9319     8.1031   112.0395     2.4528     0.0028     0.1397
  350.5000   -56.3253     7.1729     6.1304     8.1044   113.2361     2.4583     0.0030     0.1348
  351.0000   -56.3253     7.2395     6.1304     8.1056   113.6936     2.4639     0.0032     0.1340
  351.5000   -56.3253     7.3067     6.1305     8.1068   113.6155     2.4683     0.0034     0.1336
  352.0000   -56.3253     7.3067     6.1304     8.1080   113.5242     2.4697     0.0036     0.1340
  352.5000   -56.3253     7.3164     6.1306     8.1092   113.4357     2.4693     0.0038     0.1445
  353.0000   -56.3253     7.3305     6.1315     8.1105   113.3671     2.4590     0.0040     0.1625
  353.5000   -56.3253     7.3446     6.1322     8.1117   113.1465     2.4298     0.0042     0.1813
  354.0000   -56.3252     7.3593     6.0202     8.1129   113.6310     2.3977     0.0044     0.2001
  354.5000   -56.3251     7.3672     5.4114     8.1141   115.3039     2.3659     0.0046     0.2047
  355.0000   -56.3303     7.3745     4.9337     8.1154   115.7019     2.3486     0.0047     0.1923
  355.5000   -56.3737     7.1122     4.7007     8.1166   113.4866     2.3813     0.0049     0.1721
  356.0000   -56.4175     6.7861     4.5447     8.1178   112.2681     2.4079     0.0051     0.1581
  356.5000   -56.4611     6.2298     4.4909     8.1190   113.4756     2.4316     0.0053     0.1498
  357.0000   -56.5047     5.6937     4.4568     8.1203   114.0474     2.4374     0.0055     0.1415
  357.5000   -56.5483     5.5894     4.4230     8.1190   117.3521     2.4491     0.0046     0.1336
  358.0000   -56.5919     5.5894     4.3960     8.1160   120.4588     2.4608     0.0036     0.1328
  358.5000   -56.6355     5.6413     4.7472     8.1130   119.0881     2.4693     0.0027     0.1333
  359.0000   -56.6792     5.9432     5.0624     8.1100   117.4391     2.4697     0.0017     0.1340
  359.5000   -56.7228     6.2466     5.3986     8.1070   115.8308     2.4695     0.0008     0.1348
  360.0000   -56.7268     6.5660     5.7572     8.1040   115.5457     2.4681    -0.0002     0.1355
  360.5000   -56.7294     6.9015     6.1399     8.1010   115.3124     2.4667    -0.0011     0.1360
  361.0000   -56.4785     7.2540     6.5485     8.0979   114.0171     2.4653    -0.0020     0.1356
  361.5000   -56.0705     7.6001     6.9720     8.0949   113.1739     2.4641    -0.0004     0.1348
  362.0000   -55.6590     7.9027     7.1162     8.0919   113.9113     2.4661     0.0038     0.1313
  362.5000   -55.2468     8.2173     7.1789     8.0889   113.8281     2.4730     0.0078     0.1256
  363.0000   -54.8363     8.5444     7.1710     8.0859   113.9136     2.4799     0.0155     0.1259
  363.5000   -54.5049     8.7894     7.1155     8.0829   115.7820     2.4829     0.0131     0.1277
  364.0000   -54.4846     8.8710     7.0693     8.0799   117.8526     2.4808     0.0120     0.1309
  364.5000   -54.4582     8.8719     7.0233     8.0769   119.3060     2.4741     0.0173     0.1366
  365.0000   -54.4316     8.7321     6.9777     8.0739   119.7574     2.4674     0.0182     0.1379
  365.5000   -54.4048     8.6150     6.9324     8.0709   119.6555     2.4618     0.0190     0.1345
  366.0000   -54.3779     8.4994     6.8874     8.0679   119.0300     2.4663     0.0181     0.1328
  366.5000   -54.3511     8.3855     6.8331     8.0649   118.5298     2.4715     0.0120     0.1328
  367.0000   -54.3233     8.2322     6.7241     8.0618   118.5300     2.4731     0.0098     0.1335
  367.5000   -54.3172     8.0168     6.5228     8.0619   118.9444     2.4728     0.0078     0.1347
  368.0000   -54.3167     7.8069     6.2042     8.0635   119.4310     2.4671     0.0059     0.1429
  368.5000   -54.3140     7.6026     5.9012     8.0651   119.5418     2.4558     0.0039     0.1566
  369.0000   -54.3356     7.3768     5.6128     8.0667   119.5371     2.4448     0.0019     0.1702
  369.5000   -54.7195     7.1362     5.3374     8.0682   120.1082     2.4220     0.0000     0.1838
  370.0000   -55.0938     6.9035     5.1700     8.0698   121.0104     2.3943    -0.0021     0.1956
  370.5000   -55.4652     6.6784     5.0466     8.0714   121.3096     2.3669    -0.0024     0.1848
  371.0000   -55.8374     6.4606     5.0524     8.0730   120.8213     2.3667    -0.0023     0.1733
  371.5000   -56.2092     6.2499     5.0449     8.0745   120.3636     2.3912    -0.0022     0.1619
  372.0000   -56.5355     6.1304     5.1913     8.0761   119.9097     2.4164    -0.0021     0.1505
  372.5000   -56.5272     6.1988     5.2881     8.0777   119.4543     2.4414    -0.0019     0.1395
  373.0000   -56.5272     6.3612     5.5131     8.0793   118.9998     2.4569    -0.0018     0.1388
  373.5000   -56.5204     6.7520     5.9410     8.0808   118.9419     2.4611    -0.0017     0.1379
  374.0000   -56.3900     7.2007     6.4020     8.0824   118.9512     2.4624    -0.0016     0.1352
  374.5000   -56.2608     7.6782     6.8989     8.0840   118.9080     2.4643    -0.0015     0.1326
  375.0000   -56.1327     8.0509     7.1729     8.0856   117.2885     2.4701    -0.0014     0.1308
  375.5000   -56.0046     8.2390     7.1776     8.0871   115.5560     2.4752    -0.0013     0.1300
  376.0000   -55.8765     8.2970     7.1843     8.0887   114.6025     2.4753    -0.0012     0.1296
  376.5000   -55.7484     8.4009     7.1909     8.0903   114.0199     2.4755    -0.0010     0.1300
