~VERSION INFORMATION
 VERS.                2.0:   CWLS LOG ASCII STANDARD - VERSION 2.0
 WRAP.                 NO:   ONE LINE PER DEPTH STEP
~WELL INFORMATION
#MNEM.UNIT      DATA TYPE    INFORMATION
#----------   ------------   ------------------------------
 STRT.F            5.0000:   START DEPTH
 STOP.F          610.0000:   STOP DEPTH
 STEP.F            0.5000:   STEP LENGTH
 NULL.          -999.2500:   NO VALUE
 COMP. FENIX & SCISSON INC:   COMPANY
 WELL.        NPR 3 #25-3:   WELL
 FLD .        TEAPOT DOME:   FIELD
 LOC .       S3 T38N R78W:   LOCATION
 CNTY.            NATRONA:   COUNTY
 STAT.            WYOMING:   STATE
 CTRY. UNITED STATES OF AMERICA:   COUNTRY
 SRVC.           BIRDWELL:   SERVICE COMPANY
 DATE.        28-SEP-1978:   LOGDATE
 API .       490251068900:   API NUMBER
~CURVE INFORMATION
#MNEM.UNIT       API CODE    CURVE DESCRIPTION
#----------   ------------   ------------------------------
 DEPT.F                  :   
 SPR .MV     05 010 01 00:   SPONTANEOUS POTENTIAL FROM RES.
 IL  .OHMM   05 120 00 00:   INDUCTION LOG
 SN  .OHMM   05 040 16 00:   SHORT NORMAL 16"
 CALD.IN     45 280 60 00:   CALIPER
 GRD .GAPI   45 310 01 00:   GAMMA RAY FROM DENSITY LOG
 CORR.G/C3   45 356 01 00:   DENSITY CORRECTION
 DEN .G/C3   45 350 01 00:   COMPENSATED BULK DENSTIY
 DPHI.DEC    45 890 12 00:   DENSITY POROSITY SANDSTONE
~PARAMETER INFORMATION
#MNEM.UNIT          VALUE    DESCRIPTION
#----------   ------------   ------------------------------
 PD  .                 GL:   PERMANENT DATUM
 EPD .F              5249:   ELEVATION PERMANENT DATUM
 LMF .                 KB:   LOG MEASURED FROM
 DAPD.F                 4:   FEET ABOVE PERMANENT DATUM
 DMF .                 KB:   DRILLING MEASURED FROM
 EKB .F              5253:   KELLING BUSHING
 EGL .F              5249:   GROUND LEVEL
 DATE.            9-28-78:   RUN DATE
 RUN .                  1:   RUN NUMBER
 DD  .F               616:   DEPTH DRILLER
 DL  .F               613:   DEPTH LOGGER
 BLI .F               607:   BOTTOM LOG INTERVAL
 TLI .F                40:   TOP LOG INTERVAL
 BS  .IN            7.875:   BIT SIZE
 BSD .F               616:   BIT SIZE AT DEPTH
 DFT .                KCL:   DRILLING FLUID TYPE
 DFD .                8.7:   DRILLING FLUID DENSITY
 DFV .                 33:   DRILLING FLUID VISCOSITY
 DFPH.                  9:   DRILLING FLUID PH
 DFL .                  5:   DRILLING FLUID LOSS
 MSS .            MUD PIT:   MUD SAMPLE SOURCE
 RMS .OHMM            .14:   RESISTIVITY MUD SAMPLE
 MST .F                65:   MUD SAMPLE TEMPERATURE
 RMF .OHMM            2.1:   RESISTIVITY MUD FILTRATE SAMPLE
 MFST.F                65:   MUD FILTRATE SAMPLE TEMPERATURE
 RMC .OHMM            .32:   RESISTIVITY MUD CAKE
 MCST.F                65:   MUD CAKE SAMPLE TEMPERATURE
 MFSS.               MEAS:   MUD FILTRATE SAMPLE SOURCE
 TCS .HRS               2:   TIME CURCULATED STOPPED
 LUN .               2958:   LOGGING UNIT NUMBER
 LUL .               CASP:   LOGGING UNIT LOCATION
 ENGI.            ROLLINS:   RECORDING ENGINEER
 WITN.              AMEND:   WITNESSED BY
 CLNT.            A2DTECH:   CLIENT CODE
 ORIG.           5" PRINT:   ORIGIN OF DATA
 UWI .       490251068900:   UNIQUE WELL ID
 DICO. A2D Technologies, Inc.:   DIGITIZING COMPANY
~OTHER INFORMATION
~A    DEPT     SPR         IL         SN         CALD       GRD      CORR        DEN       DPHI   
# ...
  126.5000   -21.4838     9.3303     7.7918     7.8988   108.3104     0.0008     2.4646     0.1358
  127.0000   -21.8397     9.0967     7.6362     7.8542   111.1308    -0.0006     2.4597     0.1358
  127.5000   -22.1947     8.8690     7.4837     7.8088   114.3198    -0.0052     2.4606     0.1354
  128.0000   -22.5495     8.4125     7.3361     7.8168   117.1857    -0.0110     2.4628     0.1331
  128.5000   -22.9041     7.6716     7.2689     7.8265   116.9735    -0.0142     2.4650     0.1319
  129.0000   -23.2560     7.0710     7.2689     7.8513   115.8488    -0.0114     2.4639     0.1359
  129.5000   -23.6036     6.9566     7.2689     7.8340   114.7708    -0.0086     2.4601     0.1378
  130.0000   -23.9487     6.9421     7.1962     7.8013   114.8760    -0.0059     2.4575     0.1386
  130.5000   -24.2936     7.0523     7.1255     7.8873   117.3394    -0.0031     2.4575     0.1390
  131.0000   -24.6388     7.1891     7.0710     7.8689   119.9541    -0.0024     2.4575     0.1378
  131.5000   -24.9817     7.4039     7.2066     7.9311   122.5792    -0.0018     2.4576     0.1354
  132.0000   -25.2620     7.8166     7.3747     7.9915   124.0890    -0.0012     2.4625     0.1262
  132.5000   -25.4201     8.3196     7.5466     8.0399   124.0693    -0.0005     2.4772     0.1163
  133.0000   -25.5873     8.8551     7.6111     8.0818   123.9763     0.0001     2.4880     0.1143
  133.5000   -25.7574     9.4050     7.5950     8.1104   124.5372     0.0007     2.4962     0.1158
  134.0000   -26.0644     9.5796     7.5837     8.1137   126.2378     0.0010     2.4911     0.1214
  134.5000   -26.5650     9.3867     7.5724     8.1174   126.3541     0.0011     2.4819     0.1232
  135.0000   -26.8618     9.1611     7.5612     8.1211   124.2840     0.0043     2.4804     0.1235
  135.5000   -26.8903     8.9409     7.5499     8.1248   122.2037     0.0076     2.4796     0.1238
  136.0000   -26.9216     8.7260     7.5150     8.1285   122.1603     0.0109     2.4787     0.1223
  136.5000   -26.9521     8.5162     7.4075     8.1322   123.0515     0.0130     2.4788     0.1165
  137.0000   -26.9829     8.3116     7.3016     8.1359   124.2137     0.0118     2.4895     0.1134
  137.5000   -27.0137     8.1118     7.2023     8.1396   128.7350     0.0106     2.4990     0.1142
  138.0000   -27.0444     7.8849     7.1888     8.1433   131.3558     0.0094     2.4952     0.1201
  138.5000   -27.0752     7.6448     7.1681     8.1470   132.3894     0.0082     2.4871     0.1254
  139.0000   -27.1060     7.4138     7.1475     8.1507   133.9676     0.0070     2.4790     0.1248
  139.5000   -27.1367     7.3361     7.1364     8.1544   135.5727     0.0068     2.4764     0.1239
  140.0000   -27.1673     7.3482     7.1364     8.1580   135.7856     0.0066     2.4783     0.1230
  140.5000   -27.1983     7.3623     7.1363     8.1617   136.1136     0.0063     2.4812     0.1207
  141.0000   -27.2310     7.3765     7.1375     8.1655   136.6002     0.0061     2.4841     0.1178
  141.5000   -27.3613     7.3907     7.1339     8.1689   137.0252     0.0059     2.4871     0.1183
  142.0000   -27.6131     7.4039     7.3056     8.1690   136.8311     0.0057     2.4869     0.1180
  142.5000   -27.8626     7.6929     7.4241     8.1690   134.4957     0.0055     2.4865     0.1154
  143.0000   -28.0384     7.8965     7.5443     8.1690   131.8088     0.0053     2.4887     0.1148
  143.5000   -27.8552     7.8987     7.6663     8.1690   129.1047     0.0051     2.4917     0.1141
  144.0000   -27.4082     7.9070     7.6923     8.1690   126.7604     0.0026     2.4946     0.1121
  144.5000   -26.9085     7.9153     7.7044     8.1690   124.7951    -0.0002     2.4975     0.1106
  145.0000   -26.6495     7.9236     7.7167     8.1690   124.5955    -0.0029     2.4968     0.1170
  145.5000   -26.7235     7.9319     7.7289     8.1690   124.8462    -0.0050     2.4890     0.1214
  146.0000   -26.7948     7.9402     7.7412     8.1690   125.0848    -0.0045     2.4815     0.1214
  146.5000   -26.8474     7.9485     7.7532     8.1690   125.3184    -0.0041     2.4797     0.1190
  147.0000   -26.8464     7.9569     7.7791     8.1690   125.1325    -0.0037     2.4841     0.1166
  147.5000   -26.8466     7.9649     7.8035     8.1690   124.6703    -0.0034     2.4884     0.1154
  148.0000   -26.8475     7.9878     7.8280     8.1690   124.2501    -0.0029     2.4916     0.1157
  148.5000   -26.8356     8.0244     7.8527     8.1690   122.4201    -0.0003     2.4897     0.1162
  149.0000   -26.6588     8.0614     7.8774     8.1690   120.4568     0.0022     2.4907     0.1075
  149.5000   -26.8901     8.0986     7.9022     8.1690   118.5283     0.0047     2.4999     0.1074
  150.0000   -27.1748     8.1360     7.9270     8.1690   118.2063     0.0070     2.5030     0.1067
  150.5000   -27.2446     8.1736     7.9522     8.1690   120.2014     0.0066     2.5015     0.1043
  151.0000   -27.2463     8.2113     7.9693     8.1690   122.7146     0.0063     2.5075     0.1017
  151.5000   -27.2456     8.2492     7.9696     8.1690   123.5270     0.0059     2.5142     0.0990
  152.0000   -27.2455     8.2686     7.9695     8.1690   123.9989     0.0056     2.5174     0.0990
  152.5000   -27.2455     8.2387     7.9696     8.1691   126.1992     0.0052     2.5160     0.1050
  153.0000   -27.2455     8.2189     7.9699     8.1671   127.3691     0.0036     2.5120     0.1058
  153.5000   -27.2455     8.1992     7.9541     8.1645   128.0752    -0.0012     2.5081     0.1070
  154.0000   -27.2455     8.1796     7.9369     8.1618   128.8918    -0.0059     2.5042     0.1105
  154.5000   -27.2455     8.1600     7.9198     8.1592   131.5359    -0.0108     2.5013     0.1216
  155.0000   -27.2469     8.1405     7.9027     8.1565   134.2188    -0.0110     2.4913     0.1230
  155.5000   -27.2583     8.1210     7.8857     8.1539   136.9907    -0.0110     2.4809     0.1232
  156.0000   -26.8646     8.1016     7.8687     8.1512   137.5751    -0.0110     2.4784     0.1185
  156.5000   -26.8187     8.0822     7.8518     8.1486   137.4399    -0.0110     2.4838     0.1137
  157.0000   -27.1605     8.0628     7.8348     8.1459   137.2795    -0.0112     2.4909     0.1134
  157.5000   -27.3150     8.0435     7.8180     8.1433   137.2623    -0.0115     2.4965     0.1130
  158.0000   -27.4214     8.0243     7.8011     8.1406   140.5339    -0.0118     2.4951     0.1100
  158.5000   -27.3975     8.0051     7.7843     8.1379   141.8217    -0.0120     2.4959     0.1052
  159.0000   -27.3324     7.9859     7.7674     8.1353   141.8573    -0.0123     2.5068     0.1003
  159.5000   -27.2656     7.9668     7.7513     8.1326   142.4793    -0.0126     2.5179     0.0966
  160.0000   -27.1989     7.9477     7.7247     8.1302   145.5691    -0.0129     2.5195     0.1017
  160.5000   -27.1324     7.9287     7.6992     8.0967   148.6670    -0.0113     2.5019     0.1131
  161.0000   -27.0659     7.9099     7.6738     8.0382   151.5406    -0.0081     2.4868     0.1206
  161.5000   -26.9993     7.8962     7.6484     7.9818   152.1390    -0.0049     2.4827     0.1176
  162.0000   -26.9329     7.9005     7.6111     7.9771   151.9751    -0.0016     2.4893     0.1126
  162.5000   -26.8621     7.9036     7.6815     7.9848   150.4928     0.0016     2.4997     0.1061
  163.0000   -26.9075     7.9067     7.6815     7.9612   148.2784     0.0023     2.5104     0.0998
  163.5000   -26.9914     7.9098     7.6815     7.9378   146.0572     0.0012     2.5205     0.0990
  164.0000   -27.0772     7.9130     7.6815     7.9340   144.8910     0.0000     2.5169     0.1017
  164.5000   -27.1628     7.9161     7.6815     7.9450   145.8281    -0.0011     2.5104     0.1086
  165.0000   -27.2484     7.9192     7.6815     7.9604   146.8355    -0.0023     2.5039     0.1138
  165.5000   -27.3336     7.9223     7.6815     7.9772   148.1311    -0.0035     2.4973     0.1123
  166.0000   -27.4258     7.9254     7.6815     7.9940   149.6772    -0.0046     2.4955     0.1080
  166.5000   -27.3131     7.9285     7.6815     8.0108   151.3616    -0.0058     2.5020     0.1037
