~VERSION INFORMATION
 VERS.                2.0:   CWLS LOG ASCII STANDARD - VERSION 2.0
 WRAP.                 NO:   ONE LINE PER DEPTH STEP
~WELL INFORMATION
#MNEM.UNIT      DATA TYPE    INFORMATION
#----------   ------------   ------------------------------
 STRT.F            0.0000:   START DEPTH
 STOP.F          890.0000:   STOP DEPTH
 STEP.F            0.1000:   STEP LENGTH
 NULL.          -999.2500:   NO VALUE
 COMP.   FLUOR DANIEL INC:   COMPANY
 WELL.   35-1 X 14 #35-14:   WELL
 FLD .             TEAPOT:   FIELD
 LOC .      S14 T38N R78W:   LOCATION
 CNTY.            NATRONA:   COUNTY
 STAT.            WYOMING:   STATE
 CTRY. UNITED STATES OF AMERICA:   COUNTRY
 SRVC.      Western Atlas:   SERVICE COMPANY
 DATE.        23-JUL-1995:   LOGDATE
 API .       490252273300:   API NUMBER
~CURVE INFORMATION
#MNEM.UNIT       API CODE    CURVE DESCRIPTION
#----------   ------------   ------------------------------
 DEPT.F                  :   
 RILM.OHMM   07 120 44 00:   RESITIVITY LONG MEDIUM
 RILD.OHMM   07 120 46 00:   INDUCTION LOG DEEP RESISTIVITY
 GRR .GAPI   07 310 01 00:   GAMMA RAY
~PARAMETER INFORMATION
#MNEM.UNIT          VALUE    DESCRIPTION
#----------   ------------   ------------------------------
 PD  .                 GL:   PERMANENT DATUM
 EPD .F              5238:   ELEVATION PERMANENT DATUM
 LMF .                 KB:   LOG MEASURED FROM
 DAPD.F                10:   FEET ABOVE PERMANENT DATUM
 DMF .                 KB:   DRILLING MEASURED FROM
 EKB .F              5248:   KELLING BUSHING
 EDF .F              5247:   DRILLING FLOOR
 EGL .F              5238:   GROUND LEVEL
 DATE.        23-JUL-1995:   RUN DATE
 RUN .                  1:   RUN NUMBER
 DD  .F               898:   DEPTH DRILLER
 DL  .F               898:   DEPTH LOGGER
 BLI .F               890:   BOTTOM LOG INTERVAL
 CS  .IN            9.625:   CASING SIZE
 CBD .F                78:   CASING BOTTOM DRILLER
 CBL .F                80:   CASING BOTTOM LOGGER
 BS  .IN             8.75:   BIT SIZE
 BSD .F               898:   BIT SIZE AT DEPTH
 DFT .                AIR:   DRILLING FLUID TYPE
 MRT .F                94:   MAXIMUM RECORDED TEMPERATURE
 LUN .            HL 6530:   LOGGING UNIT NUMBER
 LUL .             CASPER:   LOGGING UNIT LOCATION
 ENGI.       VERRN RAUTIO:   RECORDING ENGINEER
 WITN.        GARY STRONG:   WITNESSED BY
 CLNT.            A2DTECH:   CLIENT CODE
 ORIG.           5" PRINT:   ORIGIN OF DATA
 UWI .       490252273300:   UNIQUE WELL ID
 DICO. A2D Technologies, Inc.:   DIGITIZING COMPANY
~OTHER INFORMATION
~A    DEPT    RILM       RILD         GRR  
# ...
  455.0000    10.2688    10.2242   110.9667
  455.1000    10.2697    10.2247   111.8042
  455.2000    10.1995    10.2253   112.8630
  455.3000    10.2002    10.2259   114.3278
  455.4000    10.2011    10.2188   115.2532
  455.5000    10.1680    10.1562   116.3021
  455.6000    10.1321    10.1568   117.0514
  455.7000    10.1330    10.1573   117.5770
  455.8000    10.1338    10.1263   118.1027
  455.9000    10.1347    10.0881   118.6000
  456.0000    10.0655    10.0887   118.8762
  456.1000    10.0661    10.0893   119.1280
  456.2000    10.0275    10.0346   119.1831
  456.3000     9.9981    10.0205   119.0169
  456.4000     9.9989    10.0211   118.7576
  456.5000     9.9877    10.0011   118.4108
  456.6000     9.9313     9.9499   117.8900
  456.7000     9.9322     9.9320   117.3691
  456.8000     9.8792     9.9141   116.7810
  456.9000     9.8650     9.8962   116.7831
  457.0000     9.8658     9.8783   116.7855
  457.1000     9.8666     9.8604   116.7879
  457.2000     9.8674     9.8425   116.7903
  457.3000     9.8595     9.8246   116.9244
  457.4000     9.8007     9.8199   117.4501
  457.5000     9.8017     9.8204   118.0062
  457.6000     9.8024     9.8210   118.5015
  457.7000     9.8032     9.8215   118.8211
  457.8000     9.8040     9.8221   119.0852
  457.9000     9.8066     9.8226   119.2242
  458.0000     9.8120     9.8233   119.2266
  458.1000     9.8174     9.8237   119.2290
  458.2000     9.8228     9.8243   119.2314
  458.3000     9.8282     9.8248   119.2342
  458.4000     9.8336     9.8254   119.2363
  458.5000     9.8390     9.8259   119.2387
  458.6000     9.8444     9.8264   119.3849
  458.7000     9.8498     9.8270   119.5678
  458.8000     9.8552     9.8276   119.6263
  458.9000     9.8606     9.8281   119.6847
  459.0000     9.8660     9.8286   119.7432
  459.1000     9.8714     9.8292   119.8017
  459.2000     9.8768     9.8297   119.8598
  459.3000     9.8822     9.8303   119.8626
  459.4000     9.8856     9.8308   119.6419
  459.5000     9.8864     9.8314   119.5650
  459.6000     9.8872     9.8320   119.4256
  459.7000     9.8880     9.8233   119.2677
  459.8000     9.8890     9.8127   119.1484
  459.9000     9.8897     9.8021   118.6275
  460.0000     9.8905     9.7915   118.0667
  460.1000     9.8913     9.7809   117.5859
  460.2000     9.8922     9.7703   117.0651
  460.3000     9.8930     9.7677   116.2232
  460.4000     9.8938     9.7682   115.1792
  460.5000     9.8947     9.7687   114.1350
  460.6000     9.8955     9.7856   113.0907
  460.7000     9.8963     9.8379   112.0411
  460.8000     9.8971     9.8385   111.4397
  460.9000     9.8979     9.8391   110.1233
  461.0000     9.8988     9.8396   108.9145
  461.1000     9.8996     9.8401   108.2866
  461.2000     9.9004     9.8080   108.0274
  461.3000     9.9013     9.7731   107.8260
  461.4000     9.8492     9.7583   107.8284
  461.5000     9.8343     9.7064   107.8310
  461.6000     9.8004     9.7071   107.8332
  461.7000     9.7678     9.6405   107.8357
  461.8000     9.7518     9.6409   107.9956
  461.9000     9.7016     9.6019   108.2597
  462.0000     9.7026     9.5443   108.6003
  462.1000     9.6363     9.5095   109.1259
  462.2000     9.6370     9.5100   109.6605
  462.3000     9.5981     9.5049   110.8717
  462.4000     9.5718     9.4453   111.9572
  462.5000     9.5505     9.4459   113.4439
  462.6000     9.5071     9.4001   114.7447
  462.7000     9.5079     9.3814   115.6031
  462.8000     9.5087     9.3820   116.1288
  462.9000     9.4561     9.3613   116.6403
  463.0000     9.4444     9.3181   116.9308
  463.1000     9.4452     9.3186   116.9329
  463.2000     9.4460     9.3191   116.9353
  463.3000     9.4279     9.3196   116.9378
  463.4000     9.3819     9.3201   116.9402
  463.5000     9.3828     9.2841   116.9426
  463.6000     9.3187     9.2566   116.9450
  463.7000     9.2700     9.2572   116.9475
  463.8000     9.2150     9.2457   116.9503
  463.9000     9.1923     9.1941   116.9523
  464.0000     9.1693     9.1947   117.1279
  464.1000     9.1301     9.1438   117.3920
  464.2000     9.1238     9.1320   117.6560
  464.3000     9.0684     9.1325   117.9200
  464.4000     9.0693     9.1060   118.1954
  464.5000     9.0699     9.0703   118.7797
  464.6000     9.0336     9.0708   119.0143
  464.7000     9.0086     9.0684   119.2783
  464.8000     9.0093     9.0091   119.6938
  464.9000     8.9978     9.0095   120.1085
  465.0000     8.9484     9.0100   120.3726
  465.1000     8.9492     8.9768   120.6066
  465.2000     8.9499     8.9486   120.6092
  465.3000     8.9507     8.9491   120.6120
  465.4000     8.9514     8.9397   120.4032
  465.5000     8.9522     8.8882   120.1440
  465.6000     8.9529     8.8887   119.7551
  465.7000     8.9537     8.9375   119.1450
  465.8000     8.9544     8.9516   118.2651
  465.9000     8.9552     8.9521   116.9841
  466.0000     8.9559     8.9776   116.3991
  466.1000     8.9566     9.0155   115.9425
  466.2000     8.9574     9.0069   115.4217
  466.3000     8.9581     8.9529   114.9008
  466.4000     8.9589     8.8927   114.5958
  466.5000     8.9596     8.8459   114.5307
  466.6000     8.9604     8.8321   114.2982
  466.7000     8.8992     8.8011   114.6031
  466.8000     8.8998     8.7484   114.8536
  466.9000     8.8645     8.7117   115.3253
  467.0000     8.8396     8.7121   115.6838
  467.1000     8.8206     8.7126   116.2012
  467.2000     8.7799     8.7132   116.8161
  467.3000     8.7769     8.6682   117.0344
  467.4000     8.7205     8.6538   117.0369
  467.5000     8.6729     8.6542   117.0396
  467.6000     8.6615     8.6547   117.0417
  467.7000     8.6623     8.6552   117.0441
  467.8000     8.6385     8.6557   116.9011
  467.9000     8.6037     8.6562   116.4320
  468.0000     8.6044     8.6567   115.7140
  468.1000     8.6051     8.6128   115.1932
  468.2000     8.6059     8.5977   114.6394
  468.3000     8.5616     8.5692   113.9065
  468.4000     8.5476     8.5391   113.5332
  468.5000     8.5484     8.5258   113.2739
  468.6000     8.5491     8.4809   112.7673
  468.7000     8.5361     8.4814   112.2344
  468.8000     8.4912     8.4233   112.2369
  468.9000     8.4920     8.4237   112.2393
  469.0000     8.4928     8.4241   112.2420
  469.1000     8.4517     8.3970   112.2441
  469.2000     8.4353     8.3667   112.6123
  469.3000     8.4098     8.3672   113.1379
  469.4000     8.3782     8.3623   113.6636
  469.5000     8.3681     8.3102   114.1279
  469.6000     8.3215     8.3108   114.4337
  469.7000     8.3223     8.3111   115.2799
  469.8000     8.3230     8.3116   115.7664
  469.9000     8.2854     8.3121   116.2920
  470.0000     8.2667     8.2933   116.8177
  470.1000     8.2674     8.2554   117.2227
  470.2000     8.2525     8.2513   117.5669
  470.3000     8.2114     8.1992   118.0530
  470.4000     8.2122     8.1998   118.3178
  470.5000     8.2129     8.2001   118.6227
  470.6000     8.2135     8.1680   118.8451
  470.7000     8.2142     8.1443   119.2890
  470.8000     8.2149     8.1447   119.6753
  470.9000     8.2156     8.1452   120.0382
  471.0000     8.2163     8.1419   120.5056
  471.1000     8.2170     8.0897   120.7696
  471.2000     8.2177     8.0901   121.0564
  471.3000     8.2185     8.0906   121.2977
  471.4000     8.2190     8.0910   121.5617
  471.5000     8.2197     8.0915   121.6677
  471.6000     8.2204     8.0919   121.5525
  471.7000     8.2211     8.1025   121.2933
  471.8000     8.2218     8.1492   120.9609
  471.9000     8.2225     8.1497   120.1668
  472.0000     8.2232     8.1502   118.3569
  472.1000     8.2238     8.1889   117.0547
  472.2000     8.2245     8.2079   115.4873
  472.3000     8.2555     8.2083   114.0564
  472.4000     8.2833     8.2256   112.8466
  472.5000     8.2994     8.2665   111.8579
  472.6000     8.3424     8.2692   111.0904
  472.7000     8.3431     8.3250   110.5187
  472.8000     8.3439     8.3255   109.5767
  472.9000     8.3445     8.3259   108.9237
  473.0000     8.3452     8.3264   108.7130
  473.1000     8.3459     8.3269   108.9446
