~VERSION INFORMATION
 VERS.                2.0:   CWLS LOG ASCII STANDARD - VERSION 2.0
 WRAP.                 NO:   ONE LINE PER DEPTH STEP
~WELL INFORMATION
#MNEM.UNIT      DATA TYPE    INFORMATION
#----------   ------------   ------------------------------
 STRT.F           22.0000:   START DEPTH
 STOP.F          654.0000:   STOP DEPTH
 STEP.F            0.5000:   STEP LENGTH
 NULL.          -999.2500:   NO VALUE
 COMP. FENIX & SCISSON INC:   COMPANY
 WELL.     54 S 34 #54-34:   WELL
 FLD .             TEAPOT:   FIELD
 LOC .      S34 T39N R78W:   LOCATION
 CNTY.            NATRONA:   COUNTY
 STAT.            WYOMING:   STATE
 CTRY. UNITED STATES OF AMERICA:   COUNTRY
 SRVC.           BIRDWELL:   SERVICE COMPANY
 DATE.        22-AUG-1978:   LOGDATE
 API .       490251070100:   API NUMBER
~CURVE INFORMATION
#MNEM.UNIT       API CODE    CURVE DESCRIPTION
#----------   ------------   ------------------------------
 DEPT.F                  :   
 SPR .MV     05 010 01 00:   SPONTANEOUS POTENTIAL FROM RES.
 SN  .OHMM   05 040 16 00:   SHORT NORMAL 16"
 ILD .OHMM   05 120 46 00:   INDUCTION LOG DEEP
 CALD.IN     45 280 60 00:   CALIPER
 GRD .GAPI   45 310 01 00:   GAMMA RAY FROM DENSITY LOG
 DPHI.DEC    45 890 12 00:   DENSITY POROSITY SANDSTONE
 RHOB.G/C3   45 350 01 00:   BULK DENSITY
 CORR.G/C3   45 356 01 00:   DENSITY CORRECTION
~PARAMETER INFORMATION
#MNEM.UNIT          VALUE    DESCRIPTION
#----------   ------------   ------------------------------
 PD  .                 GL:   PERMANENT DATUM
 EPD .F              5085:   ELEVATION PERMANENT DATUM
 LMF .                 KB:   LOG MEASURED FROM
 DAPD.F                 4:   FEET ABOVE PERMANENT DATUM
 DMF .                 KB:   DRILLING MEASURED FROM
 EKB .F              5089:   KELLING BUSHING
 EGL .F              5085:   GROUND LEVEL
 DATE.            8-22-78:   RUN DATE
 RUN .                  1:   RUN NUMBER
 DD  .F               685:   DEPTH DRILLER
 DL  .F               653:   DEPTH LOGGER
 BLI .F               646:   BOTTOM LOG INTERVAL
 TLI .F                30:   TOP LOG INTERVAL
 CS  .IN            8.625:   CASING SIZE
 CBD .F                46:   CASING BOTTOM DRILLER
 CBL .F                46:   CASING BOTTOM LOGGER
 BS  .IN            7.875:   BIT SIZE
 BSD .F               685:   BIT SIZE AT DEPTH
 DFT .                KCL:   DRILLING FLUID TYPE
 DFD .                8.7:   DRILLING FLUID DENSITY
 DFV .                 33:   DRILLING FLUID VISCOSITY
 DFPH.                  9:   DRILLING FLUID PH
 MSS .           FLOWLINE:   MUD SAMPLE SOURCE
 RMS .OHMM            .18:   RESISTIVITY MUD SAMPLE
 MST .F                86:   MUD SAMPLE TEMPERATURE
 RMF .OHMM            .16:   RESISTIVITY MUD FILTRATE SAMPLE
 MFST.F                86:   MUD FILTRATE SAMPLE TEMPERATURE
 RMC .OHMM            .52:   RESISTIVITY MUD CAKE
 MCST.F                86:   MUD CAKE SAMPLE TEMPERATURE
 MFSS.               MEAS:   MUD FILTRATE SAMPLE SOURCE
 MCSS.               MEAS:   MUD CAKE SAMPLE SOURCE
 BHT .F                70:   BOTTOM HOLE TEMPERATURE
 TCS .HRS               2:   TIME CURCULATED STOPPED
 MRT .F                70:   MAXIMUM RECORDED TEMPERATURE
 LUN .               2958:   LOGGING UNIT NUMBER
 LUL .               CASP:   LOGGING UNIT LOCATION
 ENGI.           REYNOLDS:   RECORDING ENGINEER
 WITN.              AMEND:   WITNESSED BY
 CLNT.            A2DTECH:   CLIENT CODE
 ORIG.           5" PRINT:   ORIGIN OF DATA
 UWI .       490251070100:   UNIQUE WELL ID
 DICO. A2D Technologies, Inc.:   DIGITIZING COMPANY
~OTHER INFORMATION
~A   DEPT      SPR         SN        ILD       CALD         GRD      DPHI       RHOB       CORR   
# ...
  184.0000   -36.0121     7.3085     4.8978     7.6557    95.6692     0.1296     2.4705     0.0165
  184.5000   -36.1089     7.3762     5.0363     7.6553    94.7971     0.1277     2.4740     0.0165
  185.0000   -36.2057     7.4445     5.1788     7.6549    93.9730     0.1268     2.4724     0.0165
  185.5000   -36.3024     7.5135     5.3254     7.6545    93.1069     0.1259     2.4721     0.0165
  186.0000   -36.3992     7.5831     5.4760     7.6541    93.8938     0.1250     2.4755     0.0165
  186.5000   -36.4960     7.6533     5.6322     7.6536    95.3189     0.1240     2.4769     0.0165
  187.0000   -36.5938     7.6962     5.6842     7.6533    95.6043     0.1288     2.4740     0.0165
  187.5000   -36.6266     7.6889     5.6839     7.6529    98.1083     0.1320     2.4685     0.0165
  188.0000   -36.6267     7.6837     5.6819     7.6525    98.9947     0.1308     2.4651     0.0165
  188.5000   -36.5993     7.6785     5.6873     7.6521    96.1363     0.1246     2.4699     0.0165
  189.0000   -36.4703     7.6733     5.5443     7.6516    96.7746     0.1180     2.4841     0.0165
  189.5000   -36.3451     7.6681     5.4564     7.6512    97.3574     0.1132     2.4969     0.0165
  190.0000   -36.2201     7.6629     5.3707     7.6508    95.5523     0.1155     2.4973     0.0165
  190.5000   -36.0951     7.6577     5.2865     7.6504    92.9985     0.1228     2.4811     0.0165
  191.0000   -35.9701     7.6525     5.2036     7.6500    92.8690     0.1222     2.4803     0.0165
  191.5000   -35.8451     7.6473     5.1220     7.6509    93.8909     0.1215     2.4818     0.0165
  192.0000   -35.7201     7.6421     5.0446     7.6518    95.0527     0.1235     2.4783     0.0165
  192.5000   -35.5950     7.6369     5.0446     7.6528    95.8661     0.1279     2.4733     0.0165
  193.0000   -35.4698     7.6320     5.0911     7.6537    97.6290     0.1316     2.4682     0.0165
  193.5000   -35.3446     7.6259     5.2236     7.6547    98.8932     0.1316     2.4667     0.0177
  194.0000   -35.2309     7.6653     5.3807     7.6557    96.7657     0.1318     2.4656     0.0193
  194.5000   -35.2289     7.7118     5.5425     7.6566    93.7709     0.1336     2.4646     0.0209
  195.0000   -35.2294     7.7587     5.7092     7.6576    93.5685     0.1328     2.4631     0.0226
  195.5000   -35.2295     7.8059     5.8809     7.6586    95.7209     0.1291     2.4689     0.0242
  196.0000   -35.2295     7.8534     6.0578     7.6595    96.8066     0.1235     2.4783     0.0258
  196.5000   -35.2295     7.9012     6.2400     7.6605    97.5647     0.1188     2.4853     0.0274
  197.0000   -35.2295     7.9493     6.4277     7.6615    98.2827     0.1176     2.4858     0.0288
  197.5000   -35.2295     7.9841     6.6211     7.6624    97.4932     0.1157     2.4914     0.0295
  198.0000   -35.2295     7.9646     6.6445     7.6634    93.6280     0.1116     2.4980     0.0304
  198.5000   -35.2295     7.9493     6.6445     7.6643    93.5301     0.1104     2.4995     0.0282
  199.0000   -35.2295     7.9341     6.5334     7.6653    95.5183     0.1097     2.5012     0.0248
  199.5000   -35.2296     7.9189     6.3630     7.6663    93.3495     0.1087     2.5028     0.0215
  200.0000   -35.2296     7.9038     6.1970     7.6672    90.2615     0.1095     2.5040     0.0182
  200.5000   -35.2294     7.8886     6.0354     7.6682    88.7918     0.1148     2.4989     0.0149
  201.0000   -35.2208     7.8735     5.8779     7.6692    91.0589     0.1202     2.4889     0.0120
  201.5000   -35.1848     7.8585     5.7246     7.6701    92.3824     0.1255     2.4789     0.0125
  202.0000   -35.1504     7.8434     5.5753     7.6711    92.8495     0.1307     2.4688     0.0150
  202.5000   -35.1162     7.8284     5.4283     7.6720    93.5663     0.1360     2.4583     0.0177
  203.0000   -35.0816     7.8134     5.3285     7.6730    95.5954     0.1330     2.4586     0.0204
  203.5000   -35.0441     7.7986     5.3307     7.6740    97.6740     0.1272     2.4714     0.0203
  204.0000   -34.8639     7.7835     5.3298     7.6749    99.3392     0.1214     2.4844     0.0198
  204.5000   -34.5309     7.7672     5.4291     7.6759   100.0735     0.1166     2.4939     0.0192
  205.0000   -34.1983     7.8350     5.5297     7.6769   100.8142     0.1182     2.4918     0.0188
  205.5000   -34.0350     7.9111     5.8309     7.6778   101.5503     0.1198     2.4842     0.0182
  206.0000   -34.0320     7.9880     6.1189     7.6788   101.8503     0.1214     2.4816     0.0177
  206.5000   -34.0317     8.0655     6.4211     7.6797   100.5122     0.1224     2.4800     0.0172
  207.0000   -34.0319     8.1439     6.7059     7.6807    96.2224     0.1224     2.4835     0.0168
  207.5000   -34.0319     8.2230     6.8773     7.6817    93.0691     0.1195     2.4897     0.0182
  208.0000   -34.0320     8.3029     7.0370     7.6826    92.9235     0.1164     2.4982     0.0218
  208.5000   -34.0319     8.3592     7.2170     7.6836    92.8599     0.1068     2.5175     0.0252
  209.0000   -34.0317     8.3490     7.2186     7.6846    91.3866     0.0952     2.5369     0.0340
  209.5000   -34.0188     8.3286     7.2172     7.6855    87.5009     0.0837     2.5540     0.0460
  210.0000   -33.9925     8.3082     7.2170     7.6865    81.9251     0.0784     2.5607     0.0385
  210.5000   -33.9663     8.2879     7.2170     7.6874    84.5730     0.0896     2.5476     0.0300
  211.0000   -33.9400     8.2676     7.2170     7.6884    93.0646     0.1010     2.5305     0.0250
  211.5000   -33.9138     8.2474     7.2170     7.6894   101.2391     0.1125     2.5132     0.0224
  212.0000   -33.8875     8.2272     7.2172     7.6900   101.9042     0.1150     2.4963     0.0197
  212.5000   -33.8618     8.2071     7.2184     7.6900    98.7230     0.1140     2.4929     0.0171
  213.0000   -33.8385     8.1870     7.1518     7.6900    94.9307     0.1130     2.4954     0.0146
  213.5000   -33.6742     8.1670     7.0807     7.6900    96.4973     0.1158     2.4955     0.0148
  214.0000   -33.4982     8.1470     7.0099     7.6900    98.5145     0.1195     2.4879     0.0150
  214.5000   -33.3216     8.1271     6.9397     7.6900    92.9082     0.1220     2.4810     0.0153
  215.0000   -33.1454     8.1072     6.8704     7.6900    92.7005     0.1228     2.4807     0.0156
  215.5000   -32.9698     8.0874     6.8018     7.6900    94.7878     0.1236     2.4793     0.0159
  216.0000   -32.7970     8.0680     6.7677     7.6900    96.9917     0.1257     2.4753     0.0161
  216.5000   -32.6008     8.0506     6.8475     7.6900    99.2165     0.1280     2.4711     0.0164
  217.0000   -32.0517     8.0365     6.9016     7.6900   100.0551     0.1248     2.4737     0.0167
  217.5000   -31.5141     8.0223     6.9560     7.6900    99.9268     0.1217     2.4797     0.0169
  218.0000   -31.0168     8.0081     7.0107     7.6900    99.3876     0.1212     2.4839     0.0172
  218.5000   -31.0822     7.9940     7.0659     7.6900    99.9983     0.1240     2.4797     0.0174
  219.0000   -31.9568     7.9799     7.1215     7.6900   100.9060     0.1244     2.4751     0.0177
  219.5000   -32.8104     7.9658     7.1775     7.6900   100.8363     0.1226     2.4771     0.0180
  220.0000   -33.2282     7.9517     7.2250     7.6900    99.3279     0.1168     2.4872     0.0182
  220.5000   -32.9267     7.9377     7.2519     7.6900    97.8987     0.1174     2.4862     0.0185
  221.0000   -32.5598     7.9237     7.2787     7.6900    98.2658     0.1200     2.4835     0.0188
  221.5000   -32.2337     7.9097     7.3057     7.6900   100.4118     0.1188     2.4905     0.0191
  222.0000   -32.3968     7.8958     7.3328     7.6900   101.2742     0.1196     2.4855     0.0193
  222.5000   -32.4282     7.8818     7.3601     7.6900    99.2956     0.1253     2.4757     0.0196
  223.0000   -32.7675     7.8679     7.3874     7.6900    97.3137     0.1246     2.4721     0.0199
  223.5000   -33.2257     7.8540     7.4148     7.6900    98.4398     0.1216     2.4804     0.0201
  224.0000   -33.7193     7.8383     7.4423     7.6900    97.5168     0.1204     2.4844     0.0204
