~VERSION INFORMATION
 VERS.                2.0:   CWLS LOG ASCII STANDARD - VERSION 2.0
 WRAP.                 NO:   ONE LINE PER DEPTH STEP
~WELL INFORMATION
#MNEM.UNIT      DATA TYPE    INFORMATION
#----------   ------------   ------------------------------
 STRT.F            5.0000:   START DEPTH
 STOP.F          640.0000:   STOP DEPTH
 STEP.F            0.5000:   STEP LENGTH
 NULL.          -999.2500:   NO VALUE
 COMP. BROWN JOHN E&C INC:   COMPANY
 WELL.     85-1 X 3 #85-3:   WELL
 FLD .             TEAPOT:   FIELD
 LOC .       S3 T38N R78W:   LOCATION
 CNTY.            NATRONA:   COUNTY
 STAT.            WYOMING:   STATE
 CTRY. UNITED STATES OF AMERICA:   COUNTRY
 SRVC.     Atlas Wireline:   SERVICE COMPANY
 DATE.        30-DEC-1991:   LOGDATE
 API .       490252249400:   API NUMBER
~CURVE INFORMATION
#MNEM.UNIT       API CODE    CURVE DESCRIPTION
#----------   ------------   ------------------------------
 DEPT.F                  :   
 GRR .GAPI   06 310 01 00:   GAMMA RAY FROM RESISTIVITY
 RFOC.OHMM   06 220 04 00:   RESISTIVITY FOCUSED LOG RES.
 RILD.OHMM   06 120 46 00:   DEEP INDUCTION RESISTIVITY
 RILM.OHMM   06 120 44 00:   INDUCTION LOG MEDIUM RESISTIVITY
 SPR .MV     06 010 01 00:   SPONTANEOUS POTENTIAL FROM RES.
 CALD.IN     45 280 60 00:   CALIPER FROM DENSITY LOG
 CORR.G/C3   45 356 01 00:   DENSITY CORRECTION
 DEN .G/C3   45 350 01 00:   COMPENSATED BULK DENSTIY
 PORD.DEC    45 890 12 00:   POROSITY DENSITY SANDSTONE
 CNC .DEC    42 890 03 00:   NEUTRON POROSITY SANDSTONE
~PARAMETER INFORMATION
#MNEM.UNIT          VALUE    DESCRIPTION
#----------   ------------   ------------------------------
 PD  .                 GL:   PERMANENT DATUM
 EPD .F              5156:   ELEVATION PERMANENT DATUM
 LMF .                 KB:   LOG MEASURED FROM
 DAPD.F                10:   FEET ABOVE PERMANENT DATUM
 DMF .                 KB:   DRILLING MEASURED FROM
 EKB .F              5166:   KELLING BUSHING
 EGL .F              5156:   GROUND LEVEL
 DATE.        30-DEC-1991:   RUN DATE
 RUN .                  1:   RUN NUMBER
 DD  .F               641:   DEPTH DRILLER
 DL  .F               642:   DEPTH LOGGER
 BLI .F               261:   BOTTOM LOG INTERVAL
 TLI .F               172:   TOP LOG INTERVAL
 CS  .IN            8.625:   CASING SIZE
 CBD .F               163:   CASING BOTTOM DRILLER
 CBL .F               172:   CASING BOTTOM LOGGER
 BS  .IN            7.875:   BIT SIZE
 BSD .F               641:   BIT SIZE AT DEPTH
 DFT .               CHEM:   DRILLING FLUID TYPE
 DFD .               17.1:   DRILLING FLUID DENSITY
 DFV .                 47:   DRILLING FLUID VISCOSITY
 DFPH.                9.0:   DRILLING FLUID PH
 DFL .                6.8:   DRILLING FLUID LOSS
 MSS .                PIT:   MUD SAMPLE SOURCE
 RMS .OHMM           1.40:   RESISTIVITY MUD SAMPLE
 MST .F               100:   MUD SAMPLE TEMPERATURE
 RMF .OHMM           1.12:   RESISTIVITY MUD FILTRATE SAMPLE
 MFST.F               100:   MUD FILTRATE SAMPLE TEMPERATURE
 RMC .OHMM           1.75:   RESISTIVITY MUD CAKE
 MCST.F               100:   MUD CAKE SAMPLE TEMPERATURE
 MFSS.               MEAS:   MUD FILTRATE SAMPLE SOURCE
 MCSS.               CALC:   MUD CAKE SAMPLE SOURCE
 RMB .OHMM           .536:   RESISTIVITY MUD AT BHT
 BHT .F               261:   BOTTOM HOLE TEMPERATURE
 TCS .HRS               4:   TIME CURCULATED STOPPED
 MRT .F               261:   MAXIMUM RECORDED TEMPERATURE
 LUN .            HL-6387:   LOGGING UNIT NUMBER
 LUL .          CASPER/WT:   LOGGING UNIT LOCATION
 ENGI.             ZIEGER:   RECORDING ENGINEER
 WITN.         LOFRENIERI:   WITNESSED BY
 CLNT.            A2DTECH:   CLIENT CODE
 ORIG.           5" PRINT:   ORIGIN OF DATA
 UWI .       490252249400:   UNIQUE WELL ID
 DICO. A2D Technologies, Inc.:   DIGITIZING COMPANY
~OTHER INFORMATION
~A    DEPT      GRR      RFOC       RILD       RILM        SPR       CALD       CORR        DEN       PORD        CNC   
# ...
  574.5000    79.5826     8.5411     8.0751     7.9955   -54.1571     8.7835     0.0052     2.4762     0.1211     0.2610
  575.0000    80.7582     8.6632     8.0740     8.0515   -54.6324     8.7842     0.0068     2.4747     0.1218     0.2634
  575.5000    78.6186     8.8481     8.0729     8.0515   -54.9111     8.8000     0.0193     2.4785     0.1187     0.2662
  576.0000    81.0282     8.8499     8.1284     8.1645   -55.0636     8.8007     0.0235     2.4855     0.1139     0.2686
  576.5000    84.3469     8.9136     8.2412     8.3410   -55.0651     8.8165     0.0206     2.4921     0.1112     0.2701
  577.0000    87.3625     8.9778     8.3562     8.8153   -55.0666     8.8171     0.0176     2.4966     0.1090     0.2670
  577.5000    87.0448     9.1062     8.5318     9.1919   -55.2191     8.8178     0.0207     2.4997     0.1076     0.2655
  578.0000    84.3028     9.3656     8.7108     9.1281   -55.2206     8.8186     0.0298     2.5027     0.1073     0.2631
  578.5000    84.8942     9.5655     8.8320     9.0017   -55.2221     8.8193     0.0359     2.5042     0.1066     0.2622
  579.0000    85.4856     9.9069     8.8308     8.8770   -55.2238     8.8199     0.0342     2.5057     0.1066     0.2625
  579.5000    86.0770     9.9782     8.8293     8.9391   -55.2253     8.8053     0.0254     2.5042     0.1069     0.2631
  580.0000    85.7556     9.9802     8.8903     9.1281   -55.0753     8.8061     0.0210     2.5035     0.1066     0.2631
  580.5000    83.9228    10.0521     8.9513     9.3862   -54.9261     8.7916     0.0195     2.5057     0.1051     0.2604
  581.0000    81.1808    10.2054     9.0128     9.4519   -54.7761     8.7923     0.0181     2.5073     0.1042     0.2567
  581.5000    80.8201    10.3411     9.1379     9.5180   -54.4759     8.7778     0.0166     2.5080     0.1039     0.2531
  582.0000    81.4545    10.4150     9.2006     9.5846   -54.3263     8.7786     0.0197     2.5065     0.1048     0.2519
  582.5000    82.3465    10.3447     9.3287     9.7872   -54.3281     8.7793     0.0228     2.5028     0.1060     0.2510
  583.0000    82.9415    10.3474     9.4585     9.9246   -54.4806     8.7646     0.0244     2.5013     0.1079     0.2498
  583.5000    83.2299    10.4219     9.5234    10.0640   -54.7842     8.7654     0.0199     2.4998     0.1100     0.2494
  584.0000    80.4843    10.5703     9.5885     9.9941   -55.2388     8.7661     0.0154     2.4959     0.1130     0.2500
  584.5000    79.5605    10.7282     9.5872     9.9246   -55.8445     8.7516     0.0124     2.4869     0.1169     0.2515
  585.0000    78.5756    10.7987     9.5859     9.7192   -55.9970     8.7503     0.0125     2.4854     0.1169     0.2534
  585.5000    74.3760    10.5038     9.5846     9.6517   -56.1551     8.7378     0.0141     2.4900     0.1124     0.2546
  586.0000    73.1528    10.0755     9.5833     9.7192   -56.7556     8.7537     0.0173     2.4930     0.1118     0.2552
  586.5000    75.2557    10.2190     9.5151     9.7872   -57.2102     8.7544     0.0218     2.4938     0.1142     0.2561
  587.0000    77.3622    10.6578     9.5138     9.8557   -57.5138     8.7096     0.0233     2.4885     0.1190     0.2570
  587.5000    79.4688    10.9614     9.5125     9.9246   -57.6663     8.6799     0.0189     2.4824     0.1211     0.2582
  588.0000    81.2723    11.0404     9.5112     9.9246   -57.5164     8.6806     0.0129     2.4802     0.1199     0.2597
  588.5000    81.5606    10.8902     9.5769     9.9246   -57.2161     8.6813     0.0069     2.4833     0.1163     0.2612
  589.0000    80.5514    10.8162     9.5752     9.8557   -56.9154     8.6669     0.0024     2.4862     0.1145     0.2618
  589.5000    77.8913    10.5213     9.5739     9.7872   -56.6148     8.6676     0.0026     2.4870     0.1151     0.2621
  590.0000    77.8766    10.3772     9.5723     9.7872   -56.3141     8.6529     0.0116     2.4863     0.1160     0.2621
  590.5000    77.8619    10.3798     9.5711     9.8557   -56.1645     8.6538     0.0192     2.4878     0.1151     0.2611
  591.0000    77.8472    10.6014     9.5032     9.9246   -56.1663     8.6393     0.0223     2.4938     0.1118     0.2587
  591.5000    77.8326    10.6777     9.4359     9.9941   -56.1678     8.6399     0.0193     2.5006     0.1076     0.2572
  592.0000    78.1209    10.6800     9.2392    10.0640   -56.1693     8.6406     0.0104     2.5059     0.1051     0.2584
  592.5000    78.1061    10.6078     9.1099     9.9246   -56.1707     8.6414     0.0029     2.5019     0.1069     0.2587
  593.0000    77.7849    10.4630     9.0453     9.7872   -56.1722     8.6421     0.0029     2.4961     0.1100     0.2560
  593.5000    76.2550    10.4657     9.0438     9.6517   -56.3251     8.6274     0.0060     2.4908     0.1137     0.2548
  594.0000    78.3616    10.4678     8.9797     9.4519   -56.3265     8.6282     0.0076     2.4863     0.1160     0.2560
  594.5000    82.5893    10.3971     8.9161     9.3210   -56.6301     8.6136     0.0091     2.4856     0.1169     0.2614
  595.0000    85.6050    10.3270     8.8529     9.2562   -56.9337     8.6144     0.0092     2.4878     0.1148     0.2653
  595.5000    86.2486    10.2500     8.7290     8.8688   -57.5394     8.6151     0.0077     2.4916     0.1124     0.2671
  596.0000    81.3332     9.9778     8.5470     8.2792   -57.8429     8.6159     0.0048     2.4962     0.1103     0.2680
  596.5000    83.4941     9.7732     8.4275     8.3954   -57.8444     8.6164     0.0018     2.4969     0.1106     0.2693
  597.0000    87.9668     9.5728     8.3095     8.6933   -57.8462     8.6172     0.0021     2.4947     0.1121     0.2710
  597.5000    89.4710     9.3766     8.1930     8.8770   -57.6966     8.6179     0.0050     2.4932     0.1130     0.2719
  598.0000    87.0284     9.1843     8.1350     8.8770   -57.6981     8.6185     0.0081     2.5000     0.1088     0.2731
  598.5000    85.4986     9.1862     8.0211     8.8770   -57.5481     8.6192     0.0096     2.5143     0.1018     0.2719
  599.0000    83.3627     9.5928     7.9643     8.7500   -57.2478     8.6198     0.0112     2.5340     0.0937     0.2710
  599.5000    78.8026    10.3469     7.8529     8.4542   -57.0982     8.6207     0.0128     2.5409     0.0864     0.2716
  600.0000    77.5758    10.4214     7.7430     8.1645   -56.7976     8.6195     0.0143     2.5295     0.0846     0.2761
  600.5000    79.6832    10.0664     7.6346     7.9955   -56.3459     8.5911     0.0112     2.5047     0.0888     0.2861
  601.0000    84.2169     9.2603     7.5276     7.8300   -55.8945     8.6065     0.0039     2.4910     0.1060     0.2927
  601.5000    87.8415     8.6384     7.4223     7.7216   -55.5935     8.6066     0.0070     2.4879     0.1145     0.2976
  602.0000    87.2237     8.5801     7.3697     7.6679   -55.1422     8.6220     0.0101     2.4872     0.1148     0.3030
  602.5000    85.9998     8.6429     7.3174     7.7216   -54.9922     8.6373     0.0101     2.4910     0.1135     0.3055
  603.0000    84.7434     8.7651     7.3164     7.7216   -54.8426     8.6830     0.0072     2.4963     0.1111     0.3063
  603.5000    84.1581     8.8286     7.3155     7.8300   -54.5423     8.6983     0.0102     2.5001     0.1075     0.3063
  604.0000    85.3555     8.8921     7.3144     7.8848   -54.5297     8.6833     0.0135     2.5023     0.1063     0.3054
  604.5000    85.0407     8.9562     7.3132     7.9400   -54.3942     8.6532     0.0134     2.5023     0.1063     0.3036
  605.0000    83.5138     9.0838     7.3123     8.0515   -54.2446     8.6231     0.0074     2.4986     0.1075     0.3012
  605.5000    82.2899     9.1492     7.3113     8.0515   -54.2464     8.5767     0.0090     2.4963     0.1084     0.2987
  606.0000    82.8842     9.1510     7.3617     7.9955   -54.2479     8.5629     0.0105     2.4956     0.1096     0.2978
  606.5000    83.4788     8.9391     7.4255     7.7216   -54.7418     8.5782     0.0076     2.4971     0.1105     0.2981
  607.0000    84.0728     8.7541     7.3226     7.6679   -54.8973     8.6239     0.0061     2.5001     0.1111     0.2999
  607.5000    84.0202     8.6329     7.2211     7.5618   -54.7281     8.6392     0.0078     2.5031     0.1105     0.3029
