~VERSION INFORMATION
 VERS.                2.0:   CWLS LOG ASCII STANDARD - VERSION 2.0
 WRAP.                 NO:   ONE LINE PER DEPTH STEP
~WELL INFORMATION
#MNEM.UNIT      DATA TYPE    INFORMATION
#----------   ------------   ------------------------------
 STRT.F           27.0000:   START DEPTH
 STOP.F          992.0000:   STOP DEPTH
 STEP.F            0.5000:   STEP LENGTH
 NULL.          -999.2500:   NO VALUE
 COMP. FENIX & SCISSON INC:   COMPANY
 WELL. NPR 3  77- S -27 #77-27:   WELL
 FLD .             TEAPOT:   FIELD
 LOC .      S27 T39N R78W:   LOCATION
 CNTY.            NATRONA:   COUNTY
 STAT.            WYOMING:   STATE
 CTRY. UNITED STATES OF AMERICA:   COUNTRY
 SRVC.            Unknown:   SERVICE COMPANY
 DATE.        09-SEP-1978:   LOGDATE
 API .       490251069700:   API NUMBER
~CURVE INFORMATION
#MNEM.UNIT       API CODE    CURVE DESCRIPTION
#----------   ------------   ------------------------------
 DEPT.F                  :   
 SPR .MV     05 010 01 00:   SPONTANEOUS POTENTIAL FROM RES.
 SN  .OHMM   05 040 16 00:   SHORT NORMAL 16"
 ILD .OHMM   05 120 46 00:   INDUCTION LOG DEEP
 CALD.IN     45 280 60 00:   CALIPER
 GRD .GAPI   45 310 01 00:   GAMMA RAY FROM DENSITY LOG
 RHOB.G/C3   45 350 01 00:   BULK DENSITY
 CORR.G/C3   45 356 01 00:   DENSITY CORRECTION
 DPHI.DEC    45 890 12 00:   DENSITY POROSITY SANDSTONE
~PARAMETER INFORMATION
#MNEM.UNIT          VALUE    DESCRIPTION
#----------   ------------   ------------------------------
 PD  .                 GL:   PERMANENT DATUM
 EPD .F              5069:   ELEVATION PERMANENT DATUM
 LMF .                 KB:   LOG MEASURED FROM
 DAPD.F                 4:   FEET ABOVE PERMANENT DATUM
 DMF .                 KB:   DRILLING MEASURED FROM
 EKB .F              5073:   KELLING BUSHING
 EGL .F              5069:   GROUND LEVEL
 DATE.           9-9-1978:   RUN DATE
 RUN .                  1:   RUN NUMBER
 DD  .F               990:   DEPTH DRILLER
 DL  .F               998:   DEPTH LOGGER
 BLI .F               992:   BOTTOM LOG INTERVAL
 TLI .F                50:   TOP LOG INTERVAL
 CS  .IN            8.625:   CASING SIZE
 CBD .F                40:   CASING BOTTOM DRILLER
 BS  .IN            7.875:   BIT SIZE
 BSD .F               990:   BIT SIZE AT DEPTH
 DFT .                KCL:   DRILLING FLUID TYPE
 DFD .                8.7:   DRILLING FLUID DENSITY
 DFV .                 34:   DRILLING FLUID VISCOSITY
 DFPH.                  9:   DRILLING FLUID PH
 DFL .                  8:   DRILLING FLUID LOSS
 MSS .          FLOW LINE:   MUD SAMPLE SOURCE
 RMS .OHMM             .4:   RESISTIVITY MUD SAMPLE
 MST .F                79:   MUD SAMPLE TEMPERATURE
 RMF .OHMM            .12:   RESISTIVITY MUD FILTRATE SAMPLE
 MFST.F                84:   MUD FILTRATE SAMPLE TEMPERATURE
 RMC .OHMM            .34:   RESISTIVITY MUD CAKE
 MCST.F                84:   MUD CAKE SAMPLE TEMPERATURE
 MFSS.               MEAS:   MUD FILTRATE SAMPLE SOURCE
 MCSS.               MEAS:   MUD CAKE SAMPLE SOURCE
 TCS .HRS               3:   TIME CURCULATED STOPPED
 LUN .               2958:   LOGGING UNIT NUMBER
 LUL .               CASP:   LOGGING UNIT LOCATION
 ENGI.             MILLER:   RECORDING ENGINEER
 WITN.              AMEND:   WITNESSED BY
 CLNT.            A2DTECH:   CLIENT CODE
 ORIG.           5" PRINT:   ORIGIN OF DATA
 UWI .       490251069700:   UNIQUE WELL ID
 DICO. A2D Technologies, Inc.:   DIGITIZING COMPANY
~OTHER INFORMATION
~A   DEPT      SPR         SN        ILD       CALD        GRD       RHOB       CORR       DPHI   
# ...
  513.0000   -77.8652     6.6021     7.0198     7.6783   131.2639     2.5025     0.0325     0.1061
  513.5000   -77.7539     6.6068     7.0123     7.6761   129.8701     2.4987     0.0176     0.1070
  514.0000   -77.6426     6.6115     7.0047     7.6740   129.4012     2.4988     0.0053     0.1051
  514.5000   -77.5313     6.6162     6.9972     7.6718   128.0708     2.5010     0.0033     0.1024
  515.0000   -77.4199     6.6209     6.9896     7.6696   127.3544     2.5032     0.0032     0.1023
  515.5000   -77.3087     6.6257     6.9821     7.6674   128.4702     2.5051     0.0029     0.1029
  516.0000   -77.1973     6.6304     6.9745     7.6652   129.6890     2.5037     0.0026     0.1032
  516.5000   -77.0866     6.6351     6.9670     7.6630   131.6471     2.5020     0.0023     0.1027
  517.0000   -76.9012     6.6399     6.9595     7.6608   133.6666     2.5003     0.0021     0.1021
  517.5000   -76.6609     6.6446     6.9520     7.6586   134.0729     2.5004     0.0018     0.1016
  518.0000   -76.4203     6.6493     6.9445     7.6563   132.6438     2.5011     0.0015     0.1018
  518.5000   -76.1801     6.6581     6.9370     7.6462   131.8097     2.5018     0.0012     0.1021
  519.0000   -75.9377     6.6849     6.9295     7.6272   132.5550     2.5024     0.0009     0.1024
  519.5000   -75.8370     6.7117     6.9220     7.6082   133.0950     2.5031     0.0006     0.1027
  520.0000   -75.8203     6.7385     6.9145     7.5893   133.2577     2.5039     0.0003     0.1031
  520.5000   -75.8052     6.7655     6.9071     7.5780   133.4212     2.5020     0.0000     0.1053
  521.0000   -75.7902     6.7925     6.9021     7.5930   133.5999     2.4994    -0.0003     0.1093
  521.5000   -75.7750     6.8197     6.9371     7.6072   132.9909     2.4961     0.0000     0.1133
  522.0000   -75.7598     6.8469     6.9910     7.6215   131.9978     2.4891     0.0029     0.1173
  522.5000   -75.7446     6.8743     7.0452     7.6357   131.8440     2.4822     0.0091     0.1200
  523.0000   -75.7294     6.9018     7.1000     7.6501   131.8458     2.4758     0.0154     0.1192
  523.5000   -75.7143     6.9293     7.1551     7.6502   131.6794     2.4769     0.0263     0.1138
  524.0000   -75.6991     6.9570     7.2107     7.6424   131.4783     2.4849     0.0385     0.1079
  524.5000   -75.6839     6.9848     7.2667     7.6344   131.2606     2.4928     0.0409     0.1021
  525.0000   -75.6687     7.0128     7.3231     7.6265   131.9231     2.5007     0.0362     0.0964
  525.5000   -75.6535     7.0408     7.3800     7.6185   132.7614     2.5027     0.0313     0.0940
  526.0000   -75.6467     7.0689     7.4373     7.6105   133.4341     2.5055     0.0265     0.0920
  526.5000   -75.6485     7.0972     7.4951     7.6026   133.2408     2.5120     0.0217     0.0916
  527.0000   -75.6403     7.1256     7.5533     7.5946   133.0627     2.5182     0.0169     0.0916
  527.5000   -75.2082     7.1540     7.6120     7.5866   132.8883     2.5177     0.0120     0.0900
  528.0000   -74.7365     7.1826     7.6711     7.5786   132.5470     2.5160     0.0115     0.0874
  528.5000   -74.2609     7.2113     7.7307     7.5774   132.1634     2.5149     0.0138     0.0849
  529.0000   -74.1256     7.2402     7.7809     7.5921   131.8795     2.5196     0.0242     0.0848
  529.5000   -74.2405     7.2691     7.7809     7.6068   133.8137     2.5263     0.0342     0.0877
  530.0000   -74.3574     7.2982     7.7809     7.6214   137.7724     2.5282     0.0415     0.0905
  530.5000   -74.3850     7.3274     7.7809     7.6361   140.5061     2.5199     0.0409     0.0934
  531.0000   -73.9583     7.3566     7.7809     7.6507   140.4677     2.5120     0.0403     0.0962
  531.5000   -73.5327     7.4221     7.7809     7.6652   140.0668     2.5040     0.0398     0.0984
  532.0000   -73.4551     7.4974     7.8880     7.6755   138.0804     2.4972     0.0393     0.0988
  532.5000   -73.4496     7.5734     7.9960     7.6753   135.0093     2.4999     0.0388     0.0962
  533.0000   -73.4457     7.6502     8.1058     7.6754   131.8098     2.5066     0.0384     0.0913
  533.5000   -73.4410     7.7278     8.2169     7.6754   131.0046     2.5132     0.0378     0.0864
  534.0000   -73.4362     7.8062     8.3295     7.6754   132.6096     2.5200     0.0359     0.0856
  534.5000   -73.4314     7.8854     8.4437     7.6754   134.3767     2.5220     0.0280     0.0874
  535.0000   -73.4267     7.9653     8.5595     7.6754   135.8932     2.5205     0.0202     0.0890
  535.5000   -73.4219     8.0461     8.6769     7.6754   136.7800     2.5169     0.0124     0.0907
  536.0000   -73.4171     8.0732     8.7958     7.6754   136.9120     2.5134     0.0095     0.0924
  536.5000   -73.4123     8.0730     8.9164     7.6754   135.4808     2.5109     0.0092     0.0924
  537.0000   -73.4075     8.0729     9.0386     7.6754   135.5471     2.5127     0.0088     0.0918
  537.5000   -73.4027     8.0729     9.1626     7.6754   135.7709     2.5154     0.0083     0.0910
  538.0000   -73.3979     8.0729     9.2882     7.6753   136.0498     2.5181     0.0079     0.0902
  538.5000   -73.3931     8.0729     9.4155     7.6729   134.5112     2.5208     0.0074     0.0911
  539.0000   -73.3883     8.0729     9.5286     7.6608   132.9131     2.5231     0.0069     0.0940
  539.5000   -73.3835     8.0729     9.4568     7.6489   132.6531     2.5198     0.0065     0.0956
  540.0000   -73.3788     8.0729     9.3933     7.6361   133.6578     2.5143     0.0060     0.0961
  540.5000   -73.3740     8.0729     9.3302     7.6812   133.9835     2.5089     0.0056     0.0967
  541.0000   -73.3692     8.0729     9.2675     7.7323   132.5312     2.5035     0.0062     0.0972
  541.5000   -73.3644     8.0729     9.2053     7.6897   131.0892     2.4999     0.0071     0.0964
  542.0000   -73.3596     8.0729     9.1435     7.6434   130.8691     2.5002     0.0080     0.0932
  542.5000   -73.3548     8.0729     9.0821     7.6047   131.7877     2.5080     0.0089     0.0891
  543.0000   -73.3500     8.0729     9.0211     7.5783   132.7543     2.5163     0.0098     0.0850
  543.5000   -73.3452     8.0729     8.9605     7.5517   133.7169     2.5245     0.0107     0.0860
  544.0000   -73.3404     8.0729     8.9003     7.5252   134.6746     2.5312     0.0114     0.0887
  544.5000   -73.3356     8.0729     8.8405     7.4986   135.6275     2.5274     0.0105     0.0914
  545.0000   -73.3308     8.0729     8.7706     7.4718   135.3157     2.5226     0.0096     0.0941
  545.5000   -73.3261     8.0729     8.7845     7.4241   133.2271     2.5178     0.0088     0.0967
  546.0000   -73.3213     8.0729     8.8015     7.3344   131.1042     2.5131     0.0079     0.0996
  546.5000   -73.3165     8.0729     8.8185     7.2967   130.4692     2.5081     0.0070     0.0970
  547.0000   -73.3117     8.0730     8.8355     7.2729   131.9651     2.5071     0.0062     0.0889
  547.5000   -73.3069     8.0733     8.8526     7.2451   132.0382     2.5158     0.0053     0.0808
  548.0000   -73.3021     8.0741     8.8697     7.1510   130.9979     2.5267     0.0044     0.0727
  548.5000   -73.2973     8.0215     8.8868     7.0609   130.2549     2.5376     0.0034     0.0679
  549.0000   -73.2925     7.9736     8.9040     7.2767   132.1868     2.5483     0.0061     0.0730
  549.5000   -73.2877     7.9260     8.9212     7.5322   134.6356     2.5582     0.0094     0.0793
  550.0000   -73.2830     7.8787     8.9384     7.6164   135.2473     2.5581     0.0138     0.0856
  550.5000   -73.2782     7.8316     8.9557     7.5300   134.1187     2.5531     0.0627     0.0888
  551.0000   -73.2730     7.7849     8.9729     7.4339   132.9981     2.5477     0.0802     0.0860
  551.5000   -73.2675     7.7384     8.9904     7.3381   129.9732     2.5422     0.0847     0.0835
  552.0000   -73.2657     7.6922     9.0079     7.2425   126.6352     2.5368     0.0890     0.0809
  552.5000   -73.4320     7.6463     9.0167     7.1932   125.8302     2.5331     0.0933     0.0784
  553.0000   -74.0338     7.6006     8.8982     7.3039   129.7396     2.5379     0.0954     0.0760
