~VERSION INFORMATION
 VERS.                2.0:   CWLS LOG ASCII STANDARD - VERSION 2.0
 WRAP.                 NO:   ONE LINE PER DEPTH STEP
~WELL INFORMATION
#MNEM.UNIT      DATA TYPE    INFORMATION
#----------   ------------   ------------------------------
 STRT.F           20.0000:   START DEPTH
 STOP.F          626.0000:   STOP DEPTH
 STEP.F            0.5000:   STEP LENGTH
 NULL.          -999.2500:   NO VALUE
 COMP. FENIX & SCISSON INC:   COMPANY
 WELL. NPR-3  38-S-34 #38-34:   WELL
 FLD .             TEAPOT:   FIELD
 LOC .      S34 T39N R78W:   LOCATION
 CNTY.            NATRONA:   COUNTY
 STAT.            WYOMING:   STATE
 CTRY. UNITED STATES OF AMERICA:   COUNTRY
 SRVC.           BIRDWELL:   SERVICE COMPANY
 DATE.        08-AUG-1978:   LOGDATE
 API .       490251068300:   API NUMBER
~CURVE INFORMATION
#MNEM.UNIT       API CODE    CURVE DESCRIPTION
#----------   ------------   ------------------------------
 DEPT.F                  :   
 SPR .MV     05 010 01 00:   SPONTANEOUS POTENTIAL FROM RES.
 SN  .OHMM   05 040 16 00:   SHORT NORMAL 16"
 IL  .OHMM   05 120 00 00:   INDUCTION LOG
 RHOB.G/C3   45 350 01 00:   BULK DENSITY
 DPHI.DEC    45 890 12 00:   DENSITY POROSITY SANDSTONE
 CORR.G/C3   45 356 01 00:   DENSITY CORRECTION
 GRD .GAPI   45 310 01 00:   GAMMA RAY FROM DENSITY LOG
 CALD.IN     45 280 60 00:   CALIPER
~PARAMETER INFORMATION
#MNEM.UNIT          VALUE    DESCRIPTION
#----------   ------------   ------------------------------
 PD  .                 GL:   PERMANENT DATUM
 EPD .F              5213:   ELEVATION PERMANENT DATUM
 LMF .                 KB:   LOG MEASURED FROM
 DAPD.F                 4:   FEET ABOVE PERMANENT DATUM
 DMF .                 KB:   DRILLING MEASURED FROM
 EKB .F              5217:   KELLING BUSHING
 EGL .F              5213:   GROUND LEVEL
 DATE.             8-8-78:   RUN DATE
 RUN .                  1:   RUN NUMBER
 DD  .F               620:   DEPTH DRILLER
 DL  .F               632:   DEPTH LOGGER
 BLI .F               626:   BOTTOM LOG INTERVAL
 TLI .F                35:   TOP LOG INTERVAL
 CS  .IN            8.625:   CASING SIZE
 CBL .F                35:   CASING BOTTOM LOGGER
 BS  .IN            7.875:   BIT SIZE
 BSD .F               620:   BIT SIZE AT DEPTH
 DFT .                KCL:   DRILLING FLUID TYPE
 DFD .                8.7:   DRILLING FLUID DENSITY
 DFV .                 33:   DRILLING FLUID VISCOSITY
 DFPH.                  9:   DRILLING FLUID PH
 DFL .                  5:   DRILLING FLUID LOSS
 MSS .          FLOW LINE:   MUD SAMPLE SOURCE
 RMS .OHMM            .12:   RESISTIVITY MUD SAMPLE
 MST .F                80:   MUD SAMPLE TEMPERATURE
 RMF .OHMM            .13:   RESISTIVITY MUD FILTRATE SAMPLE
 MFST.F                83:   MUD FILTRATE SAMPLE TEMPERATURE
 RMC .OHMM            .16:   RESISTIVITY MUD CAKE
 MCST.F                84:   MUD CAKE SAMPLE TEMPERATURE
 MFSS.               MEAS:   MUD FILTRATE SAMPLE SOURCE
 TCS .HRS               1:   TIME CURCULATED STOPPED
 LUN .               3006:   LOGGING UNIT NUMBER
 LUL .               CASP:   LOGGING UNIT LOCATION
 ENGI.             MILLER:   RECORDING ENGINEER
 WITN.           MCGINLEY:   WITNESSED BY
 CLNT.            A2DTECH:   CLIENT CODE
 ORIG.           5" PRINT:   ORIGIN OF DATA
 UWI .       490251068300:   UNIQUE WELL ID
 DICO. A2D Technologies, Inc.:   DIGITIZING COMPANY
~OTHER INFORMATION
~A   DEPT      SPR         SN         IL       RHOB       DPHI       CORR         GRD      CALD   
# ...
  101.0000   -35.4828     5.6787     6.0102     2.4496     0.1372     0.0215    86.7103     7.6820
  101.5000   -35.4926     5.6842     6.0147     2.4470     0.1374     0.0187    86.8002     7.6948
  102.0000   -35.5035     5.6898     6.0191     2.4471     0.1366     0.0160    89.8694     7.7289
  102.5000   -35.5196     5.6953     6.0237     2.4486     0.1357     0.0133    93.0140     7.7634
  103.0000   -35.5353     5.7029     6.0265     2.4519     0.1344     0.0115    96.5446     7.7982
  103.5000   -35.5510     5.6857     5.9918     2.4551     0.1320     0.0138   100.0672     7.8316
  104.0000   -35.5667     5.6553     5.9620     2.4567     0.1324     0.0180    98.2146     7.8189
  104.5000   -35.5825     5.6252     5.9322     2.4546     0.1330     0.0221    94.9207     7.8038
  105.0000   -35.5982     5.5953     5.9027     2.4567     0.1314     0.0263    96.0202     7.7888
  105.5000   -35.6139     5.5656     5.8732     2.4606     0.1287     0.0306    97.5860     7.7741
  106.0000   -35.6296     5.5467     5.8440     2.4645     0.1261     0.0302    92.8758     7.7836
  106.5000   -35.6454     5.5428     5.8148     2.4684     0.1245     0.0285    89.9203     7.7948
  107.0000   -35.6612     5.5389     5.7858     2.4685     0.1271     0.0268    96.0229     7.8060
  107.5000   -35.6768     5.5351     5.7559     2.4660     0.1296     0.0251    95.0776     7.8170
  108.0000   -35.6927     5.5314     5.7559     2.4636     0.1289     0.0234    94.7987     7.8282
  108.5000   -35.6657     5.5276     5.7559     2.4610     0.1298     0.0217    98.2529     7.8164
  109.0000   -35.6011     5.5238     5.7559     2.4546     0.1347     0.0200   101.7257     7.7870
  109.5000   -35.5362     5.5200     5.7559     2.4480     0.1397     0.0183   104.8589     7.7575
  110.0000   -35.4712     5.5162     5.7559     2.4415     0.1428     0.0166   105.1036     7.7279
  110.5000   -35.4062     5.5124     5.7559     2.4373     0.1426     0.0149    95.1166     7.7247
  111.0000   -35.3421     5.5086     5.7558     2.4386     0.1409     0.0131    90.5943     7.7451
  111.5000   -35.3109     5.5048     5.7560     2.4418     0.1391     0.0115    91.9626     7.7657
  112.0000   -35.3442     5.5011     5.7641     2.4451     0.1374     0.0129    93.0548     7.7871
  112.5000   -35.3765     5.4973     5.7879     2.4441     0.1390     0.0147    88.2232     7.7696
  113.0000   -35.4090     5.5637     5.8119     2.4412     0.1406     0.0164    87.6428     7.7357
  113.5000   -35.4414     5.6308     5.8360     2.4415     0.1397     0.0181    91.1763     7.7011
  114.0000   -35.4739     5.6597     5.8602     2.4421     0.1387     0.0199    95.0248     7.6666
  114.5000   -35.5060     5.6767     5.8845     2.4426     0.1380     0.0216    98.8424     7.6323
  115.0000   -35.5365     5.6937     5.9089     2.4430     0.1404     0.0233    98.9241     7.6159
  115.5000   -35.5670     5.7108     5.9333     2.4431     0.1378     0.0252   100.3017     7.6192
  116.0000   -35.5975     5.7280     5.9579     2.4484     0.1354     0.0230   102.8797     7.6226
  116.5000   -35.6281     5.7452     5.9826     2.4542     0.1332     0.0197   101.0503     7.6259
  117.0000   -35.6586     5.7624     6.0074     2.4532     0.1362     0.0163    99.1654     7.6295
  117.5000   -35.6894     5.7797     6.0266     2.4504     0.1392     0.0130    98.4144     7.6314
  118.0000   -35.6999     5.7973     6.0146     2.4435     0.1422     0.0097    96.7693     7.6554
  118.5000   -35.7001     5.8095     6.0047     2.4381     0.1401     0.0146    94.7417     7.6665
  119.0000   -35.7000     5.8091     5.9950     2.4452     0.1338     0.0201    93.9205     7.6803
  119.5000   -35.7000     5.8090     5.9853     2.4527     0.1300     0.0256    93.9570     7.6937
  120.0000   -35.7005     5.8090     5.9756     2.4581     0.1266     0.0310    95.7668     7.7073
  120.5000   -35.7033     5.8090     5.9658     2.4665     0.1232     0.0303    97.5951     7.7049
  121.0000   -35.6814     5.8090     5.9561     2.4741     0.1204     0.0292    96.9338     7.6884
  121.5000   -35.2975     5.8090     5.9465     2.4745     0.1249     0.0281    95.5743     7.6717
  122.0000   -34.9266     5.8090     5.9368     2.4644     0.1307     0.0287    94.2063     7.6550
  122.5000   -34.7048     5.8090     5.9272     2.4536     0.1348     0.0316    92.9074     7.6384
  123.0000   -34.7261     5.8090     5.9168     2.4582     0.1293     0.0344    97.7876     7.6215
  123.5000   -34.7441     5.8091     5.9479     2.4642     0.1244     0.0373   102.2820     7.6321
  124.0000   -34.7629     5.8089     5.9815     2.4701     0.1227     0.0393    99.9681     7.6633
  124.5000   -34.7815     5.8207     6.0154     2.4711     0.1245     0.0342    98.1646     7.6949
  125.0000   -34.8000     5.8394     6.0494     2.4705     0.1252     0.0290    98.3931     7.7265
  125.5000   -34.8185     5.8581     6.0837     2.4666     0.1265     0.0238    98.4887     7.7518
  126.0000   -34.8371     5.8769     6.1181     2.4589     0.1337     0.0184    92.8751     7.7319
  126.5000   -34.8556     5.8957     6.1528     2.4512     0.1348     0.0194    90.9853     7.7126
  127.0000   -34.8742     5.9146     6.1877     2.4501     0.1343     0.0218    92.5171     7.6934
  127.5000   -34.8924     5.9336     6.2226     2.4560     0.1329     0.0243    98.9454     7.6740
  128.0000   -34.9383     5.9527     6.2523     2.4619     0.1293     0.0268   101.8673     7.6553
  128.5000   -35.0009     5.9713     6.2457     2.4678     0.1257     0.0292   100.4932     7.6863
  129.0000   -35.0639     5.9421     6.2125     2.4738     0.1221     0.0316    98.3907     7.7210
  129.5000   -35.1268     5.9127     6.1794     2.4797     0.1185     0.0321    97.9447     7.7549
  130.0000   -35.1903     5.8837     6.1466     2.4855     0.1166     0.0254    97.9505     7.7461
  130.5000   -35.2555     5.8548     6.1139     2.4860     0.1160     0.0190    97.9578     7.6904
  131.0000   -35.2864     5.8261     6.0814     2.4843     0.1227     0.0125    96.0415     7.6673
  131.5000   -34.9167     5.7975     6.0490     2.4734     0.1316     0.0077    92.8908     7.7062
  132.0000   -34.5472     5.7690     6.0168     2.4571     0.1323     0.0191    93.4636     7.7441
  132.5000   -34.1712     5.7559     5.9849     2.4560     0.1330     0.0310    96.2173     7.7843
  133.0000   -34.1159     5.7559     5.9712     2.4561     0.1337     0.0281    97.9276     7.7687
  133.5000   -34.1366     5.7559     6.0030     2.4558     0.1374     0.0233    97.9726     7.7344
  134.0000   -34.1588     5.7558     6.0260     2.4465     0.1425     0.0185    97.3241     7.6991
  134.5000   -34.1800     5.7555     6.0490     2.4389     0.1434     0.0137    96.5875     7.7008
  135.0000   -34.2012     5.7959     6.0721     2.4390     0.1455     0.0086    95.8640     7.7095
  135.5000   -34.2224     5.8314     6.0952     2.4316     0.1532     0.0134    95.3377     7.7182
  136.0000   -34.2437     5.8673     6.1185     2.4232     0.1489     0.0217    96.7980     7.7268
  136.5000   -34.2651     5.9034     6.1418     2.4212     0.1412     0.0303    99.0054     7.7318
  137.0000   -34.2853     5.9396     6.1652     2.4509     0.1340     0.0264   101.2528     7.7210
  137.5000   -34.2540     5.9761     6.1888     2.4524     0.1357     0.0200   102.1322     7.7108
  138.0000   -34.1107     6.0128     6.2124     2.4491     0.1373     0.0139    98.0933     7.7012
  138.5000   -33.9687     6.0498     6.2363     2.4457     0.1369     0.0211    98.4950     7.7173
  139.0000   -33.8262     6.0823     6.2548     2.4424     0.1318     0.0293    99.1902     7.7301
  139.5000   -33.7203     6.0823     6.2634     2.4475     0.1266     0.0349    99.9130     7.7436
  140.0000   -33.9125     6.0823     6.2716     2.4620     0.1230     0.0315   100.3304     7.7575
  140.5000   -34.1094     6.0823     6.2800     2.4724     0.1216     0.0283    97.8310     7.7713
  141.0000   -34.2954     6.0823     6.2884     2.4730     0.1216     0.0251    95.1933     7.7849
