~VERSION INFORMATION
 VERS.                2.0:   CWLS LOG ASCII STANDARD - VERSION 2.0
 WRAP.                 NO:   ONE LINE PER DEPTH STEP
~WELL INFORMATION
#MNEM.UNIT      DATA TYPE    INFORMATION
#----------   ------------   ------------------------------
 STRT.F            0.0000:   START DEPTH
 STOP.F          530.0000:   STOP DEPTH
 STEP.F            0.5000:   STEP LENGTH
 NULL.          -999.2500:   NO VALUE
 COMP. FENIX & SCISSON INC:   COMPANY
 WELL.      74 SX 3 #74-3:   WELL
 FLD .             TEAPOT:   FIELD
 LOC .       S3 T38N R78W:   LOCATION
 CNTY.            NATRONA:   COUNTY
 STAT.            WYOMING:   STATE
 CTRY. UNITED STATES OF AMERICA:   COUNTRY
 SRVC.            Unknown:   SERVICE COMPANY
 DATE.        20-SEP-1978:   LOGDATE
 API .       490251072200:   API NUMBER
~CURVE INFORMATION
#MNEM.UNIT       API CODE    CURVE DESCRIPTION
#----------   ------------   ------------------------------
 DEPT.F                  :   
 CALD.IN     45 280 60 00:   CALIPER
 GRD .GAPI   45 310 01 00:   GAMMA RAY FROM DENSITY LOG
 RHOB.G/C3   45 350 01 00:   BULK DENSITY
 DPHI.DEC    45 890 12 00:   DENSITY POROSITY SANDSTONE
 CORR.G/C3   45 356 01 00:   DENSITY CORRECTION
 SPR .MV     05 010 01 00:   SPONTANEOUS POTENTIAL FROM RES.
 SN  .OHMM   05 040 16 00:   SHORT NORMAL 16"
 ILD .OHMM   05 120 46 00:   INDUCTION LOG DEEP
~PARAMETER INFORMATION
#MNEM.UNIT          VALUE    DESCRIPTION
#----------   ------------   ------------------------------
 PD  .                 GL:   PERMANENT DATUM
 EPD .F              5139:   ELEVATION PERMANENT DATUM
 LMF .                 KB:   LOG MEASURED FROM
 DAPD.F                 4:   FEET ABOVE PERMANENT DATUM
 DMF .                 KB:   DRILLING MEASURED FROM
 EKB .F              5143:   KELLING BUSHING
 EGL .F              5139:   GROUND LEVEL
 DATE.            9-20-78:   RUN DATE
 RUN .                  1:   RUN NUMBER
 DD  .F               532:   DEPTH DRILLER
 DL  .F               530:   DEPTH LOGGER
 BLI .F               524:   BOTTOM LOG INTERVAL
 TLI .F                40:   TOP LOG INTERVAL
 CS  .IN            8.625:   CASING SIZE
 CBD .F                40:   CASING BOTTOM DRILLER
 CBL .F                40:   CASING BOTTOM LOGGER
 BS  .IN            7.875:   BIT SIZE
 BSD .F               532:   BIT SIZE AT DEPTH
 DFT .                KCL:   DRILLING FLUID TYPE
 DFD .                8.8:   DRILLING FLUID DENSITY
 DFV .                 38:   DRILLING FLUID VISCOSITY
 DFPH.                  9:   DRILLING FLUID PH
 DFL .                6.2:   DRILLING FLUID LOSS
 MSS .                PIT:   MUD SAMPLE SOURCE
 BHT .F                69:   BOTTOM HOLE TEMPERATURE
 TCS .HRS               3:   TIME CURCULATED STOPPED
 MRT .F                69:   MAXIMUM RECORDED TEMPERATURE
 LUN .               2958:   LOGGING UNIT NUMBER
 LUL .             CASPER:   LOGGING UNIT LOCATION
 ENGI.           REYNOLDS:   RECORDING ENGINEER
 WITN.           DINSMORE:   WITNESSED BY
 CLNT.            A2DTECH:   CLIENT CODE
 ORIG.       2", 5" PRINT:   ORIGIN OF DATA
 UWI .       490251072200:   UNIQUE WELL ID
 DICO. A2D Technologies, Inc.:   DIGITIZING COMPANY
~OTHER INFORMATION
~A    DEPT    CALD         GRD      RHOB       DPHI       CORR        SPR         SN        ILD   
# ...
  202.5000     7.4714    81.6997     2.4685     0.1286     0.0423   -30.4251     8.5126     8.0166
  203.0000     7.4876    81.6259     2.4614     0.1347     0.0419   -30.6327     8.3082     7.8666
  203.5000     7.5039    81.5486     2.4543     0.1376     0.0414   -30.8429     8.1392     7.7715
  204.0000     7.4942    81.4911     2.4472     0.1397     0.0423   -31.0495     8.1167     7.7836
  204.5000     7.4901    81.9334     2.4434     0.1356     0.0443   -31.1302     8.0932     7.8026
  205.0000     7.4900    82.3148     2.4471     0.1314     0.0464   -30.9505     8.0646     7.8217
  205.5000     7.4900    82.2667     2.4537     0.1273     0.0476   -30.7760     8.2044     7.8452
  206.0000     7.4900    82.2279     2.4612     0.1266     0.0483   -30.5912     8.3867     7.8436
  206.5000     7.4900    82.1802     2.4646     0.1257     0.0491   -30.2057     8.5731     8.1259
  207.0000     7.4901    82.7035     2.4659     0.1248     0.0498   -29.8125     8.7614     8.3348
  207.5000     7.4904    83.5180     2.4670     0.1239     0.0505   -29.6847     8.8332     8.5484
  208.0000     7.4872    84.1041     2.4683     0.1213     0.0511   -29.5691     8.9048     8.7614
  208.5000     7.4312    83.3895     2.4703     0.1156     0.0487   -29.4523     8.9770     8.7614
  209.0000     7.4393    83.0523     2.4766     0.1171     0.0463   -29.3351     9.0504     8.7398
  209.5000     7.4354    83.8973     2.4810     0.1175     0.0439   -29.2175     9.0898     8.7248
  210.0000     7.3888    83.9554     2.4810     0.1156     0.0432   -29.1008     9.0174     8.7099
  210.5000     7.4464    82.7005     2.4818     0.1137     0.0432   -29.0212     8.9671     8.6949
  211.0000     7.4506    81.5163     2.4847     0.1118     0.0432   -29.0931     8.9172     8.6811
  211.5000     7.4763    80.5367     2.4876     0.1103     0.0432   -29.1616     8.8686     8.6015
  212.0000     7.4988    81.4337     2.4883     0.1118     0.0417   -29.2299     8.7879     8.4941
  212.5000     7.4091    83.0750     2.4872     0.1173     0.0371   -29.2981     8.6799     8.3961
  213.0000     7.4107    83.8115     2.4858     0.1227     0.0316   -29.3663     8.5719     8.2993
  213.5000     7.4704    84.8726     2.4768     0.1261     0.0253   -29.4346     8.4654     8.2035
  214.0000     7.5306    86.9505     2.4681     0.1255     0.0251   -29.5028     8.3602     8.0602
  214.5000     7.5903    89.0009     2.4659     0.1246     0.0251   -29.5710     8.2064     7.8193
  215.0000     7.5008    90.3185     2.4659     0.1237     0.0251   -29.6392     7.9564     7.5856
  215.5000     7.3923    90.4019     2.4660     0.1266     0.0251   -29.7075     7.7140     7.3586
  216.0000     7.4256    90.2132     2.4654     0.1348     0.0251   -29.7757     7.4790     7.1395
  216.5000     7.4742    88.6347     2.4511     0.1430     0.0251   -29.8440     7.2512     6.9537
  217.0000     7.4737    87.0213     2.4364     0.1512     0.0251   -29.9123     7.0242     6.9158
  217.5000     7.4549    85.4185     2.4216     0.1574     0.0260   -29.9887     7.0242     6.8782
  218.0000     7.4356    84.6493     2.4117     0.1492     0.0302   -29.6998     7.1326     6.8329
  218.5000     7.4165    85.1484     2.4135     0.1414     0.0342   -29.4017     7.4221     7.0242
  219.0000     7.4336    86.9478     2.4358     0.1336     0.0367   -29.4069     7.7232     7.3418
  219.5000     7.4073    88.7875     2.4573     0.1265     0.0344   -29.4058     8.0368     7.6750
  220.0000     7.3348    88.8396     2.4640     0.1283     0.0281   -29.4059     8.3630     8.0237
  220.5000     7.4110    87.5325     2.4632     0.1301     0.0179   -29.4059     8.7030     8.3884
  221.0000     7.4030    86.8315     2.4611     0.1289     0.0132   -29.4060     8.8695     8.6568
  221.5000     7.3951    86.6758     2.4607     0.1281     0.0131   -29.4068     9.0015     8.7854
  222.0000     7.3986    86.7231     2.4623     0.1281     0.0130   -29.4065     9.1353     8.9161
  222.5000     7.4635    88.3427     2.4639     0.1245     0.0140   -29.3486     9.2703     9.0487
  223.0000     7.5283    90.4579     2.4655     0.1206     0.0153   -28.9778     9.4121     9.1742
  223.5000     7.4963    91.7807     2.4692     0.1187     0.0166   -28.6098     9.5588     9.2183
  224.0000     7.4468    92.5335     2.4756     0.1174     0.0180   -28.2456     9.7078     9.2598
  224.5000     7.4303    93.2753     2.4818     0.1160     0.0193   -28.0290     9.8017     9.3014
  225.0000     7.4298    94.0026     2.4831     0.1120     0.0206   -28.0635     9.8349     9.3433
  225.5000     7.4300    95.7087     2.4848     0.1080     0.0205   -28.0940     9.8685     9.3854
  226.0000     7.4300    97.9880     2.4888     0.1100     0.0196   -28.1254     9.9021     9.4308
  226.5000     7.4300    99.2275     2.4914     0.1120     0.0188   -28.1563     9.9360     9.4581
  227.0000     7.4297    98.9581     2.4880     0.1139     0.0179   -28.1865     9.9699     9.5097
  227.5000     7.4540    98.7622     2.4847     0.1159     0.0170   -28.2240    10.0040     9.5618
  228.0000     7.4899    98.7567     2.4815     0.1179     0.0160   -28.4091    10.0382     9.6141
  228.5000     7.5018    98.8203     2.4782     0.1199     0.0151   -28.5980    10.0725     9.6668
  229.0000     7.4990   100.0588     2.4749     0.1217     0.0180   -28.7850    10.1069     9.7197
  229.5000     7.5976   101.3462     2.4739     0.1221     0.0214   -28.7663    10.1415     9.7729
  230.0000     7.4807   102.5922     2.4739     0.1182     0.0248   -28.5498    10.1763     9.7850
  230.5000     7.4135   103.8769     2.4753     0.1133     0.0283   -28.3395    10.2109     9.6753
  231.0000     7.4968   104.7317     2.4848     0.1083     0.0291   -28.1311    10.2460     9.5963
  231.5000     7.4065   104.8808     2.4973     0.1039     0.0291   -28.0634    10.1816     9.5181
  232.0000     7.4120   104.6761     2.5037     0.1038     0.0255   -28.1525    10.1174     9.4404
  232.5000     7.7006   103.7281     2.5027     0.1080     0.0188   -28.1372    10.0536     9.3634
  233.0000     7.4537   102.2623     2.4936     0.1121     0.0120   -27.7900     9.9901     9.2871
  233.5000     7.5243    99.9643     2.4855     0.1157     0.0091   -27.6240     9.9209     9.2113
  234.0000     7.5999    98.3052     2.4848     0.1133     0.0125   -27.6721     9.8484     9.1362
  234.5000     7.5686    96.9968     2.4869     0.1093     0.0183   -27.8395     9.7765     9.0617
  235.0000     7.4544    96.0475     2.4900     0.1068     0.0230   -28.0158     9.7052     9.0068
  235.5000     7.5054    95.0965     2.4926     0.1091     0.0217   -28.4365     9.5415     8.8061
  236.0000     7.4661    93.7570     2.4912     0.1114     0.0205   -28.9041     9.3661     8.6208
  236.5000     7.5768    92.1954     2.4889     0.1136     0.0194   -29.0729     9.1938     8.4393
  237.0000     7.5110    90.6266     2.4846     0.1150     0.0182   -29.1611     9.0247     8.2617
  237.5000     7.5656    89.1613     2.4826     0.1161     0.0169   -29.2460     8.8424     8.0461
  238.0000     7.4541    89.7705     2.4791     0.1202     0.0118   -29.3318     8.3990     7.7408
  238.5000     7.4049    90.7201     2.4732     0.1305     0.0067   -29.4659     7.9327     7.4232
  239.0000     7.3960    91.6380     2.4609     0.1435     0.0016   -29.9667     7.4401     6.9778
  239.5000     7.4677    93.2052     2.4462     0.1614    -0.0035   -30.6999     6.8757     6.5224
  240.0000     7.5292    95.1124     2.4234     0.1792    -0.0088   -31.2458     6.3545     5.9297
  240.5000     7.4881    99.8542     2.3823     0.1971    -0.0091   -31.5893     5.8708     5.3370
  241.0000     7.4679   104.5616     2.3409     0.2152    -0.0090   -31.5817     5.3914     4.8036
  241.5000     7.7156   106.4925     2.3101     0.2247    -0.0041   -31.4298     4.8851     4.3235
  242.0000     7.4548   106.4069     2.2891     0.2313     0.0013   -31.0243     4.4279     3.8913
  242.5000     7.4887   105.1388     2.2833     0.2356     0.0070   -30.3839     4.0056     3.6369
