~VERSION INFORMATION
 VERS.                2.0:   CWLS LOG ASCII STANDARD - VERSION 2.0
 WRAP.                 NO:   ONE LINE PER DEPTH STEP
~WELL INFORMATION
#MNEM.UNIT      DATA TYPE    INFORMATION
#----------   ------------   ------------------------------
 STRT.F            6.0000:   START DEPTH
 STOP.F          765.0000:   STOP DEPTH
 STEP.F            0.5000:   STEP LENGTH
 NULL.          -999.2500:   NO VALUE
 COMP. FENIX & SCISSON INC:   COMPANY
 WELL.      24 SX 2 #24-2:   WELL
 FLD .        TEAPOT DOME:   FIELD
 LOC .       S2 T38N R78W:   LOCATION
 CNTY.            NATRONA:   COUNTY
 STAT.            WYOMING:   STATE
 CTRY. UNITED STATES OF AMERICA:   COUNTRY
 SRVC.           BIRDWELL:   SERVICE COMPANY
 DATE.        20-JAN-1978:   LOGDATE
 API .       490251055700:   API NUMBER
~CURVE INFORMATION
#MNEM.UNIT       API CODE    CURVE DESCRIPTION
#----------   ------------   ------------------------------
 DEPT.F                  :   
 SPR .MV     05 010 01 00:   SPONTANEOUS POTENTIAL FROM RES.
 SN  .OHMM   05 040 16 00:   SHORT NORMAL 16"
 ILD .OHMM   05 120 46 00:   INDUCTION LOG DEEP
 CALD.IN     45 280 60 00:   CALIPER FROM DENSITY LOG
 CORR.G/C3   45 356 01 00:   DENSITY CORRECTION
 DEN .G/C3   45 350 01 00:   COMPENSATED BULK DENSTIY
 DPHI.DEC    45 890 12 00:   DENSITY POROSITY SANDSTONE
 GRD .GAPI   45 310 01 00:   GAMMA RAY FROM DENSITY LOG
~PARAMETER INFORMATION
#MNEM.UNIT          VALUE    DESCRIPTION
#----------   ------------   ------------------------------
 PD  .                 GL:   PERMANENT DATUM
 EPD .F              5131:   ELEVATION PERMANENT DATUM
 LMF .                 KB:   LOG MEASURED FROM
 DMF .                 KB:   DRILLING MEASURED FROM
 EKB .F              5134:   KELLING BUSHING
 EGL .F              5131:   GROUND LEVEL
 DATE.        20-JAN-1978:   RUN DATE
 RUN .                  1:   RUN NUMBER
 DD  .F               775:   DEPTH DRILLER
 DL  .F               770:   DEPTH LOGGER
 BLI .F               770:   BOTTOM LOG INTERVAL
 TLI .F                40:   TOP LOG INTERVAL
 CS  .IN            8.625:   CASING SIZE
 CBD .F                39:   CASING BOTTOM DRILLER
 CBL .F                39:   CASING BOTTOM LOGGER
 BS  .IN            7.875:   BIT SIZE
 BSD .F               775:   BIT SIZE AT DEPTH
 DFT .                KCL:   DRILLING FLUID TYPE
 DFD .                8.6:   DRILLING FLUID DENSITY
 DFV .                 33:   DRILLING FLUID VISCOSITY
 DFPH.                9.5:   DRILLING FLUID PH
 DFL .                  8:   DRILLING FLUID LOSS
 MSS .           FLOWLINE:   MUD SAMPLE SOURCE
 RMS .OHMM            .31:   RESISTIVITY MUD SAMPLE
 MST .F                54:   MUD SAMPLE TEMPERATURE
 RMF .OHMM            .28:   RESISTIVITY MUD FILTRATE SAMPLE
 MFST.F                64:   MUD FILTRATE SAMPLE TEMPERATURE
 RMC .OHMM             .8:   RESISTIVITY MUD CAKE
 MCST.F                64:   MUD CAKE SAMPLE TEMPERATURE
 MFSS.               MEAS:   MUD FILTRATE SAMPLE SOURCE
 MCSS.               MEAS:   MUD CAKE SAMPLE SOURCE
 RMB .OHMM            .22:   RESISTIVITY MUD AT BHT
 BHT .F                76:   BOTTOM HOLE TEMPERATURE
 TCS .HRS            0400:   TIME CURCULATED STOPPED
 MRT .F                76:   MAXIMUM RECORDED TEMPERATURE
 LUN .               2958:   LOGGING UNIT NUMBER
 LUL .             CASPER:   LOGGING UNIT LOCATION
 ENGI.            POINTER:   RECORDING ENGINEER
 WITN.           MCGINLEY:   WITNESSED BY
 CLNT.            A2DTECH:   CLIENT CODE
 ORIG.           5" PRINT:   ORIGIN OF DATA
 UWI .       490251055700:   UNIQUE WELL ID
 DICO. A2D Technologies, Inc.:   DIGITIZING COMPANY
~OTHER INFORMATION
~A    DEPT     SPR         SN        ILD       CALD       CORR        DEN       DPHI         GRD  
# ...
  532.5000   -43.8104     6.8822     5.3064     7.8728     0.0861     2.3848     0.1668   116.5805
  533.0000   -43.8195     6.8783     5.2687     7.8574     0.0876     2.3712     0.1762   121.9932
  533.5000   -43.8286     6.6400     5.2676     7.8419     0.0861     2.3622     0.1828   121.6830
  534.0000   -43.8377     6.4099     5.2665     7.8264     0.0875     2.3531     0.1883   119.8667
  534.5000   -43.8467     6.2744     5.2290     7.8109     0.0913     2.3440     0.1925   119.2553
  535.0000   -43.7048     6.2275     5.2643     7.7954     0.1055     2.3380     0.1910   118.3427
  535.5000   -43.5633     6.2240     5.2998     7.7950     0.1099     2.3432     0.1793   109.5987
  536.0000   -43.2711     6.3075     5.3729     7.7945     0.1107     2.3733     0.1606   100.2524
  536.5000   -43.1277     6.5266     5.4844     7.7941     0.1121     2.4094     0.1549   101.4482
  537.0000   -43.1391     6.8477     5.6373     7.7936     0.1151     2.4154     0.1543   113.7886
  537.5000   -43.1482     7.1349     6.0826     7.8233     0.1173     2.3988     0.1567   120.1049
  538.0000   -43.0044     7.3827     6.6547     7.8530     0.1203     2.4010     0.1534   115.5778
  538.5000   -42.8628     7.4311     6.8879     7.8674     0.1210     2.4055     0.1486   113.4603
  539.0000   -42.8742     7.4786     6.9829     7.9122     0.1195     2.4100     0.1450   113.4513
  539.5000   -42.8832     7.5265     6.9329     7.9417     0.1187     2.4160     0.1444   113.4423
  540.0000   -43.0429     7.5213     6.6491     7.9564     0.1172     2.4069     0.1535   106.2044
  540.5000   -43.2026     7.5171     6.0750     7.9559     0.1225     2.4052     0.1685    99.5689
  541.0000   -43.2117     7.4609     5.5504     7.9554     0.1329     2.3828     0.1716    97.7526
  541.5000   -43.3714     7.3031     5.3603     7.9550     0.1351     2.3766     0.1656   107.0809
  542.0000   -43.6816     6.9048     5.2126     7.9545     0.1396     2.3805     0.1656   123.9394
  542.5000   -43.9919     6.4382     5.2116     7.9541     0.1486     2.3797     0.1535   126.6868
  543.0000   -44.4528     6.1295     5.2105     7.9536     0.1294     2.3827     0.1084   123.6202
  543.5000   -44.1607     6.0837     5.2821     7.9532     0.0882     2.4939     0.0789   114.5750
  544.0000   -43.7179     6.1662     5.3180     7.9527     0.0824     2.5165     0.0946   107.3371
  544.5000   -43.2752     6.4686     5.5040     7.9523     0.0824     2.4631     0.1358   104.9184
  545.0000   -43.1314     6.8818     5.8978     7.9518     0.0856     2.4457     0.1407   105.2108
  545.5000   -42.9899     7.3723     6.4079     7.9514     0.0999     2.4269     0.1440   105.5301
  546.0000   -43.0012     7.8431     6.8845     7.9509     0.1033     2.4246     0.1395    96.1564
  546.5000   -43.0103     8.1155     7.3153     7.9204     0.1055     2.4261     0.1380    94.9426
  547.0000   -43.0194     8.3405     7.6231     7.9049     0.1063     2.4253     0.1461    93.1264
  547.5000   -43.1790     8.6891     7.8344     7.9045     0.1047     2.4185     0.1392    92.5150
  548.0000   -43.1881     8.7460     7.9909     7.8890     0.1002     2.4313     0.1272    92.8071
  548.5000   -43.1972     8.7399     8.0448     7.8885     0.0979     2.4350     0.1329    94.6054
  549.0000   -43.3569     8.7971     7.9324     7.8881     0.0971     2.4357     0.1347   105.7409
  549.5000   -43.3659     8.7909     7.8760     7.8876     0.0971     2.4364     0.1357   109.6476
  550.0000   -43.3727     8.7265     7.8200     7.8881     0.0970     2.4334     0.1375   112.0482
  550.5000   -43.2434     8.7728     7.7633     7.8930     0.0957     2.4236     0.1417   114.0593
  551.0000   -43.1241     8.8155     7.7066     7.8979     0.0945     2.4251     0.1393   112.6506
  551.5000   -43.1037     8.8335     7.6511     7.9023     0.0940     2.4303     0.1369   110.8434
  552.0000   -42.8130     8.8284     7.5957     7.9023     0.0940     2.4363     0.1381   109.6386
  552.5000   -42.8238     8.8852     7.6459     7.9023     0.0940     2.4265     0.1391   106.9277
  553.0000   -42.8343     8.9422     7.6964     7.9023     0.0947     2.4265     0.1394   103.9157
  553.5000   -42.8449     8.9360     7.8005     7.9023     0.0947     2.4249     0.1409   104.2169
  554.0000   -42.8554     8.9311     7.9073     7.9173     0.0946     2.4234     0.1427   103.3133
  554.5000   -42.8680     8.9262     8.0149     7.9323     0.0924     2.4234     0.1424   100.0000
  555.0000   -43.1797     8.9213     8.2367     7.9474     0.0901     2.4233     0.1412   103.3133
  555.5000   -43.3408     8.9164     8.4653     7.9474     0.0886     2.4241     0.1394   104.8193
  556.0000   -43.3513     8.9735     8.7002     7.9474     0.0871     2.4210     0.1448   102.4096
  556.5000   -43.5124     8.9686     8.6973     7.9474     0.0863     2.4059     0.1540    94.8795
  557.0000   -43.5228     8.9017     8.2253     7.9474     0.0863     2.4029     0.1531    89.1566
  557.5000   -43.6839     8.7741     6.9626     7.9474     0.0862     2.3998     0.1567    89.8298
  558.0000   -43.8450     8.7086     5.8937     7.9474     0.0862     2.3908     0.1676    93.6988
  558.5000   -43.8555     8.5839     5.7306     7.9474     0.0869     2.3817     0.1715    94.9557
  559.0000   -44.0166     7.7309     5.7286     7.9474     0.0892     2.3784     0.1878   102.7753
  559.5000   -44.3283     6.9145     5.7266     7.9474     0.0974     2.3510     0.1968   115.0602
  560.0000   -44.4867     6.4922     5.7650     7.9023     0.0912     2.3305     0.1950   118.3735
  560.5000   -43.1444     6.4886     5.8429     7.9007     0.0891     2.3321     0.1794   112.3494
  561.0000   -42.2487     6.6676     5.8820     7.8851     0.0891     2.3899     0.1577   101.2048
  561.5000   -42.2618     7.1429     5.9616     7.8722     0.0891     2.4229     0.1424    92.4699
  562.0000   -42.1190     8.2592     6.2125     7.8722     0.0890     2.4327     0.1352    83.1325
  562.5000   -42.1321     9.4839     7.8605     7.8421     0.0890     2.4349     0.1325    78.9157
  563.0000   -41.9894     9.8818     9.2157     7.8421     0.0890     2.4356     0.1355    76.2048
  563.5000   -42.0025     9.9451     9.6705     7.8421     0.0860     2.4296     0.1398    79.2169
  564.0000   -41.7118     9.9396     9.9390     7.8120     0.0829     2.4265     0.1347    86.1446
  564.5000   -41.4184     9.9340    10.1443     7.7820     0.0814     2.4333     0.1334    88.8554
  565.0000   -40.9797    10.0046    10.2113     7.7820     0.0799     2.4325     0.1386    76.8072
  565.5000   -40.8370    10.2832    10.2077     7.7820     0.0799     2.4257     0.1410    72.2892
  566.0000   -40.6968    10.4964    10.2752     7.7820     0.0829     2.4234     0.1481    80.7229
  566.5000   -40.4087    10.8468    10.4874     7.7820     0.0843     2.4076     0.1543    87.9518
  567.0000   -40.2660    11.1460    10.7055     7.8120     0.0836     2.4053     0.1534    83.1325
  567.5000   -39.8273    11.5333    11.0049     7.8421     0.0820     2.4053     0.1516    84.0361
  568.0000   -39.0848    11.9340    11.3127     7.8872     0.0805     2.4052     0.1574    84.9398
  568.5000   -38.3422    12.5212    11.7190     7.9023     0.0828     2.3879     0.1833    75.7776
  569.0000   -37.5997    13.0465    12.3024     7.9173     0.0887     2.3442     0.2002    61.7387
  569.5000   -36.8572    13.7838    13.1107     7.8421     0.1059     2.3209     0.2186    33.7596
  570.0000   -36.2652    14.5628    14.3892     7.7820     0.1127     2.2877     0.2273    16.8675
  570.5000   -35.5227    15.1737    16.4086     7.7218     0.1096     2.2764     0.2184     9.3373
  571.0000   -35.2320    15.7009    19.2375     7.7218     0.1104     2.2938     0.2174    15.6627
  571.5000   -34.7902    16.2464    19.7725     7.7669     0.1126     2.2882     0.2304    25.0000
  572.0000   -34.3453    16.6945    19.9032     7.7970     0.1126     2.2688     0.2274    26.2048
  572.5000   -34.0512    17.0364    19.8963     7.8271     0.1118     2.2863     0.2189    23.7952
