~VERSION INFORMATION
 VERS.                2.0:   CWLS LOG ASCII STANDARD - VERSION 2.0
 WRAP.                 NO:   ONE LINE PER DEPTH STEP
~WELL INFORMATION
#MNEM.UNIT      DATA TYPE    INFORMATION
#----------   ------------   ------------------------------
 STRT.F           43.0000:   START DEPTH
 STOP.F          620.0000:   STOP DEPTH
 STEP.F            0.5000:   STEP LENGTH
 NULL.          -999.2500:   NO VALUE
 COMP. FENIX & SCISSON INC:   COMPANY
 WELL.      16 SX 2 #16-2:   WELL
 FLD .             TEAPOT:   FIELD
 LOC .       S2 T38N R78W:   LOCATION
 CNTY.            NATRONA:   COUNTY
 STAT.            WYOMING:   STATE
 CTRY. UNITED STATES OF AMERICA:   COUNTRY
 SRVC.            Unknown:   SERVICE COMPANY
 DATE.        11-OCT-1978:   LOGDATE
 API .       490251071400:   API NUMBER
~CURVE INFORMATION
#MNEM.UNIT       API CODE    CURVE DESCRIPTION
#----------   ------------   ------------------------------
 DEPT.F                  :   
 SPR .MV     05 010 01 00:   SPONTANEOUS POTENTIAL FROM RES.
 SN  .OHMM   05 040 16 00:   SHORT NORMAL 16"
 ILD .OHMM   05 120 46 00:   INDUCTION LOG DEEP
 CALD.IN     45 280 60 00:   CALIPER
 GRD .GAPI   45 310 01 00:   GAMMA RAY FROM DENSITY LOG
 DPHI.DEC    45 890 12 00:   DENSITY POROSITY SANDSTONE
 RHOB.G/C3   45 350 01 00:   BULK DENSITY
 DRHO.G/C3   45 356 01 00:   DENSITY CORRECTION
~PARAMETER INFORMATION
#MNEM.UNIT          VALUE    DESCRIPTION
#----------   ------------   ------------------------------
 PD  .                 GL:   PERMANENT DATUM
 EPD .F              5135:   ELEVATION PERMANENT DATUM
 LMF .                 KB:   LOG MEASURED FROM
 DAPD.F                 4:   FEET ABOVE PERMANENT DATUM
 DMF .                 KB:   DRILLING MEASURED FROM
 EKB .F              5139:   KELLING BUSHING
 EGL .F              5135:   GROUND LEVEL
 DATE.           10-11-78:   RUN DATE
 RUN .                  1:   RUN NUMBER
 DD  .F               620:   DEPTH DRILLER
 DL  .F               620:   DEPTH LOGGER
 BLI .F               614:   BOTTOM LOG INTERVAL
 TLI .F                40:   TOP LOG INTERVAL
 CS  .IN            8.625:   CASING SIZE
 CBD .F                40:   CASING BOTTOM DRILLER
 CBL .F                40:   CASING BOTTOM LOGGER
 BS  .IN            7.875:   BIT SIZE
 BSD .F               620:   BIT SIZE AT DEPTH
 DFT .                KCL:   DRILLING FLUID TYPE
 RMS .OHMM            .16:   RESISTIVITY MUD SAMPLE
 MST .F                66:   MUD SAMPLE TEMPERATURE
 RMF .OHMM            .16:   RESISTIVITY MUD FILTRATE SAMPLE
 MFST.F                70:   MUD FILTRATE SAMPLE TEMPERATURE
 RMC .OHMM             .2:   RESISTIVITY MUD CAKE
 MCST.F                71:   MUD CAKE SAMPLE TEMPERATURE
 TCS .HRS               1:   TIME CURCULATED STOPPED
 MRT .F                70:   MAXIMUM RECORDED TEMPERATURE
 LUN .               2958:   LOGGING UNIT NUMBER
 LUL .               CASP:   LOGGING UNIT LOCATION
 ENGI.             MILLER:   RECORDING ENGINEER
 WITN.              AMEND:   WITNESSED BY
 CLNT.            A2DTECH:   CLIENT CODE
 ORIG.           5" PRINT:   ORIGIN OF DATA
 UWI .       490251071400:   UNIQUE WELL ID
 DICO. A2D Technologies, Inc.:   DIGITIZING COMPANY
~OTHER INFORMATION
~A   DEPT      SPR         SN        ILD       CALD         GRD      DPHI       RHOB       DRHO   
   43.0000  -999.2500  -999.2500  -999.2500  -999.2500    85.7171  -999.2500  -999.2500  -999.2500
   43.5000  -999.2500  -999.2500  -999.2500  -999.2500    86.9067  -999.2500  -999.2500  -999.2500
   44.0000  -999.2500  -999.2500  -999.2500  -999.2500    90.3216  -999.2500  -999.2500  -999.2500
   44.5000  -999.2500  -999.2500  -999.2500  -999.2500    93.0644  -999.2500  -999.2500  -999.2500
   45.0000  -999.2500  -999.2500  -999.2500  -999.2500    96.4980  -999.2500  -999.2500  -999.2500
   45.5000  -999.2500  -999.2500  -999.2500  -999.2500    98.9207  -999.2500  -999.2500  -999.2500
   46.0000  -999.2500     3.4377     3.5341  -999.2500    93.8881  -999.2500  -999.2500  -999.2500
   46.5000  -999.2500     3.4377     3.5341  -999.2500    91.7438  -999.2500  -999.2500  -999.2500
   47.0000  -999.2500     3.4377     3.5341  -999.2500    92.2806  -999.2500  -999.2500  -999.2500
   47.5000  -999.2500     3.4540     3.6199  -999.2500    93.6615  -999.2500  -999.2500  -999.2500
   48.0000  -999.2500     3.4374     3.8040  -999.2500    95.7493  -999.2500  -999.2500  -999.2500
   48.5000  -999.2500     3.4518     3.7336  -999.2500   100.0430  -999.2500  -999.2500  -999.2500
   49.0000  -999.2500     3.4697     3.6623  -999.2500    94.8931  -999.2500  -999.2500  -999.2500
   49.5000  -999.2500     3.4695     3.6332  -999.2500    85.0417  -999.2500  -999.2500  -999.2500
   50.0000  -999.2500     3.4695     3.6647  -999.2500    80.1714  -999.2500  -999.2500  -999.2500
   50.5000  -999.2500     3.4695     3.6909  -999.2500    82.8214  -999.2500  -999.2500  -999.2500
   51.0000  -999.2500     3.4694     3.7173  -999.2500    87.5151  -999.2500  -999.2500  -999.2500
   51.5000  -999.2500     3.4725     3.7351  -999.2500    92.2514  -999.2500  -999.2500  -999.2500
   52.0000  -999.2500     3.4767     3.4514  -999.2500    96.5929  -999.2500  -999.2500  -999.2500
   52.5000  -999.2500     3.4809     3.1723  -999.2500    86.4201  -999.2500  -999.2500  -999.2500
   53.0000  -999.2500     3.4850     2.9157  -999.2500    82.3888  -999.2500  -999.2500  -999.2500
   53.5000  -999.2500     3.4892     2.6799  -999.2500    81.3144  -999.2500  -999.2500  -999.2500
   54.0000  -999.2500     3.4933     2.4632  -999.2500    77.7434  -999.2500  -999.2500  -999.2500
   54.5000  -999.2500     3.4995     2.3994  -999.2500    77.0073  -999.2500  -999.2500  -999.2500
   55.0000  -999.2500     3.4991     2.3774  -999.2500    77.2977  -999.2500  -999.2500  -999.2500
   55.5000  -999.2500     3.5341     2.5171  -999.2500    75.6522  -999.2500  -999.2500  -999.2500
   56.0000  -999.2500     3.6112     2.6620  -999.2500    73.9515  -999.2500  -999.2500  -999.2500
   56.5000  -999.2500     3.7358     2.8153  -999.2500    73.9821  -999.2500  -999.2500  -999.2500
   57.0000  -999.2500     3.8398     2.9662    10.5642    79.0814     0.2811     2.1291     0.1241
   57.5000  -999.2500     4.1696     3.5942     9.5610    84.7986     0.2361     2.2669     0.0692
   58.0000  -999.2500     4.6797     4.3027     8.5579    90.5187     0.2096     2.3781     0.0528
   58.5000  -999.2500     5.2521     5.1510     7.9524    96.2185     0.1865     2.3963     0.0464
   59.0000  -999.2500     6.0885     6.2593     7.8600   101.9424     0.1675     2.4071     0.0387
   59.5000  -999.2500     6.0377     6.3758     7.7756   104.8522     0.1795     2.3928     0.0382
   60.0000  -999.2500     5.9424     6.2370     7.7105   104.8425     0.1884     2.3826     0.0425
   60.5000  -999.2500     5.8469     6.1288     7.8129   104.8477     0.1906     2.3743     0.0551
   61.0000  -999.2500     5.7531     6.0225     7.9177   105.8144     0.1877     2.3816     0.0577
   61.5000  -999.2500     5.6614     5.9181     8.0215   106.8875     0.1812     2.3936     0.0427
   62.0000  -999.2500     5.5711     5.8142     8.1417   108.5235     0.1738     2.4055     0.0278
   62.5000  -999.2500     5.5523     5.8142     7.7343   110.4707     0.1665     2.4175     0.0129
   63.0000  -999.2500     5.5523     5.8872     7.6703   117.9972     0.1591     2.4295     0.0044
   63.5000  -999.2500     5.7153     6.0702     7.6184   125.3945     0.1538     2.4304     0.0054
   64.0000  -999.2500     5.8811     6.2589     7.5753   126.1872     0.1547     2.4294     0.0128
   64.5000  -999.2500     6.0516     6.4535     7.5323   122.2430     0.1552     2.4286     0.0323
   65.0000  -999.2500     6.2272     6.6541     7.5084   114.3949     0.1552     2.4326     0.0513
   65.5000  -999.2500     6.4078     6.8610     7.5198   106.5545     0.1477     2.4513     0.0685
   66.0000  -999.2500     6.5936     7.0563     7.6294   100.6691     0.1392     2.4694     0.0659
   66.5000  -999.2500     6.6153     7.0563     7.8088    99.5256     0.1301     2.4774     0.0434
   67.0000  -999.2500     6.5026     7.0563     7.9295    98.3446     0.1409     2.4628     0.0319
   67.5000  -999.2500     6.3449     6.9751     7.9919    97.1816     0.1425     2.4535     0.0521
   68.0000  -999.2500     6.1902     6.8198     8.0539    97.5613     0.1404     2.4533     0.0847
   68.5000  -999.2500     6.0311     6.6679     8.0985   102.1485     0.1383     2.4564     0.1200
   69.0000  -999.2500     6.0333     6.5194     8.0983   105.4979     0.1362     2.4601     0.1553
   69.5000  -999.2500     6.0474     6.3743     8.0715   105.3723     0.1341     2.4677     0.1906
   70.0000  -999.2500     6.0673     6.2007     7.9327   105.2910     0.1262     2.4942     0.2262
   70.5000  -999.2500     6.0871     6.2023     7.7549   105.2118     0.1162     2.5156     0.2618
   71.0000  -999.2500     6.1069     6.2108     7.5761   106.5409     0.1046     2.5124     0.2654
   71.5000  -999.2500     6.1268     6.2199     7.3984   109.4167     0.1133     2.4936     0.1953
   72.0000  -999.2500     6.1468     6.2290     7.3197   111.9659     0.1238     2.4803     0.1357
   72.5000  -999.2500     6.1669     6.2381     7.2746   111.3464     0.1343     2.4670     0.0769
   73.0000  -999.2500     6.1870     6.2475     7.4025   109.6532     0.1440     2.4538     0.0466
   73.5000  -999.2500     6.2282     6.2555     7.5329   108.7516     0.1444     2.4516     0.0270
   74.0000  -999.2500     6.3306     6.3686     7.6626   112.5607     0.1371     2.4615     0.0219
   74.5000  -999.2500     6.4342     6.5358     7.7843   117.8582     0.1321     2.4717     0.0169
   75.0000  -999.2500     6.5399     6.7074     7.8427   123.2710     0.1297     2.4729     0.0124
   75.5000  -999.2500     6.6472     6.9022     7.9001   124.8990     0.1299     2.4714     0.0132
   76.0000  -999.2500     6.7562     7.2468     7.9575   117.0974     0.1300     2.4715     0.0139
   76.5000  -999.2500     6.8671     7.6118     7.9988   109.5252     0.1291     2.4826     0.0147
   77.0000   -99.7012     6.9797     7.9935     7.9981   110.7632     0.1233     2.4936     0.0155
   77.5000   -99.7012     7.0942     8.3301     7.9980   111.6467     0.1139     2.5046     0.0163
   78.0000   -98.7052     7.1217     8.3301     7.9980   109.9575     0.1046     2.5155     0.0170
   78.5000   -98.5460     7.0385     8.3301     7.9980   108.3307     0.0935     2.5268     0.0178
   79.0000   -98.3866     6.9782     8.3301     7.9980   107.1393     0.1027     2.5282     0.0197
   79.5000   -98.0796     6.9185     8.2807     7.9980   105.9323     0.1141     2.5056     0.0263
   80.0000   -97.7726     6.8593     8.0443     7.9980   104.7218     0.1256     2.4897     0.0329
   80.5000   -97.4641     6.8006     7.8149     7.9980   103.6598     0.1286     2.4788     0.0394
   81.0000   -97.1556     6.7424     7.5916     7.9981   104.5079     0.1261     2.4737     0.0427
   81.5000   -96.8456     6.6845     7.3747     7.9981   107.5829     0.1288     2.4702     0.0453
   82.0000   -96.5273     6.6763     7.1640     7.9954   110.6182     0.1314     2.4666     0.0557
   82.5000   -96.3134     6.6891     7.0560     7.9707   113.6590     0.1340     2.4630     0.0693
   83.0000   -96.0961     6.7153     7.0991     7.9457   116.7353     0.1366     2.4594     0.0830
