~VERSION INFORMATION
 VERS.                2.0:   CWLS LOG ASCII STANDARD - VERSION 2.0
 WRAP.                 NO:   ONE LINE PER DEPTH STEP
~WELL INFORMATION
#MNEM.UNIT      DATA TYPE    INFORMATION
#----------   ------------   ------------------------------
 STRT.F           32.0000:   START DEPTH
 STOP.F          517.0000:   STOP DEPTH
 STEP.F            0.5000:   STEP LENGTH
 NULL.          -999.2500:   NO VALUE
 COMP.    FENIX & SCISSON:   COMPANY
 WELL.        NPR #75-S-3:   WELL
 FLD .             TEAPOT:   FIELD
 LOC .       S3 T38N R78W:   LOCATION
 CNTY.            NATRONA:   COUNTY
 STAT.            WYOMING:   STATE
 CTRY. UNITED STATES OF AMERICA:   COUNTRY
 SRVC.              Welex:   SERVICE COMPANY
 DATE.        08-MAR-1977:   LOGDATE
 API .       490251030900:   API NUMBER
~CURVE INFORMATION
#MNEM.UNIT       API CODE    CURVE DESCRIPTION
#----------   ------------   ------------------------------
 DEPT.F                  :   
 SPR .MV     07 010 01 00:   SPONTANEOUS POTENTIAL
 ILD .OHMM   07 120 46 00:   INDUCTION LOG DEEP RES
 ILM .OHMM   07 120 44 00:   INDUCTION LOG MEDIUM RES
 SGRD.OHMM   07 220 05 00:   SHALLOW  GUARD RESISTIVITY
 CALD.IN     45 280 60 00:   CALIPER FROM DENSITY
 GRD .GAPI   45 310 01 00:   GAMMA RAY FROM DENSITY LOG
 CORR.G/C3   45 356 01 00:   DENSITY CORRECTION
 DPHI.DEC    45 890 12 00:   DENSITY POROSITY SANDSTONE
 RHOB.G/C3   45 350 01 00:   BULK DENSITY
~PARAMETER INFORMATION
#MNEM.UNIT          VALUE    DESCRIPTION
#----------   ------------   ------------------------------
 PD  .                 GL:   PERMANENT DATUM
 EPD .F              5141:   ELEVATION PERMANENT DATUM
 LMF .                 GL:   LOG MEASURED FROM
 DMF .                 GL:   DRILLING MEASURED FROM
 EGL .F              5141:   GROUND LEVEL
 DATE.         03-08-1977:   RUN DATE
 RUN .                  1:   RUN NUMBER
 DD  .F               521:   DEPTH DRILLER
 DL  .F               521:   DEPTH LOGGER
 BLI .F               519:   BOTTOM LOG INTERVAL
 TLI .F                35:   TOP LOG INTERVAL
 CS  .IN            8.625:   CASING SIZE
 CBD .F                40:   CASING BOTTOM DRILLER
 CBL .F                42:   CASING BOTTOM LOGGER
 BS  .IN            7.875:   BIT SIZE
 BSD .F               521:   BIT SIZE AT DEPTH
 DFT .            KCL MUD:   DRILLING FLUID TYPE
 DFD .                8.5:   DRILLING FLUID DENSITY
 DFV .                 32:   DRILLING FLUID VISCOSITY
 DFPH.                  8:   DRILLING FLUID PH
 DFL .                8.5:   DRILLING FLUID LOSS
 MSS .            MUD PIT:   MUD SAMPLE SOURCE
 RMS .OHMM            .65:   RESISTIVITY MUD SAMPLE
 MST .F                53:   MUD SAMPLE TEMPERATURE
 RMF .OHMM            .51:   RESISTIVITY MUD FILTRATE SAMPLE
 MFST.F                58:   MUD FILTRATE SAMPLE TEMPERATURE
 RMC .OHMM            .67:   RESISTIVITY MUD CAKE
 MCST.F                54:   MUD CAKE SAMPLE TEMPERATURE
 MFSS.           FANN KIT:   MUD FILTRATE SAMPLE SOURCE
 MCSS.           FANN KIT:   MUD CAKE SAMPLE SOURCE
 RMB .OHMM            .53:   RESISTIVITY MUD AT BHT
 BHT .F                64:   BOTTOM HOLE TEMPERATURE
 TCS .HRS             1.5:   TIME CURCULATED STOPPED
 MRT .F                64:   MAXIMUM RECORDED TEMPERATURE
 LUN .               8611:   LOGGING UNIT NUMBER
 LUL .           GILLETTE:   LOGGING UNIT LOCATION
 ENGI.               DOAK:   RECORDING ENGINEER
 WITN.           S. BURKE:   WITNESSED BY
 CLNT.            A2DTECH:   CLIENT CODE
 ORIG.           5" PRINT:   ORIGIN OF DATA
 UWI .       490251030900:   UNIQUE WELL ID
 DICO. A2D Technologies, Inc.:   DIGITIZING COMPANY
~OTHER INFORMATION
~A   DEPT      SPR        ILD        ILM       SGRD       CALD        GRD        CORR        DPHI       RHOB 
   32.0000  -999.2500  -999.2500  -999.2500  -999.2500  -999.2500   111.3339    -0.3258     0.5751     1.3082
   32.5000  -999.2500  -999.2500  -999.2500  -999.2500     7.9873   110.7641    -0.3138     0.5668     1.3240
   33.0000  -999.2500  -999.2500  -999.2500  -999.2500     7.9861   110.7860    -0.2988     0.5575     1.3465
   33.5000  -999.2500  -999.2500  -999.2500  -999.2500     7.9849   111.1038    -0.2808     0.5350     1.3842
   34.0000  -999.2500  -999.2500  -999.2500  -999.2500     7.9837   113.1967    -0.2578     0.5192     1.4528
   34.5000  -999.2500  -999.2500  -999.2500  -999.2500     7.9825   116.1772    -0.2267     0.5024     1.5097
   35.0000  -999.2500  -999.2500  -999.2500  -999.2500     7.9813   121.0808    -0.1937     0.4772     1.5644
   35.5000  -999.2500  -999.2500  -999.2500  -999.2500     7.9801   124.9489    -0.1515     0.4486     1.6469
   36.0000  -999.2500  -999.2500  -999.2500  -999.2500     7.9789   127.6335    -0.0871     0.3695     1.8828
   36.5000  -999.2500  -999.2500  -999.2500  -999.2500     7.9778   130.4661    -0.0405     0.3225     1.9801
   37.0000  -999.2500  -999.2500  -999.2500  -999.2500     7.9766   133.3135    -0.0060     0.2784     2.0371
   37.5000  -999.2500  -999.2500  -999.2500  -999.2500     7.9754   135.2934     0.0255     0.2180     2.2097
   38.0000  -999.2500  -999.2500  -999.2500  -999.2500     7.9742   137.2486     0.0526     0.1350     2.4253
   38.5000  -999.2500  -999.2500  -999.2500  -999.2500     7.9730   138.5971     0.0662     0.1105     2.4798
   39.0000  -999.2500  -999.2500  -999.2500  -999.2500     7.9718   140.1965     0.0676     0.1183     2.4573
   39.5000  -999.2500  -999.2500  -999.2500  -999.2500     7.9706   141.9936     0.0661     0.1198     2.4490
   40.0000  -999.2500  -999.2500  -999.2500  -999.2500     7.9694   144.6782     0.0661     0.1168     2.4528
   40.5000  -999.2500  -999.2500  -999.2500  -999.2500     7.9682   146.7711     0.0646     0.1123     2.4603
   41.0000  -999.2500  -999.2500  -999.2500  -999.2500     7.9670   148.3187     0.0631     0.1084     2.4670
   41.5000  -999.2500     7.8425  -999.2500  -999.2500     7.9659   148.8031     0.0616     0.1036     2.4723
   42.0000  -999.2500     6.6482     8.1528  -999.2500     7.9647   149.2874     0.0598     0.1009     2.4760
   42.5000  -999.2500     6.6026     7.9841  -999.2500     7.9635   150.5385     0.0571     0.1003     2.4775
   43.0000  -999.2500     6.6026     8.1044  -999.2500     7.9623   153.0754     0.0556     0.1016     2.4767
   43.5000  -999.2500     6.8010     8.3779  -999.2500     7.9611   154.8716     0.0526     0.1063     2.4708
   44.0000  -999.2500     7.7887     8.7912  -999.2500     7.9599   156.5197     0.0511     0.1096     2.4648
   44.5000  -999.2500     9.1878     9.6135  -999.2500     7.9587   155.2048     0.0511     0.1114     2.4603
   45.0000  -999.2500     9.9105    10.7320  -999.2500     7.9575   152.4084     0.0511     0.1120     2.4581
   45.5000  -999.2500     9.8426    11.4173  -999.2500     7.9563   149.0210     0.0526     0.1105     2.4580
   46.0000  -999.2500     9.4443    10.2275  -999.2500     7.9551   148.7385     0.0571     0.1083     2.4620
   46.5000  -999.2500     9.2513    10.0131  -999.2500     7.9540   149.2060     0.0586     0.1042     2.4715
   47.0000  -999.2500     9.2513    10.3019  -999.2500     7.9534   152.3602     0.0616     0.1000     2.4805
   47.5000  -999.2500     9.4498    11.0620  -999.2500     7.9544   152.8000     0.0631     0.0949     2.4888
   48.0000  -999.2500     9.7080    11.9805  -999.2500     7.9553   144.5191     0.0646     0.0889     2.4963
   48.5000  -999.2500     9.7750    11.1841  -999.2500     7.9561   145.7227     0.0691     0.0871     2.4993
   49.0000  -999.2500     8.8161     9.6799  -999.2500     7.9569   150.1738     0.0691     0.0868     2.4985
   49.5000  -999.2500     8.4013     9.2885  -999.2500     7.9577   152.3778     0.0721     0.0892     2.4948
   50.0000  -999.2500     8.2865     9.1616  -999.2500     7.9585   154.1475     0.0751     0.0910     2.4910
   50.5000  -999.2500     8.2296     9.1616  -999.2500     7.9590   153.9695     0.0781     0.0928     2.4899
   51.0000  -999.2500     8.2296     9.2248  -999.2500     7.9591   152.7998     0.0811     0.0940     2.4932
   51.5000  -999.2500     8.2296     9.3526  -999.2500     7.9592   151.7614     0.0826     0.0943     2.4924
   52.0000  -999.2500     8.2296     9.4232  -999.2500     7.9594   150.8876     0.0841     0.0943     2.4940
   52.5000  -999.2500     8.2296     9.6135  -999.2500     7.9595   153.9610     0.0841     0.0934     2.4986
   53.0000  -999.2500     8.2296     9.6799  -999.2500     7.9596   157.6537     0.0841     0.0922     2.5031
   53.5000  -999.2500     8.1732     9.6799  -999.2500     7.9597   160.5522     0.0826     0.0916     2.5017
   54.0000  -999.2500     8.0614     9.6799  -999.2500     7.9598   160.1524     0.0811     0.0925     2.4980
   54.5000  -999.2500     8.0061     9.6799  -999.2500     7.9599   157.1006     0.0780     0.0955     2.4905
   55.0000  -999.2500     7.8425     9.6135  -999.2500     7.9600   154.1420     0.0706     0.0991     2.4838
   55.5000  -999.2500     7.6822     9.3526  -999.2500     7.9601   156.9527     0.0631     0.1033     2.4779
   56.0000  -999.2500     7.5771     9.0988  -999.2500     7.9603   163.4615     0.0586     0.1069     2.4719
   56.5000  -999.2500     7.4223     8.7848  -999.2500     7.9604   168.4911     0.0571     0.1099     2.4682
   57.0000  -999.2500     7.2706     8.4754  -999.2500     7.9605   169.9842     0.0556     0.1126     2.4645
   57.5000  -999.2500     7.1712     8.1505  -999.2500     7.9606   164.6450     0.0541     0.1144     2.4601
   58.0000  -999.2500     7.0246     7.9294  -999.2500     7.9607   162.2781     0.0526     0.1147     2.4586
   58.5000  -999.2500     7.0246     7.9294  -999.2500     7.9608   161.0947     0.0526     0.1135     2.4647
   59.0000  -999.2500     7.0246     7.9294  -999.2500     7.9609   159.9112     0.0554     0.1109     2.4731
   59.5000  -999.2500     7.0246     8.2280  -999.2500     7.9610   158.1361     0.0556     0.1063     2.4815
   60.0000  -999.2500     7.1220     8.4614  -999.2500     7.9612   154.7337     0.0573     0.1015     2.4876
   60.5000  -999.2500     7.1712     8.7015  -999.2500     7.9613   150.7396     0.0574     0.0979     2.4922
   61.0000  -999.2500     7.3208     8.8868  -999.2500     7.9614   146.1883     0.0576     0.0958     2.4936
   61.5000  -999.2500     7.4223     9.0136  -999.2500     7.9615   144.8734     0.0577     0.0958     2.4907
   62.0000  -999.2500     7.5771     9.1422  -999.2500     7.9616   143.1140     0.0594     0.0976     2.4885
   62.5000  -999.2500     7.6295     9.1453  -999.2500     7.9621   143.8732     0.0596     0.1000     2.4855
   63.0000  -999.2500     7.7352     9.2119  -999.2500     7.9636   145.6694     0.0613     0.1021     2.4818
   63.5000  -999.2500     7.7887     9.2789  -999.2500     7.9651   146.8731     0.0644     0.1027     2.4774
   64.0000  -999.2500     7.7887     9.2821  -999.2500     7.9666   147.0397     0.0676     0.1030     2.4729
   64.5000  -999.2500     7.8717     9.2214  -999.2500     7.9682   144.6831     0.0723     0.1033     2.4753
   65.0000  -999.2500     7.8750     9.0979  -999.2500     7.9697   146.3358     0.0755     0.1030     2.4821
   65.5000  -999.2500     7.9327     8.9727  -999.2500     7.9712   148.2802     0.0787     0.1000     2.4927
   66.0000  -999.2500     7.9360     8.9174  -999.2500     7.9728   149.3356     0.0789     0.0955     2.5018
   66.5000  -999.2500     7.9941     8.9888  -999.2500     7.9743   148.6133     0.0790     0.0910     2.5048
   67.0000  -999.2500     7.9974     9.1737  -999.2500     7.9758   146.5577     0.0745     0.0874     2.5034
   67.5000  -999.2500     8.0561     9.2405  -999.2500     7.9773   141.5391     0.0686     0.0910     2.4974
   68.0000  -999.2500     8.1151     9.3836  -999.2500     7.9789   138.8909     0.0611     0.0979     2.4900
