~VERSION INFORMATION
 VERS.                2.0:   CWLS LOG ASCII STANDARD - VERSION 2.0
 WRAP.                 NO:   ONE LINE PER DEPTH STEP
~WELL INFORMATION
#MNEM.UNIT      DATA TYPE    INFORMATION
#----------   ------------   ------------------------------
 STRT.F           24.0000:   START DEPTH
 STOP.F          472.0000:   STOP DEPTH
 STEP.F            0.5000:   STEP LENGTH
 NULL.          -999.2500:   NO VALUE
 COMP. FENIX & SCISSON INC:   COMPANY
 WELL. 55-66 SX-3-FP #55-3:   WELL
 FLD .             WLDCAT:   FIELD
 LOC .       S3 T38N R78W:   LOCATION
 CNTY.            NATRONA:   COUNTY
 STAT.            WYOMING:   STATE
 CTRY. UNITED STATES OF AMERICA:   COUNTRY
 SRVC.              Welex:   SERVICE COMPANY
 DATE.        11-JUN-1980:   LOGDATE
 API .       490251082200:   API NUMBER
~CURVE INFORMATION
#MNEM.UNIT       API CODE    CURVE DESCRIPTION
#----------   ------------   ------------------------------
 DEPT.F                  :   
 SPR .MV     07 010 01 00:   SPONTANEOUS POTENTIAL
 GURD.OHMM   07 220 05 00:   GUARD RESISTIVITY
 ILD .OHMM   07 120 46 00:   INDUCTION LOG DEEP RESISTIVITY
 ILM .OHMM   07 120 44 00:   INDUCTION LOG MEDIUM
 DPHI.DEC    45 890 12 00:   DENSITY POROSITY SANDSTONE
 NPHI.DEC    42 890 03 00:   NEUTRON POROSITY SANDSTONE
 CORR.G/C3   45 356 01 00:   DENSITY CORRECTION
 RHOB.G/C3   45 350 01 00:   BULK DENSITY
 CALD.IN     45 280 60 00:   CALIPER
 GRD .GAPI   45 310 01 00:   GAMMA RAY FROM DENSITY LOG
~PARAMETER INFORMATION
#MNEM.UNIT          VALUE    DESCRIPTION
#----------   ------------   ------------------------------
 PD  .                 GL:   PERMANENT DATUM
 EPD .F              5169:   ELEVATION PERMANENT DATUM
 LMF .                 KB:   LOG MEASURED FROM
 DAPD.F                 5:   FEET ABOVE PERMANENT DATUM
 DMF .                 KB:   DRILLING MEASURED FROM
 EKB .F              5174:   KELLING BUSHING
 EGL .F              5169:   GROUND LEVEL
 DATE.            6-11-80:   RUN DATE
 RUN .                  1:   RUN NUMBER
 DD  .F               472:   DEPTH DRILLER
 DL  .F               472:   DEPTH LOGGER
 BLI .F               470:   BOTTOM LOG INTERVAL
 TLI .F                30:   TOP LOG INTERVAL
 BS  .IN            9.875:   BIT SIZE
 BSD .F               472:   BIT SIZE AT DEPTH
 DFT .                KCL:   DRILLING FLUID TYPE
 DFD .                9.5:   DRILLING FLUID DENSITY
 DFV .                 47:   DRILLING FLUID VISCOSITY
 DFPH.                 12:   DRILLING FLUID PH
 DFL .                7.2:   DRILLING FLUID LOSS
 MSS .           MUD TANK:   MUD SAMPLE SOURCE
 RMS .OHMM            .26:   RESISTIVITY MUD SAMPLE
 MST .F                75:   MUD SAMPLE TEMPERATURE
 RMF .OHMM            .21:   RESISTIVITY MUD FILTRATE SAMPLE
 MFST.F                75:   MUD FILTRATE SAMPLE TEMPERATURE
 RMC .OHMM            .31:   RESISTIVITY MUD CAKE
 MCST.F                75:   MUD CAKE SAMPLE TEMPERATURE
 MFSS.           MEASURED:   MUD FILTRATE SAMPLE SOURCE
 MCSS.           MEASURED:   MUD CAKE SAMPLE SOURCE
 RMB .OHMM            .26:   RESISTIVITY MUD AT BHT
 BHT .F                75:   BOTTOM HOLE TEMPERATURE
 TCS .HRS             1.5:   TIME CURCULATED STOPPED
 MRT .F                75:   MAXIMUM RECORDED TEMPERATURE
 LUN .               9685:   LOGGING UNIT NUMBER
 LUL .             CASPER:   LOGGING UNIT LOCATION
 ENGI.               REIN:   RECORDING ENGINEER
 WITN.          DINSMOORE:   WITNESSED BY
 CLNT.            A2DTECH:   CLIENT CODE
 ORIG.           5" PRINT:   ORIGIN OF DATA
 UWI .       490251082200:   UNIQUE WELL ID
 DICO. A2D Technologies, Inc.:   DIGITIZING COMPANY
~OTHER INFORMATION
~A   DEPT      SPR       GURD        ILD        ILM         DPHI       NPHI     CORR       RHOB        CALD       GRD   
# ...
  292.0000   -40.0589    26.9375    18.4400    23.1721     0.1669     0.2627     0.0804     2.3293    10.0247    72.2253
  292.5000   -40.1755    25.5701    18.0287    23.1721     0.1519     0.2567     0.0909     2.3512    10.0285    73.3156
  293.0000   -40.2921    24.8958    17.6266    23.9599     0.1468     0.2560     0.1032     2.3732    10.0323    73.4343
  293.5000   -40.4087    30.0350    17.2621    24.2631     0.1430     0.2599     0.1081     2.3886    10.0362    73.0694
  294.0000   -40.5253    25.6375    17.2870    22.7496     0.1370     0.2631     0.1005     2.3986    10.0302    72.7006
  294.5000   -40.6419    25.6180    17.3155    22.7496     0.1319     0.2655     0.0889     2.4070    10.0224    72.7102
  295.0000   -40.7585    28.0597    17.3438    26.3094     0.1289     0.2693     0.0958     2.4154    10.0145    73.1080
  295.5000   -40.8751    34.7368    17.3724    30.2587     0.1263     0.2733     0.1097     2.4213    10.0067    73.5003
  296.0000   -40.9916    29.4140    17.4022    26.7832     0.1369     0.2751     0.1120     2.4166     9.9988    73.3518
  296.5000   -41.1082    24.7137    17.4242    23.3240     0.1479     0.2747     0.0740     2.3917    10.0077    72.3744
  297.0000   -41.2248    24.1270    17.0529    22.5994     0.1451     0.2757     0.0698     2.3769    10.0215    73.3288
  297.5000   -41.3414    23.5990    16.7724    22.1302     0.1404     0.2772     0.1089     2.3907    10.0353    74.8259
  298.0000   -41.4580    23.0826    16.4958    21.6864     0.1357     0.2804     0.1054     2.4044    10.0492    76.3366
  298.5000   -41.5746    22.5810    16.2239    21.0595     0.1231     0.2808     0.1047     2.4195    10.0630    77.8664
  299.0000   -41.6912    22.1206    15.9564    20.4507     0.1228     0.2785     0.1129     2.4356    10.0768    78.7240
  299.5000   -41.8078    21.8268    15.6934    19.8595     0.1304     0.2798     0.1120     2.4297    10.0906    78.2186
  300.0000   -41.9244    21.7067    15.4347    19.4526     0.1185     0.2824     0.0957     2.4376    10.1042    77.7343
  300.5000   -42.0410    21.5911    15.1801    19.2370     0.1164     0.2801     0.1240     2.4437    10.1116    77.2441
  301.0000   -42.1576    21.4761    14.9271    19.0388     0.1285     0.2755     0.1141     2.4298    10.1046    77.6404
  301.5000   -42.2741    21.3617    14.7591    18.8437     0.1377     0.2709     0.1026     2.4123    10.0978    78.1846
  302.0000   -42.3907    21.2841    14.9734    18.6505     0.1470     0.2677     0.0870     2.3952    10.0909    78.5889
  302.5000   -42.5073    21.1435    15.2128    18.4045     0.1483     0.2663     0.0672     2.3860    10.0841    78.1740
  303.0000   -42.6239    21.0039    15.4576    18.4105     0.1409     0.2656     0.0765     2.3972    10.0772    77.3332
  303.5000   -42.7405    20.8652    15.3672    18.2419     0.1384     0.2661     0.0737     2.3920    10.0704    76.6408
  304.0000   -42.8571    20.7498    15.2725    18.2419     0.1373     0.2619     0.0641     2.3969    10.0635    76.7634
  304.5000   -42.9737    21.0044    15.1757    18.3384     0.1409     0.2492     0.0897     2.4051    10.0564    76.7456
  305.0000   -43.0903    21.2717    15.0367    18.9142     0.1452     0.2365     0.0924     2.3946    10.0659    76.2798
  305.5000   -43.2074    21.5425    15.2564    19.6353     0.1430     0.2237     0.0805     2.3861    10.0774    75.8320
  306.0000   -43.3237    21.8167    15.5420    18.4859     0.1342     0.2244     0.0815     2.4028    10.0890    75.3847
  306.5000   -43.3814    22.5537    15.8330    17.5827     0.1276     0.2314     0.0865     2.4183    10.1004    74.9454
  307.0000   -43.4367    27.4376    16.1294    18.9127     0.1181     0.2398     0.0864     2.4256    10.1120    74.4669
  307.5000   -43.4911    40.9938    16.4314    20.0951     0.0887     0.2482     0.0965     2.4608    10.1235    73.0990
  308.0000   -43.4845    44.5330    16.7391    21.1352     0.0615     0.2566     0.1162     2.5104    10.1272    71.7600
  308.5000   -43.3748    38.4367    17.0529    26.3579     0.0661     0.2649     0.1299     2.5538    10.0873    70.4901
  309.0000   -43.2667    40.2463    17.3717    29.0154     0.0652     0.2733     0.1171     2.5452    10.0479    70.7189
  309.5000   -43.1583    35.4325    17.6970    29.9816     0.0733     0.2774     0.1061     2.5465    10.0086    72.1814
  310.0000   -43.0500    31.3931    17.7452    23.6351     0.0886     0.2753     0.1065     2.5271     9.9676    75.1990
  310.5000   -42.9414    20.0733    16.4607    19.1552     0.1038     0.2673     0.1272     2.5004     9.9789    78.4757
  311.0000   -42.8329    20.0919    15.6285    18.5251     0.1124     0.2660     0.1125     2.4753    10.0047    79.6374
  311.5000   -42.7304    19.6189    14.8396    17.9272     0.1466     0.2737     0.0958     2.4176    10.0308    80.8530
  312.0000   -42.7876    19.6242    14.0921    17.3459     0.1703     0.2716     0.0652     2.3577    10.0567    82.0749
  312.5000   -42.8783    19.7586    13.4649    16.7777     0.1736     0.2693     0.0343     2.3403    10.0826    82.9515
  313.0000   -42.9698    19.8320    13.5529    16.1894     0.1699     0.2690     0.0431     2.3425    10.1090    83.4386
  313.5000   -43.0604    19.9057    13.6791    16.0465     0.1653     0.2686     0.0600     2.3395    10.1133    83.4030
  314.0000   -43.1154    19.9797    13.8417    15.9013     0.1618     0.2685     0.0423     2.3366    10.1128    82.3112
  314.5000   -43.0531    20.0000    13.7227    15.7545     0.1638     0.2705     0.0585     2.3497    10.1122    81.1985
  315.0000   -42.9939    19.7299    13.5605    15.6091     0.1683     0.2722     0.0711     2.3619    10.1117    80.0941
  315.5000   -42.9350    19.4941    13.4002    15.4576     0.1725     0.2700     0.0593     2.3347    10.1112    78.9657
  316.0000   -42.8760    19.2611    13.2418    15.2775     0.1763     0.2678     0.0558     2.3334    10.1107    79.4925
  316.5000   -42.8172    19.0310    13.0853    15.1689     0.1528     0.2677     0.0805     2.3526    10.1102    80.5187
  317.0000   -42.7580    18.5807    12.9306    15.0610     0.1458     0.2681     0.1045     2.3805    10.1097    79.9956
  317.5000   -42.7589    18.7675    12.7778    15.0367     0.1239     0.2675     0.1291     2.4344    10.1091    79.2419
  318.0000   -42.8162    19.0968    12.6250    15.0367     0.1284     0.2666     0.1257     2.4184    10.1086    78.4714
  318.5000   -42.8739    19.4336    12.8331    15.0367     0.1361     0.2663     0.1121     2.4014    10.1081    78.7380
  319.0000   -42.9318    19.6374    13.0530    15.0367     0.1439     0.2651     0.1008     2.3909    10.1076    79.5692
  319.5000   -42.9896    19.5069    13.2830    15.1389     0.1505     0.2639     0.1081     2.3816    10.1071    80.4127
  320.0000   -43.0474    19.3478    13.5161    15.3917     0.1557     0.2628     0.1184     2.3723    10.1066    80.9480
  320.5000   -43.1052    19.1915    13.7532    15.7447     0.1582     0.2616     0.1007     2.3631    10.1061    79.8204
  321.0000   -43.1630    18.9469    13.8417    15.6596     0.1597     0.2611     0.0838     2.3544    10.1055    78.7264
  321.5000   -43.2206    18.6005    13.6377    15.5257     0.1620     0.2612     0.1001     2.3484    10.1050    78.7407
  322.0000   -43.2785    18.2579    13.3981    15.3929     0.1681     0.2623     0.0979     2.3451    10.1045    79.3957
  322.5000   -43.3541    17.9219    13.1626    15.2613     0.1712     0.2635     0.0676     2.3436    10.1040    80.0225
  323.0000   -43.5216    17.5903    12.9312    15.1308     0.1663     0.2625     0.0668     2.3458    10.1035    80.6483
  323.5000   -43.6889    17.4238    12.7040    15.0367     0.1605     0.2626     0.0772     2.3569    10.1030    81.2734
  324.0000   -43.8560    17.9053    12.4807    15.0127     0.1560     0.2683     0.0854     2.3677    10.1025    81.9231
  324.5000   -44.0232    17.6081    12.2812    14.9773     0.1507     0.2710     0.0925     2.3786    10.1019    82.0284
  325.0000   -44.1898    17.1721    12.4347    14.9421     0.1446     0.2693     0.1007     2.3939    10.1014    81.9526
