~VERSION INFORMATION
 VERS.                2.0:   CWLS LOG ASCII STANDARD - VERSION 2.0
 WRAP.                 NO:   ONE LINE PER DEPTH STEP
~WELL INFORMATION
#MNEM.UNIT      DATA TYPE    INFORMATION
#----------   ------------   ------------------------------
 STRT.F            0.0000:   START DEPTH
 STOP.F         1008.0000:   STOP DEPTH
 STEP.F            0.5000:   STEP LENGTH
 NULL.          -999.2500:   NO VALUE
 COMP. LAWRENCE/ALLISON INC:   COMPANY
 WELL. NPR 3 #51-61-SX-14:   WELL
 FLD .             TEAPOT:   FIELD
 LOC .      S14 T38N R78W:   LOCATION
 CNTY.            NATRONA:   COUNTY
 STAT.            WYOMING:   STATE
 CTRY. UNITED STATES OF AMERICA:   COUNTRY
 SRVC.      Dresser Atlas:   SERVICE COMPANY
 DATE.        05-FEB-1986:   LOGDATE
 API .       490251106600:   API NUMBER
~CURVE INFORMATION
#MNEM.UNIT       API CODE    CURVE DESCRIPTION
#----------   ------------   ------------------------------
 DEPT.F                  :   
 GRR .GAPI   07 310 01 00:   GAMMA RAY FROM RES. LOG.
 RILD.OHMM   10 120 46 00:   INDUCTION LOG DEEP RESISTIVITY
 RILM.OHMM   07 120 44 00:   INDUCTION LOG MEDIUM RESISTIVITY
 CALD.IN     45 280 60 00:   CALIPER
 DEN .G/C3   45 350 01 00:   COMPENSATED BULK DENSTIY
 CORR.G/C3   45 356 01 00:   DENSITY CORRECTION
 PORD.DEC    45 890 10 00:   POROSITY DENSITY LIMESTONE
~PARAMETER INFORMATION
#MNEM.UNIT          VALUE    DESCRIPTION
#----------   ------------   ------------------------------
 PD  .                 GL:   PERMANENT DATUM
 EPD .F              5225:   ELEVATION PERMANENT DATUM
 LMF .                 GL:   LOG MEASURED FROM
 DMF .                 GL:   DRILLING MEASURED FROM
 EGL .F              5225:   GROUND LEVEL
 DATE.             2-5-86:   RUN DATE
 RUN .                  1:   RUN NUMBER
 DD  .F              1010:   DEPTH DRILLER
 DL  .F              1008:   DEPTH LOGGER
 BLI .F              1008:   BOTTOM LOG INTERVAL
 CS  .IN            8.625:   CASING SIZE
 CBD .F                86:   CASING BOTTOM DRILLER
 CBL .F                84:   CASING BOTTOM LOGGER
 BS  .IN             6.25:   BIT SIZE
 BSD .F              1010:   BIT SIZE AT DEPTH
 DFT .                AIR:   DRILLING FLUID TYPE
 LUN .            HL 6264:   LOGGING UNIT NUMBER
 LUL .           GILLETTE:   LOGGING UNIT LOCATION
 ENGI.           FAHLSING:   RECORDING ENGINEER
 WITN.              FIVAS:   WITNESSED BY
 CLNT.            A2DTECH:   CLIENT CODE
 ORIG.       2", 5" PRINT:   ORIGIN OF DATA
 UWI .       490251106600:   UNIQUE WELL ID
 DICO. A2D Technologies, Inc.:   DIGITIZING COMPANY
~OTHER INFORMATION
~A    DEPT      GRR      RILD       RILM       CALD        DEN       CORR       PORD   
# ...
  546.0000   118.5924     9.0644     8.6080     6.6300     2.4919     0.0938     0.1119
  546.5000   120.2210     9.0654     8.5278     6.6301     2.4957     0.1002     0.1101
  547.0000   126.8733     9.0651     8.4993     6.6267     2.4981     0.1066     0.1084
  547.5000   133.8896     9.0652     8.4996     6.6210     2.4958     0.1126     0.1088
  548.0000   132.4370     9.0412     8.4997     6.6145     2.4931     0.1122     0.1102
  548.5000   127.6220     9.0150     8.4995     6.5946     2.4903     0.1071     0.1121
  549.0000   125.4569     8.9889     8.5009     6.5931     2.4876     0.1020     0.1145
  549.5000   124.8432     8.9629     8.4482     6.5983     2.4848     0.0970     0.1169
  550.0000   125.0525     8.9370     8.3858     6.6032     2.4793     0.0927     0.1193
  550.5000   127.1280     8.9112     8.3243     6.6079     2.4794     0.1029     0.1199
  551.0000   128.3474     8.9000     8.2632     6.6127     2.4839     0.1144     0.1171
  551.5000   128.9154     8.8998     8.1927     6.6175     2.4885     0.1113     0.1140
  552.0000   129.4672     8.8998     8.2199     6.6222     2.4803     0.0854     0.1206
  552.5000   130.0829     8.8998     8.2526     6.6270     2.4674     0.0596     0.1284
  553.0000   127.4925     8.8998     8.2858     6.6318     2.4542     0.0547     0.1362
  553.5000   123.8543     8.8998     8.3189     6.6365     2.4409     0.0428     0.1420
  554.0000   121.0812     8.8998     8.3522     6.6413     2.4420     0.0270     0.1424
  554.5000   125.7586     8.8998     8.3857     6.6461     2.4515     0.0288     0.1364
  555.0000   128.4054     8.8999     8.4192     6.6501     2.4611     0.0498     0.1308
  555.5000   124.8667     8.9004     8.4529     6.6524     2.4628     0.0632     0.1301
  556.0000   121.0738     8.9005     8.4991     6.6563     2.4583     0.0716     0.1331
  556.5000   124.6763     8.8150     8.4038     6.6603     2.4557     0.0799     0.1331
  557.0000   129.1078     8.7310     8.2483     6.6642     2.4593     0.0823     0.1318
  557.5000   129.6988     8.6357     8.0968     6.6682     2.4570     0.0640     0.1324
  558.0000   130.8433     8.4632     7.9481     6.6721     2.4540     0.0507     0.1345
  558.5000   133.1913     8.2941     7.8021     6.6761     2.4563     0.0638     0.1329
  559.0000   133.1383     8.1283     7.6588     6.6801     2.4579     0.0703     0.1341
  559.5000   132.9527     7.9659     7.5181     6.6840     2.4522     0.0622     0.1366
  560.0000   133.7626     7.8067     7.3801     6.6880     2.4503     0.0544     0.1375
  560.5000   134.8477     7.6508     7.2445     6.6881     2.4495     0.0480     0.1364
  561.0000   133.3912     7.4979     7.1115     6.6703     2.4490     0.0628     0.1385
  561.5000   132.9985     7.3481     6.9809     6.6522     2.4424     0.0793     0.1422
  562.0000   134.3640     7.2012     6.8527     6.6343     2.4383     0.0959     0.1448
  562.5000   135.7005     7.0573     6.7268     6.6163     2.4529     0.1123     0.1378
  563.0000   137.0097     6.8785     6.6033     6.5983     2.4670     0.1205     0.1291
  563.5000   136.4005     6.9151     6.5090     6.5804     2.4760     0.1025     0.1214
  564.0000   134.8686     6.9756     6.6127     6.5718     2.4835     0.1021     0.1159
  564.5000   133.3162     7.0367     6.7147     6.5817     2.4936     0.1073     0.1103
  565.0000   131.7664     7.0983     6.8182     6.5930     2.5001     0.1098     0.1082
  565.5000   130.2173     7.1364     6.9233     6.6137     2.4949     0.0890     0.1103
  566.0000   128.6677     7.2848     7.0300     6.6292     2.4899     0.0928     0.1126
  566.5000   127.0708     7.4360     7.1384     6.6225     2.4900     0.1040     0.1129
  567.0000   127.7492     7.5904     7.2484     6.6163     2.4860     0.1151     0.1146
  567.5000   125.9859     7.7479     7.3602     6.6102     2.4801     0.1088     0.1199
  568.0000   123.0164     7.9695     7.4724     6.6100     2.4759     0.0737     0.1228
  568.5000   119.9899     7.9078     7.4068     6.6100     2.4784     0.0799     0.1204
  569.0000   116.9657     7.8106     7.3425     6.6100     2.4827     0.0899     0.1173
  569.5000   113.9471     7.7146     7.2368     6.6100     2.4804     0.1004     0.1185
  570.0000   111.1524     7.6197     7.1281     6.6100     2.4752     0.0740     0.1204
  570.5000   109.4304     7.5260     7.0210     6.6100     2.4757     0.0792     0.1216
  571.0000   114.3034     7.4042     6.9421     6.6100     2.4803     0.0871     0.1185
  571.5000   121.0428     7.4477     7.0137     6.6100     2.4866     0.1008     0.1154
  572.0000   125.4016     7.5149     7.0712     6.6101     2.4936     0.0797     0.1122
  572.5000   125.1259     7.5820     7.1294     6.6091     2.4953     0.0684     0.1096
  573.0000   123.1871     7.6496     7.1880     6.5910     2.4968     0.0816     0.1082
  573.5000   121.2409     7.7178     7.2471     6.5898     2.5037     0.1057     0.1068
  574.0000   123.8240     7.7525     7.3066     6.5897     2.5169     0.1294     0.1000
  574.5000   127.1966     7.7526     7.3667     6.5994     2.5248     0.1538     0.0936
  575.0000   130.5670     7.7525     7.4101     6.6100     2.5291     0.1587     0.0897
  575.5000   133.9560     7.7525     7.4425     6.6205     2.5269     0.1614     0.0906
  576.0000   132.9174     7.7525     7.4724     6.6322     2.5237     0.0953     0.0914
  576.5000   131.3613     7.7525     7.4583     6.6438     2.5240     0.0868     0.0922
  577.0000   131.2815     7.7525     7.4453     6.6480     2.5271     0.0898     0.0922
  577.5000   133.1982     7.7525     7.4323     6.6436     2.5255     0.0994     0.0915
  578.0000   131.9591     7.7525     7.4194     6.6392     2.5253     0.0919     0.0908
  578.5000   126.4936     7.7525     7.4065     6.6349     2.5265     0.0912     0.0902
  579.0000   121.3265     7.7525     7.3936     6.6305     2.5254     0.1002     0.0927
  579.5000   122.6878     7.7525     7.3807     6.6261     2.5149     0.1094     0.0977
  580.0000   124.5170     7.7525     7.3678     6.6217     2.5043     0.1084     0.1027
  580.5000   126.0635     7.7525     7.3550     6.6173     2.5010     0.1026     0.1070
  581.0000   123.9452     7.7525     7.3422     6.6131     2.5011     0.1048     0.1047
  581.5000   121.6246     7.7525     7.3268     6.6134     2.5065     0.1113     0.1025
  582.0000   123.0824     7.7525     7.3091     6.6253     2.5112     0.1178     0.1008
  582.5000   126.5207     7.7525     7.2914     6.6291     2.5090     0.1176     0.1023
  583.0000   129.9892     7.7525     7.2738     6.6279     2.5065     0.1042     0.1037
  583.5000   133.0014     7.7525     7.2562     6.6266     2.5074     0.1008     0.1023
  584.0000   129.2343     7.7527     7.2386     6.6252     2.5179     0.1243     0.1001
  584.5000   124.4330     7.7326     7.2211     6.6239     2.5218     0.1268     0.1003
  585.0000   123.7302     7.7066     7.2037     6.6226     2.4987     0.1100     0.1044
  585.5000   128.4840     7.6807     7.1863     6.6213     2.4743     0.0847     0.1176
  586.0000   127.4873     7.6549     7.1689     6.6199     2.4505     0.0652     0.1308
  586.5000   125.4058     7.6292     7.1515     6.6186     2.4541     0.0734     0.1357
  587.0000   127.8755     7.6036     7.1343     6.6173     2.4638     0.0982     0.1269
  587.5000   130.6218     7.5780     7.1170     6.6160     2.4791     0.1236     0.1187
  588.0000   128.6292     7.5526     7.0998     6.6146     2.4900     0.1288     0.1132
  588.5000   123.6116     7.5272     7.0826     6.6133     2.4822     0.1152     0.1168
  589.0000   119.4168     7.5019     7.0655     6.6120     2.4746     0.0927     0.1226
  589.5000   122.4029     7.4767     7.0484     6.6106     2.4710     0.0699     0.1246
  590.0000   127.3158     7.4516     7.0313     6.6101     2.4722     0.0635     0.1226
  590.5000   132.2882     7.4266     7.0145     6.6136     2.4850     0.0880     0.1155
  591.0000   135.2478     7.4017     6.9974     6.6175     2.4983     0.1080     0.1099
