~VERSION INFORMATION
 VERS.                2.0:   CWLS LOG ASCII STANDARD - VERSION 2.0
 WRAP.                 NO:   ONE LINE PER DEPTH STEP
~WELL INFORMATION
#MNEM.UNIT      DATA TYPE    INFORMATION
#----------   ------------   ------------------------------
 STRT.F           33.5000:   START DEPTH
 STOP.F          680.0000:   STOP DEPTH
 STEP.F            0.5000:   STEP LENGTH
 NULL.          -999.2500:   NO VALUE
 COMP. FENIX & SCISSON INC:   COMPANY
 WELL.       NPR 3 #66-34:   WELL
 FLD .             TEAPOT:   FIELD
 LOC .      S34 T39N R78W:   LOCATION
 CNTY.            NATRONA:   COUNTY
 STAT.            WYOMING:   STATE
 CTRY. UNITED STATES OF AMERICA:   COUNTRY
 SRVC.           BIRDWELL:   SERVICE COMPANY
 DATE.        12-AUG-1978:   LOGDATE
 API .       490251068400:   API NUMBER
~CURVE INFORMATION
#MNEM.UNIT       API CODE    CURVE DESCRIPTION
#----------   ------------   ------------------------------
 DEPT.F                  :   
 SPR .MV     05 010 01 00:   SPONTANEOUS POTENTIAL FROM RES.
 SN  .OHMM   05 040 16 00:   SHORT NORMAL 16"
 IL  .OHMM   05 120 00 00:   INDUCTION LOG
 CORR.G/C3   45 356 01 00:   DENSITY CORRECTION
 GRD .GAPI   45 310 01 00:   GAMMA RAY FROM DENSITY LOG
 RHOB.G/C3   45 350 01 00:   BULK DENSITY
 DPHI.DEC    45 890 12 00:   DENSITY POROSITY SANDSTONE
 CALD.IN     45 280 60 00:   CALIPER
~PARAMETER INFORMATION
#MNEM.UNIT          VALUE    DESCRIPTION
#----------   ------------   ------------------------------
 PD  .                 GL:   PERMANENT DATUM
 EPD .F              5078:   ELEVATION PERMANENT DATUM
 LMF .                 KB:   LOG MEASURED FROM
 DAPD.F                 4:   FEET ABOVE PERMANENT DATUM
 DMF .                 KB:   DRILLING MEASURED FROM
 EKB .F              5082:   KELLING BUSHING
 EGL .F              5078:   GROUND LEVEL
 DATE.            8-12-78:   RUN DATE
 RUN .                  1:   RUN NUMBER
 DD  .F               675:   DEPTH DRILLER
 DL  .F               686:   DEPTH LOGGER
 BLI .F               680:   BOTTOM LOG INTERVAL
 TLI .F                50:   TOP LOG INTERVAL
 CS  .IN            8.625:   CASING SIZE
 CBD .F                40:   CASING BOTTOM DRILLER
 BS  .IN            7.875:   BIT SIZE
 BSD .F               675:   BIT SIZE AT DEPTH
 DFT .                KCL:   DRILLING FLUID TYPE
 DFL .               10.4:   DRILLING FLUID LOSS
 MSS .          FLOW LINE:   MUD SAMPLE SOURCE
 RMS .OHMM            .18:   RESISTIVITY MUD SAMPLE
 MST .F                90:   MUD SAMPLE TEMPERATURE
 RMF .OHMM            .16:   RESISTIVITY MUD FILTRATE SAMPLE
 MFST.F                90:   MUD FILTRATE SAMPLE TEMPERATURE
 RMC .OHMM            .32:   RESISTIVITY MUD CAKE
 MCST.F                90:   MUD CAKE SAMPLE TEMPERATURE
 MFSS.               MEAS:   MUD FILTRATE SAMPLE SOURCE
 TCS .HRS               3:   TIME CURCULATED STOPPED
 LUN .               3006:   LOGGING UNIT NUMBER
 LUL .               CASP:   LOGGING UNIT LOCATION
 ENGI.             MILLER:   RECORDING ENGINEER
 WITN.           MCGINLEY:   WITNESSED BY
 CLNT.            A2DTECH:   CLIENT CODE
 ORIG.           5" PRINT:   ORIGIN OF DATA
 UWI .       490251068400:   UNIQUE WELL ID
 DICO. A2D Technologies, Inc.:   DIGITIZING COMPANY
~OTHER INFORMATION
~A   DEPT      SPR         SN         IL       CORR         GRD      RHOB       DPHI       CALD   
# ...
  438.5000   -52.8543     5.3795     4.6873     0.0638   103.2423     2.5040     0.1051     7.8732
  439.0000   -53.0485     5.3795     4.7629     0.0605   101.5285     2.4989     0.1072     7.9285
  439.5000   -53.2547     5.3795     4.8237     0.0572   100.5614     2.4938     0.1092     7.9827
  440.0000   -53.1135     5.3796     4.8626     0.0538   104.4174     2.4943     0.1092     7.9096
  440.5000   -52.9299     5.3876     4.7270     0.0505   107.2943     2.4958     0.1085     7.8756
  441.0000   -53.1427     5.4011     4.5075     0.0518   105.3637     2.4967     0.1085     7.9009
  441.5000   -53.2011     5.4144     4.2981     0.0534   104.6005     2.4933     0.1157     7.8699
  442.0000   -52.7108     5.4291     4.1218     0.0526   107.0729     2.4847     0.1267     7.8349
  442.5000   -52.3173     5.2350     4.0954     0.0485   110.1361     2.4666     0.1376     7.8031
  443.0000   -52.5529     5.0333     4.0468     0.0445   112.0013     2.4476     0.1486     7.8025
  443.5000   -52.5015     4.8393     3.9496     0.0523   113.5543     2.4276     0.1534     7.8091
  444.0000   -51.9785     4.6529     3.7949     0.0665   113.4725     2.4400     0.1418     7.8548
  444.5000   -51.6851     4.5493     3.8066     0.0735   111.0772     2.4508     0.1383     7.9005
  445.0000   -51.6221     4.5134     3.8249     0.0526   108.0858     2.4403     0.1464     7.9421
  445.5000   -51.5597     4.4769     3.9050     0.0403   105.0159     2.4348     0.1490     7.9311
  446.0000   -51.5049     4.5182     4.0075     0.0496   103.5703     2.4490     0.1415     7.9251
  446.5000   -51.6205     4.6143     4.0764     0.0618   102.5551     2.4674     0.1279     7.9449
  447.0000   -51.7436     4.7114     4.1229     0.0647   105.8828     2.4859     0.1144     7.9649
  447.5000   -51.8719     4.8182     4.2937     0.0627   111.0819     2.4993     0.1094     7.9791
  448.0000   -51.8421     4.9664     4.4591     0.0643   111.7309     2.5003     0.1083     7.9167
  448.5000   -51.7630     5.1321     4.6308     0.0613   107.8079     2.5001     0.1076     7.8538
  449.0000   -51.7071     5.3034     4.8091     0.0521   107.2446     2.4940     0.1121     7.8252
  449.5000   -51.7547     5.4804     4.9943     0.0428   103.7619     2.4879     0.1167     7.8854
  450.0000   -51.8001     5.6648     5.1867     0.0483   101.0194     2.4867     0.1191     7.9484
  450.5000   -51.8454     5.8000     5.2982     0.0566   104.5779     2.4898     0.1125     8.0034
  451.0000   -51.8925     5.8364     5.3303     0.0628   105.7311     2.5007     0.1116     7.9862
  451.5000   -51.8611     5.8708     5.3004     0.0772   104.7938     2.5243     0.0936     7.9414
  452.0000   -51.8116     5.8967     5.2816     0.0759   103.8626     2.5278     0.1025     7.8962
  452.5000   -51.7618     5.8552     5.3134     0.0615   105.7614     2.4982     0.1153     7.9083
  453.0000   -51.7098     5.8223     5.3303     0.0565   107.8991     2.4855     0.1155     7.9456
  453.5000   -51.7410     5.7894     5.2364     0.0591   108.9480     2.4820     0.1206     7.9182
  454.0000   -51.7957     5.8088     5.1671     0.0673   107.8514     2.4789     0.1235     7.8412
  454.5000   -51.8517     5.8331     5.0995     0.0783   108.9381     2.4871     0.1154     7.7734
  455.0000   -51.8936     5.8576     5.0367     0.0894   111.1995     2.4968     0.1089     7.7465
  455.5000   -51.7757     5.8829     4.9989     0.0943   111.5327     2.5022     0.1044     7.8107
  456.0000   -51.7187     5.8966     5.0451     0.0883   106.2961     2.5012     0.1062     7.8556
  456.5000   -51.7749     5.6841     5.0889     0.0825    99.5006     2.4967     0.1092     7.8021
  457.0000   -51.8294     5.5569     4.9719     0.0786    98.3147     2.4921     0.1112     7.8122
  457.5000   -51.8874     5.4370     4.7651     0.0747   107.7187     2.4914     0.1119     7.8791
  458.0000   -51.8551     5.3201     4.5632     0.0703   116.5155     2.4918     0.1117     7.8660
  458.5000   -51.7924     5.2056     4.3699     0.0640   122.1916     2.4916     0.1150     7.8458
  459.0000   -51.7291     5.0989     4.1598     0.0534   116.1503     2.4782     0.1293     7.8598
  459.5000   -51.6660     5.0318     4.1863     0.0438   111.7415     2.4632     0.1353     7.8816
  460.0000   -51.6030     4.9985     4.2172     0.0420   110.3052     2.4482     0.1414     7.9036
  460.5000   -51.5406     5.0134     4.2593     0.0402   116.9041     2.4370     0.1487     7.9226
  461.0000   -51.4916     5.0335     4.3209     0.0451   120.0767     2.4345     0.1487     7.9008
  461.5000   -51.4421     5.0879     4.3760     0.0510   117.5018     2.4578     0.1306     7.8776
  462.0000   -51.3922     5.2237     4.4228     0.0461   114.8471     2.4846     0.1180     7.8546
  462.5000   -51.3426     5.4037     4.6311     0.0344   112.1937     2.4926     0.1104     7.8424
  463.0000   -51.2987     5.5900     4.9169     0.0227   110.5173     2.4889     0.1183     7.8525
  463.5000   -51.2999     5.7829     5.1524     0.0152   109.1645     2.4836     0.1188     7.8662
  464.0000   -51.3000     6.0063     5.3034     0.0126   108.2457     2.4816     0.1181     7.8804
  464.5000   -51.3000     5.9832     5.4543     0.0131   108.0406     2.4806     0.1193     7.8644
  465.0000   -51.2999     5.9513     5.5808     0.0142   107.9766     2.4775     0.1219     7.8364
  465.5000   -51.2998     5.9841     5.5646     0.0111   107.8891     2.4745     0.1244     7.8411
  466.0000   -51.3006     6.0417     5.5506     0.0077   106.8657     2.4731     0.1260     7.8752
  466.5000   -51.3436     6.0999     5.5367     0.0071   105.5173     2.4735     0.1251     7.8989
  467.0000   -51.4538     6.1585     5.5245     0.0119   104.2845     2.4809     0.1203     7.8760
  467.5000   -51.5632     6.2309     5.5144     0.0166   103.7610     2.4910     0.1146     7.8542
  468.0000   -51.6773     6.2116     5.5043     0.0214   103.5053     2.5012     0.1088     7.8323
  468.5000   -51.6528     6.1869     5.4941     0.0262   104.4296     2.5115     0.1030     7.8226
  469.0000   -51.5902     6.1622     5.4840     0.0276   107.0578     2.5165     0.0994     7.8343
  469.5000   -51.5267     6.1378     5.4599     0.0262   109.6455     2.5181     0.0980     7.8491
  470.0000   -51.4636     6.1175     5.4227     0.0247   111.5395     2.5192     0.1013     7.8640
  470.5000   -51.4004     6.1503     5.3857     0.0207   110.4595     2.5095     0.1053     7.8794
  471.0000   -51.3382     6.1783     5.3489     0.0165   108.4567     2.5025     0.1054     7.8821
  471.5000   -51.3162     6.2065     5.3303     0.0099   106.4770     2.5047     0.1061     7.8674
  472.0000   -51.3585     6.2308     5.3483     0.0028   106.5951     2.4957     0.1246     7.8517
  472.5000   -51.4001     6.1558     5.3606     0.0045   108.7955     2.4821     0.1156     7.8360
  473.0000   -51.4415     6.0906     5.3728     0.0104   111.0128     2.4862     0.1195     7.8224
  473.5000   -51.4842     6.0262     5.3795     0.0148   110.9016     2.4697     0.1239     7.8341
  474.0000   -51.4239     5.9191     5.1073     0.0165   111.0194     2.4685     0.1237     7.8663
  474.5000   -51.2991     5.7945     4.9539     0.0125   111.8418     2.4700     0.1256     7.8986
  475.0000   -51.1729     5.6726     4.9983     0.0078   110.1794     2.4630     0.1341     7.8806
  475.5000   -51.0465     5.5533     4.8108     0.0050   108.5186     2.4527     0.1425     7.8490
  476.0000   -50.9194     5.4373     4.6444     0.0077   112.5716     2.4420     0.1462     7.8275
  476.5000   -50.7943     5.3461     4.6020     0.0150   116.9525     2.4390     0.1407     7.8632
  477.0000   -50.7605     5.2837     4.6374     0.0223   118.7142     2.4469     0.1343     7.8979
  477.5000   -51.0609     5.2334     4.6692     0.0232   111.4718     2.4548     0.1389     7.9216
  478.0000   -51.3506     5.2510     4.6873     0.0126   105.7662     2.4501     0.1397     7.8964
  478.5000   -51.6486     5.2658     4.5954     0.0095   100.3851     2.4516     0.1357     7.8720
