~VERSION INFORMATION
 VERS.                2.0:   CWLS LOG ASCII STANDARD - VERSION 2.0
 WRAP.                 NO:   ONE LINE PER DEPTH STEP
~WELL INFORMATION
#MNEM.UNIT      DATA TYPE    INFORMATION
#----------   ------------   ------------------------------
 STRT.F           45.5000:   START DEPTH
 STOP.F          740.0000:   STOP DEPTH
 STEP.F            0.5000:   STEP LENGTH
 NULL.          -999.2500:   NO VALUE
 COMP. FENIX & SCISSON INC:   COMPANY
 WELL.       NPR 3 #22-14:   WELL
 FLD .             TEAPOT:   FIELD
 LOC .      S14 T38N R78W:   LOCATION
 CNTY.            NATRONA:   COUNTY
 STAT.            WYOMING:   STATE
 CTRY. UNITED STATES OF AMERICA:   COUNTRY
 SRVC.           BIRDWELL:   SERVICE COMPANY
 DATE.        23-DEC-1978:   LOGDATE
 API .       490251075800:   API NUMBER
~CURVE INFORMATION
#MNEM.UNIT       API CODE    CURVE DESCRIPTION
#----------   ------------   ------------------------------
 DEPT.F                  :   
 SPR .MV     05 010 01 00:   SPONTANEOUS POTENTIAL FROM RES.
 SN  .OHMM   05 040 16 00:   SHORT NORMAL 16"
 IL  .OHMM   05 120 00 00:   INDUCTION LOG
 CALD.IN     45 280 60 00:   CALIPER
 GRD .GAPI   45 310 01 00:   GAMMA RAY FROM DENSITY LOG
 RHOB.G/C3   45 350 01 00:   BULK DENSITY
 DPHI.DEC    45 890 12 00:   DENSITY POROSITY SANDSTONE
 CORR.G/C3   45 356 01 00:   DENSITY CORRECTION
~PARAMETER INFORMATION
#MNEM.UNIT          VALUE    DESCRIPTION
#----------   ------------   ------------------------------
 PD  .                 GL:   PERMANENT DATUM
 EPD .F              5212:   ELEVATION PERMANENT DATUM
 LMF .                 KB:   LOG MEASURED FROM
 DAPD.F                 4:   FEET ABOVE PERMANENT DATUM
 DMF .                 KB:   DRILLING MEASURED FROM
 EKB .F              5216:   KELLING BUSHING
 EGL .F              5212:   GROUND LEVEL
 DATE.           12-23-78:   RUN DATE
 RUN .                  1:   RUN NUMBER
 DD  .F               735:   DEPTH DRILLER
 DL  .F               740:   DEPTH LOGGER
 BLI .F               733:   BOTTOM LOG INTERVAL
 TLI .F                50:   TOP LOG INTERVAL
 CS  .IN            8.625:   CASING SIZE
 CBD .F                40:   CASING BOTTOM DRILLER
 CBL .F                40:   CASING BOTTOM LOGGER
 BS  .IN            7.875:   BIT SIZE
 BSD .F               735:   BIT SIZE AT DEPTH
 DFT .                KCL:   DRILLING FLUID TYPE
 DFD .                8.7:   DRILLING FLUID DENSITY
 DFV .                 35:   DRILLING FLUID VISCOSITY
 DFPH.               10.5:   DRILLING FLUID PH
 DFL .               11.6:   DRILLING FLUID LOSS
 MSS .           FLOWLINE:   MUD SAMPLE SOURCE
 RMS .OHMM             .5:   RESISTIVITY MUD SAMPLE
 MST .F                60:   MUD SAMPLE TEMPERATURE
 RMF .OHMM             .5:   RESISTIVITY MUD FILTRATE SAMPLE
 MFST.F                60:   MUD FILTRATE SAMPLE TEMPERATURE
 RMC .OHMM             .7:   RESISTIVITY MUD CAKE
 MCST.F                60:   MUD CAKE SAMPLE TEMPERATURE
 MFSS.           MEASURED:   MUD FILTRATE SAMPLE SOURCE
 MCSS.           MEASURED:   MUD CAKE SAMPLE SOURCE
 RMB .OHMM           .518:   RESISTIVITY MUD AT BHT
 BHT .F                58:   BOTTOM HOLE TEMPERATURE
 TCS .HRS               5:   TIME CURCULATED STOPPED
 MRT .F                58:   MAXIMUM RECORDED TEMPERATURE
 LUN .               2958:   LOGGING UNIT NUMBER
 LUL .             CASPER:   LOGGING UNIT LOCATION
 ENGI.         B. ROLLINS:   RECORDING ENGINEER
 WITN.              IMMEL:   WITNESSED BY
 CLNT.            A2DTECH:   CLIENT CODE
 ORIG.           5" PRINT:   ORIGIN OF DATA
 UWI .       490251075800:   UNIQUE WELL ID
 DICO. A2D Technologies, Inc.:   DIGITIZING COMPANY
~OTHER INFORMATION
~A   DEPT      SPR         SN         IL       CALD         GRD      RHOB       DPHI       CORR   
# ...
  288.5000  -999.2500     9.5910     9.9150     7.8900   106.4510     2.4970     0.1080     0.0140
  289.0000  -999.2500     9.5260     9.8340     7.8920   110.6410     2.5010     0.1050     0.0130
  289.5000  -999.2500     9.4620     9.8550     7.8950   112.8370     2.5050     0.1050     0.0120
  290.0000  -999.2500     9.3980     9.8820     7.8980   113.1560     2.5070     0.1080     0.0110
  290.5000  -999.2500     9.3330     9.9080     7.9010   113.3290     2.5030     0.1110     0.0090
  291.0000  -999.2500     9.3060     9.9890     7.9040   113.5820     2.5000     0.1090     0.0080
  291.5000  -999.2500     9.3670    10.1620     7.9060   114.8800     2.4990     0.1070     0.0070
  292.0000  -999.2500     9.4460    10.3350     7.9090   116.5090     2.5010     0.1080     0.0060
  292.5000  -999.2500     9.5250    10.5080     7.9140   117.8160     2.5030     0.1100     0.0060
  293.0000  -999.2500     9.6040    10.5890     7.9200   113.1850     2.5020     0.1100     0.0070
  293.5000  -999.2500     9.6550    10.5960     7.9260   108.4620     2.5000     0.1100     0.0080
  294.0000  -999.2500     9.6520    10.6030     7.9320   104.5080     2.4990     0.1100     0.0080
  294.5000  -999.2500     9.6430    10.6100     7.9390   101.7810     2.4970     0.1130     0.0090
  295.0000  -999.2500     9.6340    10.6180     7.9450    99.9610     2.4960     0.1120     0.0090
  295.5000  -999.2500     9.6250    10.6250     7.9510    99.4140     2.4960     0.1110     0.0100
  296.0000  -999.2500     9.6160    10.6320     7.9570   101.3330     2.4970     0.1110     0.0110
  296.5000  -999.2500     9.6070    10.6390     7.9630   103.4840     2.4980     0.1100     0.0130
  297.0000  -999.2500     9.5980    10.6460     7.9700   103.4330     2.5000     0.1100     0.0160
  297.5000  -999.2500     9.5890    10.6530     7.9760   103.3470     2.5010     0.1080     0.0180
  298.0000  -999.2500     9.5800    10.6600     7.9820   101.8510     2.5020     0.1050     0.0200
  298.5000  -999.2500     9.5670    10.6680     7.9880   100.4050     2.5050     0.1030     0.0220
  299.0000  -999.2500     9.5740    10.6750     7.9710   100.4810     2.5080     0.1030     0.0170
  299.5000  -999.2500     9.5870    10.6820     7.9330   100.7630     2.5110     0.1040     0.0120
  300.0000  -999.2500     9.6000    10.6500     7.8940   101.0370     2.5140     0.1050     0.0090
  300.5000  -999.2500     9.6140    10.6130     7.8560   101.3890     2.5150     0.1080     0.0080
  301.0000  -999.2500     9.6270    10.5770     7.8300   101.6840     2.5100     0.1100     0.0070
  301.5000  -999.2500     9.6410    10.5400     7.8290   101.9160     2.5030     0.1130     0.0060
  302.0000  -999.2500     9.6540    10.5040     7.8270   101.4080     2.4970     0.1130     0.0040
  302.5000  -999.2500     9.6680    10.4670     7.8250   100.3200     2.4960     0.1120     0.0070
  303.0000  -999.2500     9.6810    10.4310     7.8240    99.2960     2.4970     0.1100     0.0100
  303.5000  -999.2500     9.6950    10.3920     7.8220    98.8100     2.4990     0.1070     0.0100
  304.0000  -999.2500     9.7080    10.3780     7.8200    98.1830     2.5010     0.1060     0.0100
  304.5000  -999.2500     9.7220    10.3580     7.8190    97.0610     2.5030     0.1090     0.0100
  305.0000  -999.2500     9.7350    10.3390     7.8170    96.4070     2.5010     0.1100     0.0100
  305.5000  -999.2500     9.7420    10.3190     7.8160    97.1680     2.4980     0.1090     0.0090
  306.0000  -999.2500     9.7260    10.3000     7.8140    98.3000     2.4960     0.1060     0.0090
  306.5000  -999.2500     9.7130    10.2800     7.8130    99.4360     2.5020     0.1040     0.0080
  307.0000  -999.2500     9.7000    10.2610     7.8110   100.7370     2.5070     0.1010     0.0070
  307.5000  -999.2500     9.6870    10.2410     7.8360   102.2390     2.5120     0.1010     0.0060
  308.0000  -999.2500     9.6730    10.2220     7.8860   102.7270     2.5110     0.1030     0.0050
  308.5000  -999.2500     9.6600    10.2030     7.9380   102.6820     2.5090     0.1040     0.0050
  309.0000  -999.2500     9.6470    10.2090     7.9320   102.4280     2.5070     0.1050     0.0040
  309.5000  -999.2500     9.6340    10.2160     7.9080   102.0850     2.5040     0.1060     0.0040
  310.0000  -999.2500     9.6210    10.2230     7.8850   100.8370     2.5020     0.1080     0.0050
  310.5000  -999.2500     9.6080    10.2300     7.8790    98.6660     2.5000     0.1110     0.0050
  311.0000  -999.2500     9.5950    10.2370     7.9290    97.8230     2.4970     0.1110     0.0050
  311.5000  -999.2500     9.5820    10.2440     7.9120    98.2870     2.4960     0.1080     0.0060
  312.0000  -999.2500     9.5670    10.2510     7.8910    99.0930     2.4980     0.1070     0.0060
  312.5000  -999.2500     9.5720    10.2570     7.9360   101.3440     2.5010     0.1100     0.0060
  313.0000  -999.2500     9.5800    10.2640     7.9470   102.4160     2.5030     0.1110     0.0070
  313.5000  -999.2500     9.5870    10.2710     7.9410   102.5500     2.4980     0.1090     0.0070
  314.0000  -999.2500     9.5940    10.2780     7.9360   102.4690     2.4960     0.1050     0.0080
  314.5000  -999.2500     9.6010    10.2850     7.9300   102.3810     2.5030     0.1020     0.0080
  315.0000  -999.2500     9.6090    10.2920     7.9240   102.2980     2.5110     0.0980     0.0100
  315.5000  -999.2500     9.6160    10.2990     7.9180   102.4710     2.5150     0.1000     0.0130
  316.0000  -999.2500     9.6230    10.3050     7.9120   103.3570     2.5160     0.1010     0.0160
  316.5000  -999.2500     9.6300    10.3120     7.9060   104.2240     2.5110     0.1010     0.0160
  317.0000  -999.2500     9.6380    10.3190     7.9000   102.9460     2.5110     0.0990     0.0150
  317.5000  -999.2500     9.6450    10.3260     7.8940   102.6410     2.5150     0.0990     0.0150
  318.0000  -999.2500     9.6520    10.3330     7.8890   102.6710     2.5180     0.1010     0.0150
  318.5000  -999.2500     9.6590    10.3400     7.8830   101.1530     2.5150     0.1040     0.0150
  319.0000  -999.2500     9.6670    10.3460     7.8770    99.4900     2.5120     0.1060     0.0140
  319.5000  -999.2500     9.6740    10.3530     7.8710    99.9580     2.5080     0.1080     0.0140
  320.0000  -999.2500     9.6810    10.3600     7.8740   102.4290     2.5050     0.1080     0.0210
  320.5000  -999.2500     9.6880    10.3670     7.8780   104.9370     2.5020     0.1070     0.0300
  321.0000  -999.2500     9.6960    10.3740     7.8820   105.6760     2.5030     0.1070     0.0390
  321.5000  -999.2500     9.7030    10.3810     7.8860   105.8240     2.5030     0.1070     0.0480
  322.0000  -999.2500     9.7100    10.3910     7.8900   106.1830     2.5030     0.1070     0.0480
  322.5000  -999.2500     9.7170    10.3850     7.8940   106.5680     2.5030     0.1040     0.0450
  323.0000  -999.2500     9.7240    10.3630     7.8980   106.7500     2.5090     0.1000     0.0410
  323.5000  -999.2500     9.7320    10.3420     7.9020   106.4430     2.5150     0.0970     0.0380
  324.0000  -999.2500     9.7390    10.3210     7.9070   106.1510     2.5170     0.0960     0.0350
  324.5000  -999.2500     9.7460    10.3000     7.9100   105.8580     2.5170     0.0970     0.0320
  325.0000  -999.2500     9.7530    10.2800     7.8940   105.3840     2.5170     0.0980     0.0280
  325.5000  -999.2500     9.7610    10.2590     7.8780   104.1100     2.5170     0.1000     0.0250
  326.0000  -999.2500     9.7680    10.2380     7.8620   102.8400     2.5160     0.1030     0.0220
  326.5000  -999.2500     9.7750    10.2170     7.8460   102.5760     2.5100     0.1050     0.0200
  327.0000  -999.2500     9.7820    10.1960     7.8300   102.5030     2.5050     0.1050     0.0200
  327.5000  -999.2500     9.7900    10.1750     7.8130   102.4350     2.5070     0.1030     0.0200
  328.0000  -999.2500     9.7970    10.1540     7.7970   102.3660     2.5110     0.1010     0.0190
  328.5000  -999.2500     9.8040    10.1330     7.7810   102.2970     2.5130     0.1010     0.0190
