~VERSION INFORMATION
 VERS.                2.0:   CWLS LOG ASCII STANDARD - VERSION 2.0
 WRAP.                 NO:   ONE LINE PER DEPTH STEP
~WELL INFORMATION
#MNEM.UNIT      DATA TYPE    INFORMATION
#----------   ------------   ------------------------------
 STRT.F         1460.0000:   START DEPTH
 STOP.F         2374.5000:   STOP DEPTH
 STEP.F            0.5000:   STEP LENGTH
 NULL.          -999.2500:   NO VALUE
 COMP. BROWN JOHN E&C INC:   COMPANY
 WELL. 15-1 STX-14 #15-14:   WELL
 FLD .             TEAPOT:   FIELD
 LOC .      S14 T38N R78W:   LOCATION
 CNTY.            NATRONA:   COUNTY
 STAT.            WYOMING:   STATE
 CTRY. UNITED STATES OF AMERICA:   COUNTRY
 SRVC.            Unknown:   SERVICE COMPANY
 DATE.        20-OCT-1991:   LOGDATE
 API .       490251098600:   API NUMBER
~CURVE INFORMATION
#MNEM.UNIT       API CODE    CURVE DESCRIPTION
#----------   ------------   ------------------------------
 DEPT.F                  :   
 ROP .MIN/FT 91 810 01 00:   RATE OF DRILLING PENETRATION
 TGAS.UNITS  91 830 01 00:   TOTAL GAS FROM HOTWIRE
~PARAMETER INFORMATION
#MNEM.UNIT          VALUE    DESCRIPTION
#----------   ------------   ------------------------------
 EKB .F              5247:   KELLING BUSHING
 EGL .F              5237:   GROUND LEVEL
 DATE.           10-20-91:   RUN DATE
 DD  .F              2379:   DEPTH DRILLER
 BLI .F              2392:   BOTTOM LOG INTERVAL
 TLI .F              1460:   TOP LOG INTERVAL
 CS  .IN            8.625:   CASING SIZE
 CBD .F               815:   CASING BOTTOM DRILLER
 ENGI.               HUSK:   RECORDING ENGINEER
 WITN.              TOWER:   WITNESSED BY
 CLNT.            A2DTECH:   CLIENT CODE
 ORIG.         2.5" PRINT:   ORIGIN OF DATA
 UWI .       490251098600:   UNIQUE WELL ID
 DICO. A2D Technologies, Inc.:   DIGITIZING COMPANY
~OTHER INFORMATION
~A  DEPT       ROP       TGAS   
# ...
 2067.5000     0.6474   290.6203
 2068.0000     0.5899   291.7102
 2068.5000     0.5712   292.8001
 2069.0000     0.5722   293.8900
 2069.5000     0.5923   294.9799
 2070.0000     0.6319   296.0697
 2070.5000     0.6714   297.1596
 2071.0000     0.7110   298.2495
 2071.5000     0.7117   299.3394
 2072.0000     0.6544   300.4292
 2072.5000     0.6355   301.5191
 2073.0000     0.6170   302.6090
 2073.5000     0.6179   303.6989
 2074.0000     0.6574   304.7888
 2074.5000     0.6583   305.8786
 2075.0000     0.6978   306.9685
 2075.5000     0.6985   308.0584
 2076.0000     0.7381   309.1483
 2076.5000     0.7582   310.2382
 2077.0000     0.8172   311.3280
 2077.5000     0.8373   312.4179
 2078.0000     0.8769   313.5078
 2078.5000     0.9164   314.5977
 2079.0000     0.9365   315.6876
 2079.5000     0.9373   316.7774
 2080.0000     0.9381   317.8673
 2080.5000     0.9777   318.9572
 2081.0000     1.0171   320.0471
 2081.5000     1.1148   321.1369
 2082.0000     1.2125   322.2268
 2082.5000     1.2908   323.3167
 2083.0000     1.2335   324.4066
 2083.5000     1.1567   325.4965
 2084.0000     0.9443   326.5863
 2084.5000     0.8287   327.6762
 2085.0000     0.8489   328.7661
 2085.5000     0.8497   329.8560
 2086.0000     0.8505   330.9459
 2086.5000     0.8317   332.0357
 2087.0000     0.8327   333.1256
 2087.5000     0.7946   334.2155
 2088.0000     0.7566   335.3054
 2088.5000     0.7574   336.3952
 2089.0000     0.7970   337.4851
 2089.5000     0.8365   338.5750
 2090.0000     0.8760   339.6649
 2090.5000     0.9544   340.7548
 2091.0000     0.9939   341.8446
 2091.5000     1.0722   342.9345
 2092.0000     1.1698   344.0244
 2092.5000     1.3063   345.1143
 2093.0000     1.3071   346.2042
 2093.5000     1.2690   347.2940
 2094.0000     1.2309   348.3839
 2094.5000     1.1350   349.4738
 2095.0000     1.0195   350.6494
 2095.5000     0.8652   356.8098
 2096.0000     0.6915   363.4960
 2096.5000     0.6924   370.1821
 2097.0000     0.6931   376.8682
 2097.5000     0.7327   383.5544
 2098.0000     0.7334   389.6762
 2098.5000     0.7343   390.3751
 2099.0000     0.6768   391.0740
 2099.5000     0.5807   391.7729
 2100.0000     0.4262   392.4718
 2100.5000     0.4466   393.1707
 2101.0000     0.4668   393.8695
 2101.5000     0.4675   394.5684
 2102.0000     0.4683   395.2673
 2102.5000     0.4691   395.9662
 2103.0000     0.4491   396.6651
 2103.5000     0.4692   397.3640
 2104.0000     0.4698   398.0628
 2104.5000     0.4898   398.7617
 2105.0000     0.5098   399.4606
 2105.5000     0.5104   400.1595
 2106.0000     0.5109   400.8584
 2106.5000     0.5115   401.5573
 2107.0000     0.5121   402.2562
 2107.5000     0.5127   402.9550
 2108.0000     0.5520   403.6539
 2108.5000     0.6301   404.3528
 2109.0000     0.6307   405.0517
 2109.5000     0.6507   405.7506
 2110.0000     0.6512   406.4495
 2110.5000     0.6323   407.1483
 2111.0000     0.6330   407.8472
 2111.5000     0.6336   408.5461
 2112.0000     0.6729   409.2450
 2112.5000     0.7510   409.9439
 2113.0000     0.8291   410.6428
 2113.5000     0.9072   411.3416
 2114.0000     0.9079   412.0405
 2114.5000     0.8503   412.7394
 2115.0000     0.7927   413.4383
 2115.5000     0.7351   414.1372
 2116.0000     0.6776   414.8361
 2116.5000     0.6393   415.5349
 2117.0000     0.5818   416.2338
 2117.5000     0.5049   416.9327
 2118.0000     0.4280   417.6316
 2118.5000     0.4091   418.3305
 2119.0000     0.4292   419.0294
 2119.5000     0.4491   419.7282
 2120.0000     0.4885   420.4271
 2120.5000     0.5278   421.1260
 2121.0000     0.6640   421.8249
 2121.5000     0.8778   422.5238
 2122.0000     1.1303   423.2227
 2122.5000     1.3053   423.9215
 2123.0000     1.4222   424.6204
 2123.5000     1.4808   425.3193
 2124.0000     1.5008   426.0182
 2124.5000     1.5402   426.7171
 2125.0000     1.5019   427.4160
 2125.5000     1.4637   428.1148
 2126.0000     1.3868   413.1290
 2126.5000     1.2518   380.4584
 2127.0000     0.9617   362.3167
 2127.5000     0.7298   344.1749
 2128.0000     0.5946   326.0332
 2128.5000     0.5370   307.8915
 2129.0000     0.4988   289.7498
 2129.5000     0.4800   271.6080
 2130.0000     0.4612   253.4663
 2130.5000     0.5007   235.3246
 2131.0000     0.5012   217.1828
 2131.5000     0.5406   199.0411
 2132.0000     0.5605   188.5612
 2132.5000     0.5417   186.5132
 2133.0000     0.5035   184.4652
 2133.5000     0.4654   182.4172
 2134.0000     0.4660   180.3692
 2134.5000     0.4278   178.3212
 2135.0000     0.4284   176.2731
 2135.5000     0.4289   174.2251
 2136.0000     0.4296   172.1771
 2136.5000     0.4495   170.1291
 2137.0000     0.5082   168.0811
 2137.5000     0.5863   166.0331
 2138.0000     0.6451   163.9851
 2138.5000     0.7037   161.9371
 2139.0000     0.7044   159.8891
 2139.5000     0.7049   157.8410
 2140.0000     0.7055   155.7930
 2140.5000     0.7061   153.7450
 2141.0000     0.7261   151.6970
 2141.5000     0.7460   149.6490
 2142.0000     0.8047   147.6010
 2142.5000     0.9022   145.5530
 2143.0000     0.9803   143.5050
 2143.5000     0.9808   141.4570
 2144.0000     0.9815   139.4090
 2144.5000     0.9821   137.3610
 2145.0000     0.9631   135.3130
 2145.5000     0.9057   133.2649
 2146.0000     0.8674   131.2169
 2146.5000     0.7905   129.1689
 2147.0000     0.7135   127.1209
 2147.5000     0.6560   125.0729
 2148.0000     0.6372   123.0249
 2148.5000     0.6379   120.9769
 2149.0000     0.6384   118.9289
 2149.5000     0.6390   117.2728
 2150.0000     0.6590   116.8831
 2150.5000     0.6596   116.4935
 2151.0000     0.6795   154.4766
 2151.5000     0.6801   217.1082
 2152.0000     0.7582   279.7397
 2152.5000     0.7780   342.3713
 2153.0000     0.7592   405.0028
 2153.5000     0.7600   464.8829
 2154.0000     0.7606   527.1579
 2154.5000     0.7611   585.5996
 2155.0000     0.8005   641.4047
 2155.5000     0.8592   693.5306
 2156.0000     0.8986   745.6567
 2156.5000     0.9185   797.7827
 2157.0000     0.9383   851.7233
 2157.5000     0.9195   865.0207
 2158.0000     0.9203   886.5520
 2158.5000     0.9208   908.0834
 2159.0000     0.8439   928.0798
 2159.5000     0.7669   923.4320
 2160.0000     0.7286   913.7067
 2160.5000     0.6905   903.9814
 2161.0000     0.6522   894.2562
 2161.5000     0.6141   882.9945
 2162.0000     0.5953   867.7778
 2162.5000     0.5960   852.5610
 2163.0000     0.5966   837.3443
 2163.5000     0.6359   822.1276
 2164.0000     0.6753   806.5888
 2164.5000     0.7146   778.1822
 2165.0000     0.7539   765.7958
 2165.5000     0.8127   755.1860
 2166.0000     0.8520   744.5762
 2166.5000     0.9301   733.9665
 2167.0000     0.9694   723.3567
 2167.5000     1.0088   712.7469
 2168.0000     0.9318   706.6882
 2168.5000     0.8549   706.3268
 2169.0000     0.8166   704.1754
 2169.5000     0.7785   699.7202
 2170.0000     0.7597   695.2649
 2170.5000     0.7408   690.8097
 2171.0000     0.7415   686.3544
 2171.5000     0.7421   684.4979
 2172.0000     0.7621   681.8968
 2172.5000     0.7821   659.9883
 2173.0000     0.8020   638.0797
 2173.5000     0.8414   616.1712
 2174.0000     0.8807   594.2626
 2174.5000     0.9394   572.3541
 2175.0000     1.0176   550.4456
 2175.5000     1.1150   543.1668
 2176.0000     1.1931   540.3057
 2176.5000     1.1742   537.4447
 2177.0000     1.0585   534.5837
 2177.5000     0.8847   531.7227
 2178.0000     0.7691   528.8616
 2178.5000     0.6727   526.0005
 2179.0000     0.5958   522.8126
 2179.5000     0.5575   522.2932
 2180.0000     0.5387   521.7068
 2180.5000     0.5781   521.1204
 2181.0000     0.6950   520.5340
 2181.5000     0.8700   519.9476
 2182.0000     1.3357   519.3612
 2182.5000     1.3363   518.7748
 2183.0000     1.3369   518.1884
 2183.5000     1.2986   517.6020
 2184.0000     1.2218   517.0156
 2184.5000     1.1060   516.4291
 2185.0000     0.9904   515.8428
 2185.5000     0.9135   515.2563
 2186.0000     0.8559   514.6699
 2186.5000     0.7982   514.0836
 2187.0000     0.7213   513.4971
 2187.5000     0.6444   512.9107
 2188.0000     0.5869   512.3243
 2188.5000     0.5293   511.7379
