~VERSION INFORMATION
 VERS.                2.0:   CWLS LOG ASCII STANDARD - VERSION 2.0
 WRAP.                 NO:   ONE LINE PER DEPTH STEP
~WELL INFORMATION
#MNEM.UNIT      DATA TYPE    INFORMATION
#----------   ------------   ------------------------------
 STRT.F           30.0000:   START DEPTH
 STOP.F         2441.0000:   STOP DEPTH
 STEP.F            0.5000:   STEP LENGTH
 NULL.          -999.2500:   NO VALUE
 COMP. FENIX & SCISSON INC:   COMPANY
 WELL.      NPR 3 #81 S-4:   WELL
 FLD .             TEAPOT:   FIELD
 LOC .       S4 T38N R78W:   LOCATION
 CNTY.            NATRONA:   COUNTY
 STAT.            WYOMING:   STATE
 CTRY. UNITED STATES OF AMERICA:   COUNTRY
 SRVC.            Unknown:   SERVICE COMPANY
 DATE.        28-MAR-1978:   LOGDATE
 API .       490251060700:   API NUMBER
~CURVE INFORMATION
#MNEM.UNIT       API CODE    CURVE DESCRIPTION
#----------   ------------   ------------------------------
 DEPT.F                  :   
 CALD.IN     45 280 60 00:   CALIPER
 RHOB.G/C3   45 350 01 00:   BULK DENSITY
 DPHI.DEC    45 890 12 00:   DENSITY POROSITY SANDSTONE
 CORR.G/C3   45 356 01 00:   DENSITY CORRECTION
 GRD .GAPI   45 310 01 00:   GAMMA RAY FROM DENSITY LOG
~PARAMETER INFORMATION
#MNEM.UNIT          VALUE    DESCRIPTION
#----------   ------------   ------------------------------
 PD  .                 GL:   PERMANENT DATUM
 EPD .F              5169:   ELEVATION PERMANENT DATUM
 LMF .                 KB:   LOG MEASURED FROM
 DAPD.F                10:   FEET ABOVE PERMANENT DATUM
 DMF .                 KB:   DRILLING MEASURED FROM
 EKB .F              5179:   KELLING BUSHING
 EGL .F              5169:   GROUND LEVEL
 DATE.          3-28-1978:   RUN DATE
 RUN .                  1:   RUN NUMBER
 DD  .F              2454:   DEPTH DRILLER
 DL  .F              2443:   DEPTH LOGGER
 BLI .F              2441:   BOTTOM LOG INTERVAL
 TLI .F                40:   TOP LOG INTERVAL
 CS  .IN            9.625:   CASING SIZE
 CBD .F               660:   CASING BOTTOM DRILLER
 CBL .F               660:   CASING BOTTOM LOGGER
 BS  .IN             8.75:   BIT SIZE
 BSD .F              2454:   BIT SIZE AT DEPTH
 DFT .           AIR MIST:   DRILLING FLUID TYPE
 TCS .HRS               2:   TIME CURCULATED STOPPED
 LUN .               2958:   LOGGING UNIT NUMBER
 LUL .               CASP:   LOGGING UNIT LOCATION
 ENGI.             MILLER:   RECORDING ENGINEER
 CLNT.            A2DTECH:   CLIENT CODE
 ORIG.       2"  5" PRINT:   ORIGIN OF DATA
 UWI .       490251060700:   UNIQUE WELL ID
 DICO. A2D Technologies, Inc.:   DIGITIZING COMPANY
~OTHER INFORMATION
~A   DEPT     CALD       RHOB       DPHI       CORR        GRD   
# ...
  762.0000    10.5894     2.4896     0.0999     0.0426   168.5324
  762.5000    10.5892     2.4909     0.1025     0.0519   169.0224
  763.0000    10.5894     2.4913     0.1000     0.0497   169.5094
  763.5000    10.5890     2.4821     0.1051     0.0476   169.9918
  764.0000    10.5724     2.4689     0.1151     0.0379   170.4951
  764.5000    10.5212     2.4583     0.1190     0.0297   169.9703
  765.0000    10.4723     2.4618     0.1171     0.0301   168.8537
  765.5000    10.4841     2.4668     0.1152     0.0360   167.7323
  766.0000    10.4867     2.4720     0.1130     0.0419   166.6390
  766.5000    10.4816     2.4771     0.1106     0.0478   168.3866
  767.0000    10.4763     2.4817     0.1090     0.0527   171.2032
  767.5000    10.4710     2.4780     0.1118     0.0550   171.8201
  768.0000    10.4657     2.4734     0.1137     0.0575   169.7375
  768.5000    10.4604     2.4656     0.1156     0.0597   168.2297
  769.0000    10.4550     2.4571     0.1197     0.0550   168.1627
  769.5000    10.4517     2.4533     0.1242     0.0418   168.6787
  770.0000    10.4637     2.4727     0.1173     0.0340   172.3233
  770.5000    10.4756     2.4627     0.1172     0.0320   176.3284
  771.0000    10.4878     2.4587     0.1181     0.0320   178.9559
  771.5000    10.4893     2.4821     0.1131     0.0320   178.9203
  772.0000    10.4880     2.4893     0.1111     0.0319   179.0670
  772.5000    10.4866     2.4725     0.1141     0.0285   179.4296
  773.0000    10.4852     2.4596     0.1208     0.0164   174.9854
  773.5000    10.4838     2.4485     0.1266     0.0045   170.9442
  774.0000    10.4824     2.4520     0.1261     0.0037   170.5833
  774.5000    10.4811     2.4619     0.1205     0.0116   171.7462
  775.0000    10.4797     2.4718     0.1146     0.0205   173.3809
  775.5000    10.4783     2.4704     0.1154     0.0256   174.5819
  776.0000    10.4770     2.4656     0.1170     0.0245   174.5489
  776.5000    10.4756     2.4736     0.1144     0.0258   173.9711
  777.0000    10.4742     2.4779     0.1103     0.0301   172.1513
  777.5000    10.4728     2.4789     0.1098     0.0340   172.2448
  778.0000    10.4715     2.4812     0.1092     0.0324   173.5049
  778.5000    10.4701     2.4869     0.1071     0.0306   172.9480
  779.0000    10.4687     2.4894     0.1050     0.0288   170.6016
  779.5000    10.4674     2.4860     0.1078     0.0271   166.8573
  780.0000    10.4660     2.4834     0.1098     0.0262   163.0385
  780.5000    10.4646     2.4886     0.1074     0.0276   160.8420
  781.0000    10.4633     2.4917     0.1066     0.0290   168.4088
  781.5000    10.4619     2.4870     0.1078     0.0303   174.9676
  782.0000    10.4605     2.4839     0.1090     0.0317   176.6230
  782.5000    10.4592     2.4863     0.1074     0.0346   176.5234
  783.0000    10.4578     2.4885     0.1059     0.0377   175.1245
  783.5000    10.4564     2.4907     0.1054     0.0393   170.3469
  784.0000    10.4550     2.4930     0.1056     0.0369   164.9778
  784.5000    10.4537     2.4908     0.1074     0.0345   163.0286
  785.0000    10.4523     2.4827     0.1106     0.0301   161.1386
  785.5000    10.4510     2.4764     0.1121     0.0258   162.0183
  786.0000    10.4467     2.4815     0.1102     0.0278   164.6437
  786.5000    10.4410     2.4888     0.1073     0.0310   167.0137
  787.0000    10.4352     2.4942     0.1044     0.0341   166.5811
  787.5000    10.4295     2.4999     0.1021     0.0347   163.9597
  788.0000    10.4237     2.4918     0.1078     0.0289   163.4505
  788.5000    10.4180     2.4815     0.1114     0.0261   166.6978
  789.0000    10.4120     2.4891     0.1074     0.0295   168.0071
  789.5000    10.4140     2.4897     0.1077     0.0315   167.1228
  790.0000    10.4183     2.4860     0.1090     0.0299   168.0968
  790.5000    10.4226     2.5084     0.1026     0.0353   169.8225
  791.0000    10.4269     2.4969     0.1010     0.0383   171.8320
  791.5000    10.4312     2.4832     0.1090     0.0280   172.3504
  792.0000    10.4354     2.4757     0.1129     0.0182   171.0010
  792.5000    10.4397     2.4641     0.1202     0.0190   169.7969
  793.0000    10.4440     2.4781     0.1156     0.0208   170.0075
  793.5000    10.4483     2.4763     0.1118     0.0227   174.1904
  794.0000    10.4540     2.4796     0.1148     0.0276   179.4741
  794.5000    10.4612     2.4867     0.0982     0.0434   178.8730
  795.0000    10.4684     2.4942     0.1058     0.0587   173.7525
  795.5000    10.4756     2.4960     0.1062     0.0740   169.5684
  796.0000    10.4829     2.4956     0.1086     0.0893   169.3398
  796.5000    10.4898     2.4820     0.0978     0.0926   170.7112
  797.0000    10.4875     2.4687     0.1145     0.0730   171.3840
  797.5000    10.4847     2.4604     0.1194     0.0532   171.4582
  798.0000    10.4819     2.4647     0.0958     0.0500   171.5156
  798.5000    10.4792     2.4681     0.1134     0.0486   171.5719
  799.0000    10.4765     2.4648     0.1062     0.0318   171.6300
  799.5000    10.4738     2.4545     0.0982     0.0178   171.6889
  800.0000    10.4710     2.4848     0.1002     0.0214   171.7413
  800.5000    10.4683     2.4959     0.0950     0.0286   171.5103
  801.0000    10.4656     2.5005     0.0987     0.0320   170.5948
  801.5000    10.4629     2.4957     0.1029     0.0334   169.5751
  802.0000    10.4601     2.4833     0.1101     0.0288   169.6775
  802.5000    10.4574     2.4710     0.1149     0.0196   171.1695
  803.0000    10.4547     2.4635     0.1157     0.0160   174.4215
  803.5000    10.4520     2.4649     0.1165     0.0159   176.9785
  804.0000    10.4492     2.4666     0.1170     0.0161   176.8326
  804.5000    10.4465     2.4665     0.1170     0.0139   174.4220
  805.0000    10.4438     2.4671     0.1157     0.0153   174.2015
  805.5000    10.4411     2.4785     0.1082     0.0265   173.9822
  806.0000    10.4383     2.4899     0.0993     0.0388   172.8941
  806.5000    10.4356     2.5013     0.0962     0.0514   165.7826
  807.0000    10.4329     2.4995     0.1072     0.0439   165.1104
  807.5000    10.4308     2.4795     0.1162     0.0256   164.6549
  808.0000    10.4328     2.4562     0.1222     0.0236   164.6437
  808.5000    10.4347     2.4619     0.1182     0.0300   164.6440
  809.0000    10.4366     2.4685     0.1142     0.0358   164.6614
  809.5000    10.4385     2.4753     0.1123     0.0334   165.0585
  810.0000    10.4404     2.4817     0.1104     0.0304   165.4659
  810.5000    10.4423     2.4804     0.1107     0.0299   165.8398
  811.0000    10.4441     2.4758     0.1113     0.0312   165.8838
  811.5000    10.4460     2.4736     0.1119     0.0330   164.3900
  812.0000    10.4479     2.4810     0.1118     0.0348   162.6427
  812.5000    10.4498     2.4906     0.1086     0.0366   162.7545
  813.0000    10.4517     2.4863     0.1058     0.0384   163.6674
  813.5000    10.4536     2.4854     0.1058     0.0384   163.9214
  814.0000    10.4555     2.4906     0.1058     0.0375   164.0130
  814.5000    10.4573     2.4924     0.1055     0.0371   164.1020
  815.0000    10.4592     2.5029     0.1035     0.0367   164.1846
  815.5000    10.4611     2.4981     0.1022     0.0362   163.9843
  816.0000    10.4630     2.4897     0.1052     0.0345   162.7392
  816.5000    10.4649     2.4842     0.1081     0.0283   161.8487
  817.0000    10.4667     2.4779     0.1106     0.0223   162.3623
  817.5000    10.4686     2.4798     0.1103     0.0230   160.7735
  818.0000    10.4738     2.4844     0.1094     0.0206   154.6501
  818.5000    10.4991     2.4815     0.1103     0.0100   151.5822
  819.0000    10.5244     2.4839     0.1094     0.0094   151.6074
  819.5000    10.5495     2.5010     0.1026     0.0113   153.4027
  820.0000    10.5706     2.4854     0.0986     0.0064   156.7871
  820.5000    10.5900     2.4651     0.1082    -0.0019   152.9698
  821.0000    10.6087     2.4687     0.1114    -0.0018   149.2075
  821.5000    10.6083     2.4728     0.1068     0.0033   148.0130
  822.0000    10.6074     2.4833     0.1026     0.0085   148.0914
  822.5000    10.6065     2.4919     0.0990     0.0100   148.1881
