~VERSION INFORMATION
 VERS.                2.0:   CWLS LOG ASCII STANDARD - VERSION 2.0
 WRAP.                 NO:   ONE LINE PER DEPTH STEP
~WELL INFORMATION
#MNEM.UNIT      DATA TYPE    INFORMATION
#----------   ------------   ------------------------------
 STRT.F            0.0000:   START DEPTH
 STOP.F          404.0000:   STOP DEPTH
 STEP.F            0.1000:   STEP LENGTH
 NULL.          -999.2500:   NO VALUE
 COMP.   FLUOR DANIEL INC:   COMPANY
 WELL.   62-1 X 10 #62-10:   WELL
 FLD .             TEAPOT:   FIELD
 LOC .      S10 T38N R78W:   LOCATION
 CNTY.            NATRONA:   COUNTY
 STAT.            WYOMING:   STATE
 CTRY. UNITED STATES OF AMERICA:   COUNTRY
 SRVC.      Western Atlas:   SERVICE COMPANY
 DATE.        29-MAR-1995:   LOGDATE
 API .       490252270300:   API NUMBER
~CURVE INFORMATION
#MNEM.UNIT       API CODE    CURVE DESCRIPTION
#----------   ------------   ------------------------------
 DEPT.F                  :   
 GRR .GAPI   07 310 01 00:   GAMMA RAY
 RILD.OHMM   07 120 46 00:   INDUCTION LOG DEEP RESISTIVITY
 RILM.OHMM   07 120 44 00:   RESITIVITY LONG MEDIUM
~PARAMETER INFORMATION
#MNEM.UNIT          VALUE    DESCRIPTION
#----------   ------------   ------------------------------
 PD  .                 GL:   PERMANENT DATUM
 EPD .F              5160:   ELEVATION PERMANENT DATUM
 LMF .                 KB:   LOG MEASURED FROM
 DAPD.F                10:   FEET ABOVE PERMANENT DATUM
 DMF .                 KB:   DRILLING MEASURED FROM
 EKB .F              5170:   KELLING BUSHING
 EDF .F              5169:   DRILLING FLOOR
 EGL .F              5160:   GROUND LEVEL
 DATE.        29-MAR-1995:   RUN DATE
 RUN .                  1:   RUN NUMBER
 DD  .F               455:   DEPTH DRILLER
 DL  .F               416:   DEPTH LOGGER
 BLI .F               408:   BOTTOM LOG INTERVAL
 TLI .F                95:   TOP LOG INTERVAL
 CS  .IN            9.625:   CASING SIZE
 CBD .F                95:   CASING BOTTOM DRILLER
 CBL .F                95:   CASING BOTTOM LOGGER
 BS  .IN             8.75:   BIT SIZE
 BSD .F               455:   BIT SIZE AT DEPTH
 DFT .                AIR:   DRILLING FLUID TYPE
 MRT .F               204:   MAXIMUM RECORDED TEMPERATURE
 LUN .            HL 6530:   LOGGING UNIT NUMBER
 LUL .             CASPER:   LOGGING UNIT LOCATION
 ENGI.        VERN RAUTIO:   RECORDING ENGINEER
 WITN.        GARY STRONG:   WITNESSED BY
 CLNT.            A2DTECH:   CLIENT CODE
 ORIG.           5" PRINT:   ORIGIN OF DATA
 UWI .       490252270300:   UNIQUE WELL ID
 DICO. A2D Technologies, Inc.:   DIGITIZING COMPANY
~OTHER INFORMATION
~A    DEPT      GRR      RILD       RILM   
# ...
  109.2000   115.8829     8.3570     7.2834
  109.3000   116.6540     8.3572     7.3268
  109.4000   117.4781     8.3575     7.3552
  109.5000   118.8537     8.3577     7.3554
  109.6000   119.8094     8.3579     7.3556
  109.7000   120.8374     8.3881     7.3558
  109.8000   121.8654     8.4166     7.3560
  109.9000   122.8935     8.4169     7.3562
  110.0000   124.1629     8.4171     7.3564
  110.1000   126.1875     8.4174     7.3566
  110.2000   127.9035     8.4176     7.3568
  110.3000   128.5876     8.4541     7.3570
  110.4000   128.9919     8.4767     7.3572
  110.5000   129.2489     8.4770     7.3242
  110.6000   129.5059     8.4772     7.3068
  110.7000   129.7134     8.4774     7.2890
  110.8000   129.7086     8.4777     7.2463
  110.9000   129.4118     8.4779     7.2066
  111.0000   128.9774     8.4781     7.2069
  111.1000   128.4633     8.4535     7.1693
  111.2000   127.8214     8.4039     7.1574
  111.3000   127.1336     8.3618     7.1349
  111.4000   126.6196     8.3621     7.1083
  111.5000   126.0935     8.3145     7.1006
  111.6000   125.1885     8.2657     7.0590
  111.7000   124.9822     8.2173     7.0109
  111.8000   124.7252     8.1691     6.9765
  111.9000   124.5852     8.1341     6.9628
  112.0000   124.5852     8.1298     6.9630
  112.1000   124.6130     8.0783     6.9504
  112.2000   124.8869     8.0785     6.9097
  112.3000   124.8869     8.0787     6.8675
  112.4000   125.0824     8.0519     6.8677
  112.5000   125.6410     8.0232     6.8679
  112.6000   126.1997     8.0234     6.8435
  112.7000   126.4567     8.0237     6.8208
  112.8000   126.7137     8.0239     6.8210
  112.9000   126.9985     8.0241     6.8212
  113.0000   126.9985     8.0243     6.8214
  113.1000   126.9985     8.0003     6.8215
  113.2000   126.9985     7.9852     6.8513
  113.3000   126.9032     8.0250     6.8694
  113.4000   126.6968     8.0252     6.8696
  113.5000   126.6968     8.0255     6.8781
  113.6000   126.6968     8.0257     6.9179
  113.7000   126.6968     8.0259     6.9181
  113.8000   126.6968     8.0261     6.9182
  113.9000   126.6968     8.0263     6.9184
  114.0000   126.6968     8.0266     6.9392
  114.1000   126.6968     8.0268     6.9670
  114.2000   126.6968     8.0270     6.9672
  114.3000   126.6968     8.0272     6.9674
  114.4000   126.6968     8.0274     6.9676
  114.5000   126.8597     8.0277     6.9678
  114.6000   127.2350     8.0279     6.9680
  114.7000   127.8226     8.0281     6.9682
  114.8000   128.5357     8.0284     6.9684
  114.9000   128.8084     8.0286     6.9686
  115.0000   128.8084     8.0288     6.9688
  115.1000   128.8084     8.0040     6.9689
  115.2000   128.8084     7.9737     6.9999
  115.3000   128.8084     7.9739     7.0179
  115.4000   128.7457     7.9742     7.0181
  115.5000   128.4706     8.0299     7.0092
  115.6000   127.9035     8.0301     6.9699
  115.7000   127.6730     8.0303     6.9701
  115.8000   127.2302     8.0306     6.9703
  115.9000   126.5750     8.0308     6.9705
  116.0000   125.7074     8.0310     6.9707
  116.1000   124.7312     8.0313     6.9709
  116.2000   123.9529     8.0315     6.9643
  116.3000   122.7753     8.0317     6.9231
  116.4000   122.1164     8.0319     6.9233
  116.5000   121.5203     8.0321     6.9234
  116.6000   120.8760     8.0442     6.8976
  116.7000   120.1907     8.0886     6.8759
  116.8000   119.7177     8.0888     6.8761
  116.9000   119.4570     8.0890     6.8763
  117.0000   119.4570     8.0892     6.8765
  117.1000   119.6658     8.1156     6.8767
  117.2000   119.7587     8.1461     6.8769
  117.3000   119.8781     8.1463     6.8771
  117.4000   120.0603     8.1474     6.8773
  117.5000   120.0905     8.2036     6.8775
  117.6000   120.3620     8.2038     6.8776
  117.7000   120.8471     8.2040     6.8779
  117.8000   121.1632     8.2042     6.8780
  117.9000   121.7267     8.1892     6.8782
  118.0000   122.2805     8.1479     6.8784
  118.1000   122.6015     8.1481     6.8786
  118.2000   123.1155     8.1483     6.8788
  118.3000   123.6802     8.1486     6.8792
  118.4000   124.3753     8.1193     6.9271
  118.5000   124.9593     8.0926     6.9273
  118.6000   125.6157     8.0928     6.9275
  118.7000   126.1913     8.0931     6.9277
  118.8000   126.5014     8.0933     6.9279
  118.9000   127.0069     8.0935     6.9281
  119.0000   127.3001     8.0586     6.9283
  119.1000   127.5210     8.0379     6.9284
  119.2000   127.7780     8.0382     6.8969
  119.3000   127.9035     8.0284     6.8809
  119.4000   127.9035     7.9830     6.8811
  119.5000   127.8612     7.9832     6.8711
  119.6000   127.6018     7.9834     6.8339
  119.7000   127.3001     7.9836     6.8341
  119.8000   127.3001     7.9600     6.8343
  119.9000   126.9695     7.9288     6.8053
  120.0000   126.5762     7.9290     6.7874
  120.1000   126.2431     7.9293     6.7726
  120.2000   125.7291     7.9295     6.7407
  120.3000   125.1885     7.9297     6.7401
  120.4000   124.7011     7.9299     6.6946
  120.5000   124.1870     7.9301     6.6947
  120.6000   123.5185     7.9304     6.6685
  120.7000   122.8573     7.9306     6.6488
  120.8000   122.2781     7.9308     6.6490
  120.9000   121.5070     7.9310     6.6435
  121.0000   120.6637     7.8961     6.6034
  121.1000   119.9650     7.8766     6.6035
  121.2000   119.1939     7.8768     6.6037
  121.3000   118.5665     7.8770     6.6039
  121.4000   118.0525     7.8772     6.5869
  121.5000   117.6471     7.8775     6.5586
  121.6000   117.6471     7.8776     6.5588
  121.7000   117.6471     7.8454     6.5590
  121.8000   117.6471     7.8236     6.5591
  121.9000   117.8244     7.8238     6.5308
  122.0000   118.2142     7.8160     6.5141
  122.1000   118.7282     7.7700     6.5143
  122.2000   119.2422     7.7703     6.5145
  122.3000   119.7587     7.7705     6.5147
  122.4000   120.0603     7.7411     6.5149
  122.5000   120.4827     7.7171     6.5150
  122.6000   120.6637     7.7173     6.5152
  122.7000   120.6637     7.7176     6.5154
  122.8000   120.6637     7.7178     6.5156
  122.9000   120.6637     7.7180     6.5096
  123.0000   120.6637     7.7182     6.4709
  123.1000   120.6637     7.7184     6.4711
  123.2000   120.6637     7.7186     6.4712
  123.3000   120.5080     7.7188     6.4714
  123.4000   120.2510     7.7191     6.4716
  123.5000   120.0603     7.7193     6.4610
  123.6000   120.0603     7.7195     6.4272
  123.7000   120.0603     7.7197     6.4274
  123.8000   120.0603     7.7199     6.4275
  123.9000   120.2498     7.7201     6.4277
  124.0000   120.5068     7.7203     6.4279
  124.1000   120.7638     7.7206     6.4281
  124.2000   121.0208     7.7208     6.4196
  124.3000   121.2778     7.7210     6.3840
  124.4000   121.5686     7.7212     6.3842
  124.5000   122.0151     7.7214     6.3843
  124.6000   122.3505     7.7075     6.3581
  124.7000   122.6075     7.6684     6.3405
  124.8000   122.9538     7.6686     6.3276
  124.9000   123.4679     7.5825     6.2970
  125.0000   123.9819     7.5283     6.2972
  125.1000   124.5852     7.4842     6.2974
  125.2000   124.7976     7.4403     6.2670
  125.3000   125.0546     7.3855     6.2541
  125.4000   125.4347     7.2920     6.2369
  125.5000   125.7919     7.1059     6.2003
  125.6000   125.8256     7.0682     6.1640
  125.7000   126.0935     6.9966     6.1260
  125.8000   126.0935     6.9146     6.0920
  125.9000   126.0935     6.8335     6.0839
  126.0000   126.0935     6.7615     6.0628
  126.1000   125.9813     6.7207     6.0272
  126.2000   125.6567     6.6304     5.9919
  126.3000   125.1656     6.5642     5.9568
  126.4000   124.8869     6.5132     5.9182
  126.5000   124.4163     6.4559     5.8563
  126.6000   123.9023     6.3802     5.8122
  126.7000   123.3882     6.3054     5.7598
  126.8000   122.9755     6.2296     5.6802
  126.9000   122.7185     6.1940     5.5805
  127.0000   122.4736     6.1577     5.4820
  127.1000   122.4736     6.0992     5.3341
  127.2000   122.2492     6.0516     5.3078
  127.3000   122.1719     6.0339     5.2561
