~VERSION INFORMATION
 VERS.                2.0:   CWLS LOG ASCII STANDARD - VERSION 2.0
 WRAP.                 NO:   ONE LINE PER DEPTH STEP
~WELL INFORMATION
#MNEM.UNIT      DATA TYPE    INFORMATION
#----------   ------------   ------------------------------
 STRT.F            0.0000:   START DEPTH
 STOP.F          635.0000:   STOP DEPTH
 STEP.F            0.1000:   STEP LENGTH
 NULL.          -999.2500:   NO VALUE
 COMP.   FLUOR DANIEL INC:   COMPANY
 WELL. NAVAL PETROLEUM RESERVE 3 SX-3 #72-7-3:   WELL
 FLD .             TEAPOT:   FIELD
 LOC .       S3 T38N R78W:   LOCATION
 CNTY.            NATRONA:   COUNTY
 STAT.            WYOMING:   STATE
 CTRY. UNITED STATES OF AMERICA:   COUNTRY
 SRVC.      Western Atlas:   SERVICE COMPANY
 DATE.        11-JAN-1995:   LOGDATE
 API .       490252264900:   API NUMBER
~CURVE INFORMATION
#MNEM.UNIT       API CODE    CURVE DESCRIPTION
#----------   ------------   ------------------------------
 DEPT.F                  :   
 GRR .GAPI   07 310 01 00:   GAMMA RAY
 RILD.OHMM   07 120 46 00:   INDUCTION LOG DEEP RESISTIVITY
 RILM.OHMM   07 120 44 00:   RESITIVITY LONG MEDIUM
~PARAMETER INFORMATION
#MNEM.UNIT          VALUE    DESCRIPTION
#----------   ------------   ------------------------------
 PD  .                 GL:   PERMANENT DATUM
 EPD .F              5144:   ELEVATION PERMANENT DATUM
 LMF .                 KB:   LOG MEASURED FROM
 DAPD.F                10:   FEET ABOVE PERMANENT DATUM
 DMF .                 KB:   DRILLING MEASURED FROM
 EKB .F              5154:   KELLING BUSHING
 EDF .F              5153:   DRILLING FLOOR
 EGL .F              5144:   GROUND LEVEL
 DATE.        11-JAN-1995:   RUN DATE
 RUN .                  1:   RUN NUMBER
 DD  .F               641:   DEPTH DRILLER
 DL  .F               642:   DEPTH LOGGER
 BLI .F               635:   BOTTOM LOG INTERVAL
 CS  .IN            9.625:   CASING SIZE
 CBD .F                97:   CASING BOTTOM DRILLER
 CBL .F                97:   CASING BOTTOM LOGGER
 BS  .IN             8.75:   BIT SIZE
 BSD .F               641:   BIT SIZE AT DEPTH
 DFT .                AIR:   DRILLING FLUID TYPE
 MRT .F                89:   MAXIMUM RECORDED TEMPERATURE
 LUN .            HL 6530:   LOGGING UNIT NUMBER
 LUL .             CASPER:   LOGGING UNIT LOCATION
 ENGI.      PAT RASMUSSEN:   RECORDING ENGINEER
 WITN.        STEVE HARDY:   WITNESSED BY
 CLNT.            A2DTECH:   CLIENT CODE
 ORIG.           5" PRINT:   ORIGIN OF DATA
 UWI .       490252264900:   UNIQUE WELL ID
 DICO. A2D Technologies, Inc.:   DIGITIZING COMPANY
~OTHER INFORMATION
~A    DEPT      GRR      RILD       RILM   
# ...
  436.8000    64.5212    19.2763    19.2903
  436.9000    63.6485    19.1635    19.0460
  437.0000    63.1319    19.0513    19.0469
  437.1000    62.6061    18.9397    18.9622
  437.2000    61.7018    18.8288    18.9174
  437.3000    60.8566    18.7235    18.8704
  437.4000    59.9904    18.7247    18.7887
  437.5000    59.0887    18.7257    18.7898
  437.6000    58.2196    18.7267    18.7909
  437.7000    57.7430    18.7277    18.8964
  437.8000    57.4828    18.7288    18.9237
  437.9000    57.1828    18.7298    18.9247
  438.0000    56.7573    18.7309    18.9750
  438.1000    56.4113    18.7320    19.0586
  438.2000    56.6647    18.7329    19.0596
  438.3000    57.4440    18.8112    19.0607
  438.4000    58.2235    18.9241    19.2762
  438.5000    59.0061    19.0780    19.3291
  438.6000    59.9145    19.2638    19.4003
  438.7000    60.3466    19.2686    19.5171
  438.8000    60.8669    19.5350    19.6023
  438.9000    61.5166    19.5359    19.6164
  439.0000    62.1229    19.6158    19.7410
  439.1000    62.3839    19.7335    19.8535
  439.2000    62.6458    19.8118    19.8805
  439.3000    63.2504    19.8330    19.9546
  439.4000    63.6861    19.9520    20.0748
  439.5000    64.2064    20.0919    20.1616
  439.6000    64.7267    20.2925    20.1769
  439.7000    65.2469    20.3744    20.3042
  439.8000    65.8127    20.4957    20.3052
  439.9000    66.5895    20.6610    20.4018
  440.0000    67.1906    20.6622    20.5247
  440.1000    67.6301    20.6633    20.6484
  440.2000    68.1503    20.6647    20.7368
  440.3000    68.5374    20.6656    20.7379
  440.4000    68.8435    20.6668    20.7391
  440.5000    69.2341    20.6679    20.7402
  440.6000    69.6181    20.6690    20.7414
  440.7000    69.3181    20.6702    20.7425
  440.8000    69.3196    20.6714    20.7437
  440.9000    69.1436    20.6727    20.7082
  441.0000    68.7512    20.5756    20.5864
  441.1000    68.2346    20.4551    20.4614
  441.2000    67.6688    20.3913    20.3213
  441.3000    66.8929    20.3568    20.2256
  441.4000    66.0075    20.2376    20.1067
  441.5000    65.7865    20.1140    19.9885
  441.6000    65.3495    20.1151    19.9070
  441.7000    64.8329    20.0226    19.8917
  441.8000    64.3162    19.9053    19.7716
  441.9000    63.8505    19.7888    19.6363
  442.0000    63.6012    19.6729    19.6371
  442.1000    63.9054    19.5449    19.4891
  442.2000    64.1313    19.3023    19.2596
  442.3000    64.5739    19.3033    19.0677
  442.4000    65.0941    19.2162    18.9393
  442.5000    65.6142    19.1037    18.7118
  442.6000    66.1345    18.9433    18.5836
  442.7000    66.6646    18.7797    18.4947
  442.8000    67.5434    18.7700    18.3860
  442.9000    68.2236    18.6522    18.2779
  443.0000    69.5529    18.5509    18.1704
  443.1000    70.9697    18.4423    18.0636
  443.2000    71.9751    18.3344    17.9561
  443.3000    72.6045    18.2724    17.8331
  443.4000    73.6197    18.2463    17.8339
  443.5000    74.2026    18.1394    17.7655
  443.6000    74.4322    18.0239    17.7126
  443.7000    74.6932    18.0248    17.6794
  443.8000    74.8121    17.8680    17.5920
  443.9000    74.8139    17.7787    17.5931
  444.0000    74.7029    17.7371    17.5943
  444.1000    74.1863    17.6332    17.5951
  444.2000    73.6111    17.5368    17.5268
  444.3000    72.9232    17.5380    17.4754
  444.4000    72.1475    17.4458    17.4764
  444.5000    71.3717    17.3437    17.4774
  444.6000    70.5958    17.2993    17.4785
  444.7000    69.8200    17.3003    17.6011
  444.8000    69.0594    17.3012    17.6019
  444.9000    68.4878    17.3022    17.6029
  445.0000    68.0262    17.3033    17.6570
  445.1000    67.3208    17.3041    17.7274
  445.2000    66.8366    17.3786    17.7468
  445.3000    66.6822    17.4829    17.8527
  445.4000    66.6840    17.5486    17.8539
  445.5000    66.7029    17.5711    17.9446
  445.6000    66.9899    17.6726    17.9800
  445.7000    67.4584    17.6737    18.0359
  445.8000    68.3597    17.7658    18.1071
  445.9000    69.3984    17.7984    18.1081
  446.0000    70.6466    17.7994    18.1091
  446.1000    72.1419    17.8004    18.1103
  446.2000    73.4398    17.8217    18.2031
  446.3000    74.8576    17.9261    18.3128
  446.4000    75.3298    17.8035    18.3661
  446.5000    75.6576    17.8043    18.3672
  446.6000    75.9186    17.8053    18.3682
  446.7000    76.1796    17.8063    18.3692
  446.8000    76.4407    17.8073    18.3704
  446.9000    76.6810    17.8083    18.3712
  447.0000    76.6829    17.8093    18.2969
  447.1000    76.6846    17.8104    18.2463
  447.2000    76.8806    17.9001    18.2083
  447.3000    76.9903    17.9361    18.1220
  447.4000    76.9921    17.9371    18.1232
  447.5000    76.9940    17.9381    18.1243
  447.6000    76.9958    17.9564    18.1252
  447.7000    76.9977    18.0649    18.1262
  447.8000    76.9994    18.0660    18.1849
  447.9000    77.0012    18.0669    18.2544
  448.0000    77.0030    18.0679    18.2774
  448.1000    76.8947    18.0689    18.3835
  448.2000    76.7045    18.1039    18.3846
  448.3000    76.7063    18.2125    18.3855
  448.4000    76.7083    18.3241    18.3865
  448.5000    76.4693    18.3253    18.4468
  448.6000    76.2119    18.3261    18.5166
  448.7000    76.1094    18.3271    18.5407
  448.8000    75.8872    18.3795    18.6475
  448.9000    75.4397    18.4566    18.6487
  449.0000    75.1823    18.4722    18.6496
  449.1000    74.9083    18.5871    18.6506
  449.2000    74.6674    18.5881    18.6516
  449.3000    74.4100    18.6769    18.6952
  449.4000    74.3094    18.7890    18.7835
  449.5000    74.1974    18.8507    18.7902
  449.6000    74.0109    18.8517    18.9165
  449.7000    73.9847    18.8659    18.9174
  449.8000    73.7125    18.9850    18.9184
  449.9000    73.7142    18.9860    18.9821
  450.0000    72.3091    19.0750    19.0964
  450.1000    71.6060    19.1201    19.0781
  450.2000    71.4977    19.1212    19.1875
  450.3000    71.3136    19.1222    19.1890
  450.4000    71.2935    19.1233    19.1901
  450.5000    71.0215    19.1244    19.1915
  450.6000    70.7871    19.1254    19.1928
  450.7000    70.1444    19.1265    19.1941
  450.8000    69.3752    19.1275    19.1955
  450.9000    68.4995    19.1286    19.1968
  451.0000    67.4723    19.1297    19.1984
  451.1000    66.4818    19.1307    19.1995
  451.2000    65.9195    19.1319    19.2008
  451.3000    65.4594    19.1328    19.2021
  451.4000    64.9482    19.1339    19.2035
  451.5000    64.4371    19.1350    19.2048
  451.6000    64.0258    19.1360    19.2062
  451.7000    63.8284    19.1371    19.2075
  451.8000    63.8332    19.1381    19.2088
  451.9000    63.8387    19.1393    19.2101
  452.0000    63.8429    19.1403    19.2114
  452.1000    64.0292    19.1413    19.2128
  452.2000    64.1547    19.1424    19.2141
  452.3000    64.3460    19.1435    19.2156
  452.4000    64.8177    19.1445    19.2168
  452.5000    65.0856    19.1456    19.2181
  452.6000    65.6853    19.1468    19.2194
  452.7000    66.3462    19.1477    19.2208
  452.8000    67.2999    19.1488    19.2221
  452.9000    68.0753    19.0875    19.2234
  453.0000    68.6828    19.0186    19.2249
  453.1000    69.4191    19.0197    19.2261
  453.2000    69.9432    19.0207    19.1481
  453.3000    70.2510    19.0219    19.0959
  453.4000    70.6796    19.0228    19.0972
  453.5000    71.2004    18.9446    19.0985
  453.6000    71.7213    18.8936    19.0998
  453.7000    72.1621    18.8946    18.9694
  453.8000    72.4250    18.8736    18.9705
  453.9000    72.6962    18.7630    18.9718
  454.0000    72.7009    18.6378    18.9189
  454.1000    72.7057    18.6387    18.8087
  454.2000    72.7106    18.5637    18.7142
  454.3000    72.7154    18.5120    18.7157
  454.4000    72.6469    18.4745    18.6107
  454.5000    72.3937    18.3860    18.5023
  454.6000    72.1260    18.3872    18.4617
  454.7000    71.4012    18.2614    18.4629
  454.8000    70.8310    18.1711    18.4642
  454.9000    70.4747    18.1371    18.4551
