~VERSION INFORMATION
 VERS.                2.0:   CWLS LOG ASCII STANDARD - VERSION 2.0
 WRAP.                 NO:   ONE LINE PER DEPTH STEP
~WELL INFORMATION
#MNEM.UNIT      DATA TYPE    INFORMATION
#----------   ------------   ------------------------------
 STRT.F           42.0000:   START DEPTH
 STOP.F         3140.0000:   STOP DEPTH
 STEP.F            0.5000:   STEP LENGTH
 NULL.          -999.2500:   NO VALUE
 COMP. LAWRENCE-ALLISON & AS:   COMPANY
 WELL.     88 X 33 #88-33:   WELL
 FLD .             NPR #3:   FIELD
 LOC .      S33 T39N R78W:   LOCATION
 CNTY.            NATRONA:   COUNTY
 STAT.            WYOMING:   STATE
 CTRY. UNITED STATES OF AMERICA:   COUNTRY
 SRVC.       Schlumberger:   SERVICE COMPANY
 DATE.        13-DEC-1987:   LOGDATE
 API .       490251120300:   API NUMBER
~CURVE INFORMATION
#MNEM.UNIT       API CODE    CURVE DESCRIPTION
#----------   ------------   ------------------------------
 DEPT.F                  :   
 GRR .GAPI   07 310 01 00:   GAMMA RAY FROM RES
 SPR .MV     07 010 01 00:   SPONTANEOUS POTENTIAL
 ILD .OHMM   07 120 46 00:   INDUCTION LOG DEEP RES
 ILM .OHMM   07 120 44 00:   INDUCTION LOG MEDIUM RES
 SFLU.OHMM   07 220 01 00:   SPHERICALLY FOCUSED LOG UNAVERAGED RES
 DPHI.DEC    45 890 12 00:   DENSITY POROSITY SANDSTONE
 NPHI.DEC    42 890 03 00:   NEUTRON POROSITY SANDSTONE
 CALD.IN     45 280 60 00:   CALIPER FROM DENSITY LOG
 DRHO.G/C3   45 356 01 00:   DENSITY CORRECTION
 RHOB.G/C3   45 350 01 00:   BULK DENSITY
~PARAMETER INFORMATION
#MNEM.UNIT          VALUE    DESCRIPTION
#----------   ------------   ------------------------------
 PD  .                 GL:   PERMANENT DATUM
 EPD .F              5746:   ELEVATION PERMANENT DATUM
 LMF .                 KB:   LOG MEASURED FROM
 DAPD.F                11:   FEET ABOVE PERMANENT DATUM
 DMF .                 KB:   DRILLING MEASURED FROM
 EKB .F              5157:   KELLING BUSHING
 EGL .F              5146:   GROUND LEVEL
 DATE.        13-DEC-1987:   RUN DATE
 RUN .                  1:   RUN NUMBER
 DD  .F              3155:   DEPTH DRILLER
 DL  .F              3140:   DEPTH LOGGER
 BLI .F              3132:   BOTTOM LOG INTERVAL
 TLI .F               614:   TOP LOG INTERVAL
 CS  .IN            9.625:   CASING SIZE
 CBD .F               608:   CASING BOTTOM DRILLER
 CBL .F               614:   CASING BOTTOM LOGGER
 BS  .IN            7.875:   BIT SIZE
 BSD .F              3155:   BIT SIZE AT DEPTH
 DFT .       KCL DIS. PAC:   DRILLING FLUID TYPE
 DFD .                  9:   DRILLING FLUID DENSITY
 DFV .                 41:   DRILLING FLUID VISCOSITY
 DFPH.                9.5:   DRILLING FLUID PH
 DFL .                8.4:   DRILLING FLUID LOSS
 MSS .           FLOWLINE:   MUD SAMPLE SOURCE
 RMS .OHMM          0.523:   RESISTIVITY MUD SAMPLE
 MST .F                63:   MUD SAMPLE TEMPERATURE
 RMF .OHMM          0.435:   RESISTIVITY MUD FILTRATE SAMPLE
 MFST.F                63:   MUD FILTRATE SAMPLE TEMPERATURE
 RMC .OHMM          0.489:   RESISTIVITY MUD CAKE
 MCST.F                63:   MUD CAKE SAMPLE TEMPERATURE
 MFSS.              PRESS:   MUD FILTRATE SAMPLE SOURCE
 MCSS.               CALC:   MUD CAKE SAMPLE SOURCE
 RMB .OHMM          0.288:   RESISTIVITY MUD AT BHT
 BHT .F               120:   BOTTOM HOLE TEMPERATURE
 TCS .HRS            0600:   TIME CURCULATED STOPPED
 TLAB.HRS            1430:   TIME LOGGER AT BOTTOM
 MRT .F               120:   MAXIMUM RECORDED TEMPERATURE
 LUN .               8198:   LOGGING UNIT NUMBER
 LUL .             CASPER:   LOGGING UNIT LOCATION
 ENGI.          W. BENSON:   RECORDING ENGINEER
 WITN.        GARY STRONG:   WITNESSED BY
 CLNT.            A2DTECH:   CLIENT CODE
 ORIG.           5" PRINT:   ORIGIN OF DATA
 UWI .       490251120300:   UNIQUE WELL ID
 DICO. A2D Technologies, Inc.:   DIGITIZING COMPANY
~OTHER INFORMATION
~A   DEPT      GRR        SPR        ILD        ILM       SFLU       DPHI       NPHI       CALD       DRHO       RHOB   
# ...
  812.5000   108.4962   -67.8840     6.3741     5.9164     7.1394  -999.2500  -999.2500  -999.2500  -999.2500  -999.2500
  813.0000   114.1353   -67.8795     6.4176     5.9571     7.1379  -999.2500  -999.2500  -999.2500  -999.2500  -999.2500
  813.5000   118.1955   -67.7424     6.4611     5.9567     7.0872  -999.2500  -999.2500  -999.2500  -999.2500  -999.2500
  814.0000   118.8722   -67.7470     6.5503     6.0395     7.0368  -999.2500  -999.2500  -999.2500  -999.2500  -999.2500
  814.5000   113.6842   -67.7515     6.6408     6.1234     7.0353  -999.2500  -999.2500  -999.2500  -999.2500  -999.2500
  815.0000   108.0451   -67.6054     6.8740     6.2515     7.0828  -999.2500  -999.2500  -999.2500  -999.2500  -999.2500
  815.5000   109.1729   -67.4594     7.1154     6.3824     7.1800  -999.2500  -999.2500  -999.2500  -999.2500  -999.2500
  816.0000   114.1353   -67.3133     7.4165     6.6070     7.4314  -999.2500  -999.2500  -999.2500  -999.2500  -999.2500
  816.5000   117.0677   -67.0167     7.7303     6.8870     7.8531  -999.2500  -999.2500  -999.2500  -999.2500  -999.2500
  817.0000   116.3459   -67.0212     8.0574     7.3807     8.5318  -999.2500  -999.2500  -999.2500  -999.2500  -999.2500
  817.5000   114.4358   -66.8750     8.4102     7.8552     9.3985  -999.2500  -999.2500  -999.2500  -999.2500  -999.2500
  818.0000   111.7595   -66.7289     8.8993     8.3024    10.3531  -999.2500  -999.2500  -999.2500  -999.2500  -999.2500
  818.5000   107.2780   -66.7337     9.3273     8.5352    10.8651  -999.2500  -999.2500  -999.2500  -999.2500  -999.2500
  819.0000   103.0079   -66.7382     9.6432     8.7745    11.2456  -999.2500  -999.2500  -999.2500  -999.2500  -999.2500
  819.5000    99.6842   -67.0440     9.8544     9.0205    11.2432  -999.2500  -999.2500  -999.2500  -999.2500  -999.2500
  820.0000    97.8947   -67.1991     9.9207     9.2734    11.2409  -999.2500  -999.2500  -999.2500  -999.2500  -999.2500
  820.5000    98.1203   -67.3531    10.0485     9.4676    11.1610  -999.2500  -999.2500  -999.2500  -999.2500  -999.2500
  821.0000   100.3759   -67.0564    10.1244     9.5992    11.0816  -999.2500  -999.2500  -999.2500  -999.2500  -999.2500
  821.5000   103.0827   -66.7609    10.1859     9.7324    10.9269  -999.2500  -999.2500  -999.2500  -999.2500  -999.2500
  822.0000   106.2406   -66.7655    10.2553     9.6645    10.7744  -999.2500  -999.2500  -999.2500  -999.2500  -999.2500
  822.5000   110.3008   -66.6183    10.2539     9.5971    10.6978  -999.2500  -999.2500  -999.2500  -999.2500  -999.2500
  823.0000   113.0075   -66.4734    10.2524     9.5964    10.6218  -999.2500  -999.2500  -999.2500  -999.2500  -999.2500
  823.5000   113.6842   -66.4779    10.2539     9.6626    10.6195  -999.2500  -999.2500  -999.2500  -999.2500  -999.2500
  824.0000   113.2331   -66.6330    10.3927     9.6754    10.6911  -999.2500  -999.2500  -999.2500  -999.2500  -999.2500
  824.5000   113.9098   -66.7882    10.4645     9.7408    10.8380  -999.2500  -999.2500  -999.2500  -999.2500  -999.2500
  825.0000   114.8120   -66.7927    10.6080     9.7954    10.9868  -999.2500  -999.2500  -999.2500  -999.2500  -999.2500
  825.5000   115.0376   -66.6455    10.7546     9.8629    11.2151  -999.2500  -999.2500  -999.2500  -999.2500  -999.2500
  826.0000   112.7820   -66.6512    10.9790     9.9308    11.3698  -999.2500  -999.2500  -999.2500  -999.2500  -999.2500
  826.5000   108.0451   -66.5052    10.9775     9.9991    11.5259  -999.2500  -999.2500  -999.2500  -999.2500  -999.2500
  827.0000   104.8872   -66.5097    11.0523     9.9984    11.5229  -999.2500  -999.2500  -999.2500  -999.2500  -999.2500
  827.5000   105.1128   -66.3625    11.0507    10.0673    11.6012  -999.2500  -999.2500  -999.2500  -999.2500  -999.2500
  828.0000   105.5639   -66.0670    11.2035    10.0712    11.6794  -999.2500  -999.2500  -999.2500  -999.2500  -999.2500
  828.5000   105.5639   -66.0715    11.1245    10.1359    11.6763  -999.2500  -999.2500  -999.2500  -999.2500  -999.2500
  829.0000   105.5639   -66.2267    11.0461    10.2056    11.5933  -999.2500  -999.2500  -999.2500  -999.2500  -999.2500
  829.5000   105.7895   -66.5324    11.0446    10.2759    11.5109  -999.2500  -999.2500  -999.2500  -999.2500  -999.2500
  830.0000   103.1728   -66.8382    10.9668    10.2042    11.3502  -999.2500  -999.2500  -999.2500  -999.2500  -999.2500
  830.5000   100.3759   -66.9933    10.8895    10.1330    11.1918  -999.2500  -999.2500  -999.2500  -999.2500  -999.2500
  831.0000   101.0526   -67.1485    10.7382     9.9239    11.1122  -999.2500  -999.2500  -999.2500  -999.2500  -999.2500
  831.5000   103.7594   -67.1521    10.5889     9.7866    10.9571  -999.2500  -999.2500  -999.2500  -999.2500  -999.2500
  832.0000   106.6917   -67.1566    10.4417     9.5183    10.8041  -999.2500  -999.2500  -999.2500  -999.2500  -999.2500
  832.5000   107.8195   -67.1611    10.3681     9.2575    10.5798  -999.2500  -999.2500  -999.2500  -999.2500  -999.2500
  833.0000   108.7218   -67.1657    10.2951     9.1294    10.4321  -999.2500  -999.2500  -999.2500  -999.2500  -999.2500
  833.5000   109.8496   -67.1702    10.1520     9.0031    10.3579  -999.2500  -999.2500  -999.2500  -999.2500  -999.2500
  834.0000   111.2030   -67.0240    10.0804     9.0025    10.2843  -999.2500  -999.2500  -999.2500  -999.2500  -999.2500
  834.5000   112.7820   -66.8779    10.0790     9.0019    10.3536  -999.2500  -999.2500  -999.2500  -999.2500  -999.2500
  835.0000   113.9098   -66.8825    10.1481     9.0012    10.3515  -999.2500  -999.2500  -999.2500  -999.2500  -999.2500
  835.5000   114.3609   -66.9597    10.1463     9.0006    10.4218  -999.2500  -999.2500  -999.2500  -999.2500  -999.2500
  836.0000   112.5564   -67.1079    10.1450     9.0000    10.4190  -999.2500  -999.2500  -999.2500  -999.2500  -999.2500
  836.5000   106.9173   -67.1977    10.1436     8.9994    10.4898  -999.2500  -999.2500  -999.2500  -999.2500  -999.2500
  837.0000   102.8571   -66.9010    10.1421     8.9987    10.4871  -999.2500  -999.2500  -999.2500  -999.2500  -999.2500
  837.5000   100.3759   -66.6033    10.1407     9.0608    10.4125  -999.2500  -999.2500  -999.2500  -999.2500  -999.2500
  838.0000    98.3459   -66.4572    10.1393     8.9975    10.3385  -999.2500  -999.2500  -999.2500  -999.2500  -999.2500
  838.5000   100.1504   -66.6135    10.1378     8.9968    10.2650  -999.2500  -999.2500  -999.2500  -999.2500  -999.2500
  839.0000   102.8571   -66.9192    10.1364     8.9962    10.2629  -999.2500  -999.2500  -999.2500  -999.2500  -999.2500
  839.5000   104.6617   -67.0744    10.2055     8.9956    10.2608  -999.2500  -999.2500  -999.2500  -999.2500  -999.2500
  840.0000   102.1805   -67.2295    10.2041     8.9950    10.2586  -999.2500  -999.2500  -999.2500  -999.2500  -999.2500
  840.5000    98.3459   -67.2341    10.2740     9.1199    10.3995  -999.2500  -999.2500  -999.2500  -999.2500  -999.2500
  841.0000    98.7970   -67.2386    10.3440     9.1828    10.5429  -999.2500  -999.2500  -999.2500  -999.2500  -999.2500
  841.5000   101.2782   -67.2432    10.4145     9.2460    10.7620  -999.2500  -999.2500  -999.2500  -999.2500  -999.2500
  842.0000   103.8496   -67.2477    10.4127     9.3744    10.9856  -999.2500  -999.2500  -999.2500  -999.2500  -999.2500
  842.5000   106.3159   -67.2522    10.4112     9.4390    10.8924  -999.2500  -999.2500  -999.2500  -999.2500  -999.2500
  843.0000   107.1729   -67.2568    10.4098     9.3730    10.7413  -999.2500  -999.2500  -999.2500  -999.2500  -999.2500
  843.5000   107.1429   -67.2613    10.3364     9.2433    10.5318  -999.2500  -999.2500  -999.2500  -999.2500  -999.2500
  844.0000   106.6768   -67.2659    10.2636     9.2427    10.4570  -999.2500  -999.2500  -999.2500  -999.2500  -999.2500
  844.5000   106.0000   -67.4210    10.2622     9.2420    10.3826  -999.2500  -999.2500  -999.2500  -999.2500  -999.2500
  845.0000   104.8872   -67.4256    10.1899     9.2414    10.3805  -999.2500  -999.2500  -999.2500  -999.2500  -999.2500
  845.5000   104.4361   -67.4301    10.1885     9.2407    10.4505  -999.2500  -999.2500  -999.2500  -999.2500  -999.2500
