~VERSION INFORMATION
 VERS.                2.0:   CWLS LOG ASCII STANDARD - VERSION 2.0
 WRAP.                 NO:   ONE LINE PER DEPTH STEP
~WELL INFORMATION
#MNEM.UNIT      DATA TYPE    INFORMATION
#----------   ------------   ------------------------------
 STRT.F            0.1000:   START DEPTH
 STOP.F          550.8000:   STOP DEPTH
 STEP.F            0.1000:   STEP LENGTH
 NULL.          -999.2500:   NO VALUE
 COMP.       F D SERV INC:   COMPANY
 WELL.  82-1 SX 10 #82-10:   WELL
 FLD .             TEAPOT:   FIELD
 LOC .      S10 T38N R78W:   LOCATION
 CNTY.            NATRONA:   COUNTY
 STAT.            WYOMING:   STATE
 CTRY. UNITED STATES OF AMERICA:   COUNTRY
 SRVC.     Atlas Wireline:   SERVICE COMPANY
 DATE.        11-DEC-1992:   LOGDATE
 API .       490252257600:   API NUMBER
~CURVE INFORMATION
#MNEM.UNIT       API CODE    CURVE DESCRIPTION
#----------   ------------   ------------------------------
 DEPT.F                  :   
 GRR .GAPI   07 310 01 00:   GAMMA RAY
 RILD.OHMM   07 120 46 00:   INDUCTION LOG DEEP RESISTIVITY
 RILM.OHMM   07 120 44 00:   INDUCTION LOG MEDIUM RESISTIVITY
~PARAMETER INFORMATION
#MNEM.UNIT          VALUE    DESCRIPTION
#----------   ------------   ------------------------------
 PD  .                 GL:   PERMANENT DATUM
 EPD .F              5136:   ELEVATION PERMANENT DATUM
 LMF .                 KB:   LOG MEASURED FROM
 DAPD.F                10:   FEET ABOVE PERMANENT DATUM
 DMF .                 KB:   DRILLING MEASURED FROM
 EKB .F              5146:   KELLING BUSHING
 EDF .F              5145:   DRILLING FLOOR
 EGL .F              5136:   GROUND LEVEL
 DATE.        11-DEC-1992:   RUN DATE
 RUN .                  1:   RUN NUMBER
 DD  .F               560:   DEPTH DRILLER
 DL  .F               560:   DEPTH LOGGER
 BLI .F               551:   BOTTOM LOG INTERVAL
 CS  .IN            8.625:   CASING SIZE
 CBD .F                53:   CASING BOTTOM DRILLER
 CBL .F                54:   CASING BOTTOM LOGGER
 BS  .IN            7.875:   BIT SIZE
 BSD .F               560:   BIT SIZE AT DEPTH
 DFT .           AIR FOAM:   DRILLING FLUID TYPE
 BHT .F                60:   BOTTOM HOLE TEMPERATURE
 MRT .F                60:   MAXIMUM RECORDED TEMPERATURE
 LUN .           HL- 6274:   LOGGING UNIT NUMBER
 LUL .             CASPER:   LOGGING UNIT LOCATION
 ENGI.       P. RASMUSSEN:   RECORDING ENGINEER
 WITN.          G. STRONG:   WITNESSED BY
 CLNT.            A2DTECH:   CLIENT CODE
 ORIG.           5" PRINT:   ORIGIN OF DATA
 UWI .       490252257600:   UNIQUE WELL ID
 DICO. A2D Technologies, Inc.:   DIGITIZING COMPANY
~OTHER INFORMATION
~A    DEPT      GRR      RILD       RILM   
# ...
  345.9000    93.7548    20.9575    20.8817
  346.0000    94.0912    20.9585    20.8011
  346.1000    94.5680    20.8149    20.8023
  346.2000    94.8282    20.8156    20.8034
  346.3000    94.8254    20.8165    20.8048
  346.4000    95.0360    20.7568    20.7010
  346.5000    95.2922    20.6346    20.6635
  346.6000    95.4201    20.5326    20.6007
  346.7000    95.4177    20.5336    20.4797
  346.8000    95.4153    20.3929    20.3595
  346.9000    95.4129    20.3936    20.2437
  347.0000    95.4101    20.3944    20.2450
  347.1000    95.4081    20.3344    20.1419
  347.2000    95.4057    20.2554    20.1076
  347.3000    95.4033    20.2562    20.0443
  347.4000    95.4009    20.2570    19.9713
  347.5000    95.3985    20.2580    19.9471
  347.6000    95.3961    20.1573    19.8300
  347.7000    95.3934    20.1197    19.7004
  347.8000    95.6158    20.0591    19.7013
  347.9000    95.6896    19.9826    19.6181
  348.0000    96.1083    19.9834    19.5677
  348.1000    96.8819    19.9842    19.5231
  348.2000    97.5431    19.9852    19.4350
  348.3000    97.8133    19.8844    19.4361
  348.4000    98.3841    19.8488    19.4373
  348.5000    98.6125    19.8496    19.3342
  348.6000    98.8688    19.8077    19.2208
  348.7000    99.1250    19.7141    19.1734
  348.8000    99.2770    19.7111    19.1276
  348.9000    99.2746    19.5799    19.0434
  349.0000    99.2521    19.4798    19.0349
  349.1000    98.9688    19.4463    18.9144
  349.2000    98.4934    19.3849    18.9153
  349.3000    98.1682    19.3137    18.8315
  349.4000    97.7548    19.3145    18.7871
  349.5000    97.2351    19.3153    18.7402
  349.6000    96.6472    19.3162    18.6597
  349.7000    95.8950    19.2160    18.6607
  349.8000    95.3430    19.1844    18.6618
  349.9000    94.8555    19.1852    18.6628
  350.0000    94.7368    19.1860    18.6638
  350.1000    94.7344    19.1868    18.6648
  350.2000    94.9646    19.1876    18.6659
  350.3000    95.4795    19.1885    18.6669
  350.4000    96.0588    19.1892    18.6679
  350.5000    97.1307    19.1900    18.6690
  350.6000    97.8741    19.1908    18.5642
  350.7000    98.4413    19.1916    18.5424
  350.8000    98.9562    19.1656    18.5434
  350.9000    99.4710    19.0607    18.4932
  351.0000    99.9058    19.0616    18.4176
  351.1000   100.1620    18.9599    18.4035
  351.2000   100.4222    18.9316    18.2928
  351.3000   100.5354    18.9323    18.1679
  351.4000   100.6503    18.8868    18.1687
  351.5000   100.7158    18.7756    18.1000
  351.6000   100.7134    18.6742    18.0455
  351.7000   100.7110    18.6751    18.0123
  351.8000   100.7083    18.5741    17.9230
  351.9000   100.0379    18.4648    17.9242
  352.0000    99.0958    18.3561    17.8018
  352.1000    98.3358    18.2941    17.7152
  352.2000    97.7407    18.2666    17.6809
  352.3000    96.9377    18.1693    17.6819
  352.4000    95.8820    18.1702    17.6829
  352.5000    95.3885    18.0706    17.6838
  352.6000    94.6778    17.9642    17.6848
  352.7000    94.0652    17.9224    17.6859
  352.8000    93.7672    17.9232    17.6868
  352.9000    93.7045    17.9239    17.7598
  353.0000    93.4618    17.9131    17.8115
  353.1000    93.7597    17.8017    17.8125
  353.2000    93.7576    17.8024    17.8339
  353.3000    93.9310    17.8032    17.9380
  353.4000    94.1830    17.8039    17.9392
  353.5000    94.6014    17.8047    17.9400
  353.6000    95.3623    17.8054    17.9410
  353.7000    96.1515    17.8061    17.9420
  353.8000    96.6392    17.8069    17.9830
  353.9000    96.9470    17.8076    18.0685
  354.0000    97.0466    17.8084    18.0695
  354.1000    97.0442    17.8758    18.0706
  354.2000    96.9223    17.9336    18.0715
  354.3000    96.4244    17.9344    18.0725
  354.4000    96.1344    17.9351    18.0735
  354.5000    95.6892    17.9359    18.0745
  354.6000    95.0027    18.0614    18.0755
  354.7000    94.2370    18.0620    18.0765
  354.8000    93.6365    18.0627    18.0776
  354.9000    93.2705    18.1147    18.0785
  355.0000    92.2104    18.1898    18.0795
  355.1000    91.7194    18.1905    18.0805
  355.2000    91.2080    18.1913    18.0815
  355.3000    91.0003    18.1920    18.0825
  355.4000    90.9979    18.1928    18.0835
  355.5000    90.9955    18.1935    18.0846
  355.6000    91.0060    18.1757    18.0855
  355.7000    91.2911    18.1663    18.0865
  355.8000    91.7308    18.1666    18.0875
  355.9000    92.5866    18.1668    18.0590
  356.0000    93.4737    18.1671    18.0596
  356.1000    94.3985    18.1674    18.0600
  356.2000    95.5613    18.1676    18.0605
  356.3000    96.0889    18.1679    18.0610
  356.4000    96.8180    18.1681    18.0615
  356.5000    97.5790    18.1684    18.0620
  356.6000    98.1887    18.1364    18.0625
  356.7000    98.5903    18.0434    17.9614
  356.8000    98.7252    18.0437    17.9390
  356.9000    98.4683    18.0440    17.9395
  357.0000    98.1771    18.0442    17.9400
  357.1000    97.9547    18.0445    17.9148
  357.2000    97.3498    18.0447    17.8173
  357.3000    96.5840    18.0450    17.8179
  357.4000    95.6556    18.0407    17.7260
  357.5000    94.4160    17.9210    17.6229
  357.6000    93.3509    17.8308    17.5746
  357.7000    92.6190    17.7978    17.5751
  357.8000    92.0501    17.7458    17.5581
  357.9000    91.8400    17.6754    17.4550
  358.0000    91.7333    17.6610    17.4555
  358.1000    91.5344    17.5539    17.3732
  358.2000    91.5436    17.5542    17.3361
  358.3000    91.8300    17.4742    17.2907
  358.4000    92.2675    17.4335    17.2176
  358.5000    92.7739    17.3908    17.2086
  358.6000    93.1533    17.3137    17.1000
  358.7000    93.3245    17.3078    17.1004
  358.8000    93.3566    17.1947    17.1009
  358.9000    93.6203    17.1949    17.1013
  359.0000    93.8606    17.1247    17.0641
  359.1000    93.9164    17.0767    16.9843
  359.2000    93.9140    17.0770    16.9849
  359.3000    93.9116    17.0772    16.9854
  359.4000    93.9092    17.0774    16.9858
  359.5000    93.9068    16.9798    16.9208
  359.6000    93.9040    16.9600    16.8697
  359.7000    93.9020    16.9603    16.8702
  359.8000    94.0724    16.9605    16.8707
  359.9000    94.3244    16.9351    16.8712
  360.0000    94.5765    16.8439    16.7786
  360.1000    94.8624    16.8442    16.7558
  360.2000    95.3936    16.8444    16.6990
  360.3000    95.8753    16.8446    16.6413
  360.4000    96.3818    16.8449    16.6417
  360.5000    97.0376    16.8098    16.6376
  360.6000    97.7985    16.7290    16.5280
  360.7000    98.5028    16.7293    16.5284
  360.8000    98.9987    16.7296    16.5289
  360.9000    99.2863    16.7298    16.5293
  361.0000    99.5028    16.6677    16.5298
  361.1000    99.5826    16.6148    16.5302
  361.2000    99.5802    16.6150    16.5307
  361.3000    99.5777    16.6152    16.4373
  361.4000    99.5420    16.6155    16.4177
  361.5000    99.2721    16.6157    16.4182
  361.6000    99.0284    16.6159    16.3770
  361.7000    98.3814    16.6162    16.2817
  361.8000    97.7644    16.5799    16.1940
  361.9000    97.3556    16.5019    16.1945
  362.0000    97.0426    16.5022    16.1949
  362.1000    96.5313    16.5024    16.1275
  362.2000    95.9467    16.4220    16.0842
  362.3000    95.5088    16.3890    16.0846
  362.4000    95.1691    16.3892    16.0682
  362.5000    94.9123    16.3894    15.9747
  362.6000    94.7344    16.3786    15.9752
  362.7000    94.7320    16.2768    15.9756
  362.8000    94.7295    16.2770    15.9161
  362.9000    94.7272    16.2772    15.8664
  363.0000    94.7248    16.2228    15.8406
  363.1000    95.0188    16.1653    15.7579
  363.2000    95.4234    16.1453    15.7584
  363.3000    95.8421    16.0510    15.6736
  363.4000    96.8575    15.9437    15.6506
  363.5000    97.8728    15.9439    15.6511
  363.6000    98.8880    15.8813    15.6515
  363.7000    99.3903    15.8343    15.6329
  363.8000    99.8917    15.8055    15.5445
  363.9000   100.4174    15.7254    15.5450
  364.0000   100.4150    15.7257    15.5454
