~VERSION INFORMATION
 VERS.                2.0:   CWLS LOG ASCII STANDARD - VERSION 2.0
 WRAP.                 NO:   ONE LINE PER DEPTH STEP
~WELL INFORMATION
#MNEM.UNIT      DATA TYPE    INFORMATION
#----------   ------------   ------------------------------
 STRT.F            0.0000:   START DEPTH
 STOP.F         1008.0000:   STOP DEPTH
 STEP.F            0.5000:   STEP LENGTH
 NULL.          -999.2500:   NO VALUE
 COMP. LAWRENCE/ALLISON INC:   COMPANY
 WELL. NPR 3 #51-61-SX-14:   WELL
 FLD .             TEAPOT:   FIELD
 LOC .      S14 T38N R78W:   LOCATION
 CNTY.            NATRONA:   COUNTY
 STAT.            WYOMING:   STATE
 CTRY. UNITED STATES OF AMERICA:   COUNTRY
 SRVC.      Dresser Atlas:   SERVICE COMPANY
 DATE.        05-FEB-1986:   LOGDATE
 API .       490251106600:   API NUMBER
~CURVE INFORMATION
#MNEM.UNIT       API CODE    CURVE DESCRIPTION
#----------   ------------   ------------------------------
 DEPT.F                  :   
 GRR .GAPI   07 310 01 00:   GAMMA RAY FROM RES. LOG.
 RILD.OHMM   10 120 46 00:   INDUCTION LOG DEEP RESISTIVITY
 RILM.OHMM   07 120 44 00:   INDUCTION LOG MEDIUM RESISTIVITY
 CALD.IN     45 280 60 00:   CALIPER
 DEN .G/C3   45 350 01 00:   COMPENSATED BULK DENSTIY
 CORR.G/C3   45 356 01 00:   DENSITY CORRECTION
 PORD.DEC    45 890 10 00:   POROSITY DENSITY LIMESTONE
~PARAMETER INFORMATION
#MNEM.UNIT          VALUE    DESCRIPTION
#----------   ------------   ------------------------------
 PD  .                 GL:   PERMANENT DATUM
 EPD .F              5225:   ELEVATION PERMANENT DATUM
 LMF .                 GL:   LOG MEASURED FROM
 DMF .                 GL:   DRILLING MEASURED FROM
 EGL .F              5225:   GROUND LEVEL
 DATE.             2-5-86:   RUN DATE
 RUN .                  1:   RUN NUMBER
 DD  .F              1010:   DEPTH DRILLER
 DL  .F              1008:   DEPTH LOGGER
 BLI .F              1008:   BOTTOM LOG INTERVAL
 CS  .IN            8.625:   CASING SIZE
 CBD .F                86:   CASING BOTTOM DRILLER
 CBL .F                84:   CASING BOTTOM LOGGER
 BS  .IN             6.25:   BIT SIZE
 BSD .F              1010:   BIT SIZE AT DEPTH
 DFT .                AIR:   DRILLING FLUID TYPE
 LUN .            HL 6264:   LOGGING UNIT NUMBER
 LUL .           GILLETTE:   LOGGING UNIT LOCATION
 ENGI.           FAHLSING:   RECORDING ENGINEER
 WITN.              FIVAS:   WITNESSED BY
 CLNT.            A2DTECH:   CLIENT CODE
 ORIG.       2", 5" PRINT:   ORIGIN OF DATA
 UWI .       490251106600:   UNIQUE WELL ID
 DICO. A2D Technologies, Inc.:   DIGITIZING COMPANY
~OTHER INFORMATION
~A    DEPT      GRR      RILD       RILM       CALD        DEN       CORR       PORD   
# ...
  273.0000   125.3808     5.3654     5.0768     6.5887     2.4331     0.1109     0.1476
  273.5000   125.8916     5.3654     5.0985     6.5635     2.4220     0.1123     0.1539
  274.0000   119.2859     5.3654     5.1244     6.5370     2.4100     0.1014     0.1601
  274.5000   113.8982     5.3654     5.0909     6.5109     2.3994     0.1071     0.1642
  275.0000   109.6007     5.1715     5.0323     6.4928     2.4065     0.1041     0.1610
  275.5000   106.0318     4.8503     4.5667     6.5133     2.4139     0.1010     0.1578
  276.0000   102.7791     4.4416     4.1025     6.5329     2.4202     0.0979     0.1556
  276.5000   105.5692     4.0673     3.6850     6.5505     2.4158     0.0979     0.1576
  277.0000   109.5616     3.7245     3.3107     6.5479     2.4106     0.1010     0.1594
  277.5000   113.8778     3.4107     3.0051     6.5417     2.4055     0.0955     0.1633
  278.0000   121.2793     3.1673     2.8703     6.5355     2.3676     0.0714     0.1844
  278.5000   130.2481     3.0051     2.8176     6.5306     2.3184     0.0568     0.2185
  279.0000   139.7889     2.9775     2.8744     6.5418     2.2740     0.0579     0.2402
  279.5000   133.7686     3.1983     2.9723     6.5529     2.2654     0.0591     0.2454
  280.0000   125.7374     3.4486     3.1681     6.5640     2.2819     0.0666     0.2341
  280.5000   120.3537     3.7185     3.4269     6.5766     2.2974     0.0858     0.2237
  281.0000   118.4015     4.0096     3.7068     6.5915     2.3238     0.1042     0.2134
  281.5000   116.4596     4.3234     4.0096     6.6071     2.3528     0.1164     0.1955
  282.0000   115.8780     4.6618     4.3372     6.6004     2.3820     0.1137     0.1761
  282.5000   119.9190     5.0267     4.6917     6.5878     2.4111     0.1206     0.1597
  283.0000   123.0382     5.3894     5.0738     6.5750     2.4106     0.1250     0.1630
  283.5000   118.5438     5.5715     5.4440     6.5623     2.4032     0.1211     0.1665
  284.0000   113.4838     5.7597     5.6147     6.5496     2.3979     0.1167     0.1677
  284.5000   111.0502     5.9543     5.7907     6.5368     2.4009     0.1010     0.1664
  285.0000   109.2936     6.1555     5.9722     6.5241     2.4037     0.0784     0.1651
  285.5000   108.8621     6.3635     6.1594     6.5111     2.4064     0.0595     0.1625
  286.0000   112.7569     6.5785     6.3525     6.5304     2.4156     0.0627     0.1552
  286.5000   116.4764     6.7531     6.5150     6.5589     2.4315     0.0973     0.1479
  287.0000   117.4274     6.8785     6.5434     6.5880     2.4402     0.1290     0.1412
  287.5000   113.0231     6.8785     6.5720     6.6170     2.4334     0.1380     0.1457
  288.0000   110.6730     6.8785     6.6007     6.6468     2.4234     0.1218     0.1512
  288.5000   116.4676     6.8785     6.6310     6.6220     2.4265     0.1155     0.1521
  289.0000   121.0941     6.8155     6.4955     6.5912     2.4424     0.1185     0.1426
  289.5000   120.4810     6.7025     6.3290     6.5946     2.4536     0.1261     0.1361
  290.0000   119.1323     6.5039     6.1667     6.5998     2.4648     0.1303     0.1297
  290.5000   117.7976     6.3112     6.0086     6.6048     2.4720     0.1177     0.1236
  291.0000   116.4675     6.1242     5.8546     6.6098     2.4648     0.1049     0.1293
  291.5000   115.1373     5.9428     5.7045     6.6081     2.4393     0.0920     0.1416
  292.0000   113.8108     5.7667     5.5665     6.6060     2.4151     0.0840     0.1567
  292.5000   112.6938     5.5973     5.2218     6.6040     2.3999     0.0792     0.1661
  293.0000   112.2118     5.3207     4.9156     6.6019     2.4027     0.0786     0.1635
  293.5000   111.6393     4.9662     4.6273     6.5999     2.4120     0.0839     0.1591
  294.0000   115.1853     4.6342     4.3559     6.5978     2.4269     0.0947     0.1511
  294.5000   119.8242     4.3248     4.1005     6.5958     2.4393     0.0925     0.1436
  295.0000   123.5455     4.0360     3.8600     6.5937     2.4387     0.0872     0.1461
  295.5000   124.4920     3.8525     3.5791     6.5917     2.4286     0.0901     0.1501
  296.0000   125.4420     3.9124     3.6738     6.5924     2.4055     0.0951     0.1615
  296.5000   125.3072     4.0553     3.8499     6.6090     2.3821     0.1217     0.1759
  297.0000   123.4891     4.2022     4.0344     6.6255     2.3600     0.1224     0.1897
  297.5000   121.6937     4.3440     4.2277     6.6419     2.3591     0.1141     0.1897
  298.0000   119.9050     4.6023     4.4304     6.6452     2.3995     0.1120     0.1686
  298.5000   117.9779     4.8560     4.6427     6.6364     2.4259     0.1128     0.1537
  299.0000   112.5820     5.1221     4.8652     6.6273     2.4273     0.1195     0.1505
  299.5000   106.8976     5.4029     5.0984     6.6181     2.4294     0.1224     0.1472
  300.0000   101.0965     5.6699     5.4150     6.6101     2.4344     0.1245     0.1439
  300.5000   101.4158     5.6587     5.3969     6.6119     2.4439     0.1144     0.1404
  301.0000   107.2439     5.6464     5.3624     6.6138     2.4479     0.1029     0.1384
  301.5000   112.0998     5.6342     5.3281     6.6156     2.4450     0.0915     0.1411
  302.0000   113.7115     5.6220     5.2512     6.6174     2.4345     0.0800     0.1450
  302.5000   114.4200     5.5248     5.1532     6.6192     2.4243     0.0720     0.1536
  303.0000   114.3078     5.3937     5.0571     6.6211     2.4193     0.0723     0.1560
  303.5000   114.2216     5.2673     4.9628     6.6229     2.4148     0.0928     0.1585
  304.0000   114.1455     5.0691     4.8938     6.6247     2.4061     0.1023     0.1626
  304.5000   114.0006     4.8811     4.6109     6.6265     2.3981     0.0877     0.1663
  305.0000   110.0831     4.5527     4.0737     6.6283     2.3960     0.0827     0.1682
  305.5000   105.7503     3.9960     3.5970     6.6300     2.3937     0.0823     0.1710
  306.0000   101.3352     3.5073     3.1766     6.6310     2.3828     0.0746     0.1773
  306.5000   100.8389     3.0787     2.8058     6.6320     2.3578     0.0666     0.1869
  307.0000   108.9339     2.7025     2.4781     6.6329     2.3293     0.0589     0.2039
  307.5000   116.9941     2.5612     2.2386     6.6339     2.2766     0.0606     0.2277
  308.0000   117.1864     2.5464     2.2656     6.6349     2.2176     0.0623     0.2930
  308.5000   114.2419     2.6044     2.3025     6.6358     2.1626     0.0562     0.3078
  309.0000   111.3530     2.7635     2.5291     6.6368     2.1914     0.0458     0.2997
  309.5000   109.7902     3.0212     2.7633     6.6377     2.2582     0.0369     0.2543
  310.0000   108.1604     3.3030     3.0176     6.6387     2.3461     0.0461     0.2075
  310.5000   106.5174     3.6110     3.2952     6.6396     2.3693     0.0525     0.1856
  311.0000   106.3462     3.9480     3.5985     6.6406     2.3776     0.0436     0.1784
  311.5000   107.5280     4.3169     3.9296     6.6415     2.3828     0.0550     0.1727
  312.0000   107.2271     4.7165     4.2912     6.6425     2.3981     0.1138     0.1670
  312.5000   105.9330     4.8870     4.5885     6.6434     2.4024     0.1419     0.1654
  313.0000   105.9760     5.0602     4.6522     6.6444     2.3971     0.1254     0.1681
  313.5000   107.5298     5.0775     4.7177     6.6454     2.3920     0.0984     0.1709
  314.0000   106.1520     5.0772     4.7050     6.6463     2.3953     0.0731     0.1694
  314.5000   104.5443     5.0772     4.6886     6.6473     2.3998     0.0741     0.1672
  315.0000   104.9913     5.0772     4.6737     6.6482     2.3998     0.0759     0.1660
  315.5000   105.6821     4.9854     4.6737     6.6492     2.3982     0.0774     0.1669
  316.0000   102.4913     4.8836     4.6737     6.6498     2.4002     0.0749     0.1662
  316.5000    99.1155     4.7839     4.5885     6.6484     2.4028     0.0562     0.1653
  317.0000    95.8966     4.6865     4.5048     6.6470     2.4018     0.0417     0.1661
  317.5000   100.5983     4.5913     4.3420     6.6456     2.4006     0.0565     0.1665
  318.0000   106.0969     4.3965     4.1463     6.6442     2.4050     0.0797     0.1644
