~VERSION INFORMATION
 VERS.                2.0:   CWLS LOG ASCII STANDARD - VERSION 2.0
 WRAP.                 NO:   ONE LINE PER DEPTH STEP
~WELL INFORMATION
#MNEM.UNIT      DATA TYPE    INFORMATION
#----------   ------------   ------------------------------
 STRT.F            0.0000:   START DEPTH
 STOP.F          545.0000:   STOP DEPTH
 STEP.F            0.1000:   STEP LENGTH
 NULL.          -999.2500:   NO VALUE
 COMP.       F D SERV INC:   COMPANY
 WELL. NAVAL PETROLEUM RESERVE 3 SX-3 #88-5-3:   WELL
 FLD .             TEAPOT:   FIELD
 LOC .       S3 T38N R78W:   LOCATION
 CNTY.            NATRONA:   COUNTY
 STAT.            WYOMING:   STATE
 CTRY. UNITED STATES OF AMERICA:   COUNTRY
 SRVC.     Atlas Wireline:   SERVICE COMPANY
 DATE.        14-OCT-1992:   LOGDATE
 API .       490252255700:   API NUMBER
~CURVE INFORMATION
#MNEM.UNIT       API CODE    CURVE DESCRIPTION
#----------   ------------   ------------------------------
 DEPT.F                  :   
 GRR .GAPI   07 310 01 00:   GAMMA RAY
 RILD.OHMM   07 120 46 00:   INDUCTION LOG DEEP RESISTIVITY
 RILM.OHMM   07 120 44 00:   INDUCTION LOG MEDIUM RESISTIVITY
~PARAMETER INFORMATION
#MNEM.UNIT          VALUE    DESCRIPTION
#----------   ------------   ------------------------------
 PD  .                 GL:   PERMANENT DATUM
 EPD .F              5152:   ELEVATION PERMANENT DATUM
 LMF .                 KB:   LOG MEASURED FROM
 DAPD.F                10:   FEET ABOVE PERMANENT DATUM
 DMF .                 KB:   DRILLING MEASURED FROM
 EKB .F              5162:   KELLING BUSHING
 EDF .F              5161:   DRILLING FLOOR
 EGL .F              5152:   GROUND LEVEL
 DATE.        14-OCT-1992:   RUN DATE
 RUN .                  1:   RUN NUMBER
 DD  .F               555:   DEPTH DRILLER
 DL  .F               552:   DEPTH LOGGER
 BLI .F               546:   BOTTOM LOG INTERVAL
 CS  .IN            8.625:   CASING SIZE
 CBD .F                85:   CASING BOTTOM DRILLER
 CBL .F                96:   CASING BOTTOM LOGGER
 BS  .IN            7.875:   BIT SIZE
 BSD .F               555:   BIT SIZE AT DEPTH
 DFT .           AIR FOAM:   DRILLING FLUID TYPE
 BHT .F                72:   BOTTOM HOLE TEMPERATURE
 TCS .HRS               2:   TIME CURCULATED STOPPED
 MRT .F                72:   MAXIMUM RECORDED TEMPERATURE
 LUN .            HL-6274:   LOGGING UNIT NUMBER
 LUL .             CASPER:   LOGGING UNIT LOCATION
 ENGI.             RAUTIO:   RECORDING ENGINEER
 WITN.        GARY STRONG:   WITNESSED BY
 CLNT.            A2DTECH:   CLIENT CODE
 ORIG.           5" PRINT:   ORIGIN OF DATA
 UWI .       490252255700:   UNIQUE WELL ID
 DICO. A2D Technologies, Inc.:   DIGITIZING COMPANY
~OTHER INFORMATION
~A    DEPT      GRR      RILD       RILM   
# ...
  382.2000    95.5739    16.3561    16.0829
  382.3000    95.0607    16.1991    16.0720
  382.4000    94.2929    16.1037    15.9720
  382.5000    93.1332    16.0107    15.9720
  382.6000    92.6102    16.0105    15.9003
  382.7000    92.3070    15.9309    15.8618
  382.8000    92.0993    15.8371    15.8618
  382.9000    92.0024    15.7898    15.8618
  383.0000    92.0000    15.7896    15.8618
  383.1000    91.9976    15.7894    15.8618
  383.2000    92.0216    15.7891    15.8618
  383.3000    92.2929    15.7889    15.8618
  383.4000    92.2907    15.7887    15.8120
  383.5000    92.2883    15.7885    15.7525
  383.6000    92.5805    15.7467    15.7525
  383.7000    93.2941    15.6792    15.7516
  383.8000    94.3137    15.6790    15.6438
  383.9000    95.3201    15.6787    15.6438
  384.0000    96.1799    15.6785    15.6438
  384.1000    96.8482    15.6783    15.6438
  384.2000    97.4335    15.6781    15.6438
  384.3000    97.8082    15.6779    15.6438
  384.4000    98.0613    15.6776    15.6438
  384.5000    98.3584    15.6727    15.6438
  384.6000    98.8685    15.5691    15.6438
  384.7000    99.1659    15.5689    15.6438
  384.8000    99.3738    15.5687    15.6438
  384.9000    99.4619    15.5685    15.6438
  385.0000    99.5796    15.5682    15.6438
  385.1000    99.8326    15.5680    15.6438
  385.2000   100.0555    15.5678    15.6438
  385.3000   100.0527    15.5676    15.5771
  385.4000   100.2915    15.5674    15.5360
  385.5000   100.3484    15.5672    15.5360
  385.6000   100.3459    15.5669    15.5360
  385.7000   100.2371    15.5389    15.5360
  385.8000    99.9174    15.4474    15.5360
  385.9000    99.4041    15.3523    15.5360
  386.0000    98.8346    15.3521    15.5360
  386.1000    98.1503    15.3519    15.5360
  386.2000    97.5639    15.3517    15.5065
  386.3000    97.1884    15.3515    15.4288
  386.4000    97.0234    15.3513    15.4288
  386.5000    97.0210    15.3511    15.4288
  386.6000    97.0186    15.3508    15.4288
  386.7000    97.0158    15.3507    15.4288
  386.8000    97.0138    15.3504    15.4288
  386.9000    97.1804    15.3502    15.4288
  387.0000    97.4335    15.3154    15.4288
  387.1000    97.6865    15.2440    15.4288
  387.2000    97.9395    15.2406    15.3457
  387.3000    98.2029    15.1384    15.2556
  387.4000    98.4456    15.1382    15.2168
  387.5000    98.6987    15.1380    15.1818
  387.6000    98.7964    15.0924    15.0927
  387.7000    98.6835    15.0035    15.0076
  387.8000    98.4256    14.9293    15.0076
  387.9000    98.1886    14.9291    15.0076
  388.0000    98.1860    14.8259    14.9469
  388.1000    97.7210    14.7551    14.8592
  388.2000    97.5808    14.7233    14.8013
  388.3000    97.5784    14.7231    14.8013
  388.4000    97.4791    14.6980    14.8013
  388.5000    97.2213    14.6212    14.6993
  388.6000    96.9706    14.6209    14.6993
  388.7000    96.9678    14.5402    14.6444
  388.8000    96.9658    14.5197    14.5979
  388.9000    96.9634    14.5195    14.5979
  389.0000    96.9610    14.5193    14.5885
  389.1000    96.8753    14.5191    14.4972
  389.2000    96.6559    14.5133    14.4178
  389.3000    96.6534    14.4186    14.3973
  389.4000    96.9001    14.4184    14.3973
  389.5000    96.9489    14.4182    14.3973
  389.6000    96.9465    14.4180    14.3777
  389.7000    97.0586    14.3867    14.2980
  389.8000    97.3117    14.3182    14.2980
  389.9000    97.5647    14.3150    14.2241
  390.0000    97.8376    14.1210    14.1994
  390.1000    98.0709    14.1208    14.1994
  390.2000    98.3240    14.0652    14.1994
  390.3000    98.7228    14.0230    14.1697
  390.4000    99.3321    14.0228    14.0042
  390.5000    99.9840    14.0107    14.0042
  390.6000   100.2370    13.9258    14.0042
  390.7000   100.5234    13.9256    13.9507
  390.8000   100.9650    13.9254    13.8688
  390.9000   101.1195    13.9252    13.8117
  391.0000   101.2493    13.9250    13.8117
  391.1000   101.4150    13.9026    13.8117
  391.2000   101.3702    13.8207    13.6584
  391.3000   101.1099    13.7330    13.6219
  391.4000   100.5065    13.7328    13.5741
  391.5000   100.2963    13.7326    13.4944
  391.6000   100.0384    13.7325    13.4347
  391.7000    99.8991    13.7001    13.4290
  391.8000    99.8967    13.6374    13.3420
  391.9000    99.8943    13.6333    13.2719
  392.0000    99.8917    13.5429    13.2500
  392.1000    99.8895    13.5428    13.2500
  392.2000    99.8871    13.4869    13.2213
  392.3000    99.8847    13.4075    13.1587
  392.4000    99.8823    13.3561    13.1587
  392.5000    99.8799    13.3559    13.1587
  392.6000    99.8927    13.3556    13.1587
  392.7000   100.1751    13.2634    13.1587
  392.8000   100.3988    13.2632    13.1587
  392.9000   100.4709    13.2631    13.1587
  393.0000   100.6046    13.2629    13.1587
  393.1000   100.8577    13.2627    13.1587
  393.2000   101.1107    13.2625    13.1587
  393.3000   101.3638    13.2623    13.1587
  393.4000   101.6597    13.2621    13.1587
  393.5000   102.0821    13.2620    13.1587
  393.6000   102.5906    13.2618    13.1587
  393.7000   103.2216    13.2616    13.1587
  393.8000   103.9856    13.2614    13.1587
  393.9000   104.7496    13.2612    13.1587
  394.0000   105.5494    13.2610    13.1587
  394.1000   106.2775    13.2609    13.2023
  394.2000   107.0413    13.2607    13.2500
  394.3000   107.8053    13.2605    13.2500
  394.4000   108.4605    13.2603    13.2500
  394.5000   109.0330    13.2601    13.2500
  394.6000   109.7968    13.2599    13.2500
  394.7000   110.6376    13.2597    13.2500
  394.8000   110.8653    13.3269    13.2500
  394.9000   110.9333    13.3515    13.2500
  395.0000   110.9309    13.3513    13.2623
  395.1000   110.9285    13.3511    13.3420
  395.2000   110.9261    13.3509    13.3420
  395.3000   110.9182    13.3507    13.4055
  395.4000   110.6207    13.3505    13.4347
  395.5000   110.4024    13.4143    13.4347
  395.6000   109.6304    13.4934    13.4347
  395.7000   108.2268    13.5360    13.4347
  395.8000   106.6811    13.5358    13.4347
  395.9000   105.6936    13.5446    13.4347
  396.0000   104.9008    13.6294    13.4347
  396.1000   104.6511    13.6293    13.4805
  396.2000   104.1906    13.6905    13.5280
  396.3000   103.9928    13.7235    13.5460
  396.4000   103.8775    13.7233    13.6219
  396.5000   103.6877    13.7425    13.6219
  396.6000   103.6853    13.8235    13.6219
  396.7000   103.6827    13.9140    13.7348
  396.8000   103.9143    13.9138    13.8117
  396.9000   103.9784    13.9136    13.8117
  397.0000   103.9760    13.9134    13.8117
  397.1000   103.9736    13.9433    13.8117
  397.2000   103.9712    14.0097    13.9077
  397.3000   103.9688    14.0095    13.9751
  397.4000   103.9660    14.0092    14.0042
  397.5000   103.9640    14.0788    14.0042
  397.6000   103.9616    14.1062    14.0042
  397.7000   103.9592    14.1060    14.0141
  397.8000   103.7854    14.1058    14.1015
  397.9000   103.3130    14.1056    14.1015
  398.0000   103.0510    14.1054    14.1654
  398.1000   102.1473    14.1052    14.1994
  398.2000   101.5256    14.1050    14.1994
  398.3000   100.9185    14.1048    14.1994
  398.4000   100.4051    14.1046    14.1994
  398.5000    99.9639    14.1269    14.1994
  398.6000    99.6789    14.2022    14.2741
  398.7000    99.1302    14.2019    14.2980
  398.8000    98.6522    14.2017    14.2980
  398.9000    98.5249    14.2642    14.3287
  399.0000    98.5225    14.3000    14.3973
  399.1000    98.5201    14.2998    14.3973
  399.2000    98.5177    14.2996    14.3973
  399.3000    98.5153    14.2994    14.3973
  399.4000    98.5126    14.2992    14.3973
  399.5000    98.9591    14.2990    14.3973
  399.6000    99.2881    14.2988    14.3711
  399.7000    99.8102    14.2986    14.2980
  399.8000   100.9329    14.2984    14.2980
  399.9000   102.6290    14.2982    14.2980
  400.0000   103.9039    14.2980    14.2480
  400.1000   106.0204    14.2719    14.1841
  400.2000   106.3015    14.2457    14.1203
  400.3000   106.2238    14.2196    14.0564
