~VERSION INFORMATION
 VERS.                2.0:   CWLS LOG ASCII STANDARD - VERSION 2.0
 WRAP.                 NO:   ONE LINE PER DEPTH STEP
~WELL INFORMATION
#MNEM.UNIT      DATA TYPE    INFORMATION
#----------   ------------   ------------------------------
 STRT.F           19.0000:   START DEPTH
 STOP.F         1200.0000:   STOP DEPTH
 STEP.F            0.5000:   STEP LENGTH
 NULL.          -999.2500:   NO VALUE
 COMP.       INTEX OIL CO:   COMPANY
 WELL.     NPR 3 #73 S-14:   WELL
 FLD .             TEAPOT:   FIELD
 LOC .      S14 T38N R78W:   LOCATION
 CNTY.            NATRONA:   COUNTY
 STAT.            WYOMING:   STATE
 CTRY. UNITED STATES OF AMERICA:   COUNTRY
 SRVC.       Schlumberger:   SERVICE COMPANY
 DATE.        24-AUG-1966:   LOGDATE
 API .       490250970900:   API NUMBER
~CURVE INFORMATION
#MNEM.UNIT       API CODE    CURVE DESCRIPTION
#----------   ------------   ------------------------------
 DEPT.F                  :   
 SPR .MV     05 010 01 00:   SPONTANEOUS POTENTIAL FROM RES.
 ILD .OHMM   05 120 46 00:   INDUCTION LOG DEEP
 ASN .OHMM   05 041 16 00:   AMPLIFIED SHORT NORMAL 16"
 CILD.MMHO   05 110 46 00:   CONDUCTIVITY INDUCTION LOG DEEP
 CALD.IN     45 280 60 00:   CALIPER
 GRD .GAPI   45 310 01 00:   GAMMA RAY FROM DENSITY LOG
 CORR.G/C3   45 356 01 00:   DENSITY CORRECTION
 RHOB.G/C3   45 350 01 00:   BULK DENSITY
 DPHI.DEC    45 890 12 00:   DENSITY POROSITY SANDSTONE
~PARAMETER INFORMATION
#MNEM.UNIT          VALUE    DESCRIPTION
#----------   ------------   ------------------------------
 PD  .                 GL:   PERMANENT DATUM
 EPD .F              5274:   ELEVATION PERMANENT DATUM
 LMF .                 KB:   LOG MEASURED FROM
 DAPD.F                 5:   FEET ABOVE PERMANENT DATUM
 DMF .                 KB:   DRILLING MEASURED FROM
 EKB .F              5279:   KELLING BUSHING
 EGL .F              5274:   GROUND LEVEL
 DATE.            8-24-66:   RUN DATE
 RUN .                  1:   RUN NUMBER
 DD  .F              1200:   DEPTH DRILLER
 DL  .F              1200:   DEPTH LOGGER
 BLI .F              1199:   BOTTOM LOG INTERVAL
 TLI .F                86:   TOP LOG INTERVAL
 CS  .IN            8.625:   CASING SIZE
 CBD .F                10:   CASING BOTTOM DRILLER
 BS  .IN             6.75:   BIT SIZE
 BSD .F              1200:   BIT SIZE AT DEPTH
 DFT .                GEL:   DRILLING FLUID TYPE
 DFD .               10.1:   DRILLING FLUID DENSITY
 DFV .                 60:   DRILLING FLUID VISCOSITY
 MSS .          FLOW LINE:   MUD SAMPLE SOURCE
 RMS .OHMM            1.8:   RESISTIVITY MUD SAMPLE
 MST .F                67:   MUD SAMPLE TEMPERATURE
 RMF .OHMM            1.4:   RESISTIVITY MUD FILTRATE SAMPLE
 MFST.F                77:   MUD FILTRATE SAMPLE TEMPERATURE
 MFSS.                  M:   MUD FILTRATE SAMPLE SOURCE
 RMB .OHMM            1.1:   RESISTIVITY MUD AT BHT
 BHT .F               112:   BOTTOM HOLE TEMPERATURE
 TCS .HRS               1:   TIME CURCULATED STOPPED
 MRT .F               112:   MAXIMUM RECORDED TEMPERATURE
 LUN .               4507:   LOGGING UNIT NUMBER
 LUL .               CSPR:   LOGGING UNIT LOCATION
 ENGI.            MANGOLD:   RECORDING ENGINEER
 WITN.                MAY:   WITNESSED BY
 CLNT.            A2DTECH:   CLIENT CODE
 ORIG.           5" PRINT:   ORIGIN OF DATA
 UWI .       490250970900:   UNIQUE WELL ID
 DICO. A2D Technologies, Inc.:   DIGITIZING COMPANY
~OTHER INFORMATION
~A   DEPT      SPR        ILD        ASN       CILD       CALD         GRD        CORR     RHOB       DPHI   
# ...
  274.5000   -55.8350     6.0300     6.2500   167.4110     7.3410    97.3950     0.0590     2.4670     0.1160
  275.0000   -55.7380     5.9440     6.1210   170.3300     7.3400    95.9860     0.0630     2.5140     0.1060
  275.5000   -55.6650     5.8550     6.0170   170.3300     7.3390    91.3420     0.0660     2.5070     0.1090
  276.0000   -55.5690     5.7590     5.8920   170.3300     7.3380    92.3600     0.0570     2.4930     0.1120
  276.5000   -55.4980     5.6460     5.7440   167.5870     7.3370    97.4180     0.0420     2.4720     0.1140
  277.0000   -55.3940     5.6420     5.7440   164.8200     7.3360    96.7340     0.0330     2.4430     0.1170
  277.5000   -55.3350     5.7620     5.8860   162.0540     7.3340    94.7260     0.0300     2.4450     0.1190
  278.0000   -55.5310     5.8640     6.0130   159.2870     7.3280    92.1690     0.0260     2.4810     0.1230
  278.5000   -55.8050     5.9560     6.1290   156.5200     7.3220    90.5320     0.0330     2.4910     0.1220
  279.0000   -55.9850     6.0620     6.2510   153.7540     7.3160    91.4230     0.0380     2.4690     0.1200
  279.5000   -56.2700     6.1520     6.3720   150.9870     7.3100    93.7420     0.0170     2.4510     0.1210
  280.0000   -56.5030     6.2600     6.4910   148.3520     7.3040    90.0100     0.0150     2.4300     0.1250
  280.5000   -56.3740     6.3380     6.5320   150.7070     7.2980    84.1300     0.0160     2.4290     0.1320
  281.0000   -56.1160     6.3110     6.5100   152.9550     7.2920    87.8850     0.0210     2.4330     0.1300
  281.5000   -55.9040     6.2440     6.4880   155.2030     7.2860    90.7210     0.0230     2.4410     0.1260
  282.0000   -55.6740     6.1910     6.4630   157.4520     7.2800    94.2450     0.0220     2.4480     0.1230
  282.5000   -55.4390     6.1300     6.4460   159.7000     7.2750    96.4690     0.0180     2.4560     0.1190
  283.0000   -55.2240     6.0720     6.4170   161.9490     7.2780    98.3820     0.0300     2.4640     0.1180
  283.5000   -55.2320     6.0150     6.3090   164.3360     7.2810    99.6680     0.0430     2.4720     0.1190
  284.0000   -55.4620     5.9540     6.1460   164.3360     7.2840    99.2310     0.0340     2.4720     0.1210
  284.5000   -55.6480     5.9000     6.0380   164.3360     7.2870    96.2080     0.0220     2.4700     0.1230
  285.0000   -55.8910     5.8420     6.0110   164.3360     7.2900    91.8230     0.0260     2.4690     0.1220
  285.5000   -56.1080     5.8460     6.0350   163.3370     7.2930    90.2050     0.0310     2.4670     0.1170
  286.0000   -55.9940     5.9970     6.1240   158.3290     7.2960    92.0090     0.0360     2.4690     0.1120
  286.5000   -55.7860     6.2250     6.2310   153.9620     7.2990    93.4760     0.0330     2.4800     0.1080
  287.0000   -55.6260     6.4510     6.3460   149.5960     7.3020    95.1710     0.0370     2.4920     0.1040
  287.5000   -55.4260     6.6800     6.5340   145.2300     7.3050    96.2930     0.0500     2.5040     0.1010
  288.0000   -55.2670     6.9040     6.7790   140.8630     7.3080    95.3660     0.0580     2.5160     0.0900
  288.5000   -55.0560     7.1340     7.0040   136.4970     7.3110    95.9710     0.0670     2.5250     0.0800
  289.0000   -54.9400     7.2460     7.1260   134.3660     7.3140    97.2450     0.0640     2.5220     0.0880
  289.5000   -55.1840     7.1380     7.1060   134.3660     7.3170    98.0460     0.0550     2.5090     0.0970
  290.0000   -55.4850     6.9900     7.0500   139.4050     7.3190    99.4950     0.0480     2.4930     0.1060
  290.5000   -55.6960     6.8300     7.0370   145.9630     7.3230    95.9560     0.0390     2.4780     0.1140
  291.0000   -55.9830     6.5790     6.9280   152.5210     7.3250    86.6700     0.0340     2.4650     0.1150
  291.5000   -56.1170     6.3130     6.7060   159.0790     7.3280    87.0460     0.0440     2.4630     0.1150
  292.0000   -55.9380     6.0710     6.4860   165.0620     7.3310    85.2270     0.0470     2.4650     0.1060
  292.5000   -55.7200     5.8420     6.2840   169.9800     7.3340    84.5250     0.0360     2.4840     0.0980
  293.0000   -55.5180     5.5580     6.1070   174.8980     7.3170    82.5730     0.0280     2.5070     0.0990
  293.5000   -55.2870     5.3700     5.8600   177.3230     7.2950    81.7240     0.0130     2.5310     0.1050
  294.0000   -55.1110     5.5000     5.7320   177.3230     7.2740    81.3910     0.0200     2.5220     0.0740
  294.5000   -54.8510     5.7180     5.9660   176.3240     7.2570    84.5770     0.0310     2.5020     0.0790
  295.0000   -54.7450     5.8680     6.2650   170.3300     7.2720    90.2790     0.0240     2.4820     0.0890
  295.5000   -55.0460     6.0530     6.5170   165.0600     7.2870    95.3490     0.0240     2.4670     0.0990
  296.0000   -55.3570     6.2330     6.6930   159.7900     7.3050    97.3410     0.0410     2.4690     0.1060
  296.5000   -55.6370     6.3490     6.5690   154.5200     7.3150    95.9210     0.0520     2.4870     0.0970
  297.0000   -55.9090     6.3960     6.4350   150.1870     7.3120    94.4030     0.0550     2.5090     0.0890
  297.5000   -55.8920     6.4230     6.4740   147.2680     7.3120    92.5520     0.0600     2.5310     0.0890
  298.0000   -55.7960     6.4620     6.5580   144.3490     7.3100    92.2810     0.0630     2.5340     0.0940
  298.5000   -55.7680     6.4950     6.6580   141.4310     7.3090    93.5950     0.0580     2.5250     0.0980
  299.0000   -55.6960     6.5340     6.7570   138.5120     7.3070    94.6840     0.0470     2.5050     0.1030
  299.5000   -55.6400     6.5620     6.8450   135.5940     7.3060    95.8330     0.0410     2.4870     0.1090
  300.0000   -55.5880     6.6080     6.9500   133.3670     7.3040    97.1100     0.0290     2.4680     0.1170
  300.5000   -55.5250     6.6380     7.0580   134.3660     7.3030    97.9100     0.0160     2.4500     0.1250
  301.0000   -55.4720     6.5510     7.0640   139.9270     7.3020    97.2470     0.0080     2.4290     0.1320
  301.5000   -55.4130     6.4120     7.0220   144.3250     7.3000    96.5170     0.0100     2.4270     0.1380
  302.0000   -55.3590     6.2880     6.9710   148.7230     7.2990    95.7600     0.0160     2.4310     0.1360
  302.5000   -55.2410     6.1570     6.8250   153.1210     7.2980    94.9660     0.0220     2.4420     0.1290
  303.0000   -55.0420     6.0290     6.6650   157.5180     7.2960    94.2750     0.0280     2.4520     0.1210
  303.5000   -54.8270     5.8990     6.5230   161.9160     7.2940    93.6640     0.0340     2.4630     0.1120
  304.0000   -54.6260     5.7710     6.3600   166.3140     7.2850    93.0760     0.0400     2.4740     0.1060
  304.5000   -54.5160     5.6410     6.2170   170.7110     7.2740    92.4020     0.0450     2.4850     0.1020
  305.0000   -54.5140     5.5120     6.0540   175.3250     7.2650    91.8710     0.0400     2.5000     0.0980
  305.5000   -54.5190     5.4980     5.9080   176.3240     7.2510    88.2180     0.0280     2.4970     0.0940
  306.0000   -54.5150     5.6110     5.8990   172.3100     7.1990    87.0340     0.0190     2.4810     0.1000
  306.5000   -54.6110     5.7330     5.9790   168.1140     7.1600    90.7680     0.0200     2.4670     0.1050
  307.0000   -54.7890     5.8440     6.1210   163.9180     7.1880    91.4140     0.0220     2.4520     0.1110
  307.5000   -54.9310     5.9650     6.2660   159.7230     7.2190    87.6800     0.0200     2.4350     0.1160
  308.0000   -55.1280     6.0790     6.2580   155.5270     7.2510    88.3240     0.0130     2.4390     0.1250
  308.5000   -55.3050     6.1950     6.2680   151.3310     7.2740    89.8470     0.0230     2.4590     0.1240
  309.0000   -55.1700     6.3160     6.4640   147.1350     7.2740    91.1020     0.0360     2.4710     0.1210
  309.5000   -54.9130     6.4250     6.6650   142.9390     7.2750    92.6470     0.0490     2.4720     0.1180
  310.0000   -54.7060     6.5520     6.8490   139.3610     7.2750    93.6730     0.0360     2.4790     0.1150
  310.5000   -54.4550     6.6380     7.0420   141.3090     7.2750    95.6350     0.0300     2.4850     0.1120
