~VERSION INFORMATION
 VERS.                2.0:   CWLS LOG ASCII STANDARD - VERSION 2.0
 WRAP.                 NO:   ONE LINE PER DEPTH STEP
~WELL INFORMATION
#MNEM.UNIT      DATA TYPE    INFORMATION
#----------   ------------   ------------------------------
 STRT.F           67.0000:   START DEPTH
 STOP.F          510.0000:   STOP DEPTH
 STEP.F            0.5000:   STEP LENGTH
 NULL.          -999.2500:   NO VALUE
 COMP.       F D SERV INC:   COMPANY
 WELL.    77-5 SX 3 #77-3:   WELL
 FLD .             TEAPOT:   FIELD
 LOC .       S3 T38N R78W:   LOCATION
 CNTY.            NATRONA:   COUNTY
 STAT.            WYOMING:   STATE
 CTRY. UNITED STATES OF AMERICA:   COUNTRY
 SRVC.     Atlas Wireline:   SERVICE COMPANY
 DATE.        24-NOV-1992:   LOGDATE
 API .       490252254400:   API NUMBER
~CURVE INFORMATION
#MNEM.UNIT       API CODE    CURVE DESCRIPTION
#----------   ------------   ------------------------------
 DEPT.F                  :   
 PORZ.DEC    45 890 12 00:   DENSITY POROSITY
 NPOR.DEC    42 890 03 00:   NEUTRON POROSITY SANDSTONE
 C13 .IN     45 280 13 00:   CALIPER 1 - 3
 GRD .GAPI   45 310 01 00:   GAMMA RAY FROM DENSITY LOG
 ZCOR.G/C3   45 356 01 00:   DENSITY CORRECTION
 ZDEN.G/C3   45 350 01 00:   BULK DENSITY
~PARAMETER INFORMATION
#MNEM.UNIT          VALUE    DESCRIPTION
#----------   ------------   ------------------------------
 PD  .                 GL:   PERMANENT DATUM
 EPD .F              5137:   ELEVATION PERMANENT DATUM
 LMF .                 KB:   LOG MEASURED FROM
 DAPD.F                10:   FEET ABOVE PERMANENT DATUM
 DMF .                 KB:   DRILLING MEASURED FROM
 EKB .F              5147:   KELLING BUSHING
 EDF .F              5146:   DRILLING FLOOR
 EGL .F              5137:   GROUND LEVEL
 DATE.        24-NOV-1992:   RUN DATE
 RUN .                  1:   RUN NUMBER
 DD  .F               510:   DEPTH DRILLER
 DL  .F               512:   DEPTH LOGGER
 BLI .F               510:   BOTTOM LOG INTERVAL
 TLI .F                99:   TOP LOG INTERVAL
 CS  .IN            8.625:   CASING SIZE
 CBD .F                97:   CASING BOTTOM DRILLER
 CBL .F                99:   CASING BOTTOM LOGGER
 BS  .IN            7.875:   BIT SIZE
 BSD .F               510:   BIT SIZE AT DEPTH
 DFT .           AIR FOAM:   DRILLING FLUID TYPE
 MRT .F                70:   MAXIMUM RECORDED TEMPERATURE
 LUN .            HL-6274:   LOGGING UNIT NUMBER
 LUL .             CASPER:   LOGGING UNIT LOCATION
 WITN.           G.STRONG:   WITNESSED BY
 CLNT.            A2DTECH:   CLIENT CODE
 ORIG.           5" PRINT:   ORIGIN OF DATA
 UWI .       490252254400:   UNIQUE WELL ID
 DICO. A2D Technologies, Inc.:   DIGITIZING COMPANY
~OTHER INFORMATION
~A   DEPT     PORZ       NPOR        C13        GRD       ZCOR       ZDEN   
# ...
  483.0000     0.0850     0.3047     7.7635   172.2303     0.0088     2.5000
  483.5000     0.0781     0.3048     7.7474   172.8243     0.0194     2.5061
  484.0000     0.0766     0.3048     7.7463   172.8120     0.0329     2.5167
  484.5000     0.0763     0.3048     7.7454   172.4931     0.0313     2.5226
  485.0000     0.0745     0.3048     7.7445   169.4518     0.0190     2.5233
  485.5000     0.0718     0.3048     7.7436  -999.2500     0.0133     2.5271
  486.0000     0.0697     0.3049     7.7427  -999.2500     0.0193     2.5323
  486.5000     0.0712     0.3049     7.7418  -999.2500     0.0162     2.5353
  487.0000     0.0743     0.3052     7.7409  -999.2500    -0.0064     2.5284
  487.5000     0.0785     0.3077     7.7555  -999.2500     0.0137     2.5223
  488.0000     0.0804     0.3104     7.7698  -999.2500     0.0268     2.5185
  488.5000     0.0798  -999.2500     7.7841  -999.2500     0.0298     2.5162
  489.0000     0.0801  -999.2500     7.7829  -999.2500     0.0267     2.5161
  489.5000     0.0816  -999.2500     7.7821  -999.2500     0.0207     2.5161
  490.0000     0.0817  -999.2500     7.7660  -999.2500     0.0192     2.5153
  490.5000     0.0829  -999.2500     7.7641  -999.2500     0.0176     2.5130
  491.0000     0.0857  -999.2500     7.7490  -999.2500     0.0161     2.5098
  491.5000     0.0869  -999.2500     7.7478  -999.2500     0.0251     2.5060
  492.0000     0.0830  -999.2500     7.7318  -999.2500     0.0281     2.5045
  492.5000     0.0830  -999.2500     7.7309  -999.2500     0.0221     2.5128
  493.0000     0.0836  -999.2500     7.7300  -999.2500     0.0251     2.5143
  493.5000     0.0852  -999.2500     7.7445  -999.2500     0.0296     2.5089
  494.0000     0.0891  -999.2500     7.7434  -999.2500     0.0221     2.5005
  494.5000     0.0998  -999.2500     7.7579  -999.2500     0.0175     2.4876
  495.0000     0.1119  -999.2500     7.7568  -999.2500     0.0175     2.4732
  495.5000     0.1132  -999.2500     7.7713  -999.2500     0.0208     2.4633
  496.0000     0.1035  -999.2500     7.7702  -999.2500     0.0433     2.4701
  496.5000     0.0956  -999.2500     7.7693  -999.2500     0.0371     2.4852
  497.0000     0.0917  -999.2500     7.7684  -999.2500     0.0340     2.4942
  497.5000     0.0917  -999.2500     7.7675  -999.2500     0.0446     2.4964
  498.0000     0.0920  -999.2500     7.7666  -999.2500     0.0476     2.4956
  498.5000     0.0878  -999.2500     7.7657  -999.2500     0.0476     2.4972
  499.0000     0.0821  -999.2500     7.7646  -999.2500     0.0460     2.5055
  499.5000     0.0793  -999.2500     7.7485  -999.2500     0.0445     2.5137
  500.0000     0.0791  -999.2500     7.7630  -999.2500     0.0460     2.5212
  500.5000     0.0794  -999.2500     7.7619  -999.2500     0.0490     2.5180
  501.0000     0.0797  -999.2500     7.7610  -999.2500     0.0369     2.5157
  501.5000     0.0809  -999.2500     7.7601  -999.2500     0.0384     2.5158
  502.0000     0.0822  -999.2500     7.7592  -999.2500     0.0294     2.5127
  502.5000     0.0780  -999.2500     7.7583  -999.2500     0.0278     2.5119
  503.0000     0.0737  -999.2500     7.7574  -999.2500     0.0324     2.5194
  503.5000     0.0713  -999.2500     7.7565  -999.2500     0.0368     2.5247
  504.0000     0.0735  -999.2500     7.7556  -999.2500     0.0290     2.5292
  504.5000     0.0859  -999.2500     7.7547  -999.2500     0.0247     2.5231
  505.0000     0.0884  -999.2500     7.7538  -999.2500     0.0247     2.5124
  505.5000     0.0881  -999.2500     7.7529  -999.2500     0.0292     2.5025
  506.0000     0.0851  -999.2500     7.7520  -999.2500     0.0458     2.5040
  506.5000     0.0811  -999.2500     7.7509  -999.2500     0.0534  -999.2500
  507.0000     0.0774  -999.2500     7.7654  -999.2500     0.0548  -999.2500
  507.5000     0.0739  -999.2500     7.7643  -999.2500     0.0171  -999.2500
  508.0000     0.0730  -999.2500     7.7482  -999.2500    -0.3464  -999.2500
  508.5000  -999.2500  -999.2500     7.7321  -999.2500  -999.2500  -999.2500
  509.0000  -999.2500  -999.2500     7.7008  -999.2500  -999.2500  -999.2500
  509.5000  -999.2500  -999.2500     7.6847  -999.2500  -999.2500  -999.2500
  510.0000  -999.2500  -999.2500     7.6838  -999.2500  -999.2500  -999.2500
