~VERSION INFORMATION
 VERS.                2.0:   CWLS LOG ASCII STANDARD - VERSION 2.0
 WRAP.                 NO:   ONE LINE PER DEPTH STEP
~WELL INFORMATION
#MNEM.UNIT      DATA TYPE    INFORMATION
#----------   ------------   ------------------------------
 STRT.F           11.0000:   START DEPTH
 STOP.F          804.0000:   STOP DEPTH
 STEP.F            0.1000:   STEP LENGTH
 NULL.          -999.2500:   NO VALUE
 COMP. BROWN JOHN E&C INC:   COMPANY
 WELL. 72-1 STX-34 #72-34:   WELL
 FLD .             TEAPOT:   FIELD
 LOC .      S34 T39N R78W:   LOCATION
 CNTY.            NATRONA:   COUNTY
 STAT.            WYOMING:   STATE
 CTRY. UNITED STATES OF AMERICA:   COUNTRY
 SRVC.     Atlas Wireline:   SERVICE COMPANY
 DATE.        31-JAN-1992:   LOGDATE
 API .       490252250200:   API NUMBER
~CURVE INFORMATION
#MNEM.UNIT       API CODE    CURVE DESCRIPTION
#----------   ------------   ------------------------------
 DEPT.F                  :   
 GRR .GAPI   07 310 01 00:   GAMMA RAY
 RILD.OHMM   07 120 46 00:   INDUCTION LOG DEEP RESISTIVITY
 RILM.OHMM   07 120 44 00:   INDUCTION LOG MEDIUM RESISTIVITY
~PARAMETER INFORMATION
#MNEM.UNIT          VALUE    DESCRIPTION
#----------   ------------   ------------------------------
 PD  .                 GL:   PERMANENT DATUM
 EPD .F              5069:   ELEVATION PERMANENT DATUM
 LMF .                 KB:   LOG MEASURED FROM
 DAPD.F                10:   FEET ABOVE PERMANENT DATUM
 DMF .                 KB:   DRILLING MEASURED FROM
 EKB .F              5079:   KELLING BUSHING
 EDF .F              5078:   DRILLING FLOOR
 EGL .F              5069:   GROUND LEVEL
 DATE.        31-JAN-1992:   RUN DATE
 RUN .                  1:   RUN NUMBER
 DD  .F               814:   DEPTH DRILLER
 DL  .F               813:   DEPTH LOGGER
 BLI .F               804:   BOTTOM LOG INTERVAL
 CS  .IN            9.625:   CASING SIZE
 CBD .F               100:   CASING BOTTOM DRILLER
 CBL .F               104:   CASING BOTTOM LOGGER
 BS  .IN             8.75:   BIT SIZE
 BSD .F               814:   BIT SIZE AT DEPTH
 DFT .                AIR:   DRILLING FLUID TYPE
 MRT .F                90:   MAXIMUM RECORDED TEMPERATURE
 LUN .           HL- 6274:   LOGGING UNIT NUMBER
 LUL .             CASPER:   LOGGING UNIT LOCATION
 ENGI.             RAUTIO:   RECORDING ENGINEER
 WITN.        GARY STRONG:   WITNESSED BY
 CLNT.            A2DTECH:   CLIENT CODE
 ORIG.           5" PRINT:   ORIGIN OF DATA
 UWI .       490252250200:   UNIQUE WELL ID
 DICO. A2D Technologies, Inc.:   DIGITIZING COMPANY
~OTHER INFORMATION
~A   DEPT       GRR      RILD       RILM   
# ...
  284.0000   123.7841     7.2196     7.0055
  284.1000   124.0687     7.1953     6.9251
  284.2000   123.6548     7.1880     6.9251
  284.3000   123.3167     7.1449     6.9251
  284.4000   123.0734     7.0688     6.9251
  284.5000   122.7948     7.0171     6.9145
  284.6000   122.2622     6.9963     6.8769
  284.7000   122.0410     6.9962     6.8769
  284.8000   121.9631     6.9961     6.8459
  284.9000   121.9649     6.9959     6.8291
  285.0000   121.9667     6.9958     6.8164
  285.1000   121.9686     6.9958     6.7816
  285.2000   122.4466     6.9957     6.7816
  285.3000   122.9385     6.9956     6.7816
  285.4000   123.6767     6.9955     6.8055
  285.5000   124.4620     6.9954     6.8291
  285.6000   124.7249     6.9952     6.8291
  285.7000   125.4618     6.9952     6.8291
  285.8000   125.8078     6.9951     6.8645
  285.9000   126.1929     6.9950     6.8769
  286.0000   126.6041     6.9949     6.8769
  286.1000   126.8744     6.9948     6.8769
  286.2000   127.4351     6.9947     6.8769
  286.3000   127.6474     6.9946     6.9149
  286.4000   127.7410     6.9945     6.9251
  286.5000   127.4555     6.9944     6.9251
  286.6000   126.7222     6.9943     6.9251
  286.7000   125.9312     6.9942     6.9251
  286.8000   124.8033     6.9941     6.9251
  286.9000   123.0743     6.9940     6.9251
  287.0000   121.1152     6.9939     6.9251
  287.1000   119.3704     6.9938     6.9251
  287.2000   118.3758     6.9938     6.9251
  287.3000   116.9312     6.9936     6.9251
  287.4000   116.0135     6.9935     6.9251
  287.5000   115.2800     6.9934     6.9251
  287.6000   114.7522     6.9933     6.9251
  287.7000   114.7540     6.9932     6.9251
  287.8000   114.7562     6.9932     6.9251
  287.9000   114.7576     6.9931     6.9251
  288.0000   114.7595     6.9929     6.9251
  288.1000   114.8449     6.9928     6.9251
  288.2000   115.1182     6.9927     6.9251
  288.3000   115.6729     6.9927     6.9251
  288.4000   116.3161     7.0033     6.9251
  288.5000   117.6783     7.0415     6.9251
  288.6000   119.4944     7.0414     6.9251
  288.7000   121.4159     7.0413     6.9251
  288.8000   123.2461     7.0413     6.9251
  288.9000   124.3918     7.0277     6.9251
  289.0000   125.2766     6.9920     6.9251
  289.1000   126.1281     6.9918     6.9251
  289.2000   127.0538     6.9917     6.9251
  289.3000   127.7937     6.9916     6.9251
  289.4000   128.0395     6.9916     6.9251
  289.5000   128.0999     6.9915     6.9251
  289.6000   128.2307     6.9914     6.9251
  289.7000   128.4776     6.9539     6.9251
  289.8000   128.7104     6.9424     6.9251
  289.9000   128.7126     6.9424     6.9251
  290.0000   128.5124     6.9326     6.9251
  290.1000   128.4133     6.8938     6.9251
  290.2000   128.3284     6.8937     6.9251
  290.3000   128.0852     6.8936     6.9251
  290.4000   127.8138     6.8935     6.9251
  290.5000   127.5986     6.9058     6.9251
  290.6000   127.3553     6.9417     6.9251
  290.7000   127.1120     6.9416     6.9251
  290.8000   126.9128     6.9415     6.9151
  290.9000   126.9151     6.9413     6.8769
  291.0000   127.1488     6.9565     6.8769
  291.1000   127.3956     6.9899     6.8769
  291.2000   127.6425     6.9898     6.8769
  291.3000   127.7704     6.9897     6.8769
  291.4000   127.5273     6.9896     6.8769
  291.5000   127.2839     7.0077     6.8769
  291.6000   127.0406     7.0296     6.8769
  291.7000   126.7974     6.9893     6.8769
  291.8000   126.6287     6.9892     6.8769
  291.9000   126.5962     6.9891     6.8769
  292.0000   126.0275     6.9891     6.8769
  292.1000   125.8242     6.9890     6.8769
  292.2000   125.5811     6.9888     6.8769
  292.3000   125.2481     6.9887     6.8769
  292.4000   124.8240     6.9886     6.8769
  292.5000   124.8262     6.9886     6.8769
  292.6000   124.6079     6.9885     6.9143
  292.7000   124.6895     6.9884     6.9251
  292.8000   124.8315     6.9882     6.9251
  292.9000   124.9283     6.9881     6.9251
  293.0000   125.4403     6.9880     6.9251
  293.1000   125.4421     6.9880     6.9251
  293.2000   125.6214     6.9879     6.9251
  293.3000   125.7483     6.9877     6.9251
  293.4000   125.7501     6.9876     6.9251
  293.5000   125.7519     6.9875     6.9251
  293.6000   125.7537     6.9875     6.9251
  293.7000   125.7555     6.9874     6.9251
  293.8000   125.7573     6.9858     6.9251
  293.9000   125.6815     6.9385     6.9251
  294.0000   125.4181     6.9384     6.9251
  294.1000   124.8553     6.9383     6.9251
  294.2000   124.6491     6.9248     6.9251
  294.3000   123.9555     6.8855     6.9251
  294.4000   123.0697     6.8416     6.9251
  294.5000   122.3358     6.8415     6.9251
  294.6000   121.5360     6.8665     6.9251
  294.7000   121.0918     6.9054     6.9251
  294.8000   120.9344     6.9376     6.9533
  294.9000   120.9362     6.9375     7.0119
  295.0000   120.9380     6.9748     7.0815
  295.1000   120.9398     7.0144     7.1216
  295.2000   121.1797     7.0735     7.1619
  295.3000   121.7878     7.1439     7.2342
  295.4000   122.6475     7.1839     7.2940
  295.5000   123.6295     7.1838     7.3226
  295.6000   124.6039     7.2157     7.3226
  295.7000   125.3407     7.2566     7.3226
  295.8000   125.8824     7.2847     7.3226
  295.9000   126.3744     7.2846     7.3474
  296.0000   126.7857     7.2844     7.3739
  296.1000   127.0094     7.3196     7.3792
  296.2000   127.0114     7.3353     7.4255
  296.3000   127.2239     7.3353     7.4255
  296.4000   127.3174     7.3352     7.4255
  296.5000   127.3192     7.3351     7.4080
  296.6000   127.2828     7.3350     7.3739
  296.7000   127.0204     7.3348     7.3739
  296.8000   126.7962     7.3158     7.3739
  296.9000   126.3845     7.2836     7.3443
  297.0000   126.0071     7.2834     7.3226
  297.1000   125.8173     7.2425     7.3226
  297.2000   125.8191     7.2324     7.3226
  297.3000   125.8208     7.2108     7.3226
  297.4000   125.8227     7.1819     7.3226
  297.5000   125.8245     7.1818     7.3006
  297.6000   125.8263     7.1816     7.2717
  297.7000   125.8392     7.1815     7.2665
  297.8000   126.1329     7.1815     7.1709
  297.9000   126.5317     7.1814     7.1375
  298.0000   126.8825     7.1759     7.1211
  298.1000   127.0457     7.1311     7.1068
  298.2000   127.0475     7.0948     7.0716
  298.3000   127.0495     7.0545     7.0716
  298.4000   127.0511     7.0145     7.0013
  298.5000   126.7403     6.9827     6.9481
  298.6000   126.2520     6.9826     6.9089
  298.7000   125.8049     6.9825     6.8769
  298.8000   125.5457     6.9824     6.8769
  298.9000   125.5474     6.9823     6.8404
  299.0000   125.3777     6.9715     6.8291
  299.1000   125.2484     6.9334     6.8109
  299.2000   125.3066     6.9333     6.7816
  299.3000   125.5546     6.9332     6.7816
  299.4000   125.8004     6.9107     6.7816
  299.5000   125.8608     6.8715     6.7816
  299.6000   125.9918     6.8367     6.7816
  299.7000   126.2385     6.8365     6.7816
  299.8000   126.4854     6.8364     6.7816
  299.9000   126.7761     6.8115     6.7816
  300.0000   126.7475     6.7757     6.7521
  300.1000   126.7127     6.7442     6.7163
  300.2000   126.6779     6.7127     6.6805
  300.3000   126.6431     6.6812     6.6448
  300.4000   126.6084     6.6473     6.6090
  300.5000   126.5736     6.6472     6.5732
  300.6000   126.5388     6.6471     6.5486
  300.7000   126.5040     6.6289     6.5414
  300.8000   126.4944     6.6006     6.4576
  300.9000   126.6100     6.6005     6.4575
  301.0000   126.8018     6.6004     6.4332
  301.1000   126.8082     6.6003     6.4125
  301.2000   127.0584     6.6003     6.4205
  301.3000   127.1117     6.6002     6.4573
  301.4000   127.1141     6.6001     6.4943
  301.5000   127.2042     6.6000     6.5315
  301.6000   127.4875     6.5998     6.5477
  301.7000   128.0293     6.5997     6.5476
  301.8000   128.2579     6.5997     6.5427
  301.9000   128.3364     6.5996     6.5018
  302.0000   128.5728     6.5995     6.5017
  302.1000   129.0087     6.5994     6.5016
