~VERSION INFORMATION
 VERS.                2.0:   CWLS LOG ASCII STANDARD - VERSION 2.0
 WRAP.                 NO:   ONE LINE PER DEPTH STEP
~WELL INFORMATION
#MNEM.UNIT      DATA TYPE    INFORMATION
#----------   ------------   ------------------------------
 STRT.F           22.0000:   START DEPTH
 STOP.F          533.0000:   STOP DEPTH
 STEP.F            0.5000:   STEP LENGTH
 NULL.          -999.2500:   NO VALUE
 COMP. FENIX & SCISSON INC:   COMPANY
 WELL.        NPR 3 #32-3:   WELL
 FLD .        TEAPOT DOME:   FIELD
 LOC .       S3 T38N R78W:   LOCATION
 CNTY.            NATRONA:   COUNTY
 STAT.            WYOMING:   STATE
 CTRY. UNITED STATES OF AMERICA:   COUNTRY
 SRVC.            Unknown:   SERVICE COMPANY
 DATE.        19-JUL-1978:   LOGDATE
 API .       490251067200:   API NUMBER
~CURVE INFORMATION
#MNEM.UNIT       API CODE    CURVE DESCRIPTION
#----------   ------------   ------------------------------
 DEPT.F                  :   
 SPR .MV     05 010 01 00:   SPONTANEOUS POTENTIAL FROM RES.
 SN  .OHMM   05 040 16 00:   SHORT NORMAL 16"
 IL  .OHMM   05 120 00 00:   INDUCTION LOG
 RHOB.G/C3   45 350 01 00:   BULK DENSITY
 DPHI.DEC    45 890 12 00:   DENSITY POROSITY SANDSTONE
 CORR.G/C3   45 356 01 00:   DENSITY CORRECTION
 CALD.IN     45 280 60 00:   CALIPER
 GRD .GAPI   45 310 01 00:   GAMMA RAY FROM DENSITY LOG
~PARAMETER INFORMATION
#MNEM.UNIT          VALUE    DESCRIPTION
#----------   ------------   ------------------------------
 PD  .                 GL:   PERMANENT DATUM
 EPD .F              5179:   ELEVATION PERMANENT DATUM
 LMF .                 KB:   LOG MEASURED FROM
 DAPD.F                 4:   FEET ABOVE PERMANENT DATUM
 DMF .                 KB:   DRILLING MEASURED FROM
 EKB .F              5183:   KELLING BUSHING
 EGL .F              5179:   GROUND LEVEL
 DATE.            7-19-78:   RUN DATE
 RUN .                  1:   RUN NUMBER
 DD  .F               520:   DEPTH DRILLER
 DL  .F               533:   DEPTH LOGGER
 BLI .F               527:   BOTTOM LOG INTERVAL
 TLI .F                50:   TOP LOG INTERVAL
 CS  .IN            8.625:   CASING SIZE
 CBD .F                40:   CASING BOTTOM DRILLER
 BS  .IN            7.875:   BIT SIZE
 BSD .F               520:   BIT SIZE AT DEPTH
 DFT .                KCL:   DRILLING FLUID TYPE
 DFD .                8.7:   DRILLING FLUID DENSITY
 DFV .                 33:   DRILLING FLUID VISCOSITY
 DFPH.                  9:   DRILLING FLUID PH
 DFL .               12.4:   DRILLING FLUID LOSS
 MSS .          FLOW LINE:   MUD SAMPLE SOURCE
 RMS .OHMM            .28:   RESISTIVITY MUD SAMPLE
 MST .F                70:   MUD SAMPLE TEMPERATURE
 RMF .OHMM            .24:   RESISTIVITY MUD FILTRATE SAMPLE
 MFST.F                76:   MUD FILTRATE SAMPLE TEMPERATURE
 RMC .OHMM             .5:   RESISTIVITY MUD CAKE
 MCST.F                78:   MUD CAKE SAMPLE TEMPERATURE
 MFSS.               MEAS:   MUD FILTRATE SAMPLE SOURCE
 MCSS.               MEAS:   MUD CAKE SAMPLE SOURCE
 TCS .HRS               2:   TIME CURCULATED STOPPED
 LUN .               2958:   LOGGING UNIT NUMBER
 LUL .               CASP:   LOGGING UNIT LOCATION
 ENGI.             MILLER:   RECORDING ENGINEER
 WITN.           MCGINLEY:   WITNESSED BY
 CLNT.            A2DTECH:   CLIENT CODE
 ORIG.           5" PRINT:   ORIGIN OF DATA
 UWI .       490251067200:   UNIQUE WELL ID
 DICO. A2D Technologies, Inc.:   DIGITIZING COMPANY
~OTHER INFORMATION
~A   DEPT      SPR         SN         IL       RHOB       DPHI       CORR       CALD         GRD  
# ...
  265.0000   -29.8020     2.8212     2.9927     2.2153     0.2175     0.0769     9.4014    64.3571
  265.5000   -29.8020     2.9075     3.1877     2.3382     0.2251     0.1879     8.9613    75.0834
  266.0000   -29.8020     3.1165     3.4000     2.2842     0.2208     0.0742     8.5328    76.5060
  266.5000   -29.8020     3.3405     3.6369     2.4679     0.2177    -0.0182     9.3918    80.7948
  267.0000   -29.8021     3.6139     4.1959     2.3236     0.1963    -0.0088     8.5859    86.3702
  267.5000   -29.8025     3.9563     4.7878     2.3803     0.1721    -0.0041     8.3830    84.5142
  268.0000   -29.7989     4.3322     5.2960     2.4632     0.1476     0.0013     8.3788    83.3388
  268.5000   -29.7272     4.7432     5.8303     2.4411     0.1389     0.0070     8.3780    84.7850
  269.0000   -29.6548     5.1947     6.3029     2.4356     0.1380     0.0089     8.3765    86.4165
  269.5000   -29.5679     5.4542     6.5382     2.4463     0.1368     0.0074     8.3747    87.6382
  270.0000   -29.4202     5.6204     6.5271     2.4570     0.1352     0.0059     8.3728    85.9102
  270.5000   -29.2775     5.8039     6.5184     2.4573     0.1390     0.0044     8.3710    84.3762
  271.0000   -29.1349     5.8039     6.5098     2.4525     0.1428     0.0050     8.3691    86.0052
  271.5000   -28.9611     5.8039     6.5012     2.4478     0.1436     0.0138     8.3673    88.4238
  272.0000   -28.6072     5.8040     6.4926     2.4451     0.1424     0.0223     8.3654    89.7378
  272.5000   -28.2530     5.8039     6.4841     2.4465     0.1455     0.0309     8.3634    86.3201
  273.0000   -28.0163     5.8046     6.4349     2.4501     0.1520     0.0393     8.3681    83.7033
  273.5000   -28.0203     5.6767     6.1657     2.4398     0.1636     0.0486     8.3748    83.8529
  274.0000   -28.0195     5.5085     5.9079     2.4230     0.1723     0.0754     8.3815    86.9330
  274.5000   -28.0187     5.3348     5.7465     2.4060     0.1780     0.1015     8.3880    90.2049
  275.0000   -28.0198     5.1665     5.6006     2.3884     0.1805     0.1127     8.3937    91.5524
  275.5000   -28.1006     5.0036     5.4585     2.3851     0.1488     0.0371     8.3763    89.0285
  276.0000   -28.5437     4.8458     5.3199     2.4320     0.1987     0.0762     9.2598    86.9383
  276.5000   -28.5850     4.7602     5.2289     2.3898     0.1935     0.1236     8.2251    86.7306
  277.0000   -28.5499     4.7005     5.1520     2.3514     0.1836     0.1710     9.1509    86.7046
  277.5000   -28.5132     4.7209     5.1245     2.3441     0.1737     0.0107     8.4136    84.1650
  278.0000   -28.4771     4.7841     5.1050     2.5010     0.1638     0.0316     9.3338    84.4378
  278.5000   -28.4410     4.9510     5.2418     2.4427     0.1539     0.0400     8.3195    86.3064
  279.0000   -28.4200     5.1219     5.3444     2.4188     0.1440     0.0466     8.3497    88.7458
  279.5000   -28.5152     5.3121     5.6181     2.4739     0.1341     0.0250     8.3578    90.8858
  280.0000   -28.6077     5.5446     5.9112     2.4972     0.1244     0.0019     8.3689    90.3235
  280.5000   -28.3651     5.7859     6.1915     2.4838     0.1338    -0.0038     8.3813    87.2863
  281.0000   -28.0861     6.0386     6.5182     2.4698     0.1329     0.0000     8.3937    86.7089
  281.5000   -27.8109     6.3020     6.8622     2.4619     0.1328     0.0042     8.4060    85.3141
  282.0000   -27.6207     6.5984     7.1237     2.4658     0.1248     0.0040     8.4184    83.9319
  282.5000   -27.6242     6.6948     7.1934     2.4713     0.1296     0.0019     8.4307    83.1245
  283.0000   -27.6236     6.7823     7.2644     2.4719     0.1334    -0.0004     8.4431    83.4528
  283.5000   -27.6238     6.7228     7.3351     2.4643     0.1372     0.0049     8.4554    83.5266
  284.0000   -27.6238     6.6454     7.3660     2.4567     0.1396     0.0112     8.4678    83.4346
  284.5000   -27.6238     6.5690     7.2570     2.4592     0.1299     0.0104     8.4801    83.9912
  285.0000   -27.6238     6.4934     7.1789     2.4643     0.1352     0.0092     8.4925    87.0613
  285.5000   -27.6237     6.4187     7.1017     2.4589     0.1406     0.0080     8.5048    88.9795
  286.0000   -27.6237     6.3360     7.0254     2.4520     0.1452     0.0127     8.5173    87.9087
  286.5000   -27.6243     6.2230     6.9495     2.4453     0.1433     0.0221     8.5218    86.2574
  287.0000   -27.6590     6.1120     6.9080     2.4452     0.1412     0.0310     8.5218    84.5661
  287.5000   -27.7411     6.0030     6.9496     2.4531     0.1352     0.0249     8.5218    83.9816
  288.0000   -27.8225     5.9104     6.9789     2.4599     0.1415     0.0179     8.5218    84.4733
  288.5000   -27.9042     5.8268     7.0084     2.4565     0.1521     0.0122     8.5218    85.0478
  289.0000   -27.9859     5.7509     7.0356     2.4379     0.1626     0.0280     8.5218    85.5651
  289.5000   -28.0675     5.5506     6.4521     2.4197     0.1662     0.0444     8.5218    85.3302
  290.0000   -28.1491     5.3713     5.9547     2.4015     0.1698     0.0608     8.5219    85.1735
  290.5000   -28.2308     5.1977     5.5234     2.4040     0.1772     0.0773     8.5270    85.5919
  291.0000   -28.3126     5.0298     5.3391     2.3981     0.1811     0.0840     8.5443    86.0199
  291.5000   -28.3981     4.8673     5.1610     2.3882     0.1699     0.0406     8.5627    84.6227
  292.0000   -28.3668     4.7008     5.0123     2.4598     0.1621    -0.0023     8.5781    83.2223
  292.5000   -28.3007     4.8043     5.1381     2.4368     0.1488    -0.0034     9.5177    82.9980
  293.0000   -28.2337     4.8803     5.2513     2.4205     0.1342    -0.0015     8.5038    85.7015
  293.5000   -28.1671     4.9055     5.3663     2.4599     0.1351     0.0002     8.5204    88.0056
  294.0000   -28.1013     5.0275     5.6020     2.4593     0.1340     0.0013     8.5204    87.7796
  294.5000   -28.0415     5.3214     5.8840     2.4542     0.1411    -0.0002     8.5200    89.2570
  295.0000   -27.6501     5.6324     6.1824     2.4492     0.1428    -0.0016     8.5193    91.1585
  295.5000   -27.1834     5.9615     6.6652     2.4490     0.1418    -0.0031     8.5187    92.1176
  296.0000   -26.7122     6.3029     7.1207     2.4505     0.1415    -0.0045     8.5181    92.0065
  296.5000   -26.5467     6.4243     7.3654     2.4523     0.1403    -0.0060     8.5175    91.9241
  297.0000   -26.4412     6.4324     7.3576     2.4542     0.1356    -0.0074     8.5168    91.9255
  297.5000   -26.3375     6.4401     7.3481     2.4560     0.1383    -0.0080     8.5162    91.9267
  298.0000   -26.2309     6.4478     7.3387     2.4562     0.1410    -0.0054     8.5156    91.9286
  298.5000   -26.0398     6.4557     7.3293     2.4526     0.1424    -0.0028     8.5149    91.0791
  299.0000   -25.8509     6.4636     7.3198     2.4493     0.1399    -0.0005     8.5143    89.2004
  299.5000   -25.6654     6.4716     7.3104     2.4474     0.1362    -0.0003     8.5137    87.3594
  300.0000   -25.6096     6.4781     7.3007     2.4557     0.1326    -0.0001     8.5131    85.4516
  300.5000   -25.5722     6.4641     7.2982     2.4638     0.1289     0.0001     8.5124    85.2436
  301.0000   -25.5348     6.4513     7.2983     2.4722     0.1273     0.0003     8.5118    87.9462
  301.5000   -25.4973     6.4384     7.2983     2.4693     0.1322     0.0005     8.5112    89.7756
  302.0000   -25.4597     6.4254     7.2983     2.4618     0.1349     0.0007     8.5105    87.1266
  302.5000   -25.4221     6.4125     7.2982     2.4623     0.1276     0.0009     8.5099    83.9164
  303.0000   -25.3845     6.3997     7.2983     2.4664     0.1355     0.0011     8.5093    85.2931
  303.5000   -25.3468     6.3869     7.2979     2.4676     0.1386     0.0013     8.5086    87.5723
  304.0000   -25.3092     6.3740     7.3148     2.4519     0.1348     0.0021     8.5080    90.5880
  304.5000   -25.2722     6.3613     7.3597     2.4572     0.1317     0.0066     8.5074    91.8896
  305.0000   -25.2595     6.3128     7.4051     2.4604     0.1428     0.0111     8.5068    91.9876
