~VERSION INFORMATION
 VERS.                2.0:   CWLS LOG ASCII STANDARD - VERSION 2.0
 WRAP.                 NO:   ONE LINE PER DEPTH STEP
~WELL INFORMATION
#MNEM.UNIT      DATA TYPE    INFORMATION
#----------   ------------   ------------------------------
 STRT.F           14.5000:   START DEPTH
 STOP.F          750.0000:   STOP DEPTH
 STEP.F            0.5000:   STEP LENGTH
 NULL.          -999.2500:   NO VALUE
 COMP. FENIX & SCISSON INC:   COMPANY
 WELL.       NPR 3 #24-14:   WELL
 FLD .             TEAPOT:   FIELD
 LOC .      S14 T38N R78W:   LOCATION
 CNTY.            NATRONA:   COUNTY
 STAT.            WYOMING:   STATE
 CTRY. UNITED STATES OF AMERICA:   COUNTRY
 SRVC.           BIRDWELL:   SERVICE COMPANY
 DATE.        27-DEC-1978:   LOGDATE
 API .       490251075900:   API NUMBER
~CURVE INFORMATION
#MNEM.UNIT       API CODE    CURVE DESCRIPTION
#----------   ------------   ------------------------------
 DEPT.F                  :   
 SPR .MV     05 010 01 00:   SPONTANEOUS POTENTIAL FROM RES.
 SN  .OHMM   05 040 16 00:   SHORT NORMAL 16"
 IL  .OHMM   05 120 00 00:   INDUCTION LOG
 GRD .GAPI   45 310 01 00:   GAMMA RAY FROM DENSITY LOG
 CALD.IN     45 280 60 00:   CALIPER
 RHOB.G/C3   45 350 01 00:   BULK DENSITY
 DPHI.DEC    45 890 12 00:   DENSITY POROSITY SANDSTONE
 CORR.G/C3   45 356 01 00:   DENSITY CORRECTION
~PARAMETER INFORMATION
#MNEM.UNIT          VALUE    DESCRIPTION
#----------   ------------   ------------------------------
 PD  .                 GL:   PERMANENT DATUM
 EPD .F              5209:   ELEVATION PERMANENT DATUM
 LMF .                 KB:   LOG MEASURED FROM
 DAPD.F                 4:   FEET ABOVE PERMANENT DATUM
 DMF .                 KB:   DRILLING MEASURED FROM
 EKB .F              5212:   KELLING BUSHING
 EGL .F              5209:   GROUND LEVEL
 DATE.           12-27-78:   RUN DATE
 RUN .                  1:   RUN NUMBER
 DD  .F               750:   DEPTH DRILLER
 DL  .F               742:   DEPTH LOGGER
 BLI .F               735:   BOTTOM LOG INTERVAL
 TLI .F                35:   TOP LOG INTERVAL
 CS  .IN            8.625:   CASING SIZE
 CBD .F                40:   CASING BOTTOM DRILLER
 CBL .F                32:   CASING BOTTOM LOGGER
 BS  .IN            7.875:   BIT SIZE
 BSD .F               750:   BIT SIZE AT DEPTH
 DFT .                KCL:   DRILLING FLUID TYPE
 DFD .                8.6:   DRILLING FLUID DENSITY
 DFV .                 35:   DRILLING FLUID VISCOSITY
 DFPH.                9.4:   DRILLING FLUID PH
 DFL .               12.4:   DRILLING FLUID LOSS
 MSS .           FLOWLINE:   MUD SAMPLE SOURCE
 RMS .OHMM            .38:   RESISTIVITY MUD SAMPLE
 MST .F                58:   MUD SAMPLE TEMPERATURE
 RMF .OHMM            .38:   RESISTIVITY MUD FILTRATE SAMPLE
 MFST.F                58:   MUD FILTRATE SAMPLE TEMPERATURE
 RMC .OHMM            .36:   RESISTIVITY MUD CAKE
 MCST.F                60:   MUD CAKE SAMPLE TEMPERATURE
 MFSS.           MEASURED:   MUD FILTRATE SAMPLE SOURCE
 MCSS.           MEASURED:   MUD CAKE SAMPLE SOURCE
 RMB .OHMM            .37:   RESISTIVITY MUD AT BHT
 BHT .F                59:   BOTTOM HOLE TEMPERATURE
 TCS .HRS               2:   TIME CURCULATED STOPPED
 MRT .F                59:   MAXIMUM RECORDED TEMPERATURE
 LUN .               2958:   LOGGING UNIT NUMBER
 LUL .             CASPER:   LOGGING UNIT LOCATION
 ENGI.         B. ROLLINS:   RECORDING ENGINEER
 WITN.           DINSMORE:   WITNESSED BY
 CLNT.            A2DTECH:   CLIENT CODE
 ORIG.           5" PRINT:   ORIGIN OF DATA
 UWI .       490251075900:   UNIQUE WELL ID
 DICO. A2D Technologies, Inc.:   DIGITIZING COMPANY
~OTHER INFORMATION
~A   DEPT      SPR         SN         IL         GRD      CALD       RHOB       DPHI       CORR   
# ...
  500.5000   -54.0790     8.4220     6.4490   115.2230     7.7970     2.5490     0.0880     0.1120
  501.0000   -53.6090     8.3920     6.5550   114.3680     7.6520     2.5440     0.0900     0.1030
  501.5000   -53.1400     8.3650     6.7690   116.1890     7.5890     2.5330     0.0970     0.0980
  502.0000   -52.5430     8.3370     6.8780   119.5110     7.6320     2.5230     0.1030     0.0970
  502.5000   -51.8100     8.3100     6.8780   121.7300     7.7080     2.5150     0.0970     0.0980
  503.0000   -51.0760     8.2830     6.8780   119.7050     7.7880     2.5210     0.0940     0.0990
  503.5000   -50.3160     8.2680     6.8780   116.8220     7.9100     2.5260     0.0940     0.0930
  504.0000   -50.1310     8.2680     6.8780   114.2130     7.9790     2.5250     0.0990     0.0790
  504.5000   -50.1530     8.2680     6.8780   114.3320     8.0040     2.5200     0.1020     0.0600
  505.0000   -50.1810     8.2680     6.7380   116.1660     8.0280     2.5140     0.1030     0.0550
  505.5000   -50.2110     8.2680     6.4490   116.4180     8.0530     2.5100     0.0990     0.0550
  506.0000   -50.2410     8.2680     6.3460   114.0580     8.0770     2.5110     0.0980     0.0540
  506.5000   -50.2710     8.2680     6.3320   111.3810     8.1010     2.5160     0.1000     0.0530
  507.0000   -50.3030     8.2680     6.3320   111.4790     8.1200     2.5200     0.1010     0.0530
  507.5000   -50.3940     8.2680     6.3320   113.4860     8.1380     2.5190     0.1060     0.0520
  508.0000   -50.4850     8.2690     6.3320   119.8550     8.1270     2.5050     0.1140     0.0530
  508.5000   -50.5760     8.2210     6.3320   122.1270     8.0980     2.4880     0.1180     0.0630
  509.0000   -50.6660     8.1480     6.3320   121.5490     8.0690     2.4850     0.0990     0.0790
  509.5000   -50.7560     8.0740     6.3320   119.6300     8.0400     2.5090     0.0950     0.0810
  510.0000   -50.8460     8.0000     6.1860   118.8990     8.0210     2.5210     0.0990     0.0730
  510.5000   -50.8720     7.9270     6.0400   119.3280     8.0110     2.5200     0.1020     0.0660
  511.0000   -50.8050     7.8530     6.0050   119.7470     7.9740     2.5150     0.1110     0.0590
  511.5000   -50.7390     7.6930     5.9710   120.1640     7.8380     2.5050     0.1220     0.0520
  512.0000   -50.6730     7.4790     5.9370   120.5880     7.6630     2.4860     0.1360     0.0520
  512.5000   -50.6080     7.2650     5.8050   120.4690     7.5890     2.4600     0.1490     0.0530
  513.0000   -50.5420     7.0980     5.6730   119.4280     7.6520     2.4330     0.1530     0.0540
  513.5000   -50.5490     7.0010     5.5240   116.6480     7.7270     2.4220     0.1320     0.0510
  514.0000   -50.6740     6.9320     5.3040   115.0930     7.8070     2.4530     0.1120     0.0480
  514.5000   -50.7980     6.9050     5.1180   119.7810     7.9390     2.4860     0.1080     0.0510
  515.0000   -50.9190     6.8780     5.0870   120.7110     8.0670     2.4960     0.1070     0.0540
  515.5000   -51.0070     6.6080     5.0560   120.7920     8.1360     2.4990     0.1080     0.0570
  516.0000   -51.1080     6.3320     5.0310   120.5810     8.1680     2.4990     0.1080     0.0670
  516.5000   -51.4960     6.0470     5.0310   120.0200     8.1940     2.4990     0.1030     0.0810
  517.0000   -51.9030     5.9920     5.0310   119.4290     8.2210     2.5050     0.0930     0.1030
  517.5000   -52.3090     6.0180     5.0180   117.8600     8.2470     2.5250     0.0920     0.1290
  518.0000   -52.7180     6.2410     4.9390   115.2390     8.2680     2.5290     0.0930     0.1410
  518.5000   -52.9080     6.7830     4.9620   114.4790     8.2790     2.5250     0.0940     0.1540
  519.0000   -52.9270     7.1810     4.9860   116.3340     8.2700     2.5230     0.0920     0.1670
  519.5000   -52.9460     7.3100     5.0100   117.2850     8.2460     2.5250     0.0970     0.1870
  520.0000   -52.9650     7.4720     5.3070   116.8610     8.2220     2.5240     0.1040     0.1950
  520.5000   -52.9840     7.4210     6.2160   115.2990     8.2040     2.5150     0.1130     0.2010
  521.0000   -53.0020     7.3530     6.1540   114.7560     8.2040     2.4960     0.1040     0.2080
  521.5000   -53.0210     7.2840     5.9500   115.0900     8.2040     2.4910     0.0920     0.2210
  522.0000   -53.0390     7.2150     5.6250   117.6270     8.2010     2.5160     0.0850     0.2240
  522.5000   -53.0580     7.1460     5.2990   119.6800     8.1800     2.5370     0.0990     0.2230
  523.0000   -53.0760     7.0710     5.0590   119.0110     8.0390     2.5320     0.1010     0.2260
  523.5000   -53.0940     6.7630     5.0020   118.7070     7.8930     2.5170     0.0970     0.2300
  524.0000   -53.1820     6.4280     4.9450   118.3930     7.8070     2.5140     0.0750     0.2650
  524.5000   -53.2950     6.0920     4.8940   114.7300     7.8230     2.5360     0.0680     0.2890
  525.0000   -53.4090     5.9920     4.9180   113.2090     7.8870     2.5610     0.0560     0.2990
  525.5000   -53.5230     5.9920     4.9390   113.9380     7.9520     2.5740     0.0430     0.3170
  526.0000   -53.6370     5.9920     4.9610   114.4260     8.1020     2.5910     0.0330     0.3270
  526.5000   -53.7510     6.3660     4.9820   112.5360     8.1790     2.6180     0.0390     0.3050
  527.0000   -53.8630     6.8160     5.4890   110.8220     8.1690     2.6250     0.0540     0.2720
  527.5000   -54.1570     7.0380     5.8470   109.9240     8.1590     2.6020     0.0650     0.2290
  528.0000   -54.5290     7.2600     6.1050   109.4100     8.1490     2.5760     0.0620     0.2050
  528.5000   -54.9020     7.4820     6.3640   108.9360     8.1520     2.5640     0.0600     0.1920
  529.0000   -55.2760     7.7040     6.4690   106.5620     8.1650     2.5720     0.0610     0.1670
  529.5000   -55.6470     7.9260     6.4990   104.0620     8.1780     2.5810     0.0680     0.1340
  530.0000   -55.6980     8.1480     6.6190   104.0160     8.1630     2.5760     0.0750     0.1010
  530.5000   -55.7000     8.3570     6.7850   111.1400     8.1210     2.5600     0.0850     0.0740
  531.0000   -55.7000     8.5520     6.9420   112.5920     8.0780     2.5430     0.0880     0.0590
  531.5000   -55.7000     8.7380     6.9560   112.5520     8.0580     2.5330     0.0900     0.0490
  532.0000   -55.7000     8.7490     6.9700   110.9200     8.0460     2.5320     0.0940     0.0390
  532.5000   -55.7000     8.7610     6.9840   107.6490     8.0340     2.5250     0.0980     0.0300
  533.0000   -55.7000     8.7720     6.9970   104.6720     8.0220     2.5180     0.1000     0.0200
  533.5000   -55.7000     8.7830     7.0110   104.6990     8.0110     2.5140     0.1020     0.0120
  534.0000   -55.7000     8.7940     7.0250   103.2230     7.9440     2.5110     0.1030     0.0100
  534.5000   -55.7000     8.8050     7.0380   102.9800     7.8330     2.5110     0.1030     0.0120
  535.0000   -55.7000     8.8170     7.0520   104.4210     7.7190     2.5110     0.1020     0.0140
  535.5000   -55.7000     8.8280     7.0650   106.8760     7.6910     2.5100     0.1010     0.0160
  536.0000   -55.7000     8.8390     7.0790   107.6980     7.7830     2.5120     0.0980     0.0190
  536.5000   -55.7000     8.8500     7.0930   107.5510     7.8880     2.5220     0.0940     0.0240
  537.0000   -55.7000     8.8620     7.1060   107.3280     7.9950     2.5230     0.0950     0.0250
  537.5000   -55.7140     8.8730     7.1200   106.8930     8.1020     2.5220     0.0970     0.0240
  538.0000   -55.7350     8.8840     7.1340   105.3800     8.1500     2.5210     0.1020     0.0230
  538.5000   -55.7570     8.8960     7.2600   103.4860     8.1590     2.5170     0.1160     0.0220
  539.0000   -55.7790     8.9180     7.4160   103.2970     8.1690     2.4970     0.1300     0.0270
  539.5000   -55.8010     8.9460     7.5720   101.5610     8.1780     2.4760     0.1440     0.0330
  540.0000   -55.8230     8.9820     7.7270   101.4390     8.1900     2.4480     0.1600     0.0410
  540.5000   -55.8450     8.9410     7.8240   102.9630     8.2100     2.4160     0.1770     0.0620
