~VERSION INFORMATION
 VERS.                2.0:   CWLS LOG ASCII STANDARD - VERSION 2.0
 WRAP.                 NO:   ONE LINE PER DEPTH STEP
~WELL INFORMATION
#MNEM.UNIT      DATA TYPE    INFORMATION
#----------   ------------   ------------------------------
 STRT.F           20.0000:   START DEPTH
 STOP.F          632.0000:   STOP DEPTH
 STEP.F            0.5000:   STEP LENGTH
 NULL.          -999.2500:   NO VALUE
 COMP. FENIX & SCISSON INC:   COMPANY
 WELL.    58 SX 34 #34-34:   WELL
 FLD .             TEAPOT:   FIELD
 LOC .      S34 T39N R78W:   LOCATION
 CNTY.            NATRONA:   COUNTY
 STAT.            WYOMING:   STATE
 CTRY. UNITED STATES OF AMERICA:   COUNTRY
 SRVC.            Unknown:   SERVICE COMPANY
 DATE.        30-JAN-1979:   LOGDATE
 API .       490251077300:   API NUMBER
~CURVE INFORMATION
#MNEM.UNIT       API CODE    CURVE DESCRIPTION
#----------   ------------   ------------------------------
 DEPT.F                  :   
 SPR .MV     05 010 01 00:   SPONTANEOUS POTENTIAL FROM RES.
 SN  .OHMM   05 040 16 00:   SHORT NORMAL 16"
 ILD .OHMM   05 120 46 00:   INDUCTION LOG DEEP
 CALD.IN     45 280 60 00:   CALIPER
 CORR.G/C3   45 356 01 00:   DENSITY CORRECTION
 RHOB.G/C3   45 350 01 00:   BULK DENSITY
 GRD .GAPI   45 310 01 00:   GAMMA RAY FROM DENSITY LOG
 DPHI.DEC    45 890 12 00:   DENSITY POROSITY SANDSTONE
~PARAMETER INFORMATION
#MNEM.UNIT          VALUE    DESCRIPTION
#----------   ------------   ------------------------------
 PD  .                 GL:   PERMANENT DATUM
 LMF .                 KB:   LOG MEASURED FROM
 DAPD.F                 4:   FEET ABOVE PERMANENT DATUM
 DMF .                 KB:   DRILLING MEASURED FROM
 DATE.            1-30-79:   RUN DATE
 RUN .                  1:   RUN NUMBER
 DD  .F               635:   DEPTH DRILLER
 DL  .F               632:   DEPTH LOGGER
 BLI .F               626:   BOTTOM LOG INTERVAL
 TLI .F                35:   TOP LOG INTERVAL
 CS  .IN            8.625:   CASING SIZE
 CBD .F                40:   CASING BOTTOM DRILLER
 CBL .F                35:   CASING BOTTOM LOGGER
 BS  .IN            7.875:   BIT SIZE
 BSD .F               635:   BIT SIZE AT DEPTH
 DFT .                KCL:   DRILLING FLUID TYPE
 DFD .                8.9:   DRILLING FLUID DENSITY
 DFV .                230:   DRILLING FLUID VISCOSITY
 DFPH.                  8:   DRILLING FLUID PH
 DFL .                 30:   DRILLING FLUID LOSS
 MSS .           FLOWLINE:   MUD SAMPLE SOURCE
 RMS .OHMM            .18:   RESISTIVITY MUD SAMPLE
 MST .F                62:   MUD SAMPLE TEMPERATURE
 RMF .OHMM            .14:   RESISTIVITY MUD FILTRATE SAMPLE
 MFST.F                59:   MUD FILTRATE SAMPLE TEMPERATURE
 RMC .OHMM            .24:   RESISTIVITY MUD CAKE
 MCST.F                60:   MUD CAKE SAMPLE TEMPERATURE
 MFSS.           MEASURED:   MUD FILTRATE SAMPLE SOURCE
 MCSS.           MEASURED:   MUD CAKE SAMPLE SOURCE
 RMB .OHMM            .17:   RESISTIVITY MUD AT BHT
 BHT .F                70:   BOTTOM HOLE TEMPERATURE
 TCS .HRS               4:   TIME CURCULATED STOPPED
 MRT .F                70:   MAXIMUM RECORDED TEMPERATURE
 LUN .               3006:   LOGGING UNIT NUMBER
 LUL .             CASPER:   LOGGING UNIT LOCATION
 ENGI.            ROLLINS:   RECORDING ENGINEER
 WITN.              AMEND:   WITNESSED BY
 CLNT.            A2DTECH:   CLIENT CODE
 ORIG.         2.5" PRINT:   ORIGIN OF DATA
 UWI .       490251077300:   UNIQUE WELL ID
 DICO. A2D Technologies, Inc.:   DIGITIZING COMPANY
~OTHER INFORMATION
~A   DEPT      SPR         SN        ILD       CALD       CORR       RHOB         GRD      DPHI   
# ...
  506.0000   -29.0836    11.4455    19.1745     7.9278     0.0558     2.3237    77.0259     0.2090
  506.5000   -29.2635    11.3978    19.0078     7.7583     0.0500     2.3333    76.7156     0.2050
  507.0000   -29.4403    11.3503    18.8426     7.5389     0.0431     2.3427    76.5054     0.2016
  507.5000   -29.9530    11.3030    18.5976     7.5640     0.0391     2.3487    75.6583     0.2016
  508.0000   -30.5634    11.2559    18.6668     7.5690     0.0379     2.3499    79.4105     0.2022
  508.5000   -31.1794    11.1206    19.0059     7.6617     0.0363     2.3479    79.9661     0.2030
  509.0000   -31.7896    10.9091    19.3512     7.7457     0.0378     2.3462    79.7969     0.2038
  509.5000   -32.3167    10.8127    19.5523     7.8236     0.0397     2.3446    79.2732     0.2048
  510.0000   -32.5397    10.7596    19.1651     7.9153     0.0416     2.3456    78.9494     0.2040
  510.5000   -32.7372    10.7067    18.7856     7.9265     0.0437     2.3469    78.9555     0.2018
  511.0000   -32.9308    10.6541    18.4136     7.8952     0.0430     2.3482    79.2608     0.2000
  511.5000   -33.1326    10.6018    18.0489     7.7792     0.0407     2.3495    79.6242     0.1992
  512.0000   -33.3136    10.5497    17.8873     7.7621     0.0387     2.3522    80.0253     0.1973
  512.5000   -33.5193    10.4979    17.8873     7.7441     0.0363     2.3572    79.2175     0.1942
  513.0000   -33.3795    10.4463    17.8873     7.7048     0.0362     2.3650    78.0997     0.1912
  513.5000   -33.1874    10.3950    17.8873     7.8054     0.0361     2.3687    81.5582     0.1896
  514.0000   -33.2588    10.3440    17.3737     7.9009     0.0362     2.3681    81.2947     0.1846
  514.5000   -33.5495    10.2932    16.6043     7.8985     0.0359     2.3743    80.9996     0.1775
  515.0000   -34.0479    10.2427    16.6229     7.8624     0.0383     2.3919    80.4783     0.1699
  515.5000   -34.5376    10.1921    16.6762     7.8270     0.0429     2.4091    80.1060     0.1655
  516.0000   -35.0470    10.1414    16.7296     7.8291     0.0437     2.4090    79.0502     0.1682
  516.5000   -35.5475    10.0910    16.7833     7.9197     0.0424     2.4022    81.6767     0.1755
  517.0000   -36.0490    10.0471    16.8371     7.8709     0.0415     2.3929    82.9412     0.1831
  517.5000   -36.5533     9.9506    16.9162     7.8230     0.0403     2.3833    81.4484     0.1855
  518.0000   -37.0529     9.8625    16.6635     7.8605     0.0429     2.3794    83.3189     0.1860
  518.5000   -37.5567     9.7753    16.2011     8.0147     0.0467     2.3750    85.8212     0.1864
  519.0000   -38.0644     9.6888    15.7515     8.1661     0.0470     2.3709    86.1873     0.1900
  519.5000   -38.4505     9.6030    15.3144     8.1487     0.0439     2.3679    86.5411     0.1912
  520.0000   -38.5623     9.5180    14.8895     8.0633     0.0410     2.3667    84.4442     0.1904
  520.5000   -38.6828     9.4338    14.4763     7.9809     0.0382     2.3698    85.6386     0.1826
  521.0000   -38.7978     9.3503    14.0746     7.8994     0.0361     2.3833    90.0624     0.1762
  521.5000   -38.9125     9.2675    13.6841     7.8082     0.0362     2.3969    91.6495     0.1697
  522.0000   -39.0287     9.1855    13.3043     7.7842     0.0361     2.4072    90.3740     0.1647
  522.5000   -39.1443     9.1351    12.9352     7.8748     0.0361     2.4146    90.8218     0.1647
  523.0000   -39.2598     9.1038    12.5762     7.9505     0.0361     2.4159    88.4293     0.1647
  523.5000   -39.3750     9.0726    12.3290     8.0368     0.0361     2.4158    85.3972     0.1647
  524.0000   -39.4929     9.0416    12.3290     7.9887     0.0361     2.4123    82.9033     0.1647
  524.5000   -39.6089     9.0106    12.3290     7.9335     0.0361     2.4083    86.8980     0.1655
  525.0000   -39.8223     8.9798    12.3290     7.8904     0.0361     2.4145    89.1873     0.1615
  525.5000   -40.0678     8.9491    12.3290     7.9884     0.0361     2.4261    88.3159     0.1546
  526.0000   -40.3133     8.9184    12.3290     8.0293     0.0361     2.4376    87.2771     0.1470
  526.5000   -40.5573     8.8879    12.3290     7.9768     0.0362     2.4449    86.1384     0.1462
  527.0000   -40.8021     8.8575    12.3290     7.9843     0.0360     2.4486    85.8811     0.1439
  527.5000   -41.0468     8.8272    12.3291     8.0127     0.0371     2.4528    85.9199     0.1418
  528.0000   -41.2913     8.7969    12.3291     8.0418     0.0391     2.4551    87.1759     0.1398
  528.5000   -41.5360     8.7668    12.3292     8.0721     0.0410     2.4548    88.3988     0.1398
  529.0000   -41.7805     8.7368    12.3289     8.0799     0.0428     2.4548    86.7070     0.1401
  529.5000   -42.0250     8.7069    12.3287     8.0648     0.0447     2.4548    87.1005     0.1405
  530.0000   -42.2695     8.6771    12.3171     8.0514     0.0466     2.4548    87.5199     0.1408
  530.5000   -42.5143     8.6474    12.3038     8.0392     0.0484     2.4548    85.1168     0.1412
  531.0000   -42.7590     8.6177    12.2902     8.0256     0.0503     2.4548    86.6791     0.1414
  531.5000   -43.0033     8.5881    12.2768     8.0107     0.0523     2.4547    88.3206     0.1401
  532.0000   -43.2494     8.5590    12.2635     8.0177     0.0539     2.4570    85.8302     0.1376
  532.5000   -43.4922     8.5302    12.2500     8.0633     0.0559     2.4638    86.7474     0.1350
  533.0000   -43.7364     8.4986    12.2367     8.1066     0.0497     2.4709    87.7531     0.1326
  533.5000   -43.9914     8.4912    12.2233     8.1494     0.0408     2.4708    86.3413     0.1325
  534.0000   -44.1305     8.4830    12.2100     8.1942     0.0387     2.4705    84.9835     0.1322
  534.5000   -44.1499     8.4747    12.1968     8.1842     0.0368     2.4747    89.2539     0.1319
  535.0000   -44.1803     8.4667    12.1836     8.1548     0.0352     2.4749    94.4908     0.1315
  535.5000   -44.2117     8.4587    12.1702     8.1279     0.0333     2.4749    94.1031     0.1313
  536.0000   -44.2400     8.4508    12.1569     8.1587     0.0323     2.4750    93.5197     0.1309
  536.5000   -44.2700     8.4428    12.1435     8.1889     0.0330     2.4750    95.0182     0.1304
  537.0000   -44.2997     8.4348    12.1302     8.2209     0.0337     2.4762    99.9642     0.1294
  537.5000   -44.3291     8.4269    12.1171     8.2446     0.0344     2.4800    99.0758     0.1285
  538.0000   -44.3588     8.4190    12.1020     8.2299     0.0351     2.4828    96.1190     0.1281
  538.5000   -44.3887     8.4111    11.9574     8.2184     0.0360     2.4814    93.4337     0.1280
  539.0000   -44.4184     8.4031    11.7868     8.2051     0.0339     2.4804    92.0115     0.1284
  539.5000   -44.4475     8.3952    11.6205     8.1922     0.0284     2.4793    90.6032     0.1283
  540.0000   -44.4785     8.3874    11.4417     8.1795     0.0282     2.4799    87.8241     0.1281
  540.5000   -44.5129     8.3794    11.4480     8.1665     0.0281     2.4823    87.7353     0.1278
  541.0000   -44.6317     8.3716    11.4429     8.1537     0.0281     2.4825    88.3778     0.1278
  541.5000   -44.7714     8.3638    11.4454     8.1408     0.0280     2.4815    89.5257     0.1280
  542.0000   -44.9121     8.3558    11.4448     8.1280     0.0252     2.4806    90.4826     0.1282
  542.5000   -45.0477     8.3483    11.4446     8.1151     0.0205     2.4798    92.3313     0.1283
  543.0000   -45.1923     8.3412    11.4447     8.1023     0.0203     2.4790    95.0080     0.1285
  543.5000   -45.3351     8.3403    11.4447     8.0894     0.0244     2.4797    95.9186     0.1285
  544.0000   -45.6456     8.3174    11.4447     8.0765     0.0286     2.4803    95.2762     0.1285
  544.5000   -45.9472     8.2941    11.4447     8.0637     0.0328     2.4810    94.6060     0.1285
  545.0000   -46.2577     8.2699    11.4447     8.0506     0.0361     2.4817    93.2684     0.1285
  545.5000   -46.5647     8.2461    11.4447     8.0381     0.0361     2.4825    91.8069     0.1288
  546.0000   -46.8715     8.2225    11.3135     8.0252     0.0362     2.4826    92.4411     0.1296
