~VERSION INFORMATION
 VERS.                2.0:   CWLS LOG ASCII STANDARD - VERSION 2.0
 WRAP.                 NO:   ONE LINE PER DEPTH STEP
~WELL INFORMATION
#MNEM.UNIT      DATA TYPE    INFORMATION
#----------   ------------   ------------------------------
 STRT.F           32.0000:   START DEPTH
 STOP.F         1006.0000:   STOP DEPTH
 STEP.F            0.5000:   STEP LENGTH
 NULL.          -999.2500:   NO VALUE
 COMP. FENIX & SCISSON INC:   COMPANY
 WELL.        NPR-3 #54-2:   WELL
 FLD .             TEAPOT:   FIELD
 LOC .       S2 T38N R78W:   LOCATION
 CNTY.            NATRONA:   COUNTY
 STAT.            WYOMING:   STATE
 CTRY. UNITED STATES OF AMERICA:   COUNTRY
 SRVC.              Welex:   SERVICE COMPANY
 DATE.        08-SEP-1977:   LOGDATE
 API .       490251041600:   API NUMBER
~CURVE INFORMATION
#MNEM.UNIT       API CODE    CURVE DESCRIPTION
#----------   ------------   ------------------------------
 DEPT.F                  :   
 CALD.IN     45 280 60 00:   CALIPER FROM DENSITY LOG
 GRD .GAPI   45 310 01 00:   GAMMA RAY FROM DENSITY LOG
 CORR.G/C3   45 356 01 00:   DENSITY CORRECTION
 DPHI.DEC    45 890 12 00:   DENSITY POROSITY SANDSTONE
 RHOB.G/C3   45 350 01 00:   BULK DENSITY
 SPR .MV     07 010 01 00:   SPONTANEOUS POTENTIAL
 ILD .OHMM   07 120 46 00:   INDUCTION LOG DEEP
 ILM .OHMM   07 120 44 00:   INDUCTION LOG MEDIUM
 SGRD.OHMM   07 221 05 00:   SHALLOW SHORT GUARD RESISTIVITY
~PARAMETER INFORMATION
#MNEM.UNIT          VALUE    DESCRIPTION
#----------   ------------   ------------------------------
 PD  .                 GL:   PERMANENT DATUM
 EPD .F              5160:   ELEVATION PERMANENT DATUM
 LMF .                 KB:   LOG MEASURED FROM
 DAPD.F                10:   FEET ABOVE PERMANENT DATUM
 DMF .                 KB:   DRILLING MEASURED FROM
 EKB .F              5170:   KELLING BUSHING
 EGL .F              5160:   GROUND LEVEL
 DATE.        08-SEP-1977:   RUN DATE
 RUN .                  1:   RUN NUMBER
 DD  .F              1000:   DEPTH DRILLER
 DL  .F              1008:   DEPTH LOGGER
 BLI .F              1006:   BOTTOM LOG INTERVAL
 TLI .F                47:   TOP LOG INTERVAL
 CS  .IN            8.625:   CASING SIZE
 BS  .IN             6.75:   BIT SIZE
 BSD .F              1000:   BIT SIZE AT DEPTH
 DFT .            KCL MUD:   DRILLING FLUID TYPE
 DFD .                9.1:   DRILLING FLUID DENSITY
 BHT .F               100:   BOTTOM HOLE TEMPERATURE
 TCS .HRS            0230:   TIME CURCULATED STOPPED
 MRT .F               100:   MAXIMUM RECORDED TEMPERATURE
 ENGI.          D. LAWSON:   RECORDING ENGINEER
 WITN.         HARRINGTON:   WITNESSED BY
 CLNT.            A2DTECH:   CLIENT CODE
 ORIG.           5" PRINT:   ORIGIN OF DATA
 UWI .       490251041600:   UNIQUE WELL ID
 DICO. A2D Technologies, Inc.:   DIGITIZING COMPANY
~OTHER INFORMATION
~A   DEPT     CALD         GRD       CORR      DPHI         RHOB      SPR        ILD        ILM       SGRD   
# ...
  908.0000     6.4514    63.7386     0.0224     0.1520     2.4075   -30.8041    18.0212    18.9171    22.1050
  908.5000     6.4379    60.3229     0.0271     0.1570     2.4017   -30.6368    17.5400    18.6657    22.7364
  909.0000     6.4403    61.6905     0.0332     0.1596     2.3943   -30.6188    16.6056    19.8805    20.9394
  909.5000     6.4268    63.2075     0.0391     0.1539     2.4012   -30.4514    15.7210    20.5930    18.3691
  910.0000     6.4293    64.5751     0.0453     0.1425     2.4156   -30.4335    15.1957    20.0432    22.9402
  910.5000     6.4312    66.9890     0.0469     0.1332     2.4270   -30.5658    14.8877    19.1073    24.0907
  911.0000     6.4331    67.9987     0.0470     0.1329     2.4301   -30.6975    14.4852    18.2150    20.1367
  911.5000     6.4351    64.9409     0.0456     0.1349     2.4213   -30.9787    14.1916    17.2420    17.7877
  912.0000     6.4370    62.1232     0.0425     0.1369     2.4139   -31.2599    13.7334    18.2375    20.0223
  912.5000     6.4390    61.2486     0.0351     0.1405     2.4073   -31.5411    13.5530    19.4214    19.4873
  913.0000     6.4409    63.0646     0.0247     0.1485     2.4059   -31.8223    13.4657    20.1175    19.6644
  913.5000     6.4428    67.1228     0.0220     0.1535     2.4076   -31.9540    13.4761    20.5522    21.7124
  914.0000     6.4448    70.5830     0.0240     0.1526     2.4107   -31.9318    13.5780    20.5648    22.4235
  914.5000     6.4467    72.2511     0.0283     0.1492     2.4154   -31.7646    13.6807    20.5775    19.9485
  915.0000     6.4636    71.2004     0.0330     0.1456     2.4208   -31.7468    13.9763    20.5902    20.5214
  915.5000     6.4655    68.8396     0.0361     0.1396     2.4284   -31.7290    14.1798    20.4606    21.2575
  916.0000     6.4824    67.9816     0.0377     0.1342     2.4345   -31.7113    14.2870    20.1919    21.5672
  916.5000     6.4844    68.3189     0.0348     0.1266     2.4339   -31.6935    14.2958    19.6529    20.1366
  917.0000     6.4863    70.1951     0.0304     0.1275     2.4311   -31.6758    14.3046    18.9929    19.1955
  917.5000     6.5032    71.7862     0.0275     0.1301     2.4275   -31.8119    14.3134    18.3534    19.7468
  918.0000     6.5051    71.3085     0.0232     0.1340     2.4231   -31.9436    14.2212    17.7224    21.3229
  918.5000     6.5220    68.8460     0.0188     0.1423     2.4195   -31.9214    14.1337    17.1381    20.8942
  919.0000     6.5389    67.9659     0.0144     0.1479     2.4204   -31.9037    14.0452    16.9298    21.4975
  919.5000     6.5558    68.5917     0.0100     0.1491     2.4280   -31.8859    13.9568    17.0605    21.2149
  920.0000     6.5727    71.3045     0.0071     0.1415     2.4387   -32.0179    13.6786    16.8364    20.0839
  920.5000     6.5746    74.0174     0.0057     0.1349     2.4523   -32.1495    13.4013    16.5006    19.6831
  921.0000     6.5915    75.3850     0.0073     0.1232     2.4659   -32.8829    13.2207    15.9493    19.5590
  921.5000     6.6234    73.7630     0.0105     0.1127     2.4765   -33.6243    13.0427    15.5235    19.4361
  922.0000     6.6253    63.7704     0.0151     0.1043     2.4924   -34.2023    12.8843    15.2116    19.1807
  922.5000     6.6422    60.8031     0.0197     0.1016     2.4970   -34.6388    12.8943    15.0117    18.9199
  923.0000     6.6441    60.3714     0.0244     0.1057     2.4882   -35.0752    12.8112    15.3384    17.3591
  923.5000     6.6461    60.9972     0.0260     0.1119     2.4734   -35.7753    12.9101    16.3341    15.9014
  924.0000     6.6480    62.5143     0.0246     0.1191     2.4600   -36.0565    12.9181    17.0371    16.6280
  924.5000     6.6499    64.7787     0.0202     0.1244     2.4422   -36.1926    12.9260    17.4052    21.6468
  925.0000     6.6519    67.0431     0.0173     0.1285     2.4244   -36.1704    12.9340    17.5342    27.2213
  925.5000     6.6538    68.1118     0.0129     0.1368     2.4193   -36.1527    12.8527    17.0686    30.0111
  926.0000     6.6403    66.9383     0.0100     0.1431     2.4186   -35.9854    12.7706    16.3846    28.6086
  926.5000     6.6273    64.7184     0.0071     0.1484     2.4195   -35.8182    12.6022    14.6764    25.6238
  927.0000     6.6143    66.5344     0.0073     0.1493     2.4212   -35.6510    12.3528    13.6091    17.7628
  927.5000     6.5864    69.0978     0.0074     0.1468     2.4236   -35.6332    12.1064    12.8841    15.9096
  928.0000     6.5733    64.0379     0.0045     0.1426     2.4267   -35.4660    11.9455    12.6272    16.0300
  928.5000     6.5758    58.9780     0.0046     0.1375     2.4306   -35.4482    11.7091    12.6350    16.2635
  929.0000     6.5777    59.5982     0.0047     0.1332     2.4345   -35.4305    11.4756    12.8190    16.3866
  929.5000     6.5797    64.4037     0.0049     0.1308     2.4384   -35.5666    11.1692    12.8293    16.3967
  930.0000     6.5816    69.9566     0.0050     0.1288     2.4430   -35.8434    10.8709    13.0138    16.4068
  930.5000     6.5835    75.0611     0.0051     0.1263     2.4477   -35.9780    10.5771    13.0219    16.4169
  931.0000     6.5855    75.8308     0.0052     0.1235     2.4515   -36.2571    10.3627    13.0297    16.2010
  931.5000     6.5874    70.4719     0.0068     0.1210     2.4562   -36.3886    10.1628    12.8585    16.0991
  932.0000     6.5894    64.6646     0.0085     0.1177     2.4616   -36.5202    10.1707    12.6916    16.1092
  932.5000     6.6062    67.2280     0.0146     0.1141     2.4677   -36.6514    10.1769    12.6118    15.9933
  933.0000     6.5932    69.4925     0.0207     0.1134     2.4641   -36.7831    10.1832    12.4443    15.7972
  933.5000     6.5952    71.4580     0.0223     0.1164     2.4567   -37.0643    10.1895    12.1980    15.5919
  934.0000     6.5971    78.3562     0.0179     0.1193     2.4509   -37.4950    10.1254    11.8723    15.4915
  934.5000     6.5991    75.3890     0.0151     0.1204     2.4525   -37.7762    10.1316    11.5553    15.3940
  935.0000     6.6010    70.4785     0.0137     0.1198     2.4572   -38.0768    10.0664    11.1692    15.4059
  935.5000     6.5879    62.5785     0.0093     0.1177     2.4648   -38.1891    10.0031    10.8710    15.3090
  936.0000     6.5750    63.6702     0.0064     0.1149     2.4694   -38.3208     9.9408    10.6526    15.3184
  936.5000     6.5769    68.9230     0.0020     0.1131     2.4658   -38.4481     9.9479    11.8268    15.2197
  937.0000     6.5789    70.8936    -0.0024     0.1133     2.4562   -38.5843    10.0232    12.6820    15.3373
  937.5000     6.5808    73.9659    -0.0038     0.1160     2.4444   -38.7160    10.0293    12.9560    15.3467
  938.0000     6.5827    76.8903    -0.0066     0.1192     2.4386   -38.8433    10.0352    12.9640    15.3561
  938.5000     6.5847    73.6187    -0.0095     0.1228     2.4372   -38.8255    10.0417    13.0621    15.3656
  939.0000     6.5866    69.0259    -0.0124     0.1245     2.4381   -38.9617     9.9784    13.0702    15.3750
  939.5000     6.5886    64.7621    -0.0138     0.1251     2.4397   -38.9395     9.9847    13.1690    15.3845
  940.0000     6.6054    61.8879    -0.0167     0.1250     2.4429   -38.9217     9.9909    13.1772    15.3940
  940.5000     6.6074    64.8997    -0.0181     0.1238     2.4490   -38.9039     9.9971    13.2768    15.4034
  941.0000     6.6093    68.0610    -0.0179     0.1222     2.4566   -39.0401    10.0033    13.3773    15.4137
  941.5000     6.6113    70.7739    -0.0163     0.1201     2.4643   -39.1718    10.0095    13.4785    15.4226
  942.0000     6.6282    73.6362    -0.0147     0.1176     2.4704   -39.2991    10.0866    13.5805    15.4322
  942.5000     6.6450    76.7975    -0.0116     0.1140     2.4765   -39.4352    10.0928    13.6896    15.4437
  943.0000     6.6470    78.0101    -0.0054     0.1110     2.4819   -39.5670    10.0990    13.7869    15.3466
  943.5000     6.6489    75.0484     0.0007     0.1085     2.4888   -39.6951    10.0340    13.9054    15.3560
  944.0000     6.6509    73.1275     0.0053     0.1067     2.4897   -39.8266    10.0417    14.0937    15.2571
