~VERSION INFORMATION
 VERS.                2.0:   CWLS LOG ASCII STANDARD - VERSION 2.0
 WRAP.                 NO:   ONE LINE PER DEPTH STEP
~WELL INFORMATION
#MNEM.UNIT      DATA TYPE    INFORMATION
#----------   ------------   ------------------------------
 STRT.F           44.0000:   START DEPTH
 STOP.F          510.0000:   STOP DEPTH
 STEP.F            0.5000:   STEP LENGTH
 NULL.          -999.2500:   NO VALUE
 COMP. FENIX & SCISSON INC:   COMPANY
 WELL. NPR-3 76-SX-3 #76-3:   WELL
 FLD . TEAPOT DOME NPR #3:   FIELD
 LOC .       S3 T38N R78W:   LOCATION
 CNTY.            NATRONA:   COUNTY
 STAT.            WYOMING:   STATE
 CTRY. UNITED STATES OF AMERICA:   COUNTRY
 SRVC.            Unknown:   SERVICE COMPANY
 DATE.        13-OCT-1978:   LOGDATE
 API .       490251072300:   API NUMBER
~CURVE INFORMATION
#MNEM.UNIT       API CODE    CURVE DESCRIPTION
#----------   ------------   ------------------------------
 DEPT.F                  :   
 CALD.IN     45 280 60 00:   CALIPER
 RHOB.G/C3   45 350 01 00:   BULK DENSITY
 CORR.G/C3   45 356 01 00:   DENSITY CORRECTION
 SPR .MV     05 010 01 00:   SPONTANEOUS POTENTIAL FROM RES.
 SN  .OHMM   05 040 16 00:   SHORT NORMAL 16"
 ILD .OHMM   05 120 46 00:   INDUCTION LOG DEEP
 DPHI.DEC    45 890 12 00:   DENSITY POROSITY SANDSTONE
~PARAMETER INFORMATION
#MNEM.UNIT          VALUE    DESCRIPTION
#----------   ------------   ------------------------------
 PD  .                 GL:   PERMANENT DATUM
 EPD .F              5151:   ELEVATION PERMANENT DATUM
 LMF .                 KB:   LOG MEASURED FROM
 DAPD.F                 4:   FEET ABOVE PERMANENT DATUM
 DMF .                 KB:   DRILLING MEASURED FROM
 EKB .F              5155:   KELLING BUSHING
 EGL .F              5151:   GROUND LEVEL
 DATE.         10-13-1978:   RUN DATE
 RUN .                  1:   RUN NUMBER
 DD  .F               515:   DEPTH DRILLER
 DL  .F               517:   DEPTH LOGGER
 BLI .F               511:   BOTTOM LOG INTERVAL
 TLI .F                50:   TOP LOG INTERVAL
 CS  .IN            8.625:   CASING SIZE
 CBD .F                40:   CASING BOTTOM DRILLER
 BS  .IN            7.875:   BIT SIZE
 BSD .F               515:   BIT SIZE AT DEPTH
 DFT .                KCL:   DRILLING FLUID TYPE
 MSS .            MUD PIT:   MUD SAMPLE SOURCE
 RMS .OHMM             .2:   RESISTIVITY MUD SAMPLE
 MST .F                54:   MUD SAMPLE TEMPERATURE
 RMF .OHMM            .19:   RESISTIVITY MUD FILTRATE SAMPLE
 MFST.F                63:   MUD FILTRATE SAMPLE TEMPERATURE
 RMC .OHMM            .26:   RESISTIVITY MUD CAKE
 MCST.F                64:   MUD CAKE SAMPLE TEMPERATURE
 MFSS.               MEAS:   MUD FILTRATE SAMPLE SOURCE
 MCSS.               MEAS:   MUD CAKE SAMPLE SOURCE
 TCS .HRS               2:   TIME CURCULATED STOPPED
 LUN .               3006:   LOGGING UNIT NUMBER
 LUL .               CASP:   LOGGING UNIT LOCATION
 ENGI.             MILLER:   RECORDING ENGINEER
 WITN.           DINSMORE:   WITNESSED BY
 CLNT.            A2DTECH:   CLIENT CODE
 ORIG.           5" PRINT:   ORIGIN OF DATA
 UWI .       490251072300:   UNIQUE WELL ID
 DICO. A2D Technologies, Inc.:   DIGITIZING COMPANY
~OTHER INFORMATION
~A   DEPT     CALD       RHOB        CORR       SPR         SN        ILD         DPHI 
# ...
  408.0000     7.6819     2.4843     0.2909    -4.1538    15.0727    20.2782     0.1148
  408.5000     7.6919     2.4959     0.2041    -4.1887    14.9592    20.0923     0.1451
  409.0000     7.7018     2.4532     0.1133    -4.2236    14.8466    19.8550     0.1806
  409.5000     7.7112     2.4170     0.0698    -4.2584    14.7348    19.1880     0.1838
  410.0000     7.7463     2.3804     0.0588    -4.2933    14.6240    19.3678     0.1827
  410.5000     7.7864     2.3761     0.0611    -4.3282    14.5140    19.7256     0.1770
  411.0000     7.8271     2.3800     0.0636    -4.3631    14.3916    19.9015     0.1794
  411.5000     7.8220     2.3822     0.0679    -4.3980    14.2041    20.0927     0.1791
  412.0000     7.8087     2.3836     0.0746    -4.4330    14.0192    20.2748     0.1778
  412.5000     7.7952     2.3870     0.0813    -4.4641    13.8366    19.2531     0.1631
  413.0000     7.7819     2.4040     0.0819    -4.4644    13.6564    18.6682     0.1498
  413.5000     7.7684     2.4213     0.0749    -4.4639    13.4786    18.7264     0.1540
  414.0000     7.7546     2.4182     0.0680    -4.4637    13.3031    18.7701     0.1581
  414.5000     7.7731     2.4132     0.0631    -4.4887    13.2147    18.8139     0.1621
  415.0000     7.7959     2.4081     0.0638    -4.6801    13.1433    18.8378     0.1643
  415.5000     7.8187     2.4033     0.0645    -4.8722    13.0723    18.1340     0.1654
  416.0000     7.8414     2.3992     0.0650    -5.0638    13.0016    17.5929     0.1695
  416.5000     7.8546     2.3951     0.0665    -5.2553    12.9313    17.0680     0.1751
  417.0000     7.8580     2.3880     0.0682    -5.4468    12.8615    16.7121     0.1822
  417.5000     7.8614     2.3812     0.0698    -5.6383    12.7921    17.0276     0.1820
  418.0000     7.8647     2.3764     0.0708    -5.8298    12.7229    17.3392     0.1784
  418.5000     7.8681     2.3814     0.0703    -6.0217    12.6146    17.1914     0.1689
  419.0000     7.8715     2.3958     0.0697    -6.2155    12.4298    16.9009     0.1594
  419.5000     7.8749     2.4119     0.0691    -6.2867    12.2483    16.1313     0.1561
  420.0000     7.8783     2.4155     0.0702    -6.3319    12.0693    15.3826     0.1569
  420.5000     7.8817     2.4153     0.0719    -6.3771    11.9799    15.3266     0.1507
  421.0000     7.8851     2.4221     0.0736    -6.4277    11.9527    15.2553     0.1396
  421.5000     7.8885     2.4342     0.0753    -6.7272    11.9255    15.1844     0.1194
  422.0000     7.8924     2.4649     0.0770    -7.3650    11.8984    15.1138     0.0992
  422.5000     7.8746     2.4930     0.0740    -7.8519    11.8714    14.8117     0.0866
  423.0000     7.8511     2.5159     0.0545    -8.0695    11.8443    14.4716     0.0963
  423.5000     7.8278     2.5257     0.0347    -8.5702    11.8176    14.1372     0.1034
  424.0000     7.8197     2.5075     0.0328    -8.8114    11.7907    13.8590     0.1104
  424.5000     7.8379     2.4944     0.0435    -8.7308    11.6498    13.7078     0.1175
  425.0000     7.8557     2.4813     0.0542    -8.6541    11.3906    13.5583     0.1246
  425.5000     7.8736     2.4695     0.0648    -8.5763    11.1372    13.3994     0.1246
  426.0000     7.8916     2.4638     0.0709    -8.4991    10.8894    12.9566     0.1246
  426.5000     7.9103     2.4648     0.0657    -8.4555    10.6472    12.4931     0.1253
  427.0000     7.8852     2.4661     0.0604    -8.6626    10.4080    12.0973     0.1264
  427.5000     7.8522     2.4648     0.0551    -8.8695    10.3404    12.0324     0.1276
  428.0000     7.8390     2.4627     0.0509    -9.0755    10.3170    11.9679     0.1269
  428.5000     7.8700     2.4614     0.0512    -9.2815    10.2950    11.9037     0.1239
  429.0000     7.9001     2.4662     0.0514    -9.4875    10.2727    11.8400     0.1208
  429.5000     7.9300     2.4719     0.0516    -9.6919    10.2505    11.7767     0.1186
  430.0000     7.9489     2.4729     0.0518    -9.8416    10.2283    11.6850     0.1199
  430.5000     7.9308     2.4728     0.0520    -9.8901    10.2061    11.5947     0.1218
  431.0000     7.9136     2.4697     0.0522    -9.9404    10.1840    11.5532     0.1261
  431.5000     7.8964     2.4667     0.0524    -9.9903    10.1628    11.5404     0.1271
  432.0000     7.8793     2.4644     0.0526   -10.0403    10.0839    11.5273     0.1277
  432.5000     7.8621     2.4649     0.0527   -10.0901    10.0086    11.5142     0.1241
  433.0000     7.8450     2.4653     0.0530   -10.1401     9.9341    11.5012     0.1186
  433.5000     7.8347     2.4703     0.0515   -10.1919     9.8608    11.4881     0.1126
  434.0000     7.8526     2.4756     0.0494   -10.3276     9.7956    11.4750     0.1126
  434.5000     7.8705     2.4812     0.0474   -10.5791     9.8043    11.4618     0.1144
  435.0000     7.8884     2.4815     0.0452   -10.8279     9.8119    11.4226     0.1182
  435.5000     7.9062     2.4795     0.0431   -11.0274     9.8197    11.3601     0.1178
  436.0000     7.9242     2.4777     0.0437   -11.0754     9.8275    11.2980     0.1147
  436.5000     7.9188     2.4825     0.0445   -11.1242     9.8352    11.2338     0.1116
  437.0000     7.8940     2.4880     0.0462   -11.1726     9.8430    11.1594     0.1092
  437.5000     7.8693     2.4909     0.0499   -11.2773     9.8508    11.0847     0.1074
  438.0000     7.8552     2.4940     0.0535   -11.9125     9.8586    11.0216     0.1058
  438.5000     7.8733     2.5015     0.0571   -12.5677     9.8664    10.9215     0.1022
  439.0000     7.8910     2.5089     0.0607   -12.6421     9.8742    10.8237     0.0985
  439.5000     7.9092     2.5137     0.0622   -12.6792     9.8820    10.7265     0.0952
  440.0000     7.9034     2.5152     0.0599   -12.7195     9.8862    10.6301     0.0937
  440.5000     7.8917     2.5147     0.0577   -12.7607     9.7673    10.5346     0.0952
  441.0000     7.8801     2.5125     0.0555   -12.8020     9.6863    10.4476     0.0970
  441.5000     7.8824     2.5103     0.0532   -12.8432     9.6060    10.4262     0.0988
  442.0000     7.9079     2.5082     0.0511   -12.8844     9.5264    10.4063     0.1006
  442.5000     7.9326     2.5067     0.0523   -12.9257     9.4413    10.3864     0.0957
  443.0000     7.9416     2.5136     0.0552   -12.9669     9.4413    10.3665     0.0894
  443.5000     7.8814     2.5208     0.0606   -13.0081     9.4413    10.3467     0.0851
  444.0000     7.8221     2.5279     0.0659   -13.0494     9.4413    10.3269     0.0848
  444.5000     7.8222     2.5330     0.0662   -13.0906     9.4413    10.3071     0.0953
  445.0000     7.8321     2.5309     0.0593   -13.1319     9.4413    10.2874     0.1021
  445.5000     7.8525     2.5175     0.0531   -13.1731     9.4413    10.2677     0.1038
  446.0000     7.8754     2.5067     0.0533   -13.2143     9.4413    10.2481     0.1038
  446.5000     7.8893     2.5036     0.0536   -13.2556     9.4413    10.2285     0.1018
  447.0000     7.8717     2.5059     0.0540   -13.2966     9.4413    10.2089     0.0994
  447.5000     7.8550     2.5082     0.0543   -13.3385     9.4413    10.1894     0.1004
  448.0000     7.8548     2.5069     0.0546   -13.3761     9.4417    10.1693     0.1071
  448.5000     7.8576     2.5012     0.0548   -13.6082     9.4413    10.1278     0.1102
  449.0000     7.8605     2.5013     0.0585   -13.9210     9.3402    10.0731     0.1044
  449.5000     7.8633     2.5088     0.0635   -14.2377     9.2249    10.0191     0.0957
  450.0000     7.8662     2.5161     0.0685   -14.5544     9.0998     9.9654     0.0863
  450.5000     7.8691     2.5237     0.0732   -14.8709     9.0666     9.9119     0.0877
  451.0000     7.8726     2.5246     0.0733   -15.1882     9.0299     9.8036     0.0897
  451.5000     7.8377     2.5229     0.0735   -15.5045     8.9935     9.6459     0.0918
  452.0000     7.7884     2.5211     0.0738   -15.7815     8.9572     9.4908     0.0939
  452.5000     7.7387     2.5194     0.0740   -15.7749     8.9044     9.3382     0.0958
  453.0000     7.7728     2.5206     0.0743   -15.7739     8.8215     9.1840     0.0945
