~VERSION INFORMATION
 VERS.                2.0:   CWLS LOG ASCII STANDARD - VERSION 2.0
 WRAP.                 NO:   ONE LINE PER DEPTH STEP
~WELL INFORMATION
#MNEM.UNIT      DATA TYPE    INFORMATION
#----------   ------------   ------------------------------
 STRT.F            0.0000:   START DEPTH
 STOP.F          666.0000:   STOP DEPTH
 STEP.F            0.1000:   STEP LENGTH
 NULL.          -999.2500:   NO VALUE
 COMP.   FLUOR DANIEL INC:   COMPANY
 WELL.   77-2 X 34 #77-34:   WELL
 FLD .             TEAPOT:   FIELD
 LOC .      S34 T39N R78W:   LOCATION
 CNTY.            NATRONA:   COUNTY
 STAT.            WYOMING:   STATE
 CTRY. UNITED STATES OF AMERICA:   COUNTRY
 SRVC.      Western Atlas:   SERVICE COMPANY
 DATE.        01-APR-1995:   LOGDATE
 API .       490252270000:   API NUMBER
~CURVE INFORMATION
#MNEM.UNIT       API CODE    CURVE DESCRIPTION
#----------   ------------   ------------------------------
 DEPT.F                  :   
 GRR .GAPI   07 310 01 00:   GAMMA RAY
 RILD.OHMM   07 120 46 00:   INDUCTION LOG DEEP RESISTIVITY
 RILM.OHMM   07 120 44 00:   INDUCTION LOG MEDIUM RESISTIVITY
~PARAMETER INFORMATION
#MNEM.UNIT          VALUE    DESCRIPTION
#----------   ------------   ------------------------------
 PD  .                 GL:   PERMANENT DATUM
 EPD .F              5106:   ELEVATION PERMANENT DATUM
 LMF .                 KB:   LOG MEASURED FROM
 DAPD.F                10:   FEET ABOVE PERMANENT DATUM
 DMF .                 KB:   DRILLING MEASURED FROM
 EKB .F              5116:   KELLING BUSHING
 EDF .F              5115:   DRILLING FLOOR
 EGL .F              5106:   GROUND LEVEL
 DATE.        01-APR-1995:   RUN DATE
 RUN .                  1:   RUN NUMBER
 DD  .F               674:   DEPTH DRILLER
 DL  .F               674:   DEPTH LOGGER
 BLI .F               666:   BOTTOM LOG INTERVAL
 TLI .F                52:   TOP LOG INTERVAL
 CS  .IN            9.625:   CASING SIZE
 CBD .F                52:   CASING BOTTOM DRILLER
 CBL .F                52:   CASING BOTTOM LOGGER
 BS  .IN             8.75:   BIT SIZE
 BSD .F               674:   BIT SIZE AT DEPTH
 DFT .                AIR:   DRILLING FLUID TYPE
 MRT .F                89:   MAXIMUM RECORDED TEMPERATURE
 LUN .            HL 6530:   LOGGING UNIT NUMBER
 LUL .             CASPER:   LOGGING UNIT LOCATION
 ENGI.      PAT RASMUSSEN:   RECORDING ENGINEER
 WITN.        GARY STRONG:   WITNESSED BY
 CLNT.            A2DTECH:   CLIENT CODE
 ORIG.           5" PRINT:   ORIGIN OF DATA
 UWI .       490252270000:   UNIQUE WELL ID
 DICO. A2D Technologies, Inc.:   DIGITIZING COMPANY
~OTHER INFORMATION
~A    DEPT      GRR      RILD       RILM   
# ...
  327.6000   116.9842    10.6413    10.3206
  327.7000   117.2314    10.6413    10.3204
  327.8000   117.5132    10.6413    10.3201
  327.9000   117.9377    10.6413    10.3144
  328.0000   118.4313    10.6413    10.2479
  328.1000   119.0267    10.6413    10.2477
  328.2000   119.7670    10.6413    10.2097
  328.3000   120.5328    10.6413    10.1761
  328.4000   121.9619    10.6413    10.1639
  328.5000   122.8929    10.5824    10.1050
  328.6000   123.6332    10.5674    10.0483
  328.7000   124.2279    10.5674    10.0343
  328.8000   124.4750    10.5490    10.0341
  328.9000   124.7597    10.4940    10.0156
  329.0000   124.9693    10.4940     9.9584
  329.1000   125.2165    10.4426     9.8946
  329.2000   125.3647    10.4210     9.8451
  329.3000   125.3215    10.3964     9.7890
  329.4000   125.0643    10.3486     9.7571
  329.5000   124.3590    10.3486     9.7568
  329.6000   123.6199    10.3486     9.7565
  329.7000   123.0059    10.3486     9.7563
  329.8000   122.5134    10.3177     9.7560
  329.9000   122.0358    10.2767     9.7557
  330.0000   121.7497    10.2767     9.7555
  330.1000   121.1311    10.2767     9.7552
  330.2000   120.3921    10.2266     9.7549
  330.3000   119.5570    10.2053     9.7546
  330.4000   118.4893    10.2295     9.7544
  330.5000   116.9261    10.2767     9.7541
  330.6000   115.0667    10.2767     9.7538
  330.7000   113.6270    10.2767     9.7536
  330.8000   112.3950    10.2767     9.7533
  330.9000   111.2972    10.2461     9.7530
  331.0000   110.5822    10.2053     9.7527
  331.1000   110.2933    10.2007     9.7525
  331.2000   110.0903    10.1344     9.7522
  331.3000   109.9928    10.1344     9.7519
  331.4000   109.9000    10.0979     9.7024
  331.5000   109.6922    10.0640     9.6838
  331.6000   109.6930    10.0532     9.6835
  331.7000   110.1528     9.9941     9.6832
  331.8000   110.6465     9.9941     9.6830
  331.9000   111.3791     9.9518     9.6827
  332.0000   112.3016     9.8952     9.6824
  332.1000   113.0234     9.8389     9.6514
  332.2000   113.3166     9.7872     9.6148
  332.3000   113.9192     9.7872     9.6145
  332.4000   114.3682     9.7397     9.6142
  332.5000   114.5249     9.7192     9.5651
  332.6000   114.5609     9.7192     9.5471
  332.7000   114.8278     9.7089     9.5468
  332.8000   115.2822     9.6517     9.5340
  332.9000   115.6040     9.6517     9.4801
  333.0000   116.0844     9.6517     9.4798
  333.1000   116.7632     9.6232     9.4796
  333.2000   117.2634     9.5846     9.4793
  333.3000   118.1497     9.5846     9.4605
  333.4000   118.9419     9.5846     9.4131
  333.5000   119.6430     9.5382     9.4128
  333.6000   120.0490     9.5180     9.4125
  333.7000   120.2636     9.5180     9.4123
  333.8000   120.2643     9.5180     9.4120
  333.9000   120.2649     9.5180     9.4118
  334.0000   120.2655     9.5180     9.4115
  334.1000   120.0384     9.5180     9.4112
  334.2000   119.6046     9.5180     9.4110
  334.3000   119.3587     9.5341     9.4107
  334.4000   119.1128     9.5846     9.4104
  334.5000   118.4767     9.5846     9.4172
  334.6000   117.7376     9.5846     9.4756
  334.7000   117.0834     9.5846     9.4753
  334.8000   116.5909     9.6068     9.4751
  334.9000   116.0477     9.6517     9.4748
  335.0000   115.8270     9.6517     9.4746
  335.1000   115.7472     9.6517     9.4743
  335.2000   115.6368     9.6924     9.4740
  335.3000   115.3908     9.7192     9.4738
  335.4000   115.1457     9.7192     9.5049
  335.5000   115.1463     9.7231     9.5394
  335.6000   115.1469     9.7872     9.5391
  335.7000   115.2847     9.7872     9.5388
  335.8000   115.5318     9.7872     9.5885
  335.9000   115.7520     9.7872     9.6430
  336.0000   115.7527     9.7872     9.6978
  336.1000   115.9717     9.7872     9.7389
  336.2000   116.2188     9.8408     9.7386
  336.3000   116.3578     9.8557     9.7383
  336.4000   116.4114     9.8557     9.7381
  336.5000   116.6606     9.8720     9.7704
  336.6000   116.6612     9.9246     9.8260
  336.7000   116.2830     9.9246     9.8737
  336.8000   115.7904     9.9246     9.8734
  336.9000   115.2187     9.9600     9.9252
  337.0000   114.4557     9.9941     9.9418
  337.1000   113.3461     9.9941     9.9415
  337.2000   112.7000     9.9941     9.9559
  337.3000   111.8004     9.9941    10.0104
  337.4000   110.8148     9.9941    10.0100
  337.5000   109.7788     9.9941    10.0098
  337.6000   108.5225     9.9941    10.0095
  337.7000   107.0727     9.9941    10.0093
  337.8000   105.5939     9.9941    10.0090
  337.9000   104.5097     9.9941    10.0087
  338.0000   103.8471     9.9941    10.0084
  338.1000   103.3759     9.9941    10.0081
  338.2000   103.0963     9.9941    10.0079
  338.3000   103.3096     9.9941    10.0076
  338.4000   103.3991     9.9941    10.0073
  338.5000   103.6048     9.9941    10.0070
  338.6000   104.1460     9.9941     9.9601
  338.7000   104.9092     9.9779     9.9371
  338.8000   106.1045     9.9246     9.9368
  338.9000   108.4409     9.9246     9.9365
  339.0000   110.5098     9.9246     9.9363
  339.1000   111.8424     9.9246     9.9360
  339.2000   112.8108     9.9024     9.8955
  339.3000   113.6610     9.8461     9.8390
  339.4000   114.0814     9.7872     9.7829
  339.5000   114.4203     9.7872     9.7297
  339.6000   114.6675     9.7872     9.7294
  339.7000   114.9146     9.7592     9.7292
  339.8000   115.1723     9.7036     9.6954
  339.9000   115.1729     9.6484     9.6192
  340.0000   115.3544     9.5846     9.5186
  340.1000   115.4757     9.5390     9.4611
  340.2000   115.4763     9.4848     9.3601
  340.3000   115.4769     9.4099     9.2918
  340.4000   115.4776     9.3120     9.2387
  340.5000   115.4781     9.2562     9.1860
  340.6000   115.4787     9.2562     9.1335
  340.7000   115.4793     9.2181     9.0728
  340.8000   115.4799     9.1657     9.0296
  340.9000   115.4806     9.1136     8.9781
  341.0000   115.4811     9.0617     8.9269
  341.1000   115.4818     9.0017     8.8759
  341.2000   115.4824     8.9590     8.8226
  341.3000   115.4830     8.9080     8.7278
  341.4000   115.4836     8.8379     8.7002
  341.5000   115.4843     8.7458     8.6751
  341.6000   115.2804     8.6933     8.6256
  341.7000   114.8852     8.6002     8.5763
  341.8000   114.4869     8.5377     8.5196
  341.9000   114.8832     8.4651     8.4787
  342.0000   114.5822     8.3691     8.4304
  342.1000   114.5828     8.2792     8.3823
  342.2000   114.5834     8.2792     8.3261
  342.3000   114.5840     8.2011     8.2272
  342.4000   114.6497     8.1362     8.2270
  342.5000   114.8969     8.0900     8.1925
  342.6000   115.1893     8.0515     8.1458
  342.7000   115.3912     8.0515     8.0860
  342.8000   115.6384     8.0083     7.9972
  342.9000   115.9768     7.9955     7.9446
  343.0000   116.4706     7.9729     7.9063
  343.1000   117.0022     7.9400     7.8333
  343.2000   117.4580     7.9400     7.7799
  343.3000   117.4392     7.9400     7.7717
  343.4000   117.1629     7.9025     7.7256
  343.5000   117.7978     7.8576     7.6832
  343.6000   118.7146     7.8300     7.6716
  343.7000   119.6079     7.8300     7.6488
  343.8000   120.2357     7.8300     7.6052
  343.9000   120.4859     7.7882     7.5650
  344.0000   120.7720     7.7756     7.5647
  344.1000   120.9862     7.7538     7.5279
  344.2000   120.9042     7.7216     7.5119
  344.3000   120.6504     7.7194     7.4942
  344.4000   120.2631     7.6679     7.4514
  344.5000   119.5224     7.6679     7.4075
  344.6000   118.9512     7.6679     7.4073
  344.7000   118.5108     7.6513     7.3757
  344.8000   117.6655     7.6147     7.3555
  344.9000   116.8960     7.6147     7.3680
  345.0000   116.3198     7.6147     7.4065
  345.1000   115.5826     7.6147     7.4062
  345.2000   115.0188     7.6361     7.4060
  345.3000   114.5710     7.6679     7.4058
  345.4000   113.8920     7.6679     7.4233
  345.5000   113.3816     7.6679     7.4572
  345.6000   113.1278     7.7041     7.4569
  345.7000   112.8985     7.7216     7.4567
