~VERSION INFORMATION
 VERS.                2.0:   CWLS LOG ASCII STANDARD - VERSION 2.0
 WRAP.                 NO:   ONE LINE PER DEPTH STEP
~WELL INFORMATION
#MNEM.UNIT      DATA TYPE    INFORMATION
#----------   ------------   ------------------------------
 STRT.F           28.0000:   START DEPTH
 STOP.F          546.5000:   STOP DEPTH
 STEP.F            0.5000:   STEP LENGTH
 NULL.          -999.2500:   NO VALUE
 COMP. LAWRENCE/ALLISON INC:   COMPANY
 WELL.    55-66 SX #10-10:   WELL
 FLD .            WILDCAT:   FIELD
 LOC .      S10 T38N R78W:   LOCATION
 CNTY.            NATRONA:   COUNTY
 STAT.            WYOMING:   STATE
 CTRY. UNITED STATES OF AMERICA:   COUNTRY
 SRVC.            Unknown:   SERVICE COMPANY
 DATE.        20-AUG-1984:   LOGDATE
 API .       490251098000:   API NUMBER
~CURVE INFORMATION
#MNEM.UNIT       API CODE    CURVE DESCRIPTION
#----------   ------------   ------------------------------
 DEPT.F                  :   
 CNC .DEC    42 890 03 00:   NEUTRON POROSITY SANDSTONE
 CALD.IN     45 280 60 00:   CALIPER FROM DENSITY LOG
 DEN .G/C3   45 350 01 00:   COMPENSATED BULK DENSTIY
 PORD.DEC    45 890 12 00:   POROSITY DENSITY STONESTONE
 CORR.G/C3   45 356 01 00:   DENSITY CORRECTION
 SPR .MV     07 010 01 00:   SPONTANEOUS POTENTIAL
 RFOC.OHMM   07 220 04 00:   RESISTIVITY FOCUSED LOG
 RILD.OHMM   07 120 46 00:   INDUCTION LOG DEEP RESISTIVITY
 RILM.OHMM   07 120 44 00:   INDUCTION LOG MEDIUM RESISTIVITY
 AC  .US/F   60 520 00 00:   ACCOUSTIC
 GRD .GAPI   45 310 01 00:   GAMMA RAY FROM DENSITY LOG
~PARAMETER INFORMATION
#MNEM.UNIT          VALUE    DESCRIPTION
#----------   ------------   ------------------------------
 PD  .                 GL:   PERMANENT DATUM
 EPD .F              5200:   ELEVATION PERMANENT DATUM
 LMF .                 GL:   LOG MEASURED FROM
 DMF .                 GL:   DRILLING MEASURED FROM
 EGL .F              5200:   GROUND LEVEL
 DATE.        20-AUG-1984:   RUN DATE
 RUN .                  1:   RUN NUMBER
 DD  .F               554:   DEPTH DRILLER
 DL  .F               548:   DEPTH LOGGER
 BLI .F               546:   BOTTOM LOG INTERVAL
 TLI .F                30:   TOP LOG INTERVAL
 CS  .IN            9.625:   CASING SIZE
 CBD .F                46:   CASING BOTTOM DRILLER
 CBL .F                41:   CASING BOTTOM LOGGER
 BS  .IN            7.875:   BIT SIZE
 BSD .F               554:   BIT SIZE AT DEPTH
 DFT .          KCL WATER:   DRILLING FLUID TYPE
 MSS .           FLOWLINE:   MUD SAMPLE SOURCE
 RMS .OHMM           .691:   RESISTIVITY MUD SAMPLE
 MST .F                82:   MUD SAMPLE TEMPERATURE
 MRT .F               100:   MAXIMUM RECORDED TEMPERATURE
 LUN .               6307:   LOGGING UNIT NUMBER
 LUL .               GLTE:   LOGGING UNIT LOCATION
 ENGI.           FAHLSING:   RECORDING ENGINEER
 WITN.           JENNINGS:   WITNESSED BY
 CLNT.            A2DTECH:   CLIENT CODE
 ORIG.       2", 5" PRINT:   ORIGIN OF DATA
 UWI .       490251098000:   UNIQUE WELL ID
 DICO. A2D Technologies, Inc.:   DIGITIZING COMPANY
~OTHER INFORMATION
~A   DEPT      CNC       CALD        DEN       PORD       CORR        SPR       RFOC       RILD       RILM         AC        GRD   
# ...
  150.0000     0.0490     7.8340     2.4320     0.1470     0.0200   -53.5200    37.5390     8.3820    10.6930  -999.2500   185.9520
  150.5000     0.0492     7.8190     2.4410     0.1430     0.0120   -53.5350    38.2290     8.4680    10.7890  -999.2500   184.5140
  151.0000     0.0495     7.8070     2.4480     0.1400     0.0050   -54.4760    40.0340     8.4680    10.8850  -999.2500   181.4330
  151.5000     0.0494     7.7940     2.4490     0.1390     0.0160   -55.3880    37.4580     8.4210    10.9540  -999.2500   178.3420
  152.0000     0.0497     7.7830     2.4500     0.1380     0.0120   -55.8570    33.7550     8.3790    10.9540  -999.2500   175.2510
  152.5000     0.0487     7.7970     2.4540     0.1370     0.0000   -55.3350    30.3860     8.3370    10.8540  -999.2500   172.4720
  153.0000     0.0477     7.8260     2.4570     0.1340    -0.0120   -54.6240    30.3860     8.2940    10.7630  -999.2500   170.2920
  153.5000     0.0465     7.8540     2.4560     0.1340    -0.0170   -52.8960    30.3860     8.2520    10.6720  -999.2500   169.4040
  154.0000     0.0455     7.8820     2.4530     0.1350     0.0060   -50.0860    29.3590     8.2100    10.5810  -999.2500   172.0320
  154.5000     0.0467     7.8320     2.4510     0.1370     0.0320   -47.2830    28.4920     8.1670    10.4900  -999.2500   174.5670
  155.0000     0.0479     7.7760     2.4490     0.1380     0.0360   -44.5240    32.5500     8.1490    10.4610  -999.2500   177.0940
  155.5000     0.0484     7.7820     2.4470     0.1400     0.0360   -43.7210    36.5180     8.1300    10.4610  -999.2500   179.3830
  156.0000     0.0475     7.8060     2.4520     0.1370     0.0370   -43.1970    36.1800     8.1110    10.4610  -999.2500   179.7160
  156.5000     0.0468     7.8310     2.4570     0.1350     0.0340   -40.4530    35.5250     8.0920    10.4860  -999.2500   179.9620
  157.0000     0.0471     7.8570     2.4550     0.1360     0.0330   -37.3890    37.4120     8.0730    10.5150  -999.2500   180.1850
  157.5000     0.0476     7.8530     2.4510     0.1380     0.0260   -34.3180    40.6900     8.0540    10.5430  -999.2500   181.6360
  158.0000     0.0482     7.8400     2.4480     0.1400     0.0150   -31.2480    43.0890     8.0350    10.5580  -999.2500   183.4640
  158.5000     0.0472     7.8270     2.4350     0.1430     0.0050   -28.1800    41.4630     8.0160    10.5580  -999.2500   185.2010
  159.0000     0.0463     7.8140     2.4220     0.1500    -0.0050   -25.2750    40.7770     7.9970    10.5580  -999.2500   186.2900
  159.5000     0.0462     7.8030     2.4100     0.1570    -0.0150   -23.5060    45.4970     7.9780    10.4800  -999.2500   187.3580
  160.0000     0.0459     7.8070     2.4060     0.1640    -0.0040   -21.8340    49.0060     7.9590    10.3620  -999.2500   186.6920
  160.5000     0.0458     7.8360     2.4190     0.1580     0.0090   -18.6650    43.9500     7.9400    10.2440  -999.2500   184.0910
  161.0000     0.0458     7.8680     2.4300     0.1520     0.0200   -13.7100    40.4040     7.9210    10.1270  -999.2500   181.8480
  161.5000     0.0457     7.8800     2.4390     0.1450     0.0130    -8.7820    40.7770     7.9010    10.0090  -999.2500   182.2780
  162.0000     0.0460     7.8760     2.4400     0.1430     0.0020    -3.6050    47.9950     7.8820     9.9920  -999.2500   182.6750
  162.5000     0.0463     7.8720     2.4410     0.1430    -0.0060    -2.1840    54.8430     7.8630     9.9920  -999.2500   181.9210
  163.0000     0.0465     7.8680     2.4400     0.1440    -0.0040    -1.8470    59.9900     7.8440    10.2070  -999.2500   181.0990
  163.5000     0.0465     7.8630     2.4380     0.1450     0.0000     0.3610    55.1830     7.8250    10.4110  -999.2500   183.5580
  164.0000     0.0464     7.8630     2.4370     0.1460     0.0050     7.6610    48.0770     7.8060    10.6160  -999.2500   185.9610
  164.5000     0.0451     7.8630     2.4390     0.1440     0.0080    14.9390    42.6940     7.7240    10.8530  -999.2500   182.9850
  165.0000     0.0442     7.8630     2.4450     0.1420     0.0080    17.0530    50.0720     7.5610    10.5550  -999.2500   178.6130
  165.5000     0.0435     7.8630     2.4450     0.1400     0.0000    16.6270    56.0100     7.3980    10.2010  -999.2500   174.2250
  166.0000     0.0441     7.8630     2.4400     0.1430    -0.0090    15.8720    60.5440     7.2360     9.8470  -999.2500   172.7250
  166.5000     0.0443     7.8630     2.4360     0.1450    -0.0170    15.1020    56.7710     7.0730     9.4930  -999.2500   175.1500
  167.0000     0.0440     7.8630     2.4360     0.1460    -0.0090    14.3470    63.1560     6.9110     9.1390  -999.2500   176.8980
  167.5000     0.0433     7.8630     2.4340     0.1460     0.0010    13.2210    70.1870     6.7480     8.8660  -999.2500   177.3640
  168.0000     0.0414     7.8630     2.4280     0.1500     0.0110    12.0830    77.2180     6.5850     8.7850  -999.2500   177.8630
  168.5000     0.0398     7.8630     2.4230     0.1550     0.0200    10.9370    81.2480     6.4270     8.7850  -999.2500   178.3640
  169.0000     0.0401     7.8630     2.4230     0.1550     0.0300     9.7900    69.4940     6.4270     8.9130  -999.2500   174.9950
  169.5000     0.0416     7.8630     2.4370     0.1470     0.0400     8.6410    83.4570     6.4270     9.1170  -999.2500   170.6600
  170.0000     0.0446     7.8630     2.4510     0.1400     0.0480     9.0110   116.4790     6.5230     9.3210   152.3250   166.3040
  170.5000     0.0440     7.8630     2.4590     0.1340     0.0440    10.3800   149.5010     6.7490     9.5250   152.3250   164.4620
  171.0000     0.0436     7.8630     2.4630     0.1320     0.0340    11.7420   182.5230     6.9760     9.7290   152.3250   167.0430
  171.5000     0.0436     7.8630     2.4670     0.1280     0.0270    13.0920   207.4900     7.2030     9.9330   183.0640   169.1590
  172.0000     0.0435     7.8630     2.4730     0.1240     0.0290    14.1820   177.2830     7.4290    10.1370   181.8040   167.8270
  172.5000     0.0438     7.8630     2.4810     0.1190     0.0320    13.1030   140.2390     7.6540    10.3410   239.7340   170.6700
  173.0000     0.0440     7.8630     2.4890     0.1140     0.0350    11.3770   103.1940     7.7140    10.4610   239.7110   174.0710
  173.5000     0.0440     7.8630     2.4870     0.1140     0.0370     9.6640    62.2360     7.7740    10.4610   239.6880   177.4840
  174.0000     0.0433     7.8630     2.4760     0.1210     0.0230     7.9510    68.2910     7.8340    10.4610   239.6650   180.9140
  174.5000     0.0433     7.8630     2.4620     0.1300     0.0120     6.2830    84.2910     7.8940    10.4250   239.6420   184.4900
  175.0000     0.0429     7.8630     2.4470     0.1390     0.0000     7.1110    80.8060     7.9540    10.3350   239.6190   182.6280
  175.5000     0.0438     7.8630     2.4390     0.1490    -0.0020     8.1720    71.0810     8.0140    10.2440   239.5960   168.4080
  176.0000     0.0447     7.8630     2.4330     0.1490     0.0060     9.2370    61.3550     7.8790    10.1540   239.5730   152.2390
  176.5000     0.0459     7.8630     2.4340     0.1480     0.0130     8.0070    51.6300     7.7440    10.0640   239.5500   137.8460
  177.0000     0.0461     7.8630     2.4350     0.1470     0.0140     7.0180    45.4010     7.6090     9.9730   239.5270   133.2250
  177.5000     0.0452     7.8630     2.4350     0.1460     0.0130     8.1090    41.5330     7.4740     9.9000   239.5040   128.4620
  178.0000     0.0448     7.8630     2.4340     0.1470     0.0110     7.3360    43.7810     7.2740     9.7890   239.4810   124.7900
  178.5000     0.0441     7.8630     2.4340     0.1480     0.0090     5.0570    47.2370     7.0560     9.6770   239.4580   123.0810
  179.0000     0.0432     7.8630     2.4330     0.1480     0.0070     3.4750    46.0750     6.8390     9.4260   227.0430   125.9490
  179.5000     0.0431     7.8620     2.4330     0.1460     0.0080    -0.5460    43.0530     6.6210     8.8940   202.4250   128.7580
  180.0000     0.0428     7.8600     2.4380     0.1440     0.0110    -6.1590    40.0320     6.4040     8.3610   180.2690   128.6980
