~VERSION INFORMATION
 VERS.                2.0:   CWLS LOG ASCII STANDARD - VERSION 2.0
 WRAP.                 NO:   ONE LINE PER DEPTH STEP
~WELL INFORMATION
#MNEM.UNIT      DATA TYPE    INFORMATION
#----------   ------------   ------------------------------
 STRT.M            0.0000:   START DEPTH
 STOP.M          642.0000:   STOP DEPTH
 STEP.M            0.1000:   STEP LENGTH
 NULL.          -999.2500:   NO VALUE
 COMP.   FLUOR DANIEL INC:   COMPANY
 WELL.     71-1 X 3 #71-3:   WELL
 FLD .             TEAPOT:   FIELD
 LOC .       S3 T38N R78W:   LOCATION
 CNTY.            NATRONA:   COUNTY
 STAT.            WYOMING:   STATE
 CTRY. UNITED STATES OF AMERICA:   COUNTRY
 SRVC.      Western Atlas:   SERVICE COMPANY
 DATE.        04-JAN-1995:   LOGDATE
 API .       490252267900:   API NUMBER
~CURVE INFORMATION
#MNEM.UNIT       API CODE    CURVE DESCRIPTION
#----------   ------------   ------------------------------
 DEPT.M                  :   
 RILD.OHMM   07 120 46 00:   INDUCTION LOG DEEP RESISTIVITY
 RILM.OHMM   07 120 44 00:   INDUCTION LOG MEDIUM RESISTIVITY
 GRR .GAPI   07 310 01 00:   GAMMA RAY
~PARAMETER INFORMATION
#MNEM.UNIT          VALUE    DESCRIPTION
#----------   ------------   ------------------------------
 PD  .                 GL:   PERMANENT DATUM
 EPD .F              5123:   ELEVATION PERMANENT DATUM
 LMF .                 KB:   LOG MEASURED FROM
 DAPD.F                10:   FEET ABOVE PERMANENT DATUM
 DMF .                 KB:   DRILLING MEASURED FROM
 EKB .F              5133:   KELLING BUSHING
 EDF .F              5132:   DRILLING FLOOR
 EGL .F              5123:   GROUND LEVEL
 DATE.        04-JAN-1995:   RUN DATE
 RUN .                  1:   RUN NUMBER
 DD  .F               647:   DEPTH DRILLER
 DL  .F               650:   DEPTH LOGGER
 BLI .F               642:   BOTTOM LOG INTERVAL
 TLI .F                96:   TOP LOG INTERVAL
 CS  .IN            9.625:   CASING SIZE
 CBD .F                96:   CASING BOTTOM DRILLER
 CBL .F                96:   CASING BOTTOM LOGGER
 BS  .IN             8.75:   BIT SIZE
 BSD .F               647:   BIT SIZE AT DEPTH
 DFT .                AIR:   DRILLING FLUID TYPE
 MRT .F                91:   MAXIMUM RECORDED TEMPERATURE
 LUN .            HL 6530:   LOGGING UNIT NUMBER
 LUL .             CASPER:   LOGGING UNIT LOCATION
 ENGI.        VERN RAUTIO:   RECORDING ENGINEER
 WITN.        GARY STRONG:   WITNESSED BY
 CLNT.            A2DTECH:   CLIENT CODE
 ORIG.           5" PRINT:   ORIGIN OF DATA
 UWI .       490252267900:   UNIQUE WELL ID
 DICO. A2D Technologies, Inc.:   DIGITIZING COMPANY
~OTHER INFORMATION
~A    DEPT    RILD       RILM        GRR   
# ...
  309.4000     8.7983     8.9576   125.2423
  309.5000     8.7984     8.9352   124.7011
  309.6000     8.7986     8.9184   124.2601
  309.7000     8.7987     8.8734   123.7691
  309.8000     8.7988     8.8734   123.0566
  309.9000     8.7989     8.8734   122.0722
  310.0000     8.7869     8.8406   121.0876
  310.1000     8.7383     8.8120   120.3500
  310.2000     8.7384     8.8020   119.8035
  310.3000     8.7386     8.7510   119.1764
  310.4000     8.7387     8.7510   118.5192
  310.5000     8.7388     8.7510   118.0281
  310.6000     8.7334     8.7510   117.4770
  310.7000     8.6786     8.7364   117.2627
  310.8000     8.6787     8.6904   117.0184
  310.9000     8.6788     8.6904   116.7740
  311.0000     8.6790     8.6491   116.5801
  311.1000     8.6791     8.6302   116.5825
  311.2000     8.6792     8.6302   116.5849
  311.3000     8.6793     8.6302   116.5873
  311.4000     8.6794     8.6302   116.8516
  311.5000     8.6796     8.5846   117.4230
  311.6000     8.6797     8.5705   118.2059
  311.7000     8.6798     8.5646   119.6185
  311.8000     8.6799     8.5526   120.4665
  311.9000     8.6800     8.5405   121.2997
  312.0000     8.6802     8.5284   122.1429
  312.1000     8.6803     8.5163   123.0870
  312.2000     8.6804     8.5112   123.8599
  312.3000     8.6805     8.5112   124.5724
  312.4000     8.6806     8.5112   124.9523
  312.5000     8.6808     8.5112   125.0755
  312.6000     8.6809     8.5112   125.1484
  312.7000     8.6682     8.5112   125.3823
  312.8000     8.6211     8.5112   125.0832
  312.9000     8.6212     8.5112   125.0852
  313.0000     8.6213     8.5112   124.9366
  313.1000     8.6214     8.5112   124.7879
  313.2000     8.6216     8.5112   124.7500
  313.3000     8.6217     8.5112   124.4908
  313.4000     8.6218     8.5112   124.2615
  313.5000     8.6219     8.5112   124.1934
  313.6000     8.6220     8.5112   124.3166
  313.7000     8.6222     8.5112   124.5003
  313.8000     8.6114     8.5112   124.5128
  313.9000     8.5628     8.5112   124.8077
  314.0000     8.5629     8.5112   124.8097
  314.1000     8.5630     8.5112   124.6660
  314.2000     8.5631     8.5112   124.4218
  314.3000     8.5632     8.5112   124.1774
  314.4000     8.5634     8.5112   123.9132
  314.5000     8.5635     8.5112   123.4622
  314.6000     8.5636     8.5112   122.9712
  314.7000     8.5637     8.5112   122.5960
  314.8000     8.5638     8.5112   122.2912
  314.9000     8.5640     8.5112   121.8052
  315.0000     8.5641     8.5112   121.5609
  315.1000     8.5642     8.5112   121.3166
  315.2000     8.5643     8.5112   121.0723
  315.3000     8.5644     8.5112   120.8280
  315.4000     8.5645     8.5112   120.5837
  315.5000     8.5647     8.5112   120.3144
  315.6000     8.5648     8.5112   120.3166
  315.7000     8.5649     8.5112   120.1529
  315.8000     8.5650     8.5112   120.0193
  315.9000     8.5651     8.5112   120.0218
  316.0000     8.5653     8.5112   120.0242
  316.1000     8.5654     8.5112   120.0266
  316.2000     8.5655     8.5112   120.0290
  316.3000     8.5656     8.5112   120.0314
  316.4000     8.5657     8.5112   120.0338
  316.5000     8.5659     8.5112   120.0362
  316.6000     8.5660     8.5112   120.0390
  316.7000     8.5661     8.5112   120.0411
  316.8000     8.5662     8.5112   119.8824
  316.9000     8.5663     8.5112   119.6381
  317.0000     8.5665     8.5112   119.4441
  317.1000     8.5666     8.5112   119.4466
  317.2000     8.5667     8.5112   119.4489
  317.3000     8.5668     8.5112   119.2651
  317.4000     8.5669     8.5112   119.0208
  317.5000     8.5670     8.5112   118.8520
  317.6000     8.5672     8.5112   118.8140
  317.7000     8.5673     8.4927   118.2529
  317.8000     8.5674     8.4485   118.0435
  317.9000     8.5313     8.4246   117.6431
  318.0000     8.4833     8.4008   117.2528
  318.1000     8.4496     8.3938   117.0085
  318.2000     8.4498     8.3938   116.7542
  318.3000     8.4499     8.3938   116.7565
  318.4000     8.4500     8.3938   116.5776
  318.5000     8.4207     8.3938   116.4592
  318.6000     8.3918     8.3559   116.4616
  318.7000     8.3841     8.3357   116.4791
  318.8000     8.3340     8.3357   116.7690
  318.9000     8.3341     8.3357   116.9774
  319.0000     8.3342     8.3357   117.3776
  319.1000     8.3343     8.2936   117.8735
  319.2000     8.3223     8.2780   118.3693
  319.3000     8.2754     8.2780   118.8956
  319.4000     8.2198     8.2780   119.3612
  319.5000     8.2199     8.2780   119.8570
  319.6000     8.2200     8.2318   120.3529
  319.7000     8.2201     8.1853   120.8488
  319.8000     8.2144     8.1638   121.3446
  319.9000     8.1635     8.1638   121.9316
  320.0000     8.1636     8.1638   122.1349
  320.1000     8.1327     8.1638   122.3841
  320.2000     8.1074     8.1243   122.7239
  320.3000     8.1075     8.1072   123.2198
  320.4000     8.1076     8.1072   123.7561
  320.5000     8.1077     8.1072   123.7583
  320.6000     8.0727     8.1072   123.9319
  320.7000     8.0273     8.0638   124.0653
  320.8000     7.9963     8.0511   124.1281
  320.9000     7.9964     8.0511   124.3722
  321.0000     7.9965     8.0511   124.3746
  321.1000     7.9966     8.0492   124.3770
  321.2000     7.9681     7.9954   124.3795
  321.3000     7.9415     7.9954   124.3819
  321.4000     7.9416     7.9688   124.2937
  321.5000     7.9417     7.9401   123.4806
  321.6000     7.8991     7.9401   122.8181
  321.7000     7.8870     7.9401   122.2465
  321.8000     7.8871     7.8992   121.5339
  321.9000     7.8872     7.8851   120.5495
  322.0000     7.8873     7.8647   119.5650
  322.1000     7.8875     7.8305   118.5804
  322.2000     7.8876     7.8303   117.9786
  322.3000     7.8612     7.7861   117.4876
  322.4000     7.8169     7.7592   116.9966
  322.5000     7.7791     7.7373   116.5556
  322.6000     7.7793     7.7225   116.5586
  322.7000     7.7794     7.7182   116.9937
  322.8000     7.7492     7.6690   117.8118
  322.9000     7.7258     7.6313   119.1184
  323.0000     7.7155     7.5882   120.7474
  323.1000     7.6725     7.5453   122.0085
  323.2000     7.6727     7.5027   122.9777
  323.3000     7.6051     7.4589   123.5944
  323.4000     7.5671     7.4182   124.0903
  323.5000     7.5531     7.3763   124.3595
  323.6000     7.5105     7.3347   124.1153
  323.7000     7.4631     7.2932   123.8360
  323.8000     7.4262     7.2520   123.2036
  323.9000     7.3844     7.2043   122.4658
  324.0000     7.3429     7.1367   121.8288
  324.1000     7.3015     7.0805   121.3378
  324.2000     7.2592     7.0405   120.8267
  324.3000     7.2195     6.9947   120.5924
  324.4000     7.1789     6.9102   120.3480
  324.5000     7.1177     6.8740   120.2296
  324.6000     7.0492     6.8352   120.2320
  324.7000     7.0095     6.7785   120.2495
  324.8000     6.9637     6.7209   120.5394
  324.9000     6.8981     6.7200   120.7478
  325.0000     6.8679     6.6821   121.1480
  325.1000     6.8382     6.6444   121.5482
  325.2000     6.7734     6.6069   121.7973
  325.3000     6.7735     6.5695   122.0618
  325.4000     6.7379     6.5324   122.2956
  325.5000     6.7000     6.4915   122.5448
  325.6000     6.6804     6.4589   122.7940
  325.7000     6.6614     6.4465   122.9776
  325.8000     6.5885     6.4149   122.9801
  325.9000     6.5886     6.3538   122.9829
  326.0000     6.5589     6.3359   122.9849
  326.1000     6.5220     6.3179   122.8413
  326.2000     6.4853     6.3136   122.5064
  326.3000     6.4488     6.3136   121.8746
  326.4000     6.4087     6.3027   120.2757
  326.5000     6.4087     6.2699   119.1450
  326.6000     6.3847     6.2699   118.0849
  326.7000     6.3646     6.2699   116.9846
  326.8000     6.3569     6.2699   115.8139
  326.9000     6.3207     6.2699   114.8394
  327.0000     6.3208     6.2699   114.3485
  327.1000     6.3209     6.2699   114.2502
  327.2000     6.3210     6.2699   114.2526
  327.3000     6.3211     6.2955   114.2550
  327.4000     6.3212     6.3136   114.2574
  327.5000     6.3213     6.3231   114.2601
