~VERSION INFORMATION
 VERS.                2.0:   CWLS LOG ASCII STANDARD - VERSION 2.0
 WRAP.                 NO:   ONE LINE PER DEPTH STEP
~WELL INFORMATION
#MNEM.UNIT      DATA TYPE    INFORMATION
#----------   ------------   ------------------------------
 STRT.F           22.0000:   START DEPTH
 STOP.F          654.0000:   STOP DEPTH
 STEP.F            0.5000:   STEP LENGTH
 NULL.          -999.2500:   NO VALUE
 COMP. FENIX & SCISSON INC:   COMPANY
 WELL.     54 S 34 #54-34:   WELL
 FLD .             TEAPOT:   FIELD
 LOC .      S34 T39N R78W:   LOCATION
 CNTY.            NATRONA:   COUNTY
 STAT.            WYOMING:   STATE
 CTRY. UNITED STATES OF AMERICA:   COUNTRY
 SRVC.           BIRDWELL:   SERVICE COMPANY
 DATE.        22-AUG-1978:   LOGDATE
 API .       490251070100:   API NUMBER
~CURVE INFORMATION
#MNEM.UNIT       API CODE    CURVE DESCRIPTION
#----------   ------------   ------------------------------
 DEPT.F                  :   
 SPR .MV     05 010 01 00:   SPONTANEOUS POTENTIAL FROM RES.
 SN  .OHMM   05 040 16 00:   SHORT NORMAL 16"
 ILD .OHMM   05 120 46 00:   INDUCTION LOG DEEP
 CALD.IN     45 280 60 00:   CALIPER
 GRD .GAPI   45 310 01 00:   GAMMA RAY FROM DENSITY LOG
 DPHI.DEC    45 890 12 00:   DENSITY POROSITY SANDSTONE
 RHOB.G/C3   45 350 01 00:   BULK DENSITY
 CORR.G/C3   45 356 01 00:   DENSITY CORRECTION
~PARAMETER INFORMATION
#MNEM.UNIT          VALUE    DESCRIPTION
#----------   ------------   ------------------------------
 PD  .                 GL:   PERMANENT DATUM
 EPD .F              5085:   ELEVATION PERMANENT DATUM
 LMF .                 KB:   LOG MEASURED FROM
 DAPD.F                 4:   FEET ABOVE PERMANENT DATUM
 DMF .                 KB:   DRILLING MEASURED FROM
 EKB .F              5089:   KELLING BUSHING
 EGL .F              5085:   GROUND LEVEL
 DATE.            8-22-78:   RUN DATE
 RUN .                  1:   RUN NUMBER
 DD  .F               685:   DEPTH DRILLER
 DL  .F               653:   DEPTH LOGGER
 BLI .F               646:   BOTTOM LOG INTERVAL
 TLI .F                30:   TOP LOG INTERVAL
 CS  .IN            8.625:   CASING SIZE
 CBD .F                46:   CASING BOTTOM DRILLER
 CBL .F                46:   CASING BOTTOM LOGGER
 BS  .IN            7.875:   BIT SIZE
 BSD .F               685:   BIT SIZE AT DEPTH
 DFT .                KCL:   DRILLING FLUID TYPE
 DFD .                8.7:   DRILLING FLUID DENSITY
 DFV .                 33:   DRILLING FLUID VISCOSITY
 DFPH.                  9:   DRILLING FLUID PH
 MSS .           FLOWLINE:   MUD SAMPLE SOURCE
 RMS .OHMM            .18:   RESISTIVITY MUD SAMPLE
 MST .F                86:   MUD SAMPLE TEMPERATURE
 RMF .OHMM            .16:   RESISTIVITY MUD FILTRATE SAMPLE
 MFST.F                86:   MUD FILTRATE SAMPLE TEMPERATURE
 RMC .OHMM            .52:   RESISTIVITY MUD CAKE
 MCST.F                86:   MUD CAKE SAMPLE TEMPERATURE
 MFSS.               MEAS:   MUD FILTRATE SAMPLE SOURCE
 MCSS.               MEAS:   MUD CAKE SAMPLE SOURCE
 BHT .F                70:   BOTTOM HOLE TEMPERATURE
 TCS .HRS               2:   TIME CURCULATED STOPPED
 MRT .F                70:   MAXIMUM RECORDED TEMPERATURE
 LUN .               2958:   LOGGING UNIT NUMBER
 LUL .               CASP:   LOGGING UNIT LOCATION
 ENGI.           REYNOLDS:   RECORDING ENGINEER
 WITN.              AMEND:   WITNESSED BY
 CLNT.            A2DTECH:   CLIENT CODE
 ORIG.           5" PRINT:   ORIGIN OF DATA
 UWI .       490251070100:   UNIQUE WELL ID
 DICO. A2D Technologies, Inc.:   DIGITIZING COMPANY
~OTHER INFORMATION
~A   DEPT      SPR         SN        ILD       CALD         GRD      DPHI       RHOB       CORR   
# ...
  265.0000   -36.8032     8.1384     7.5603     7.6900   114.0101     0.1263     2.4755     0.0130
  265.5000   -36.8559     8.2233     7.6665     7.6900   117.3624     0.1236     2.4769     0.0128
  266.0000   -36.9085     8.3092     7.7741     7.6900   110.3724     0.1232     2.4783     0.0125
  266.5000   -36.9611     8.3960     7.8833     7.6900   101.7490     0.1235     2.4781     0.0125
  267.0000   -37.0138     8.4837     7.9938     7.6900   100.5885     0.1238     2.4765     0.0138
  267.5000   -37.0664     8.5723     8.1321     7.6900    96.6690     0.1241     2.4748     0.0163
  268.0000   -37.1180     8.5927     8.1081     7.6900    95.8778     0.1244     2.4740     0.0188
  268.5000   -37.1685     8.5653     8.0771     7.6900    96.7326     0.1240     2.4748     0.0213
  269.0000   -37.2742     8.5372     8.0455     7.6900    98.7301     0.1228     2.4786     0.0238
  269.5000   -37.3898     8.5092     8.0129     7.6900   101.5321     0.1179     2.4888     0.0263
  270.0000   -37.3589     8.4813     7.9804     7.6900   101.8971     0.1129     2.4996     0.0285
  270.5000   -37.3201     8.4535     7.9481     7.6900    99.0950     0.1079     2.5105     0.0286
  271.0000   -37.2817     8.4257     7.9159     7.6900    98.2258     0.1064     2.5145     0.0248
  271.5000   -37.2438     8.3979     7.8839     7.6900    98.5142     0.1089     2.5065     0.0195
  272.0000   -37.2058     8.3592     7.8388     7.6900    98.7151     0.1123     2.5044     0.0142
  272.5000   -37.1678     8.3805     7.8654     7.6900    97.8913     0.1158     2.5008     0.0104
  273.0000   -37.1298     8.4167     7.9108     7.6900    96.9072     0.1193     2.4912     0.0105
  273.5000   -37.0919     8.4531     7.9564     7.6900    96.0624     0.1228     2.4822     0.0163
  274.0000   -37.0539     8.4896     8.0023     7.6900    96.3366     0.1254     2.4758     0.0228
  274.5000   -37.0159     8.5264     8.0484     7.6900    99.1958     0.1213     2.4766     0.0283
  275.0000   -36.9779     8.5631     8.0949     7.6900   102.1115     0.1128     2.4922     0.0251
  275.5000   -36.9400     8.5926     8.1417     7.6900   104.0533     0.1043     2.5091     0.0219
  276.0000   -36.9016     8.5719     8.2070     7.6900   104.0948     0.0984     2.5222     0.0187
  276.5000   -36.8623     8.5546     8.1985     7.6900   101.6284     0.1019     2.5165     0.0165
  277.0000   -36.8349     8.5373     8.1833     7.6900    98.3904     0.1068     2.5087     0.0193
  277.5000   -37.0633     8.5200     8.1684     7.6900    98.5295     0.1112     2.5010     0.0225
  278.0000   -37.3016     8.5028     8.1536     7.6900   102.1397     0.1116     2.4971     0.0257
  278.5000   -37.5388     8.4856     8.1388     7.6900   105.1683     0.1078     2.5010     0.0285
  279.0000   -37.7756     8.4685     8.1240     7.6900   105.6232     0.1024     2.5086     0.0289
  279.5000   -38.0126     8.4514     8.1093     7.6900   102.7186     0.1041     2.5093     0.0292
  280.0000   -38.2494     8.4343     8.0946     7.6900   101.9551     0.1072     2.5081     0.0248
  280.5000   -38.4847     8.4173     8.0799     7.6900    99.1184     0.1040     2.5115     0.0203
  281.0000   -38.6032     8.4003     8.0652     7.6900    95.9161     0.1008     2.5157     0.0157
  281.5000   -38.5513     8.3833     8.0506     7.6900    93.3964     0.1085     2.5055     0.0145
  282.0000   -38.5017     8.3664     8.0360     7.6900   103.0268     0.1155     2.4901     0.0143
  282.5000   -38.4516     8.3495     8.0214     7.6900   102.4874     0.1180     2.4843     0.0140
  283.0000   -38.4016     8.3326     8.0068     7.6900   102.1740     0.1142     2.4914     0.0137
  283.5000   -38.3515     8.3158     7.9923     7.6900   101.8633     0.1134     2.4947     0.0134
  284.0000   -38.3016     8.2990     7.9778     7.6900   101.7080     0.1154     2.4912     0.0131
  284.5000   -38.2526     8.2830     7.9633     7.6900   102.3344     0.1185     2.4857     0.0127
  285.0000   -38.2697     8.2828     7.9489     7.6900   104.2443     0.1216     2.4800     0.0124
  285.5000   -38.3773     8.2828     7.9345     7.6900   105.1302     0.1246     2.4741     0.0120
  286.0000   -38.4837     8.2828     7.9201     7.6900   104.0157     0.1248     2.4750     0.0116
  286.5000   -38.5904     8.2828     7.9057     7.6900   102.3540     0.1224     2.4811     0.0112
  287.0000   -38.6971     8.2828     7.8913     7.6900   102.1115     0.1184     2.4881     0.0108
  287.5000   -38.8037     8.2828     7.8770     7.6900   103.2081     0.1156     2.4883     0.0118
  288.0000   -38.9104     8.2828     7.8627     7.6900   105.6776     0.1218     2.4820     0.0166
  288.5000   -39.0171     8.2828     7.8485     7.6900   108.1224     0.1232     2.4783     0.0214
  289.0000   -39.1237     8.2828     7.8342     7.6900   109.3003     0.1165     2.4872     0.0263
  289.5000   -39.2304     8.2828     7.8200     7.6900   107.5031     0.1104     2.4975     0.0231
  290.0000   -39.3371     8.2828     7.8058     7.6900   106.4838     0.1043     2.5078     0.0191
  290.5000   -39.4437     8.2828     7.7917     7.6900   108.6664     0.1000     2.5169     0.0153
  291.0000   -39.5505     8.2827     7.7775     7.6900   110.4502     0.1070     2.5125     0.0125
  291.5000   -39.6571     8.2886     7.7680     7.6900   107.8502     0.1140     2.4945     0.0126
  292.0000   -39.7636     8.2971     7.7995     7.6900   105.3290     0.1138     2.4952     0.0127
  292.5000   -39.8206     8.3057     7.8252     7.6900   103.4676     0.1118     2.4997     0.0128
  293.0000   -39.8203     8.3143     7.8510     7.6900   106.9881     0.1122     2.4939     0.0129
  293.5000   -39.8204     8.3229     7.8768     7.6900   109.8691     0.1144     2.4911     0.0130
  294.0000   -39.8208     8.3315     7.9027     7.6900   106.9885     0.1143     2.4937     0.0131
  294.5000   -39.8223     8.3401     7.9287     7.6900   105.5058     0.1133     2.4971     0.0131
  295.0000   -39.8080     8.3487     7.9548     7.6900   105.3211     0.1123     2.4985     0.0132
  295.5000   -39.5525     8.3574     7.9810     7.6900   103.7516     0.1179     2.4863     0.0133
  296.0000   -39.3004     8.3660     8.0073     7.6900   102.5155     0.1204     2.4821     0.0134
  296.5000   -39.0504     8.3747     8.0337     7.6900   102.7121     0.1187     2.4851     0.0135
  297.0000   -38.8182     8.3833     8.0578     7.6900   102.8643     0.1164     2.4886     0.0136
  297.5000   -38.6942     8.3920     8.0578     7.6900   100.5605     0.1140     2.4921     0.0137
  298.0000   -38.5765     8.4007     8.0578     7.6900    97.8647     0.1116     2.4956     0.0137
  298.5000   -38.4580     8.4094     8.0578     7.6900    97.1308     0.1106     2.4989     0.0138
  299.0000   -38.4199     8.4181     8.0578     7.6900   100.0621     0.1110     2.4990     0.0139
  299.5000   -38.6146     8.4270     8.0578     7.6900   100.8431     0.1127     2.4963     0.0140
  300.0000   -38.8812     8.4357     8.0578     7.6900   102.0079     0.1158     2.4910     0.0141
  300.5000   -39.1517     8.4090     8.0578     7.6900   104.2984     0.1189     2.4857     0.0142
  301.0000   -39.4222     8.3785     8.0577     7.6900   103.0289     0.1216     2.4830     0.0143
  301.5000   -39.6927     8.3481     8.0586     7.6900   101.4191     0.1216     2.4840     0.0143
  302.0000   -39.9632     8.3179     8.0347     7.6900   101.2885     0.1157     2.4897     0.0144
  302.5000   -40.2297     8.2878     7.9907     7.6900   103.5313     0.1100     2.4951     0.0145
  303.0000   -40.4129     8.2578     7.9464     7.6900   105.1128     0.1092     2.5006     0.0146
  303.5000   -40.3757     8.2280     7.9023     7.6900   106.6167     0.1107     2.5020     0.0147
  304.0000   -40.3435     8.1982     7.8585     7.6900   108.1380     0.1112     2.4986     0.0148
  304.5000   -40.3106     8.1685     7.8149     7.6900   109.1008     0.1104     2.4969     0.0149
  305.0000   -40.2778     8.1390     7.7715     7.6900   102.3895     0.1050     2.5057     0.0149
