~VERSION INFORMATION
 VERS.                2.0:   CWLS LOG ASCII STANDARD - VERSION 2.0
 WRAP.                 NO:   ONE LINE PER DEPTH STEP
~WELL INFORMATION
#MNEM.UNIT      DATA TYPE    INFORMATION
#----------   ------------   ------------------------------
 STRT.F           10.0000:   START DEPTH
 STOP.F          756.0000:   STOP DEPTH
 STEP.F            0.1000:   STEP LENGTH
 NULL.          -999.2500:   NO VALUE
 COMP. BROWN JOHN E&C INC:   COMPANY
 WELL. N P R 3 SHX- #31-1-X-14:   WELL
 FLD .             TEAPOT:   FIELD
 LOC .      S14 T38N R78W:   LOCATION
 CNTY.            NATRONA:   COUNTY
 STAT.            WYOMING:   STATE
 CTRY. UNITED STATES OF AMERICA:   COUNTRY
 SRVC.     Atlas Wireline:   SERVICE COMPANY
 DATE.        07-JAN-1992:   LOGDATE
 API .       490252249700:   API NUMBER
~CURVE INFORMATION
#MNEM.UNIT       API CODE    CURVE DESCRIPTION
#----------   ------------   ------------------------------
 DEPT.F                  :   
 GRR .GAPI   07 310 01 00:   GAMMA RAY
 RFOC.OHMM   07 220 04 00:   RESISTIVITY FOCUSED LOG RES.
 RILD.OHMM   07 120 46 00:   INDUCTION LOG DEEP RESISTIVITY
 RILM.OHMM   07 120 44 00:   INDUCTION LOG MEDIUM  RESISTIVITY
~PARAMETER INFORMATION
#MNEM.UNIT          VALUE    DESCRIPTION
#----------   ------------   ------------------------------
 PD  .                 GL:   PERMANENT DATUM
 EPD .F              5210:   ELEVATION PERMANENT DATUM
 LMF .                 KB:   LOG MEASURED FROM
 DAPD.F                10:   FEET ABOVE PERMANENT DATUM
 DMF .                 KB:   DRILLING MEASURED FROM
 EKB .F              5220:   KELLING BUSHING
 EDF .F              5219:   DRILLING FLOOR
 EGL .F              5210:   GROUND LEVEL
 DATE.        07-JAN-1992:   RUN DATE
 RUN .                  1:   RUN NUMBER
 DD  .F               762:   DEPTH DRILLER
 DL  .F               760:   DEPTH LOGGER
 BLI .F               758:   BOTTOM LOG INTERVAL
 CS  .IN            9.625:   CASING SIZE
 CBD .F                48:   CASING BOTTOM DRILLER
 CBL .F                50:   CASING BOTTOM LOGGER
 BS  .IN             8.75:   BIT SIZE
 BSD .F               762:   BIT SIZE AT DEPTH
 DFT .    FORMATION FLUID:   DRILLING FLUID TYPE
 MRT .F                90:   MAXIMUM RECORDED TEMPERATURE
 LUN .            HL-6274:   LOGGING UNIT NUMBER
 LUL .             CASPER:   LOGGING UNIT LOCATION
 ENGI.             RAUTIC:   RECORDING ENGINEER
 WITN.        GARY STRONG:   WITNESSED BY
 CLNT.            A2DTECH:   CLIENT CODE
 ORIG.           5" PRINT:   ORIGIN OF DATA
 UWI .       490252249700:   UNIQUE WELL ID
 DICO. A2D Technologies, Inc.:   DIGITIZING COMPANY
~OTHER INFORMATION
~A   DEPT       GRR      RFOC       RILD       RILM   
# ...
  550.2000   118.5378     8.5724     7.2417     7.8301
  550.3000   118.2900     8.5722     7.2247     7.8036
  550.4000   117.9455     8.5719     7.2250     7.7587
  550.5000   117.4923     8.6207     7.2253     7.7139
  550.6000   117.2387     8.6314     7.2256     7.6677
  550.7000   116.9970     8.6312     7.2259     7.6675
  550.8000   116.9426     8.6309     7.2262     7.6342
  550.9000   116.8037     8.6307     7.2036     7.6140
  551.0000   116.6465     8.6304     7.1768     7.6138
  551.1000   116.6103     8.6783     7.1771     7.6136
  551.2000   116.3506     8.6525     7.1774     7.6134
  551.3000   116.3535     8.6297     7.1777     7.6132
  551.4000   116.1691     8.6295     7.1480     7.5818
  551.5000   116.0574     8.6293     7.1285     7.5601
  551.6000   115.9758     8.6290     7.1288     7.5730
  551.7000   115.7609     8.5822     7.1291     7.6124
  551.8000   115.7646     8.5686     7.1294     7.5594
  551.9000   115.7674     8.5683     7.1297     7.5592
  552.0000   115.5892     8.5522     7.1300     7.5885
  552.1000   115.4713     8.5083     7.1303     7.6115
  552.2000   115.4743     8.5081     7.1306     7.6113
  552.3000   115.4773     8.4631     7.1309     7.6134
  552.4000   115.4807     8.4141     7.1312     7.6639
  552.5000   115.7100     8.3896     7.1315     7.7011
  552.6000   116.3144     8.3750     7.1318     7.7453
  552.7000   117.3173     8.3264     7.1507     7.7705
  552.8000   118.5736     8.2727     7.1821     7.7802
  552.9000   119.7461     8.2301     7.1840     7.8249
  553.0000   120.0306     8.1824     7.2329     7.8785
  553.1000   120.2537     8.1350     7.2331     7.9150
  553.2000   120.3384     8.0878     7.2334     7.9330
  553.3000   120.3414     8.0409     7.2512     7.9507
  553.4000   120.3444     7.9879     7.2934     7.9879
  553.5000   120.3323     7.9480     7.3359     7.9876
  553.6000   120.0488     7.9019     7.4214     8.0324
  553.7000   119.8368     7.8767     7.4732     8.0429
  553.8000   119.5891     7.8765     7.5167     8.0426
  553.9000   119.2297     7.8783     7.5773     8.0588
  554.0000   118.5503     7.9311     7.6496     8.0983
  554.1000   117.2990     7.9696     7.6500     8.0980
  554.2000   115.8374     8.0156     7.6932     8.1416
  554.3000   114.5890     8.0619     7.7380     8.1540
  554.4000   112.9304     8.1190     7.7580     8.1538
  554.5000   111.3896     8.2142     7.7740     8.1683
  554.6000   110.3565     8.3846     7.8128     8.2102
  554.7000   110.1088     8.5044     7.8131     8.2099
  554.8000   109.8133     8.6223     7.8134     8.2097
  554.9000   109.8157     8.7431     7.8138     8.2095
  555.0000   109.9698     8.8854     7.8141     8.2092
  555.1000   110.2236     8.9889     7.8003     8.2090
  555.2000   110.4773     9.0930     7.7606     8.2056
  555.3000   110.7342     9.1986     7.7610     8.1517
  555.4000   110.9849     9.2738     7.7211     8.1515
  555.5000   111.2386     9.3067     7.6770     8.1208
  555.6000   111.4924     9.3160     7.6548     8.0740
  555.7000   111.6994     9.3713     7.6427     8.0275
  555.8000   111.8278     9.3711     7.5991     7.9812
  555.9000   111.9608     9.3708     7.5501     7.9270
  556.0000   111.7219     9.3705     7.4753     7.8524
  556.1000   111.6647     9.3703     7.4181     7.7898
  556.2000   111.5287     9.3700     7.3758     7.7449
  556.3000   111.3686     9.3697     7.3233     7.6916
  556.4000   111.3354     9.4210     7.2396     7.6024
  556.5000   111.0727     9.4348     7.1435     7.5591
  556.6000   110.8399     9.4345     7.0754     7.4819
  556.7000   110.7764     9.4525     6.9947     7.3720
  556.8000   110.6465     9.5071     6.8983     7.2456
  556.9000   110.4804     9.5662     6.7720     7.1213
  557.0000   110.4834     9.5659     6.6169     6.9933
  557.1000   110.4867     9.6056     6.3049     6.8794
  557.2000   110.4894     9.6323     6.1341     6.7330
  557.3000   110.4924     9.6321     5.9261     6.5797
  557.4000   110.4955     9.6203     5.7249     6.4179
  557.5000   110.5739     9.4981     5.5301     6.2271
  557.6000   110.8277     9.3996     5.3372     5.9597
  557.7000   111.1091     9.2176     5.1614     5.7160
  557.8000   111.3354     9.0064     4.9435     5.4593
  557.9000   111.5892     8.7577     4.7509     5.2281
  558.0000   111.8430     8.4047     4.5896     5.0376
  558.1000   112.0967     7.9775     4.4407     4.9034
  558.2000   112.3505     7.7012     4.3337     4.8716
  558.3000   112.6379     7.2849     4.2642     4.8715
  558.4000   112.8579     6.8351     4.1913     4.8901
  558.5000   113.1117     6.4212     4.1321     4.8923
  558.6000   113.4803     6.0582     4.0849     4.8711
  558.7000   113.9850     5.6679     4.0357     4.8697
  558.8000   114.5016     5.4241     3.9602     4.8371
  558.9000   115.3751     5.2058     3.9398     4.7908
  559.0000   116.0122     5.0279     3.9016     4.6854
  559.1000   116.9276     4.8954     3.8680     4.5099
  559.2000   117.8248     4.8952     3.8459     4.2816
  559.3000   118.5800     4.8951     3.8240     4.0654
  559.4000   119.3290     4.9185     3.7994     4.0889
  559.5000   119.9250     4.9469     3.7805     4.1124
  559.6000   120.3384     4.9876     3.7734     4.1501
  559.7000   120.6888     5.0454     3.8347     4.2168
  559.8000   120.8399     5.1042     4.0186     4.3190
  559.9000   120.6888     5.2112     4.3485     4.4489
  560.0000   119.9396     5.2845     4.6491     4.6783
  560.1000   119.1903     5.4922     4.8105     4.8837
  560.2000   117.8429     5.7991     4.9718     5.0353
  560.3000   116.6375     6.1361     5.0917     5.1419
  560.4000   115.6373     6.4677     5.1740     5.3248
  560.5000   114.6824     6.9284     5.2341     6.1654
  560.6000   113.9155     7.5683     5.3069     6.3325
  560.7000   113.9184     8.4219     5.3567     6.4361
  560.8000   113.7281     9.1963     5.4190     6.5007
  560.9000   113.6224     9.5831     5.4695     6.5435
  561.0000   113.6254     9.7572     5.5072     6.5811
  561.1000   113.6284     9.9213     5.5726     6.6300
  561.2000   113.6316    10.0949     5.6681     6.7097
  561.3000   113.3957    10.2057     5.7672     6.8408
  561.4000   113.3354    10.2441     5.8874     6.9452
  561.5000   113.3384    10.2438     6.0248     7.0386
  561.6000   113.3414    10.2435     6.1818     7.1198
  561.7000   113.3444    10.2433     6.4501     7.2019
  561.8000   113.3476    10.2430     6.8515     7.2907
  561.9000   113.3504    10.2427     7.1445     7.5382
  562.0000   113.1723    10.2424     7.3730     7.6853
  562.1000   113.0544    10.2421     7.5886     7.8640
  562.2000   112.9789    10.2418     7.8046     8.0667
  562.3000   112.7580    10.2415     8.0031     8.3014
  562.4000   112.7616    10.2413     8.2171     8.5423
  562.5000   112.5377    10.2410     8.4231     8.7414
  562.6000   112.1147    10.2407     8.5948     8.9035
  562.7000   111.7402    10.2404     8.7449     9.0895
  562.8000   111.4201    10.2401     8.8930     9.2591
  562.9000   110.9216    10.2398     9.0093     9.3658
  563.0000   110.3629    10.2395     9.0553     9.4773
  563.1000   109.7039    10.2393     9.1080     9.5300
  563.2000   108.9545    10.2390     9.1365     9.6269
  563.3000   108.2053    10.2387     9.1369     9.7069
  563.4000   107.5226    10.2384     9.1373     9.7240
  563.5000   107.0241    10.2381     9.1377     9.6680
  563.6000   106.4536    10.2378     9.1380     9.6083
  563.7000   106.4562    10.2375     9.1384     9.5569
  563.8000   106.4592    10.2373     9.1388     9.5018
  563.9000   106.4622    10.2370     9.1392     9.4471
  564.0000   106.4653    10.2366     9.1387     9.4091
  564.1000   106.4774    10.2364     9.0767     9.4036
  564.2000   106.7739    10.2361     9.0770     9.3434
  564.3000   106.9849    10.2358     9.0774     9.3432
  564.4000   107.2387    10.2355     9.0777     9.3429
  564.5000   107.5982    10.2353     9.0781     9.3427
  564.6000   108.0483    10.2349     9.0785     9.3424
  564.7000   108.3052    10.2347     9.0277     9.3422
