~VERSION INFORMATION
 VERS.                2.0:   CWLS LOG ASCII STANDARD - VERSION 2.0
 WRAP.                 NO:   ONE LINE PER DEPTH STEP
~WELL INFORMATION
#MNEM.UNIT      DATA TYPE    INFORMATION
#----------   ------------   ------------------------------
 STRT.F           46.0000:   START DEPTH
 STOP.F          522.0000:   STOP DEPTH
 STEP.F            0.5000:   STEP LENGTH
 NULL.          -999.2500:   NO VALUE
 COMP.       F D SERV INC:   COMPANY
 WELL.  82-4 SX 10 #82-10:   WELL
 FLD .             TEAPOT:   FIELD
 LOC .      S10 T38N R78W:   LOCATION
 CNTY.            NATRONA:   COUNTY
 STAT.            WYOMING:   STATE
 CTRY. UNITED STATES OF AMERICA:   COUNTRY
 SRVC.     Atlas Wireline:   SERVICE COMPANY
 DATE.        04-FEB-1993:   LOGDATE
 API .       490252257900:   API NUMBER
~CURVE INFORMATION
#MNEM.UNIT       API CODE    CURVE DESCRIPTION
#----------   ------------   ------------------------------
 DEPT.F                  :   
 C13 .IN     45 280 13 00:   CALIPER FROM DENSITY LOG
 GRD .GAPI   45 310 01 00:   GAMMA RAY FROM DENSITY LOG
 PORS.DEC    42 890 03 00:   NEUTRON POROSITY SANDSTONE
 PORZ.DEC    45 890 12 00:   DENSITY POROSITY SANDSTONE
 ZCOR.G/C3   45 356 01 00:   DENSITY CORRECTION
 ZDEN.G/C3   45 350 01 00:   BULK DENSITY
 RILD.OHMM   07 120 46 00:   INDUCTION LOG DEEP RESISTIVITY
 RILM.OHMM   07 120 44 00:   INDUCTION LOG MEDIUM RESISTIVITY
~PARAMETER INFORMATION
#MNEM.UNIT          VALUE    DESCRIPTION
#----------   ------------   ------------------------------
 PD  .                 GL:   PERMANENT DATUM
 EPD .F              5145:   ELEVATION PERMANENT DATUM
 LMF .                 KB:   LOG MEASURED FROM
 DAPD.F                10:   FEET ABOVE PERMANENT DATUM
 DMF .                 KB:   DRILLING MEASURED FROM
 EKB .F              5155:   KELLING BUSHING
 EDF .F              5154:   DRILLING FLOOR
 EGL .F              5145:   GROUND LEVEL
 DATE.        04-FEB-1993:   RUN DATE
 RUN .                  1:   RUN NUMBER
 DD  .F               525:   DEPTH DRILLER
 DL  .F               525:   DEPTH LOGGER
 BLI .F               517:   BOTTOM LOG INTERVAL
 TLI .F                81:   TOP LOG INTERVAL
 CS  .IN            8.625:   CASING SIZE
 CBD .F                45:   CASING BOTTOM DRILLER
 CBL .F                81:   CASING BOTTOM LOGGER
 BS  .IN            7.875:   BIT SIZE
 BSD .F               525:   BIT SIZE AT DEPTH
 DFT .                AIR:   DRILLING FLUID TYPE
 MRT .F                58:   MAXIMUM RECORDED TEMPERATURE
 LUN .            HL 6274:   LOGGING UNIT NUMBER
 LUL .             CASPER:   LOGGING UNIT LOCATION
 ENGI.          V. RAUTIO:   RECORDING ENGINEER
 WITN.          G. STRONG:   WITNESSED BY
 CLNT.            A2DTECH:   CLIENT CODE
 ORIG.           5" PRINT:   ORIGIN OF DATA
 UWI .       490252257900:   UNIQUE WELL ID
 DICO. A2D Technologies, Inc.:   DIGITIZING COMPANY
~OTHER INFORMATION
~A   DEPT      C13         GRD      PORS       PORZ       ZCOR       ZDEN       RILD       RILM   
# ...
  451.0000     8.0664   149.8261     0.2753     0.0704     0.0113     2.5331    12.1566    12.0729
  451.5000     8.0362   145.9520     0.2720     0.0731    -0.0021     2.5339    12.3259    12.2410
  452.0000     8.0060   145.0525     0.2684     0.0792    -0.0096     2.5279    12.4115    12.4976
  452.5000     8.0060   148.6507     0.2657     0.0853    -0.0080     2.5136    12.4976    12.5843
  453.0000     7.9910   149.8501     0.2642     0.0896     0.0055     2.4992    12.6716    12.6716
  453.5000     7.9910   150.4498     0.2635     0.0878     0.0131     2.5038    12.6716    12.7595
  454.0000     7.9910   149.5502     0.2632     0.0833     0.0146     2.5113    12.6880    12.8481
  454.5000     7.9910   148.9505     0.2626     0.0818     0.0130     2.5158    12.8481    12.9372
  455.0000     7.9910   148.0510     0.2623     0.0833     0.0027     2.5105    12.8481    12.9372
  455.5000     7.9910   147.7511     0.2617     0.0926    -0.0018     2.4984    12.9372    13.1174
  456.0000     7.9910   148.3948     0.2611     0.0944    -0.0032     2.4917    12.9372    13.1174
  456.5000     7.9910   148.0510     0.2599     0.0950     0.0028     2.4917    12.9372    13.1123
  457.0000     7.9910   148.0510     0.2599     0.0950     0.0089     2.4932    12.9372    13.1068
  457.5000     7.9910   147.7511     0.2596     0.0923     0.0089     2.4962    12.8481    12.9237
  458.0000     8.0060   148.2295     0.2590     0.0890     0.0090     2.5015    12.8481    12.9228
  458.5000     8.0060   149.3531     0.2586     0.0872     0.0090     2.5068    12.7595    12.7445
  459.0000     8.0060   149.3587     0.2574     0.0860     0.0136     2.5083    12.6716    12.7436
  459.5000     8.0060   149.3643     0.2562     0.0866     0.0212     2.5090    12.6716    12.5678
  460.0000     8.0060   149.6711     0.2544     0.0836     0.0271     2.5121    12.5843    12.5668
  460.5000     8.0060   150.5762     0.2538     0.0775     0.0302     2.5248    12.5843    12.5659
  461.0000     8.0060   151.4814     0.2535     0.0727     0.0272     2.5324    12.4976    12.5651
  461.5000     8.0060   152.6877     0.2542     0.0709     0.0138     2.5339    12.4526    12.5643
  462.0000     8.0060   152.9931     0.2551     0.0709     0.0093     2.5309    12.3841    12.4769
  462.5000     8.0060   152.6975     0.2581     0.0712     0.0109     2.5309    12.3686    12.3899
  463.0000     8.0060   152.3648     0.2635     0.0703     0.0214     2.5325    12.2003    12.3037
  463.5000     8.0060   155.7099     0.2677     0.0691     0.0290     2.5369    12.0343    12.1339
  464.0000     8.0060   156.3152     0.2707     0.0667     0.0200     2.5392    11.8706    11.8840
  464.5000     8.0050   156.6407     0.2749     0.0667     0.0109     2.5384    11.6288    11.7092
  465.0000     8.0033   159.0264     0.2789     0.0718     0.0051     2.5286    11.3916    11.4785
  465.5000     8.0017   162.6302     0.2840     0.0772     0.0036     2.5201    11.1595    11.2421
  466.0000     8.0000   163.2355     0.2891     0.0793     0.0007     2.5188    11.0837    11.0869
  466.5000     7.9983   162.6413     0.2924     0.0787    -0.0023     2.5203    10.9330    10.9340
  467.0000     7.9966   162.6483     0.2939     0.0781    -0.0022     2.5203    10.7845    10.7831
  467.5000     7.9949   162.6539     0.2960     0.0781     0.0008     2.5188    10.5573    10.6341
  468.0000     7.9932   162.9995     0.2981     0.0790     0.0009     2.5158    10.3490    10.4874
  468.5000     7.9915   159.0683     0.2990     0.0812    -0.0081     2.5143    10.2082    10.3426
  469.0000     7.9899   158.4727     0.2996     0.0835    -0.0110     2.5143    10.0694    10.1999
  469.5000     7.9882   158.7896     0.3002     0.0829    -0.0140     2.5143    10.0016    10.0592
  470.0000     7.9865   159.3862     0.3016     0.0817    -0.0139     2.5158     9.9340    10.0583
  470.5000     7.9848   159.6917     0.3055     0.0808    -0.0139     2.5173     9.8672     9.9196
  471.0000     7.9831   159.6973     0.3086     0.0811    -0.0032     2.5166     9.8685     9.8506
  471.5000     7.9814   160.3039     0.3074     0.0832     0.0102     2.5120     9.8015     9.7820
  472.0000     7.9798   160.3095     0.3053     0.0841     0.0132     2.5120     9.8031     9.7814
  472.5000     7.9781   160.3151     0.3032     0.0835     0.0103     2.5136     9.8044     9.7132
  473.0000     7.9771   158.1819     0.3011     0.0823     0.0073     2.5159     9.7381     9.6456
  473.5000     7.9768   157.3277     0.2978     0.0799     0.0029     2.5196     9.7397     9.6450
  474.0000     7.9765   157.6346     0.2984     0.0778    -0.0016     2.5218     9.6739     9.6443
  474.5000     7.9762   157.6402     0.2996     0.0796    -0.0105     2.5218     9.6082     9.5112
  475.0000     7.9759   157.3459     0.2983     0.0841    -0.0135     2.5166     9.4778     9.3799
  475.5000     7.9756   157.6527     0.2965     0.0853    -0.0164     2.5075     9.3491     9.2504
  476.0000     7.9753   159.7572     0.2959     0.0840     0.0021     2.5090     9.2856     9.1228
  476.5000     7.9750   162.7627     0.2962     0.0762     0.0166     2.5158     9.1593     8.9969
  477.0000     7.9747   163.9677     0.2975     0.0750     0.0137     2.5233     9.0347     8.8727
  477.5000     7.9744   163.9732     0.2989     0.0744     0.0152     2.5242     8.9121     8.7502
  478.0000     7.9741   164.6187     0.2998     0.0748     0.0153     2.5248     8.8421     8.6294
  478.5000     7.9738   166.3846     0.3019     0.0762     0.0138     2.5248     8.7314     8.5103
  479.0000     7.9735   168.7890     0.3019     0.0801     0.0064     2.5233     8.6129     8.3929
  479.5000     7.9732   170.9035     0.3019     0.0822     0.0019     2.5196     8.4958     8.3345
  480.0000     7.9729   171.8000     0.3028     0.0822    -0.0011     2.5151     8.3802     8.2764
  480.5000     7.9725   172.4053     0.3055     0.0822    -0.0025     2.5158     8.2092     8.1622
  481.0000     7.9722   170.2851     0.3073     0.0840    -0.0040     2.5151     8.0975     8.0496
  481.5000     7.9719   165.8198     0.3076     0.0834    -0.0009     2.5128     7.8779     7.7219
  482.0000     7.9716   168.8252     0.3076     0.0822     0.0006     2.5113     7.6112     7.4970
  482.5000     7.9713   169.1307     0.3096     0.0813     0.0052     2.5143     7.3535     7.2050
  483.0000     7.9710   168.1569     0.3218     0.0858     0.0022     2.5158     7.1001     7.0080
  483.5000     7.9707   165.2452     0.3377     0.0912     0.0023     2.5083     6.9597     6.9592
  484.0000     7.9704   165.8504     0.3393     0.0906     0.0008     2.4993     6.9684     6.9587
  484.5000     7.9701   168.5847     0.3326     0.0879    -0.0021     2.5008     7.0372     7.0130
  485.0000     7.9698   171.2603     0.3266     0.0858    -0.0051     2.5076     7.1579     7.1528
  485.5000     7.9695   171.8656     0.3217     0.0843    -0.0066     2.5099     7.3658     7.3530
  486.0000     7.9692   172.1710     0.3181     0.0828    -0.0095     2.5122     7.7259     7.5587
  486.5000     7.9689   172.1780     0.3142     0.0819    -0.0080     2.5130     8.0542     7.8241
  487.0000     7.9686   172.1836     0.3109     0.0810    -0.0049     2.5160     8.4548     8.2838
  487.5000     7.9696   172.1891     0.3079     0.0791    -0.0004     2.5183     8.9368     8.8598
  488.0000     7.9711   170.0967     0.3048     0.0768    -0.0003     2.5205     9.3201     9.2345
  488.5000     7.9726   168.0033     0.3025     0.0756    -0.0003     2.5236     9.7129     9.5587
  489.0000     7.9740   166.5096     0.3019     0.0750     0.0013     2.5266     9.8494     9.7584
  489.5000     7.9755   166.5166     0.3016     0.0738     0.0043     2.5281     9.9879     9.9623
  490.0000     7.9770   166.5222     0.3006     0.0720     0.0074     2.5298     9.9892     9.9614
  490.5000     7.9784   166.8276     0.2983     0.0699     0.0119     2.5327     9.9905     9.9608
  491.0000     7.9799   167.1345     0.2989     0.0686     0.0119     2.5342     9.9922     9.8915
