~VERSION INFORMATION
 VERS.                2.0:   CWLS LOG ASCII STANDARD - VERSION 2.0
 WRAP.                 NO:   ONE LINE PER DEPTH STEP
~WELL INFORMATION
#MNEM.UNIT      DATA TYPE    INFORMATION
#----------   ------------   ------------------------------
 STRT.F           29.0000:   START DEPTH
 STOP.F          507.0000:   STOP DEPTH
 STEP.F            0.5000:   STEP LENGTH
 NULL.          -999.2500:   NO VALUE
 COMP.    FENIX & SCISSON:   COMPANY
 WELL.       NPR #64-SX-3:   WELL
 FLD .            WILDCAT:   FIELD
 LOC .       S3 T38N R78W:   LOCATION
 CNTY.            NATRONA:   COUNTY
 STAT.            WYOMING:   STATE
 CTRY. UNITED STATES OF AMERICA:   COUNTRY
 SRVC.           BIRDWELL:   SERVICE COMPANY
 DATE.        28-MAR-1977:   LOGDATE
 API .       490251032200:   API NUMBER
~CURVE INFORMATION
#MNEM.UNIT       API CODE    CURVE DESCRIPTION
#----------   ------------   ------------------------------
 DEPT.F                  :   
 SPR .MV     05 010 01 00:   SPONTANEOUS POTENTIAL FROM RES.
 ILD .OHMM   05 120 46 00:   INDUCTION LOG DEEP
 SN  .OHMM   05 040 16 00:   SHORT NORMAL 16"
 GRD .GAPI   45 310 01 00:   GAMMA RAY FROM DENSITY LOG
 CALD.IN     45 280 60 00:   CALIPER FROM DENSITY LOG
 CORR.G/C3   45 356 01 00:   DENSITY CORRECTION
 RHOB.G/C3   45 350 01 00:   BULK DENSITY
 DPHI.DEC    45 890 12 00:   DENSITY POROSITY SANDSTONE
~PARAMETER INFORMATION
#MNEM.UNIT          VALUE    DESCRIPTION
#----------   ------------   ------------------------------
 PD  .                 GL:   PERMANENT DATUM
 EPD .F              5145:   ELEVATION PERMANENT DATUM
 LMF .                 GL:   LOG MEASURED FROM
 DMF .                 GL:   DRILLING MEASURED FROM
 EKB .F              5150:   KELLING BUSHING
 EDF .F              5149:   DRILLING FLOOR
 EGL .F              5145:   GROUND LEVEL
 DATE.        28-MAR-1977:   RUN DATE
 RUN .                  1:   RUN NUMBER
 DD  .F               507:   DEPTH DRILLER
 DL  .F               507:   DEPTH LOGGER
 BLI .F               501:   BOTTOM LOG INTERVAL
 TLI .F                40:   TOP LOG INTERVAL
 CS  .IN            8.625:   CASING SIZE
 CBD .F                40:   CASING BOTTOM DRILLER
 CBL .F                43:   CASING BOTTOM LOGGER
 BS  .IN            7.875:   BIT SIZE
 BSD .F               507:   BIT SIZE AT DEPTH
 DFT .                KCL:   DRILLING FLUID TYPE
 DFD .                8.5:   DRILLING FLUID DENSITY
 DFV .                 31:   DRILLING FLUID VISCOSITY
 DFPH.                 10:   DRILLING FLUID PH
 DFL .                 78:   DRILLING FLUID LOSS
 MSS .                PIT:   MUD SAMPLE SOURCE
 RMS .OHMM            .54:   RESISTIVITY MUD SAMPLE
 MST .F                60:   MUD SAMPLE TEMPERATURE
 RMF .OHMM            .46:   RESISTIVITY MUD FILTRATE SAMPLE
 MFST.F                64:   MUD FILTRATE SAMPLE TEMPERATURE
 RMC .OHMM            .52:   RESISTIVITY MUD CAKE
 MCST.F                64:   MUD CAKE SAMPLE TEMPERATURE
 MFSS.               MEAS:   MUD FILTRATE SAMPLE SOURCE
 MCSS.               MEAS:   MUD CAKE SAMPLE SOURCE
 RMB .OHMM            .51:   RESISTIVITY MUD AT BHT
 BHT .F                63:   BOTTOM HOLE TEMPERATURE
 TCS .HRS            0300:   TIME CURCULATED STOPPED
 MRT .F                63:   MAXIMUM RECORDED TEMPERATURE
 LUN .               3026:   LOGGING UNIT NUMBER
 LUL .             CASPER:   LOGGING UNIT LOCATION
 ENGI.             RAWSON:   RECORDING ENGINEER
 WITN.         STUERINCER:   WITNESSED BY
 CLNT.            A2DTECH:   CLIENT CODE
 ORIG.           5" PRINT:   ORIGIN OF DATA
 UWI .       490251032200:   UNIQUE WELL ID
 DICO. A2D Technologies, Inc.:   DIGITIZING COMPANY
~OTHER INFORMATION
~A   DEPT      SPR        ILD         SN        GRD       CALD       CORR       RHOB       DPHI   
# ...
   69.5000   -33.0663     8.3821     9.2634    68.0937     7.9220    -0.0577     2.4319     0.1297
   70.0000   -32.9227     8.3235     9.1987    67.2755     7.8935    -0.0639     2.4275     0.1284
   70.5000   -32.6259     8.2083     9.1980    66.3825     7.9108    -0.0671     2.4260     0.1320
   71.0000   -32.0307     7.9831     9.0078    66.6911     7.8677    -0.0627     2.4239     0.1440
   71.5000   -31.8844     7.8726     8.7606    67.5985     7.7498    -0.0493     2.4209     0.1564
   72.0000   -31.7410     7.7636     8.4612    68.1267     7.2576    -0.0525     2.3939     0.1590
   72.5000   -31.7470     7.7630     8.2290    67.7408     7.1991    -0.0722     2.3834     0.1575
   73.0000   -31.7540     7.7089     8.1150    68.5564     7.2015    -0.0905     2.3963     0.1502
   73.5000   -31.7598     7.6551     8.2851    68.4359     7.2482    -0.0982     2.4040     0.1426
   74.0000   -31.7656     7.6017     8.3424    68.8153     7.3998    -0.1044     2.4131     0.1387
   74.5000   -31.9219     7.5486     8.3417    69.8684     7.5531    -0.0759     2.4169     0.1525
   75.0000   -31.9277     7.4958     8.2834    69.2740     7.4484    -0.0595     2.3982     0.1508
   75.5000   -32.2361     7.5476     8.2829    68.5298     7.4502    -0.0566     2.3990     0.1494
   76.0000   -32.6937     7.7593     8.6344    70.2574     7.4671    -0.0583     2.4014     0.1461
   76.5000   -33.1513     7.9771     8.9388    69.1220     7.4084    -0.0630     2.4030     0.1391
   77.0000   -33.3077     7.9765     8.8149    68.9205     7.3660    -0.0722     2.4114     0.1261
   77.5000   -33.4640     7.9759     8.9375    69.9000     7.5101    -0.0965     2.4243     0.1197
   78.0000   -33.6205     7.9753     9.0618    70.6537     7.7390    -0.0755     2.4478     0.1227
   78.5000   -33.4756     7.8649     9.1879    71.0318     8.0007    -0.0486     2.4448     0.1308
   79.0000   -33.1816     7.8101     9.2513    70.6628     7.9727    -0.0367     2.4336     0.1329
   79.5000   -32.8847     7.8639     9.2505    70.7428     7.9441    -0.0384     2.4269     0.1322
   80.0000   -32.7399     7.9181     9.2499    69.8511     7.9310    -0.0446     2.4262     0.1328
   80.5000   -33.0483     7.9727     9.1218    69.1078     7.9333    -0.0447     2.4263     0.1415
   81.0000   -33.2048     8.0834     9.0581    69.0368     7.9352    -0.0494     2.4249     0.1460
   81.5000   -33.2119     8.1959     9.0573    69.1930     7.9220    -0.0738     2.4126     0.1396
   82.0000   -32.1635     8.1952     9.2473    67.9257     7.9239    -0.0844     2.4093     0.1324
   82.5000   -31.7160     8.1946     9.3112    66.8830     7.9108    -0.0846     2.4209     0.1351
   83.0000   -31.5712     8.3084     9.3755    66.3629     7.8827    -0.0723     2.4253     0.1504
   83.5000   -31.4278     8.3658     9.2454    67.4173     7.7797    -0.0608     2.4035     0.1594
   84.0000   -31.1324     8.4235     9.1809    68.0949     7.0780    -0.1024     2.3900     0.1576
   84.5000   -31.7420     8.5404     9.2442    67.5026     6.8249    -0.1734     2.4037     0.1452
   85.0000   -32.3502     8.5993     9.5037    67.2083     7.2613    -0.2164     2.4106     0.1300
   85.5000   -32.8077     8.7188     9.9761    67.1385     7.6075    -0.2392     2.4280     0.1243
   86.0000   -33.1147     8.8400    10.3278    67.2936     7.7141    -0.2092     2.4447     0.1251
   86.5000   -32.8193     8.9628    10.4714    68.1970     7.6711    -0.0919     2.4418     0.1551
   87.0000   -32.6745     8.9002    10.3981    68.4258     7.5981    -0.0665     2.3936     0.1826
   87.5000   -32.6817     8.8996    10.1127    67.3096     7.4802    -0.0682     2.3462     0.2082
   88.0000   -32.5354     8.8990     9.9037    68.0633     7.2725    -0.2265     2.3138     0.2092
   88.5000   -32.6932     8.8983     9.8345    68.3678     7.2144    -0.2989     2.3018     0.1893
   89.0000   -33.1508     8.8977     9.9024    69.1215     7.2612    -0.0927     2.4777     0.1436
   89.5000   -33.9177     8.8971    10.0401    69.8004     7.2799    -0.1155     2.4529     0.1279
   90.0000   -34.5192     8.8965    10.0393    70.0301     7.3273    -0.1202     2.4514     0.1224
   90.5000   -34.0732     8.8345     9.9692    70.1850     7.3870    -0.0677     2.4508     0.1257
   91.0000   -33.9269     8.7066     9.9685    70.1153     7.4038    -0.0467     2.4396     0.1296
   91.5000   -33.9341     8.5321     9.8989    68.9978     7.3907    -0.0438     2.4336     0.1281
   92.0000   -33.9399     8.3558     9.8298    69.0189     7.3925    -0.0606     2.4337     0.1277
   92.5000   -33.9458     8.2402     9.7610    70.0561     7.3495    -0.0728     2.4345     0.1283
   93.0000   -33.8009     8.1827     9.7604    69.0142     7.2910    -0.0790     2.4354     0.1310
   93.5000   -33.6560     8.1256     9.6922    70.7409     7.2779    -0.0747     2.4362     0.1355
   94.0000   -33.5112     8.0130     9.6245    68.9497     7.2802    -0.0733     2.4326     0.1402
   94.5000   -33.5184     8.0125     9.5573    70.2274     7.2820    -0.0765     2.4243     0.1459
   95.0000   -33.5242     8.0119     9.3596    70.9798     7.2839    -0.0902     2.4154     0.1438
   95.5000   -33.6807     8.0114     9.2943    70.1629     7.2857    -0.1280     2.4042     0.1199
   96.0000   -33.8384     8.0109     9.2936    69.0453     7.2876    -0.1749     2.4195     0.1172
   96.5000   -33.8442     8.1788     9.5546    68.6763     7.3044    -0.1645     2.4572     0.1156
   97.0000   -34.0005     8.2923     9.6876    68.8312     7.3362    -0.1571     2.4654     0.1047
   97.5000   -34.4581     8.4077     9.6869    69.8842     7.3530    -0.1332     2.4754     0.1077
   98.0000   -34.7651     8.5244     9.7537    70.5631     7.3698    -0.0777     2.4657     0.1207
   98.5000   -34.7711     8.6429     9.8894    68.7719     7.3567    -0.0477     2.4485     0.1261
   99.0000   -34.7781     8.6424    10.0270    68.2530     7.3436    -0.0268     2.4455     0.1221
   99.5000   -35.0851     8.7019    10.0261    69.4559     7.3305    -0.0330     2.4471     0.1163
  100.0000   -35.3906     8.7619    10.0953    70.2096     7.3174    -0.0256     2.4498     0.1175
  100.5000   -35.3951     8.7619    10.2320    68.4917     7.3040    -0.0212     2.4548     0.1175
  101.0000   -35.5486     8.7619    10.3795    68.1173     7.3063    -0.0274     2.4587     0.1165
  101.5000   -35.5515     8.8842    10.3795    68.0501     7.3081    -0.0335     2.4618     0.1153
  102.0000   -35.1025     8.9461    10.4518    68.2365     7.3098    -0.0427     2.4642     0.1137
  102.5000   -34.3424     9.0752    10.5246    67.3087     7.3116    -0.0564     2.4672     0.1125
  103.0000   -33.7535     9.1977    10.5979    68.8103     7.3134    -0.0656     2.4689     0.1112
  103.5000   -33.6051     9.2617    10.5979    68.2387     7.2853    -0.0747     2.4703     0.1100
  104.0000   -33.4573     9.1977    10.5246    68.8181     7.2421    -0.0854     2.4704     0.1093
  104.5000   -33.4609     9.1342    10.5246    70.0194     7.1541    -0.0991     2.4697     0.1087
  105.0000   -33.6145     9.1342    10.5246    70.3974     6.9164    -0.1068     2.4728     0.1081
  105.5000   -31.6601     9.1342    10.5246    69.7275     6.8429    -0.1144     2.4729     0.1029
  106.0000   -31.9642     9.0710    10.5246    68.0096     6.9050    -0.1282     2.4729     0.1002
  106.5000   -33.4731     9.0083    10.5246    68.9864     7.2062    -0.1329     2.4775     0.0995
  107.0000   -34.0783     8.8842    10.4518    68.5410     7.4475    -0.1313     2.4814     0.1040
  107.5000   -34.3831     8.7619    10.4518    67.5707     7.4792    -0.1160     2.4814     0.1154
  108.0000   -34.5366     8.7619    10.3795    68.5484     7.4960    -0.0660     2.4739     0.1232
  108.5000   -34.6900     8.7619    10.3795    68.9255     7.5127    -0.0497     2.4552     0.1208
  109.0000   -34.6929     8.8842    10.4518    67.8074     7.5295    -0.0386     2.4522     0.1190
  109.5000   -34.6958     9.0117    10.4518    68.8590     7.5313    -0.0267     2.4297     0.1198
