~VERSION INFORMATION
 VERS.                2.0:   CWLS LOG ASCII STANDARD - VERSION 2.0
 WRAP.                 NO:   ONE LINE PER DEPTH STEP
~WELL INFORMATION
#MNEM.UNIT      DATA TYPE    INFORMATION
#----------   ------------   ------------------------------
 STRT.F           17.0000:   START DEPTH
 STOP.F          634.0000:   STOP DEPTH
 STEP.F            0.5000:   STEP LENGTH
 NULL.          -999.2500:   NO VALUE
 COMP. FENIX & SCISSON INC:   COMPANY
 WELL.        NPR 3 #72-3:   WELL
 FLD .             TEAPOT:   FIELD
 LOC .       S3 T38N R78W:   LOCATION
 CNTY.            NATRONA:   COUNTY
 STAT.            WYOMING:   STATE
 CTRY. UNITED STATES OF AMERICA:   COUNTRY
 SRVC.           BIRDWELL:   SERVICE COMPANY
 DATE.        24-SEP-1978:   LOGDATE
 API .       490251069100:   API NUMBER
~CURVE INFORMATION
#MNEM.UNIT       API CODE    CURVE DESCRIPTION
#----------   ------------   ------------------------------
 DEPT.F                  :   
 SPR .MV     05 010 01 00:   SPONTANEOUS POTENTIAL FROM RES.
 SN  .OHMM   05 040 16 00:   SHORT NORMAL 16"
 ILD .OHMM   05 120 46 00:   INDUCTION LOG DEEP
 GRD .GAPI   45 310 01 00:   GAMMA RAY FROM DENSITY LOG
 CALD.IN     45 280 60 00:   CALIPER
 DEN .G/C3   45 350 01 00:   COMPENSATED BULK DENSTIY
 DPHI.DEC    45 890 12 00:   DENSITY POROSITY SANDSTONE
 CORR.G/C3   45 356 01 00:   DENSITY CORRECTION
~PARAMETER INFORMATION
#MNEM.UNIT          VALUE    DESCRIPTION
#----------   ------------   ------------------------------
 PD  .                 GL:   PERMANENT DATUM
 EPD .F              5155:   ELEVATION PERMANENT DATUM
 LMF .                 KB:   LOG MEASURED FROM
 DAPD.F                 4:   FEET ABOVE PERMANENT DATUM
 DMF .                 KB:   DRILLING MEASURED FROM
 EKB .F              5159:   KELLING BUSHING
 EGL .F              5155:   GROUND LEVEL
 DATE.            9-24-78:   RUN DATE
 RUN .                  1:   RUN NUMBER
 DD  .F               635:   DEPTH DRILLER
 DL  .F               634:   DEPTH LOGGER
 BLI .F               627:   BOTTOM LOG INTERVAL
 TLI .F                30:   TOP LOG INTERVAL
 CS  .IN            8.625:   CASING SIZE
 CBD .F                34:   CASING BOTTOM DRILLER
 CBL .F                34:   CASING BOTTOM LOGGER
 BS  .IN            7.875:   BIT SIZE
 BSD .F               635:   BIT SIZE AT DEPTH
 DFT .                KCL:   DRILLING FLUID TYPE
 DFD .                8.7:   DRILLING FLUID DENSITY
 DFV .                 36:   DRILLING FLUID VISCOSITY
 DFPH.                9.5:   DRILLING FLUID PH
 DFL .                8.2:   DRILLING FLUID LOSS
 MSS .          FLOW LINE:   MUD SAMPLE SOURCE
 RMS .OHMM             .2:   RESISTIVITY MUD SAMPLE
 MST .F                68:   MUD SAMPLE TEMPERATURE
 RMF .OHMM            .18:   RESISTIVITY MUD FILTRATE SAMPLE
 MFST.F                76:   MUD FILTRATE SAMPLE TEMPERATURE
 RMC .OHMM            .32:   RESISTIVITY MUD CAKE
 MCST.F                76:   MUD CAKE SAMPLE TEMPERATURE
 MFSS.               MEAS:   MUD FILTRATE SAMPLE SOURCE
 RMB .OHMM             .2:   RESISTIVITY MUD AT BHT
 BHT .F                70:   BOTTOM HOLE TEMPERATURE
 TCS .HRS               3:   TIME CURCULATED STOPPED
 MRT .F                70:   MAXIMUM RECORDED TEMPERATURE
 LUN .               2958:   LOGGING UNIT NUMBER
 LUL .               CASP:   LOGGING UNIT LOCATION
 ENGI.           REYNOLDS:   RECORDING ENGINEER
 WITN.              AMEND:   WITNESSED BY
 CLNT.            A2DTECH:   CLIENT CODE
 ORIG.           5" PRINT:   ORIGIN OF DATA
 UWI .       490251069100:   UNIQUE WELL ID
 DICO. A2D Technologies, Inc.:   DIGITIZING COMPANY
~OTHER INFORMATION
~A   DEPT      SPR         SN        ILD         GRD      CALD        DEN       DPHI       CORR   
# ...
  219.5000   -59.9259     7.7600     7.4174   136.3918     7.8183     2.5167     0.1041     0.0099
  220.0000   -59.9350     7.8721     7.4724   135.7234     7.8096     2.5323     0.0949     0.0116
  220.5000   -59.8957     7.9859     7.5279   134.0650     7.7993     2.5602     0.0856     0.0148
  221.0000   -59.8567     8.1013     7.5838   132.3907     7.7891     2.5841     0.0764     0.0199
  221.5000   -59.8178     8.2184     7.6401   133.6287     7.7789     2.5591     0.0724     0.0224
  222.0000   -59.7787     8.3759     7.6968   137.6228     7.7687     2.5310     0.0903     0.0217
  222.5000   -59.7404     8.3725     7.7540   139.4768     7.7584     2.5209     0.0934     0.0211
  223.0000   -59.7387     8.3675     7.8116   135.4027     7.7481     2.5169     0.0942     0.0204
  223.5000   -59.7389     8.3626     7.8529   131.1292     7.7409     2.5161     0.0950     0.0187
  224.0000   -59.7390     8.3576     7.8529   130.8392     7.7578     2.5174     0.0959     0.0170
  224.5000   -59.7390     8.3527     7.8529   130.4864     7.7751     2.5186     0.0967     0.0154
  225.0000   -59.7391     8.3477     7.8529   130.1649     7.7923     2.5200     0.0966     0.0137
  225.5000   -59.7399     8.3428     7.8529   129.6273     7.8095     2.5189     0.0963     0.0120
  226.0000   -59.7035     8.3378     7.8529   129.5113     7.8267     2.5190     0.0960     0.0105
  226.5000   -59.6597     8.3329     7.8529   128.0815     7.8445     2.5203     0.0960     0.0107
  227.0000   -59.6157     8.3280     7.8530   127.7708     7.8555     2.5214     0.0948     0.0109
  227.5000   -59.5718     8.3230     7.8522   130.2468     7.8434     2.5225     0.0924     0.0111
  228.0000   -59.5279     8.3181     7.8552   132.4792     7.8316     2.5229     0.0935     0.0112
  228.5000   -59.4839     8.3132     7.7768   132.4409     7.8199     2.5177     0.0968     0.0114
  229.0000   -59.4400     8.3082     7.7905   132.3616     7.8082     2.5120     0.1002     0.0116
  229.5000   -59.3961     8.3033     7.8117   132.3163     7.7964     2.5062     0.1035     0.0118
  230.0000   -59.3518     8.2995     7.8279   134.3502     7.7848     2.5003     0.1057     0.0119
  230.5000   -59.3371     8.3342     7.8440   135.5029     7.7860     2.4990     0.1072     0.0121
  231.0000   -59.3401     8.3649     7.8601   135.5653     7.8112     2.4991     0.1101     0.0123
  231.5000   -59.1759     8.3958     7.8763   135.6254     7.8362     2.4918     0.1160     0.0124
  232.0000   -58.9432     8.4271     7.8925   135.6856     7.8611     2.4806     0.1219     0.0158
  232.5000   -58.7074     8.4872     7.9087   134.5982     7.8859     2.4694     0.1268     0.0201
  233.0000   -58.4715     8.7100     7.9256   131.1714     7.8951     2.4710     0.1231     0.0243
  233.5000   -58.2356     8.8809     8.0075   127.2940     7.8835     2.4854     0.1171     0.0238
  234.0000   -57.9900     8.9643     8.0934   123.7451     7.8720     2.4891     0.1142     0.0231
  234.5000   -57.9323     9.0476     8.2042   120.2520     7.8605     2.4930     0.1113     0.0223
  235.0000   -57.9310     9.1317     8.3574   117.6368     7.8490     2.5002     0.1084     0.0216
  235.5000   -57.9316     9.2730     8.5134   115.1566     7.8375     2.5076     0.1049     0.0208
  236.0000   -57.9317     9.5098     8.6723   114.5887     7.8260     2.5150     0.1009     0.0201
  236.5000   -57.9317     9.7284     8.7882   114.3168     7.8145     2.5212     0.0968     0.0193
  237.0000   -57.9316     9.8475     8.8335   114.5858     7.8030     2.5203     0.0932     0.0186
  237.5000   -57.9312     9.9680     8.9161   115.8586     7.7914     2.5157     0.1001     0.0178
  238.0000   -57.9333    10.0900     9.0255   119.8816     7.7801     2.5088     0.1060     0.0171
  238.5000   -58.0153    10.3074     9.1359   121.1116     7.7888     2.5022     0.1069     0.0170
  239.0000   -58.1035    10.6711     9.2478   122.0273     7.7999     2.5018     0.1074     0.0200
  239.5000   -58.1915    11.0477     9.2689   124.8085     7.8110     2.5011     0.1076     0.0228
  240.0000   -58.2783    11.3509     9.3160   125.9617     7.8221     2.5071     0.1046     0.0257
  240.5000   -58.3117    11.3663     9.5339   123.5079     7.8331     2.5167     0.1004     0.0286
  241.0000   -58.2509    11.3851     9.7569   120.6158     7.8442     2.5258     0.0961     0.0331
  241.5000   -58.1912    11.4039     9.9025   119.5235     7.8555     2.5261     0.0919     0.0378
  242.0000   -58.1351    11.4227     9.9739   114.3956     7.8524     2.5272     0.0908     0.0449
  242.5000   -58.1627    11.4414    10.0450   105.3545     7.8438     2.5330     0.0931     0.0559
  243.0000   -58.1937    11.4544    10.0700    96.4457     7.8350     2.5345     0.0972     0.0667
  243.5000   -58.2245    11.3331     9.9587    95.6105     7.8262     2.5191     0.1012     0.0726
  244.0000   -58.2553    11.2353     9.8862   100.3412     7.8175     2.5105     0.1016     0.0681
  244.5000   -58.2858    11.1383     9.7816   105.4678     7.8088     2.5119     0.0993     0.0580
  245.0000   -58.3145    11.0422     9.6832   109.1738     7.8000     2.5143     0.0976     0.0480
  245.5000   -58.2349    10.9465     9.5857   108.9072     7.7913     2.5062     0.1035     0.0378
  246.0000   -58.0088    10.8543     9.4892   108.6242     7.7825     2.4971     0.1090     0.0339
  246.5000   -57.7843    10.6551     9.3938   108.3089     7.7738     2.4879     0.1145     0.0309
  247.0000   -57.5591    10.4460     9.2992   112.3997     7.7651     2.4833     0.1159     0.0280
  247.5000   -57.5512    10.2572     9.2318   114.9034     7.7624     2.4808     0.1167     0.0251
  248.0000   -57.5829    10.2727     9.1545   114.2602     7.7751     2.4764     0.1192     0.0225
  248.5000   -57.6153    10.2872     9.0998   113.9976     7.7876     2.4720     0.1228     0.0225
  249.0000   -57.6474    10.3016     9.0998   114.3364     7.8001     2.4689     0.1260     0.0225
  249.5000   -57.6794    10.3160     9.0998   114.2880     7.8126     2.4685     0.1276     0.0230
  250.0000   -57.7114    10.3305     9.0998   114.1405     7.8251     2.4681     0.1288     0.0241
  250.5000   -57.7434    10.3513     8.9924   112.4511     7.8383     2.4697     0.1249     0.0251
  251.0000   -57.7754    10.3381     8.9222   112.1914     7.8246     2.4732     0.1213     0.0262
  251.5000   -57.8074    10.3100     8.8993   111.1404     7.8037     2.4749     0.1192     0.0272
  252.0000   -57.8394    10.2821     8.8765   111.3188     7.7938     2.4752     0.1222     0.0283
  252.5000   -57.8713    10.2542     8.8518   111.6766     7.7791     2.4758     0.1226     0.0280
  253.0000   -57.9033    10.2264     8.8147   111.5755     7.7461     2.4782     0.1195     0.0240
  253.5000   -57.9400    10.1987     8.7706   110.6460     7.7007     2.4803     0.1181     0.0200
  254.0000   -58.0039    10.1711     8.7912   112.0471     7.6787     2.4800     0.1194     0.0160
  254.5000   -58.0689    10.0186     8.8139   112.8818     7.6706     2.4800     0.1208     0.0125
  255.0000   -58.1338     9.8192     8.8372   113.1388     7.6628     2.4800     0.1190     0.0128
  255.5000   -58.1989     9.6239     8.8519   114.6064     7.6552     2.4834     0.1165     0.0132
  256.0000   -58.2648     9.4330     8.6038   116.1304     7.6474     2.4871     0.1148     0.0135
  256.5000   -58.3289     9.2689     8.4187   116.5075     7.6395     2.4890     0.1148     0.0138
  257.0000   -58.2246     9.2689     8.2935   117.0366     7.6492     2.4888     0.1146     0.0141
  257.5000   -58.1058     9.2689     8.2719   117.5882     7.6623     2.4819     0.1173     0.0144
  258.0000   -57.9864     9.2689     8.2522   117.6610     7.6754     2.4758     0.1245     0.0147
  258.5000   -57.9336     9.1370     8.2329   117.5993     7.6884     2.4780     0.1231     0.0150
  259.0000   -58.0084     8.9985     8.1805   117.5261     7.6981     2.4815     0.1197     0.0154
  259.5000   -58.2478     8.9229     8.0553   118.2710     7.6889     2.4828     0.1168     0.0157
