~VERSION INFORMATION
 VERS.                2.0:   CWLS LOG ASCII STANDARD - VERSION 2.0
 WRAP.                 NO:   ONE LINE PER DEPTH STEP
~WELL INFORMATION
#MNEM.UNIT      DATA TYPE    INFORMATION
#----------   ------------   ------------------------------
 STRT.F           43.0000:   START DEPTH
 STOP.F          620.0000:   STOP DEPTH
 STEP.F            0.5000:   STEP LENGTH
 NULL.          -999.2500:   NO VALUE
 COMP. FENIX & SCISSON INC:   COMPANY
 WELL.      16 SX 2 #16-2:   WELL
 FLD .             TEAPOT:   FIELD
 LOC .       S2 T38N R78W:   LOCATION
 CNTY.            NATRONA:   COUNTY
 STAT.            WYOMING:   STATE
 CTRY. UNITED STATES OF AMERICA:   COUNTRY
 SRVC.            Unknown:   SERVICE COMPANY
 DATE.        11-OCT-1978:   LOGDATE
 API .       490251071400:   API NUMBER
~CURVE INFORMATION
#MNEM.UNIT       API CODE    CURVE DESCRIPTION
#----------   ------------   ------------------------------
 DEPT.F                  :   
 SPR .MV     05 010 01 00:   SPONTANEOUS POTENTIAL FROM RES.
 SN  .OHMM   05 040 16 00:   SHORT NORMAL 16"
 ILD .OHMM   05 120 46 00:   INDUCTION LOG DEEP
 CALD.IN     45 280 60 00:   CALIPER
 GRD .GAPI   45 310 01 00:   GAMMA RAY FROM DENSITY LOG
 DPHI.DEC    45 890 12 00:   DENSITY POROSITY SANDSTONE
 RHOB.G/C3   45 350 01 00:   BULK DENSITY
 DRHO.G/C3   45 356 01 00:   DENSITY CORRECTION
~PARAMETER INFORMATION
#MNEM.UNIT          VALUE    DESCRIPTION
#----------   ------------   ------------------------------
 PD  .                 GL:   PERMANENT DATUM
 EPD .F              5135:   ELEVATION PERMANENT DATUM
 LMF .                 KB:   LOG MEASURED FROM
 DAPD.F                 4:   FEET ABOVE PERMANENT DATUM
 DMF .                 KB:   DRILLING MEASURED FROM
 EKB .F              5139:   KELLING BUSHING
 EGL .F              5135:   GROUND LEVEL
 DATE.           10-11-78:   RUN DATE
 RUN .                  1:   RUN NUMBER
 DD  .F               620:   DEPTH DRILLER
 DL  .F               620:   DEPTH LOGGER
 BLI .F               614:   BOTTOM LOG INTERVAL
 TLI .F                40:   TOP LOG INTERVAL
 CS  .IN            8.625:   CASING SIZE
 CBD .F                40:   CASING BOTTOM DRILLER
 CBL .F                40:   CASING BOTTOM LOGGER
 BS  .IN            7.875:   BIT SIZE
 BSD .F               620:   BIT SIZE AT DEPTH
 DFT .                KCL:   DRILLING FLUID TYPE
 RMS .OHMM            .16:   RESISTIVITY MUD SAMPLE
 MST .F                66:   MUD SAMPLE TEMPERATURE
 RMF .OHMM            .16:   RESISTIVITY MUD FILTRATE SAMPLE
 MFST.F                70:   MUD FILTRATE SAMPLE TEMPERATURE
 RMC .OHMM             .2:   RESISTIVITY MUD CAKE
 MCST.F                71:   MUD CAKE SAMPLE TEMPERATURE
 TCS .HRS               1:   TIME CURCULATED STOPPED
 MRT .F                70:   MAXIMUM RECORDED TEMPERATURE
 LUN .               2958:   LOGGING UNIT NUMBER
 LUL .               CASP:   LOGGING UNIT LOCATION
 ENGI.             MILLER:   RECORDING ENGINEER
 WITN.              AMEND:   WITNESSED BY
 CLNT.            A2DTECH:   CLIENT CODE
 ORIG.           5" PRINT:   ORIGIN OF DATA
 UWI .       490251071400:   UNIQUE WELL ID
 DICO. A2D Technologies, Inc.:   DIGITIZING COMPANY
~OTHER INFORMATION
~A   DEPT      SPR         SN        ILD       CALD         GRD      DPHI       RHOB       DRHO   
# ...
  529.0000   -41.0879     9.1549    11.0996     7.7622   106.9372     0.1120     2.4975     0.0230
  529.5000   -41.1087     9.1434    10.9676     7.8165   102.6883     0.1137     2.4960     0.0242
  530.0000   -41.1266     9.1092    10.8372     7.8056    98.9936     0.1099     2.4969     0.0253
  530.5000   -41.3204     8.9935    10.7084     7.7960   100.5692     0.1074     2.4999     0.0265
  531.0000   -41.5680     8.8792    10.5810     7.7862   102.6727     0.1063     2.5028     0.0276
  531.5000   -41.8167     8.7663    10.4552     7.7764   104.8019     0.1052     2.5057     0.0277
  532.0000   -42.0652     8.6549    10.3309     7.7667   106.9449     0.1040     2.5086     0.0256
  532.5000   -42.3135     8.5449    10.2081     7.7570   109.1232     0.1029     2.5110     0.0235
  533.0000   -42.5619     8.4363    10.0867     7.7472   111.2967     0.1023     2.5085     0.0213
  533.5000   -42.8102     8.3291     9.9667     7.7337   113.4367     0.1028     2.5059     0.0221
  534.0000   -43.0586     8.2232     9.8482     7.7002   114.4777     0.1032     2.5032     0.0248
  534.5000   -43.3069     8.1187     9.7311     7.6668   107.4151     0.1036     2.5006     0.0276
  535.0000   -43.5552     8.0155     9.6258     7.6347   103.6692     0.1052     2.4994     0.0304
  535.5000   -43.8038     7.9136     9.5420     7.6097   101.5066     0.1076     2.5005     0.0333
  536.0000   -44.0621     7.8095     9.4590     7.6116   105.7558     0.1072     2.5017     0.0349
  536.5000   -44.1431     7.5917     9.3497     7.6313   110.2132     0.1060     2.5028     0.0357
  537.0000   -44.1723     7.3723     9.1121     7.6513   114.4333     0.1071     2.5013     0.0365
  537.5000   -44.1997     7.1593     8.7037     7.6713   113.4342     0.1088     2.4991     0.0373
  538.0000   -44.2276     6.9524     8.0699     7.6913   112.1776     0.1128     2.4970     0.0381
  538.5000   -44.2558     6.7515     7.4823     7.7145   111.1899     0.1204     2.4863     0.0389
  539.0000   -44.2835     6.5564     6.9374     7.7387   115.4989     0.1292     2.4705     0.0397
  539.5000   -44.3138     6.3758     6.4322     7.7481   120.0123     0.1391     2.4546     0.0404
  540.0000   -44.1838     6.3758     5.9638     7.7568   124.5033     0.1489     2.4385     0.0417
  540.5000   -43.9619     6.3758     5.7080     7.7656   128.9908     0.1584     2.4242     0.0439
  541.0000   -43.7405     6.3758     5.6037     7.7745   133.5232     0.1376     2.4535     0.0461
  541.5000   -43.5013     6.3758     5.6556     7.7833   138.1575     0.1173     2.4903     0.0483
  542.0000   -42.8703     6.3752     5.7566     7.7921   128.7414     0.0970     2.5270     0.0503
  542.5000   -42.2446     6.6398     6.2038     7.7937   116.7269     0.0775     2.5473     0.0491
  543.0000   -41.9124     6.9436     7.1937     7.7679   104.6541     0.0795     2.5436     0.0429
  543.5000   -41.8740     7.2616     8.3378     7.7427   102.8666     0.0819     2.5402     0.0369
  544.0000   -41.8349     7.5921    10.1180     7.7179   103.6232     0.0842     2.5368     0.0323
  544.5000   -41.7964     7.8851    10.1093     7.7032   104.8580     0.0857     2.5334     0.0324
  545.0000   -41.7576     8.0013    10.1078     7.7242   106.1065     0.0870     2.5311     0.0324
  545.5000   -41.7187     8.1267    10.2566     7.7444   104.5766     0.0884     2.5290     0.0325
  546.0000   -41.6799     8.2540    10.3252     7.7642   103.0953     0.0898     2.5269     0.0304
  546.5000   -41.6411     8.3832    10.3942     7.7765   107.7246     0.0911     2.5250     0.0282
  547.0000   -41.6029     8.5146    10.4637     7.7640   109.8239     0.0917     2.5260     0.0259
  547.5000   -41.5633     8.6479    10.5337     7.7522   109.0214     0.0914     2.5270     0.0236
  548.0000   -41.4779     8.7834    10.6041     7.7404   109.4004     0.0910     2.5280     0.0213
  548.5000   -41.2075     8.9210    10.6727     7.7286   113.6351     0.0907     2.5287     0.0189
  549.0000   -40.9438     9.0607    10.9033     7.7169   117.6932     0.0919     2.5250     0.0165
  549.5000   -40.6802     9.2026    11.1590     7.7051   121.5290     0.0938     2.5212     0.0141
  550.0000   -40.4050     9.3468    11.4223     7.6996   124.5754     0.0957     2.5180     0.0124
  550.5000   -40.3493     9.4932    11.6919     7.7006   126.9543     0.0962     2.5218     0.0134
  551.0000   -40.3622     9.6419    11.9690     7.7015   119.2259     0.0938     2.5262     0.0145
  551.5000   -40.3773     9.7929    12.2723     7.7024   112.0207     0.0910     2.5307     0.0156
  552.0000   -40.3918     9.9273    12.2677     7.7033   106.5156     0.0910     2.5294     0.0167
  552.5000   -40.4061     9.9448    12.2694     7.7042   104.7039     0.0917     2.5277     0.0178
  553.0000   -40.4204     9.9622    12.2913     7.7051   101.3410     0.0924     2.5260     0.0189
  553.5000   -40.4348     9.9798    12.3207     7.7060    96.6888     0.0932     2.5243     0.0200
  554.0000   -40.4491     9.9973    12.3501     7.7069    99.2449     0.0939     2.5229     0.0211
  554.5000   -40.4635    10.0149    12.3797     7.7078   103.2589     0.0946     2.5235     0.0222
  555.0000   -40.4778    10.0325    12.4093     7.7087   107.3347     0.0943     2.5252     0.0233
  555.5000   -40.4921    10.0501    12.4389     7.7097   111.5273     0.0935     2.5269     0.0243
  556.0000   -40.5065    10.0678    12.4687     7.7106   112.1998     0.0927     2.5285     0.0218
  556.5000   -40.5210    10.0856    12.4976     7.7115   109.0700     0.0922     2.5293     0.0190
  557.0000   -40.5348    10.1100    12.3981     7.7124   105.7033     0.0932     2.5250     0.0161
  557.5000   -40.5850    10.0942    12.3023     7.7133   102.3233     0.0949     2.5208     0.0126
  558.0000   -40.6602    10.0601    12.2072     7.7142   102.4026     0.0965     2.5166     0.0152
  558.5000   -40.7360    10.0258    12.1128     7.7151   105.5813     0.0982     2.5162     0.0187
  559.0000   -40.8118     9.9916    12.0192     7.7160   105.5823     0.0957     2.5194     0.0223
  559.5000   -40.8875     9.9576    11.9345     7.7169   104.7747     0.0933     2.5225     0.0259
  560.0000   -40.9633     9.9238    11.9795     7.7178   105.7428     0.0914     2.5257     0.0247
  560.5000   -41.0391     9.8901    12.0208     7.7188   106.6764     0.0905     2.5289     0.0225
  561.0000   -41.1149     9.8564    12.0624     7.7111   106.8999     0.0896     2.5317     0.0203
  561.5000   -41.1906     9.8020    12.1040     7.6977   107.4557     0.0903     2.5285     0.0181
  562.0000   -41.2664     9.7040    12.1566     7.6842   108.6020     0.0931     2.5251     0.0171
  562.5000   -41.3422     9.6072    12.0331     7.6707   107.4512     0.0958     2.5220     0.0206
  563.0000   -41.4179     9.5114    11.8687     7.6571   104.8959     0.0940     2.5246     0.0239
  563.5000   -41.4937     9.4166    11.7066     7.6436   102.7716     0.0919     2.5287     0.0260
  564.0000   -41.5695     9.3228    11.5466     7.6301   103.9317     0.0899     2.5328     0.0240
  564.5000   -41.6453     9.2298    11.3889     7.6192   105.2814     0.0878     2.5369     0.0221
  565.0000   -41.7210     9.1378    11.2333     7.6195   106.6255     0.0869     2.5401     0.0202
  565.5000   -41.7968     9.0467    11.0798     7.6198   107.9854     0.0893     2.5337     0.0186
  566.0000   -41.8726     8.9565    10.9284     7.6359   109.9360     0.0917     2.5249     0.0222
  566.5000   -41.9484     8.8672    10.7791     7.6751   114.4164     0.0935     2.5260     0.0258
  567.0000   -42.0240     8.7788    10.6319     7.7139   118.0759     0.0919     2.5289     0.0293
  567.5000   -42.1005     8.6913    10.4866     7.7528   118.7925     0.0903     2.5318     0.0322
  568.0000   -42.1158     8.6046    10.3434     7.7710   118.3643     0.0894     2.5340     0.0295
  568.5000   -42.0908     8.5189    10.2021     7.7854   117.9399     0.0894     2.5320     0.0268
  569.0000   -42.0650     8.4340    10.0627     7.7983   120.1052     0.0902     2.5294     0.0242
