~VERSION INFORMATION
 VERS.                2.0:   CWLS LOG ASCII STANDARD - VERSION 2.0
 WRAP.                 NO:   ONE LINE PER DEPTH STEP
~WELL INFORMATION
#MNEM.UNIT      DATA TYPE    INFORMATION
#----------   ------------   ------------------------------
 STRT.F           20.0000:   START DEPTH
 STOP.F          698.0000:   STOP DEPTH
 STEP.F            0.5000:   STEP LENGTH
 NULL.          -999.2500:   NO VALUE
 COMP. FENIX & SCISSON INC:   COMPANY
 WELL.    52 SX 34 #52-34:   WELL
 FLD .             TEAPOT:   FIELD
 LOC .      S34 T39N R78W:   LOCATION
 CNTY.            NATRONA:   COUNTY
 STAT.            WYOMING:   STATE
 CTRY. UNITED STATES OF AMERICA:   COUNTRY
 SRVC.            Unknown:   SERVICE COMPANY
 DATE.        26-JAN-1979:   LOGDATE
 API .       490251077100:   API NUMBER
~CURVE INFORMATION
#MNEM.UNIT       API CODE    CURVE DESCRIPTION
#----------   ------------   ------------------------------
 DEPT.F                  :   
 SPR .MV     05 010 01 00:   SPONTANEOUS POTENTIAL FROM RES.
 CALD.IN     45 280 60 00:   CALIPER
 GRD .GAPI   45 310 01 00:   GAMMA RAY FROM DENSITY LOG
 CORR.G/C3   45 356 01 00:   DENSITY CORRECTION
 RHOB.G/C3   45 350 01 00:   BULK DENSITY
 ILD .OHMM   05 120 46 00:   INDUCTION LOG DEEP
 SN  .OHMM   05 040 16 00:   SHORT NORMAL 16"
 DPHI.DEC    45 890 12 00:   DENSITY POROSITY SANDSTONE
~PARAMETER INFORMATION
#MNEM.UNIT          VALUE    DESCRIPTION
#----------   ------------   ------------------------------
 PD  .                 GL:   PERMANENT DATUM
 EPD .F              5072:   ELEVATION PERMANENT DATUM
 LMF .                 KB:   LOG MEASURED FROM
 DAPD.F                 4:   FEET ABOVE PERMANENT DATUM
 DMF .                 KB:   DRILLING MEASURED FROM
 EKB .F              5076:   KELLING BUSHING
 EGL .F              5072:   GROUND LEVEL
 DATE.            1-26-79:   RUN DATE
 RUN .                  1:   RUN NUMBER
 DD  .F               688:   DEPTH DRILLER
 DL  .F               698:   DEPTH LOGGER
 BLI .F               691:   BOTTOM LOG INTERVAL
 TLI .F                30:   TOP LOG INTERVAL
 CS  .IN            8.625:   CASING SIZE
 CBD .F                40:   CASING BOTTOM DRILLER
 CBL .F                20:   CASING BOTTOM LOGGER
 BS  .IN            7.875:   BIT SIZE
 BSD .F               688:   BIT SIZE AT DEPTH
 DFT .                KCL:   DRILLING FLUID TYPE
 DFD .                8.9:   DRILLING FLUID DENSITY
 DFV .                 39:   DRILLING FLUID VISCOSITY
 DFPH.                 10:   DRILLING FLUID PH
 DFL .                 10:   DRILLING FLUID LOSS
 MSS .           FLOWLINE:   MUD SAMPLE SOURCE
 RMS .OHMM             .3:   RESISTIVITY MUD SAMPLE
 MST .F                60:   MUD SAMPLE TEMPERATURE
 RMF .OHMM            .22:   RESISTIVITY MUD FILTRATE SAMPLE
 MFST.F                66:   MUD FILTRATE SAMPLE TEMPERATURE
 MFSS.           MEASURED:   MUD FILTRATE SAMPLE SOURCE
 MCSS.           MEASURED:   MUD CAKE SAMPLE SOURCE
 RMB .OHMM            .25:   RESISTIVITY MUD AT BHT
 BHT .F                70:   BOTTOM HOLE TEMPERATURE
 TCS .HRS               7:   TIME CURCULATED STOPPED
 MRT .F                70:   MAXIMUM RECORDED TEMPERATURE
 LUN .               3006:   LOGGING UNIT NUMBER
 LUL .             CASPER:   LOGGING UNIT LOCATION
 ENGI.            ROLLINS:   RECORDING ENGINEER
 WITN.              AMEND:   WITNESSED BY
 CLNT.            A2DTECH:   CLIENT CODE
 ORIG.       2", 5" PRINT:   ORIGIN OF DATA
 UWI .       490251077100:   UNIQUE WELL ID
 DICO. A2D Technologies, Inc.:   DIGITIZING COMPANY
~OTHER INFORMATION
~A   DEPT      SPR         CALD       GRD      CORR       RHOB        ILD         SN       DPHI   
# ...
   60.5000   -53.6935     8.1221    90.6904     0.0115     2.4075     6.1733     5.8935     0.1600
   61.0000   -53.7257     8.1171    96.0671     0.0090     2.4065     6.1799     5.8935     0.1607
   61.5000   -53.9101     8.1120   100.2618     0.0066     2.4050     6.1866     5.8935     0.1613
   62.0000   -54.3244     8.1068   101.1923     0.0068     2.4023     6.1933     5.8935     0.1619
   62.5000   -54.3405     8.1017   101.4374     0.0089     2.4014     6.2000     5.8935     0.1626
   63.0000   -54.3383     8.0966    98.9067     0.0111     2.4004     6.2067     5.8935     0.1632
   63.5000   -54.3374     8.0915    93.5872     0.0133     2.3995     6.2134     5.8936     0.1631
   64.0000   -54.3366     8.0864    88.5639     0.0155     2.3988     6.2204     5.8940     0.1628
   64.5000   -54.3446     8.0813    85.5609     0.0175     2.3999     6.2280     5.8935     0.1625
   65.0000   -54.5186     8.0765    87.4266     0.0175     2.4017     6.2884     5.8935     0.1609
   65.5000   -54.6914     8.0944    87.7639     0.0175     2.4058     6.4031     5.9880     0.1584
   66.0000   -54.8630     8.1471    84.1396     0.0175     2.4097     6.5198     6.0751     0.1560
   66.5000   -55.0344     8.2002    83.2073     0.0175     2.4129     6.5876     6.1634     0.1554
   67.0000   -55.2058     8.2112    83.7758     0.0163     2.4130     6.5929     6.2530     0.1556
   67.5000   -55.3773     8.2115    83.0007     0.0144     2.4132     6.5982     6.3465     0.1550
   68.0000   -55.5487     8.2115    83.2165     0.0126     2.4134     6.6032     6.3383     0.1552
   68.5000   -55.7201     8.2115    83.8472     0.0107     2.4136     6.6081     6.3301     0.1572
   69.0000   -55.8915     8.2115    83.6697     0.0100     2.4088     6.6131     6.3219     0.1592
   69.5000   -56.0641     8.2115    82.5828     0.0115     2.4002     6.6181     6.3137     0.1657
   70.0000   -56.1639     8.2115    81.5161     0.0162     2.3877     6.6231     6.3056     0.1741
   70.5000   -56.2248     8.2114    80.9079     0.0213     2.3651     6.6281     6.2974     0.1929
   71.0000   -56.2836     8.2088    80.6725     0.0216     2.3417     6.6334     6.2892     0.2328
   71.5000   -56.1926     8.1968    81.8391     0.0243     2.2816     6.6390     6.2881     0.2727
   72.0000   -55.8148     8.1552    84.7329     0.0350     2.2138     6.6450     6.2301     0.3090
   72.5000   -55.4514     8.0953    92.0778     0.0454     2.1658     6.6475     6.0876     0.3281
   73.0000   -54.4039     8.0352   103.1184     0.0563     2.1242     6.2558     5.8293     0.3436
   73.5000   -53.0949     8.0100   108.9431     0.0593     2.0826     5.7303     5.4916     0.3493
   74.0000   -51.7923     7.9859   107.8383     0.0520     2.0494     4.9218     5.1734     0.3518
   74.5000   -50.5167     7.9766   105.3216     0.0292     2.0514     4.2315     4.8775     0.3424
   75.0000   -49.2723     7.9805   106.7109     0.0279     2.0921     3.5794     4.4918     0.2990
   75.5000   -47.0813     7.9845   106.3192     0.0266     2.1812     3.1496     3.9262     0.2682
   76.0000   -46.7414     7.9887   100.9103     0.0254     2.2716     2.7313     3.4313     0.2164
   76.5000   -46.7218     7.9930    94.6435     0.0243     2.3542     2.3682     2.9999     0.1781
   77.0000   -46.6853     7.9920    87.1762     0.0239     2.3734     2.1448     2.6230     0.1735
   77.5000   -46.6396     8.0948    79.1586     0.0255     2.3858     1.9588     2.3300     0.1719
   78.0000   -46.5952     8.1919    76.3828     0.0269     2.3872     1.9588     2.2298     0.1722
   78.5000   -46.5897     8.1648    76.8827     0.0284     2.3811     2.0634     2.2093     0.1772
   79.0000   -46.5930     8.1334    77.3504     0.0296     2.3736     2.2571     2.2093     0.1804
   79.5000   -46.5889     8.1010    77.3261     0.0300     2.3706     2.4958     2.2505     0.1809
   80.0000   -46.8083     8.0737    77.3231     0.0304     2.3718     2.8584     2.5383     0.1769
   80.5000   -46.7906     8.0777    77.3401     0.0308     2.3829     3.4227     2.9018     0.1713
   81.0000   -46.7873     8.0818    77.7387     0.0312     2.3850     4.1758     3.4380     0.1722
   81.5000   -46.7884     8.0859    79.2327     0.0322     2.3826     5.0946     4.1689     0.1741
   82.0000   -46.7854     8.0898    79.8937     0.0316     2.3811     6.2155     5.0594     0.1753
   82.5000   -46.6918     8.0886    78.3169     0.0269     2.3833     7.5842     6.0758     0.1713
   83.0000   -46.2760     8.0699    76.6282     0.0223     2.3746     8.2618     7.0341     0.1709
   83.5000   -46.0005     8.0520    77.6314     0.0177     2.3652     8.3801     7.3871     0.1885
   84.0000   -45.9798     8.0315    83.4142     0.0179     2.3557     8.2853     7.4431     0.1901
   84.5000   -45.1760     7.9445    94.4131     0.0184     2.3542     8.1486     7.4893     0.1900
   85.0000   -43.0215     7.8539    96.5138     0.0190     2.3548     7.7911     7.3212     0.1899
   85.5000   -41.6137     7.8513    92.8780     0.0195     2.3556     7.4197     7.1678     0.1899
   86.0000   -40.8632     7.8574    85.3658     0.0191     2.3564     7.0659     7.0177     0.1898
   86.5000   -40.1134     7.9646    79.9152     0.0368     2.3552     6.7291     6.8707     0.1912
   87.0000   -39.3649     8.0802    79.1102     0.0617     2.3534     6.4083     6.7268     0.1928
   87.5000   -38.6221     8.1983    78.3564     0.0849     2.3513     6.2648     6.5859     0.1945
   88.0000   -38.0327     8.2875    77.6947     0.0835     2.3463     6.2301     6.5859     0.1954
   88.5000   -37.6169     8.3098    79.3657     0.0683     2.3598     6.4543     6.5859     0.1851
   89.0000   -37.0380     8.3104    79.6672     0.0481     2.3767     6.8661     6.5859     0.1752
   89.5000   -37.0335     8.3150    79.5819     0.0309     2.3937     7.3054     6.8470     0.1653
   90.0000   -36.2632     8.2938    80.5955     0.0314     2.4002     7.7755     7.2182     0.1644
   90.5000   -36.2600     8.2081    82.8660     0.0315     2.3892     8.2759     7.6110     0.1743
   91.0000   -36.1277     8.1240    83.3999     0.0314     2.3695     8.8084     8.0243     0.1962
   91.5000   -35.9474     8.0491    82.6662     0.0293     2.3534     9.3753     8.4596     0.1981
   92.0000   -35.7664     8.0406    78.2795     0.0270     2.3401     9.7567     8.7902     0.1989
   92.5000   -35.6568     8.0299    77.9559     0.0248     2.3394     9.9429     9.1059     0.1988
   93.0000   -35.6424     8.0194    77.8368     0.0225     2.3395    10.1326     9.1836     0.1987
   93.5000   -35.6274     8.0238    77.7517     0.0201     2.3395    10.1945     9.2621     0.1986
   94.0000   -35.6131     8.0604    78.2200     0.0192     2.3393    10.2193     9.3412     0.1972
   94.5000   -35.5988     8.0926    80.4392     0.0177     2.3445    10.2434     9.4249     0.1950
   95.0000   -35.5845     8.0966    81.7124     0.0163     2.3505    10.2678     9.5108     0.1929
   95.5000   -35.5703     8.0999    82.9766     0.0149     2.3531    10.2923     9.5974     0.1907
   96.0000   -35.5560     8.1032    84.2227     0.0136     2.3556    10.3169     9.6849     0.1886
   96.5000   -35.5417     8.1065    85.0394     0.0152     2.3578    10.3416     9.7732     0.1880
   97.0000   -35.5274     8.1100    85.7517     0.0169     2.3584    10.3658     9.8289     0.1885
   97.5000   -35.5131     8.1176    86.0504     0.0187     2.3591    10.4575     9.8830     0.1876
   98.0000   -35.4988     8.1455    85.4362     0.0203     2.3599    10.5481     9.9374     0.1874
   98.5000   -35.4845     8.1732    84.5761     0.0211     2.3605    10.6395     9.9921     0.1902
   99.0000   -35.4702     8.1920    80.5998     0.0197     2.3556    10.7317    10.0471     0.1930
   99.5000   -35.4531     8.1917    76.2093     0.0223     2.3502    10.8247    10.1024     0.1937
  100.0000   -35.4336     8.1917    76.1755     0.0261     2.3491    10.9185    10.1580     0.1930
  100.5000   -35.4141     8.1917    81.6986     0.0299     2.3513    11.0131    10.2139     0.1957
