~VERSION INFORMATION
 VERS.                2.0:   CWLS LOG ASCII STANDARD - VERSION 2.0
 WRAP.                 NO:   ONE LINE PER DEPTH STEP
~WELL INFORMATION
#MNEM.UNIT      DATA TYPE    INFORMATION
#----------   ------------   ------------------------------
 STRT.F           50.0000:   START DEPTH
 STOP.F         1152.0000:   STOP DEPTH
 STEP.F            0.5000:   STEP LENGTH
 NULL.          -999.2500:   NO VALUE
 COMP. FENIX & SCISSON INC:   COMPANY
 WELL.  NPR 3 #65 SX14-14:   WELL
 FLD .             TEAPOT:   FIELD
 LOC .      S14 T38N R78W:   LOCATION
 CNTY.            NATRONA:   COUNTY
 STAT.            WYOMING:   STATE
 CTRY. UNITED STATES OF AMERICA:   COUNTRY
 SRVC.              Welex:   SERVICE COMPANY
 DATE.        13-JAN-1979:   LOGDATE
 API .       490251073800:   API NUMBER
~CURVE INFORMATION
#MNEM.UNIT       API CODE    CURVE DESCRIPTION
#----------   ------------   ------------------------------
 DEPT.F                  :   
 SPR .MV     07 010 01 00:   SPONTANEOUS POTENTIAL
 SGRD.OHMM   07 220 05 00:   SHALLOW GUARD RESISTIVITY
 ILD .OHMM   07 120 46 00:   INDUCTION LOG DEEP
 ILM .OHMM   07 120 44 00:   INDUCTION LOG MEDIUM
 CALD.IN     45 280 60 00:   CALIPER
 GRD .GAPI   45 310 01 00:   GAMMA RAY FROM DENSITY LOG
 RHOB.G/C3   45 350 01 00:   BULK DENSITY
 DPHI.DEC    45 890 12 00:   DENSITY POROSITY SANDSTONE
 CORR.G/C3   45 356 01 00:   DENSITY CORRECTION
~PARAMETER INFORMATION
#MNEM.UNIT          VALUE    DESCRIPTION
#----------   ------------   ------------------------------
 PD  .                 GL:   PERMANENT DATUM
 EPD .F              5312:   ELEVATION PERMANENT DATUM
 LMF .                 KB:   LOG MEASURED FROM
 DAPD.F                 4:   FEET ABOVE PERMANENT DATUM
 DMF .                 KB:   DRILLING MEASURED FROM
 EKB .F              5316:   KELLING BUSHING
 EGL .F              5312:   GROUND LEVEL
 DATE.            1-13-79:   RUN DATE
 RUN .                  1:   RUN NUMBER
 DD  .F              1167:   DEPTH DRILLER
 DL  .F              1154:   DEPTH LOGGER
 BLI .F              1152:   BOTTOM LOG INTERVAL
 TLI .F                50:   TOP LOG INTERVAL
 CS  .IN            8.625:   CASING SIZE
 CBD .F                40:   CASING BOTTOM DRILLER
 CBL .F                60:   CASING BOTTOM LOGGER
 BS  .IN            7.875:   BIT SIZE
 BSD .F              1167:   BIT SIZE AT DEPTH
 DFT .            KCL MUD:   DRILLING FLUID TYPE
 DFD .                8.8:   DRILLING FLUID DENSITY
 DFV .                 42:   DRILLING FLUID VISCOSITY
 DFPH.                8.2:   DRILLING FLUID PH
 DFL .                7.7:   DRILLING FLUID LOSS
 MSS .                PIT:   MUD SAMPLE SOURCE
 RMS .OHMM            .29:   RESISTIVITY MUD SAMPLE
 MST .F                40:   MUD SAMPLE TEMPERATURE
 RMF .OHMM            .19:   RESISTIVITY MUD FILTRATE SAMPLE
 MFST.F                40:   MUD FILTRATE SAMPLE TEMPERATURE
 RMC .OHMM            .87:   RESISTIVITY MUD CAKE
 MCST.F                40:   MUD CAKE SAMPLE TEMPERATURE
 MFSS.           MEASURED:   MUD FILTRATE SAMPLE SOURCE
 MCSS.           MEASURED:   MUD CAKE SAMPLE SOURCE
 RMB .OHMM           .119:   RESISTIVITY MUD AT BHT
 BHT .F                97:   BOTTOM HOLE TEMPERATURE
 TCS .HRS              30:   TIME CURCULATED STOPPED
 MRT .F                97:   MAXIMUM RECORDED TEMPERATURE
 LUN .               8611:   LOGGING UNIT NUMBER
 LUL .             CASPER:   LOGGING UNIT LOCATION
 ENGI.            BENTSEN:   RECORDING ENGINEER
 WITN.              AMEND:   WITNESSED BY
 CLNT.            A2DTECH:   CLIENT CODE
 ORIG.       2", 5" PRINT:   ORIGIN OF DATA
 UWI .       490251073800:   UNIQUE WELL ID
 DICO. A2D Technologies, Inc.:   DIGITIZING COMPANY
~OTHER INFORMATION
~A   DEPT      SPR       SGRD        ILD        ILM       CALD        GRD       RHOB       DPHI       CORR   
# ...
  269.0000   -30.4325     7.2628     6.2403     6.7387     8.0919   112.4719     2.4841     0.1161    -0.0049
  269.5000   -30.6240     7.0568     6.0805     6.6000     8.1000   113.2762     2.4808     0.1170    -0.0048
  270.0000   -30.6759     6.8565     5.9248     6.4639     8.0895   114.0735     2.4775     0.1179    -0.0047
  270.5000   -30.6193     6.6618     5.7731     6.3315     8.0786   113.5246     2.4841     0.1173    -0.0046
  271.0000   -30.5615     6.5775     5.6207     6.2232     8.0678   110.0017     2.4930     0.1108    -0.0044
  271.5000   -30.5037     6.6735     5.6231     6.3132     8.0569   111.6185     2.5017     0.1043    -0.0043
  272.0000   -30.4460     6.7728     5.7346     6.4292     8.0461   114.5915     2.5069     0.1006    -0.0042
  272.5000   -30.3883     6.8734     5.8291     6.5473     8.0353   113.8267     2.4959     0.1070    -0.0040
  273.0000   -30.3307     6.9755     5.9250     6.6675     8.0250   113.0843     2.5070     0.1020    -0.0009
  273.5000   -30.2730     7.0815     6.0224     6.7900     7.9936   115.2384     2.5177     0.0973     0.0056
  274.0000   -30.2151     7.2952     6.1215     6.9148     7.9562   114.9832     2.5187     0.0942     0.0120
  274.5000   -30.1562     7.5197     6.2222     7.0418     7.9238   115.2724     2.5115     0.0987     0.0092
  275.0000   -30.1061     7.7511     6.3246     7.1711     7.9639   118.8691     2.4928     0.1105    -0.0070
  275.5000   -30.2626     7.9264     6.4286     7.3029     8.0086   117.4197     2.4616     0.1309    -0.0232
  276.0000   -30.4282     7.9741     6.5343     7.4370     8.0427   115.5801     2.4675     0.1269    -0.0262
  276.5000   -30.5906     7.9842     6.5775     7.5736     8.0534   114.5223     2.4771     0.1200    -0.0082
  277.0000   -30.6842     7.8830     6.6385     7.6242     8.0647   114.2054     2.4814     0.1169     0.0055
  277.5000   -30.5559     7.7624     6.6080     7.5373     8.0760   116.7836     2.4823     0.1167     0.0053
  278.0000   -30.4301     7.6435     6.5792     7.4382     8.0872   119.7299     2.4819     0.1166    -0.0003
  278.5000   -30.3041     7.5265     6.5506     7.3404     8.0984   120.6760     2.4816     0.1164    -0.0059
  279.0000   -30.1783     7.4113     6.5220     7.2438     8.0889   117.2899     2.4815     0.1162    -0.0089
  279.5000   -30.0522     7.2804     6.4937     7.1486     8.0599   113.8011     2.4862     0.1138    -0.0044
  280.0000   -29.9232     7.2804     6.4573     7.0816     8.0310   109.5843     2.4938     0.1089     0.0000
  280.5000   -29.9184     7.4028     6.5297     7.2012     8.0021   110.9736     2.5004     0.1043     0.0032
  281.0000   -29.9418     7.5735     6.6330     7.3360     7.9731   113.9328     2.4819     0.1132    -0.0164
  281.5000   -29.9657     7.7481     6.7379     7.4733     7.9440   112.6096     2.4708     0.1234    -0.0338
  282.0000   -29.9894     7.9268     6.8444     7.6131     7.9537   109.5854     2.4778     0.1199    -0.0292
  282.5000   -30.0130     8.1095     6.9527     7.7556     7.9741   111.3352     2.4837     0.1138    -0.0245
  283.0000   -30.0366     8.2965     7.0626     7.9008     7.9944   114.6082     2.4837     0.1161    -0.0198
  283.5000   -30.0604     8.4884     7.1743     8.0486     8.0143   116.9768     2.4780     0.1200    -0.0146
  284.0000   -30.0833     8.6831     7.2877     8.1992     8.0336   116.3191     2.4709     0.1258    -0.0281
  284.5000   -30.0759     8.7583     7.4030     8.2845     8.0595   113.8276     2.4694     0.1214    -0.0238
  285.0000   -29.9926     8.6190     7.5212     8.2273     8.0562   112.9841     2.4823     0.1132    -0.0135
  285.5000   -29.9107     8.5108     7.6021     8.1879     8.0534   114.0051     2.4908     0.1111    -0.0048
  286.0000   -29.8287     8.3613     7.6715     8.1487     8.0502   112.7357     2.4734     0.1183    -0.0109
  286.5000   -29.7468     8.5060     7.7407     8.1330     8.0471   111.4393     2.4727     0.1241    -0.0171
  287.0000   -29.6647     8.7545     7.8108     8.3090     8.0440   110.1423     2.4787     0.1163    -0.0141
  287.5000   -29.5818     9.0854     7.8816     8.4573     8.0419   111.3158     2.4842     0.1146    -0.0097
  288.0000   -29.5045     9.0274     7.9525     8.6757     8.0449   112.4657     2.4793     0.1197    -0.0053
  288.5000   -29.5821     8.9466     7.9842     8.6077     8.0477   110.8818     2.4796     0.1185    -0.0009
  289.0000   -29.6672     8.8373     7.7735     8.4870     8.0506   109.2973     2.4797     0.1165     0.0036
  289.5000   -29.7515     8.7530     7.6227     8.3681     8.0535   111.4416     2.4784     0.1171     0.0076
  290.0000   -29.8357     8.8627     7.4749     8.2845     8.0564   113.7547     2.4800     0.1126     0.0166
  290.5000   -29.9199     8.9902     7.3299     8.3721     8.0591   115.9739     2.5056     0.1010     0.0274
  291.0000   -30.0049     9.1743     7.1877     8.4388     8.0577   114.0038     2.5003     0.1059     0.0382
  291.5000   -30.0941     8.8706     7.0483     8.0237     8.0451   111.0266     2.4944     0.1134     0.0489
  292.0000   -29.9175     8.1770     6.9116     7.4129     8.0329   112.7778     2.4975     0.1083     0.0674
  292.5000   -29.7035     7.7638     6.7775     6.8446     8.0205   114.5599     2.5034     0.1026     0.0888
  293.0000   -29.4890     7.7656     6.6385     6.1175     8.0082   114.2154     2.4968     0.1074     0.0846
  293.5000   -29.2750     7.9376     6.6385     6.9694     7.9568   113.6394     2.4895     0.1154     0.0784
  294.0000   -29.0605     8.1735     6.7270     7.8457     7.8585   113.8915     2.4898     0.1127     0.0724
  294.5000   -28.8506     8.4158     6.8408     8.0855     7.7698   113.6358     2.4950     0.1069     0.0666
  295.0000   -28.7591     8.6653     6.9571     8.3657     7.8363   112.5059     2.4986     0.1039     0.0610
  295.5000   -28.9723     8.8373     7.0809     8.2340     7.9060   113.6917     2.4746     0.1208     0.0408
  296.0000   -29.1776     8.4060     7.2228     7.9944     7.9654   112.3230     2.4681     0.1288     0.0205
  296.5000   -29.2751     8.0950     7.3752     7.7662     8.0012   110.6405     2.4772     0.1146     0.0086
  297.0000   -29.2107     7.9842     7.5311     7.7674     8.0405   108.9461     2.4915     0.1088     0.0099
  297.5000   -29.1482     8.3964     7.6903     7.7631     8.0795   107.2550     2.4999     0.1084     0.0111
  298.0000   -29.0851     8.5960     7.8529     8.1142     8.0768   105.5564     2.5040     0.1064     0.0119
  298.5000   -29.0223     8.5354     8.0190     8.3592     8.0690   104.8727     2.5081     0.1016     0.0107
  299.0000   -28.9594     8.5170     8.1884     8.6112     8.0613   105.5520     2.5125     0.0990     0.0063
  299.5000   -28.8966     8.9412     8.3001     8.8705     8.0536   107.2317     2.5008     0.1045     0.0021
  300.0000   -28.8337     9.2561     8.3631     9.1376     8.0459   108.3392     2.4844     0.1130    -0.0022
  300.5000   -28.7708     9.6027     8.4269     9.4128     8.0383   106.2335     2.4637     0.1277    -0.0060
  301.0000   -28.7080    11.0475     8.4910     9.6963     8.0306   109.3268     2.4691     0.1249    -0.0059
  301.5000   -28.6450    12.0946     8.5173     9.8723     8.0228   112.2631     2.4781     0.1191    -0.0044
  302.0000   -28.5822    10.2768     8.3427     9.7481     8.0297   108.3551     2.4874     0.1132    -0.0024
  302.5000   -28.5186     9.7421     8.2199     9.5464     8.0421   105.5187     2.4964     0.1038     0.0009
  303.0000   -28.5574     9.5470     8.0988     9.3505     8.0545   108.9279     2.4992     0.1061     0.0043
  303.5000   -28.6722     9.3556     7.9795     9.1586     8.0670   112.4612     2.5018     0.1106     0.0077
  304.0000   -28.7874     9.1682     7.8382     8.9708     8.0795   116.0845     2.5041     0.1037     0.0111
  304.5000   -28.9027     8.9150     7.9842     8.7867     8.0918   116.4224     2.5140     0.0980     0.0157
  305.0000   -29.0180     8.8373     7.9640     8.6820     8.0975   115.7565     2.5243     0.0930     0.0260
