~VERSION INFORMATION
 VERS.                2.0:   CWLS LOG ASCII STANDARD - VERSION 2.0
 WRAP.                 NO:   ONE LINE PER DEPTH STEP
~WELL INFORMATION
#MNEM.UNIT      DATA TYPE    INFORMATION
#----------   ------------   ------------------------------
 STRT.F            0.1000:   START DEPTH
 STOP.F          550.8000:   STOP DEPTH
 STEP.F            0.1000:   STEP LENGTH
 NULL.          -999.2500:   NO VALUE
 COMP.       F D SERV INC:   COMPANY
 WELL.  82-1 SX 10 #82-10:   WELL
 FLD .             TEAPOT:   FIELD
 LOC .      S10 T38N R78W:   LOCATION
 CNTY.            NATRONA:   COUNTY
 STAT.            WYOMING:   STATE
 CTRY. UNITED STATES OF AMERICA:   COUNTRY
 SRVC.     Atlas Wireline:   SERVICE COMPANY
 DATE.        11-DEC-1992:   LOGDATE
 API .       490252257600:   API NUMBER
~CURVE INFORMATION
#MNEM.UNIT       API CODE    CURVE DESCRIPTION
#----------   ------------   ------------------------------
 DEPT.F                  :   
 GRR .GAPI   07 310 01 00:   GAMMA RAY
 RILD.OHMM   07 120 46 00:   INDUCTION LOG DEEP RESISTIVITY
 RILM.OHMM   07 120 44 00:   INDUCTION LOG MEDIUM RESISTIVITY
~PARAMETER INFORMATION
#MNEM.UNIT          VALUE    DESCRIPTION
#----------   ------------   ------------------------------
 PD  .                 GL:   PERMANENT DATUM
 EPD .F              5136:   ELEVATION PERMANENT DATUM
 LMF .                 KB:   LOG MEASURED FROM
 DAPD.F                10:   FEET ABOVE PERMANENT DATUM
 DMF .                 KB:   DRILLING MEASURED FROM
 EKB .F              5146:   KELLING BUSHING
 EDF .F              5145:   DRILLING FLOOR
 EGL .F              5136:   GROUND LEVEL
 DATE.        11-DEC-1992:   RUN DATE
 RUN .                  1:   RUN NUMBER
 DD  .F               560:   DEPTH DRILLER
 DL  .F               560:   DEPTH LOGGER
 BLI .F               551:   BOTTOM LOG INTERVAL
 CS  .IN            8.625:   CASING SIZE
 CBD .F                53:   CASING BOTTOM DRILLER
 CBL .F                54:   CASING BOTTOM LOGGER
 BS  .IN            7.875:   BIT SIZE
 BSD .F               560:   BIT SIZE AT DEPTH
 DFT .           AIR FOAM:   DRILLING FLUID TYPE
 BHT .F                60:   BOTTOM HOLE TEMPERATURE
 MRT .F                60:   MAXIMUM RECORDED TEMPERATURE
 LUN .           HL- 6274:   LOGGING UNIT NUMBER
 LUL .             CASPER:   LOGGING UNIT LOCATION
 ENGI.       P. RASMUSSEN:   RECORDING ENGINEER
 WITN.          G. STRONG:   WITNESSED BY
 CLNT.            A2DTECH:   CLIENT CODE
 ORIG.           5" PRINT:   ORIGIN OF DATA
 UWI .       490252257600:   UNIQUE WELL ID
 DICO. A2D Technologies, Inc.:   DIGITIZING COMPANY
~OTHER INFORMATION
~A    DEPT      GRR      RILD       RILM   
# ...
  527.9000   130.1965     3.6306     3.8050
  528.0000   130.4541     3.5764     3.6659
  528.1000   130.2077     3.5263     3.5485
  528.2000   130.1486     3.4445     3.4430
  528.3000   129.9996     3.3303     3.3247
  528.4000   129.7452     3.2040     3.1691
  528.5000   129.4908     3.0813     3.0097
  528.6000   129.2363     2.9834     2.8540
  528.7000   128.9331     2.9111     2.7514
  528.8000   128.7274     2.8763     2.6957
  528.9000   128.3179     2.8208     2.6647
  529.0000   127.9178     2.7780     2.6296
  529.1000   127.6058     2.7409     2.6296
  529.2000   127.0995     2.7093     2.6297
  529.3000   126.5127     2.6828     2.6369
  529.4000   126.2985     2.6691     2.6480
  529.5000   125.8806     2.6692     2.6480
  529.6000   125.3743     2.6693     2.6481
  529.7000   124.8678     2.6694     2.6619
  529.8000   124.3785     2.6694     2.6774
  529.9000   124.0923     2.6695     2.6850
  530.0000   123.6491     2.6696     2.6951
  530.1000   123.3144     2.6697     2.7245
  530.2000   122.6906     2.6848     2.7414
  530.3000   121.6804     2.7005     2.7564
  530.4000   120.7723     2.7071     2.7844
  530.5000   120.7697     2.7134     2.8170
  530.6000   120.7675     2.7293     2.8498
  530.7000   120.7651     2.7451     2.8859
  530.8000   120.7627     2.7452     2.9380
  530.9000   120.7603     2.7584     2.9882
  531.0000   120.7579     2.7847     3.0407
  531.1000   120.7553     2.8102     3.0941
  531.2000   120.5157     2.8307     3.1706
  531.3000   120.2612     2.8656     3.2827
  531.4000   120.0068     2.9425     3.3979
  531.5000   119.7524     3.0176     3.4686
  531.6000   119.4440     3.1067     3.5185
  531.7000   118.9001     3.1804     3.5935
  531.8000   118.5393     3.2419     3.6778
  531.9000   118.2258     3.3200     3.7749
  532.0000   118.2258     3.4273     3.9059
  532.1000  -999.2500     3.5005     4.0111
  532.2000  -999.2500     3.5981     4.0918
  532.3000  -999.2500     3.7043     4.2043
  532.4000  -999.2500     3.8136     4.3280
  532.5000  -999.2500     3.9292     4.4553
  532.6000  -999.2500     4.0758     4.5814
  532.7000  -999.2500     4.2370     4.6705
  532.8000  -999.2500     4.4332     4.7439
  532.9000  -999.2500     4.6133     4.8471
  533.0000  -999.2500     4.7770     4.9609
  533.1000  -999.2500     4.9355     5.0773
  533.2000  -999.2500     5.0527     5.2002
  533.3000  -999.2500     5.1708     5.3636
  533.4000  -999.2500     5.3176     5.5412
  533.5000  -999.2500     5.4746     5.7378
  533.6000  -999.2500     5.6502     5.9029
  533.7000  -999.2500     5.8665     6.0413
  533.8000  -999.2500     6.1447     6.1949
  533.9000  -999.2500     6.4845     6.4205
  534.0000  -999.2500     6.6133     6.6418
  534.1000  -999.2500     6.7692     6.8151
  534.2000  -999.2500     6.8728     6.9275
  534.3000  -999.2500     6.9023     7.0084
  534.4000  -999.2500     6.9055     7.0819
  534.5000  -999.2500     6.9506     7.1231
  534.6000  -999.2500     7.0228     7.1724
  534.7000  -999.2500     7.0479     7.2065
  534.8000  -999.2500     7.0688     7.2223
  534.9000  -999.2500     7.1102     7.2405
  535.0000  -999.2500     7.1518     7.2929
  535.1000  -999.2500     7.1967     7.3760
  535.2000  -999.2500     7.2358     7.4253
  535.3000  -999.2500     7.2782     7.4623
  535.4000  -999.2500     7.3442     7.5347
  535.5000  -999.2500     7.4302     7.6227
  535.6000  -999.2500     7.5101     7.6993
  535.7000  -999.2500     7.5554     7.7441
  535.8000  -999.2500     7.5984     7.7942
  535.9000  -999.2500     7.6429     7.8347
  536.0000  -999.2500     7.6877     7.8484
  536.1000  -999.2500     7.7327     7.8486
  536.2000  -999.2500     7.7780     7.8630
  536.3000  -999.2500     7.8235     7.9032
  536.4000  -999.2500     7.8775     7.9033
  536.5000  -999.2500     7.8777     7.9035
  536.6000  -999.2500     7.8779     7.9036
  536.7000  -999.2500     7.8781     7.9037
  536.8000  -999.2500     7.8783     7.9038
  536.9000  -999.2500     7.8786     7.9039
  537.0000  -999.2500     7.8788     7.9040
  537.1000  -999.2500     7.8790     7.9041
  537.2000  -999.2500     7.8792     7.9042
  537.3000  -999.2500     7.8794     7.8777
  537.4000  -999.2500     7.8796     7.8500
  537.5000  -999.2500     7.8799     7.8501
  537.6000  -999.2500     7.8801     7.8502
  537.7000  -999.2500     7.8803     7.8503
  537.8000  -999.2500     7.8805     7.8504
  537.9000  -999.2500     7.8807     7.8505
  538.0000  -999.2500     7.8810     7.8506
  538.1000  -999.2500     7.8747     7.8507
  538.2000  -999.2500     7.8270     7.8508
  538.3000  -999.2500     7.8272     7.8509
  538.4000  -999.2500     7.8274     7.8511
  538.5000  -999.2500     7.8148     7.8512
  538.6000  -999.2500     7.7923     7.8513
  538.7000  -999.2500     7.7740     7.8514
  538.8000  -999.2500     7.7743     7.8515
  538.9000  -999.2500     7.7745     7.8516
  539.0000  -999.2500     7.7386     7.8517
  539.1000  -999.2500     7.7213     7.8518
  539.2000  -999.2500     7.7215     7.8519
  539.3000  -999.2500     7.7217     7.8520
  539.4000  -999.2500     7.7203     7.8521
  539.5000  -999.2500     7.6689     7.8523
  539.6000  -999.2500     7.6690     7.8524
  539.7000  -999.2500     7.6402     7.8525
  539.8000  -999.2500     7.6165     7.8526
  539.9000  -999.2500     7.6048     7.8367
  540.0000  -999.2500     7.5644     7.7987
  540.1000  -999.2500     7.5646     7.7988
  540.2000  -999.2500     7.5259     7.7989
  540.3000  -999.2500     7.5128     7.7990
  540.4000  -999.2500     7.5130     7.7991
  540.5000  -999.2500     7.4996     7.7992
  540.6000  -999.2500     7.4616     7.7993
  540.7000  -999.2500     7.4618     7.7994
  540.8000  -999.2500     7.4620     7.7996
  540.9000  -999.2500     7.4622     7.7996
  541.0000  -999.2500     7.4624     7.7998
  541.1000  -999.2500     7.4626     7.7999
  541.2000  -999.2500     7.4628     7.8000
  541.3000  -999.2500     7.4630     7.8001
  541.4000  -999.2500     7.4632     7.8002
  541.5000  -999.2500     7.4635     7.8003
  541.6000  -999.2500     7.4894     7.8004
  541.7000  -999.2500     7.5157     7.8005
  541.8000  -999.2500     7.5159     7.7883
  541.9000  -999.2500     7.5161     7.7470
  542.0000  -999.2500     7.5164     7.7471
  542.1000  -999.2500     7.5166     7.7472
  542.2000  -999.2500     7.5168     7.7161
  542.3000  -999.2500     7.4977     7.6940
  542.4000  -999.2500     7.4653     7.6941
  542.5000  -999.2500     7.4655     7.6942
  542.6000  -999.2500     7.4658     7.6943
  542.7000  -999.2500     7.4659     7.6532
  542.8000  -999.2500     7.4661     7.6415
  542.9000  -999.2500     7.4663     7.6416
  543.0000  -999.2500     7.4666     7.6263
  543.1000  -999.2500     7.4668     7.5823
  543.2000  -999.2500     7.4670     7.5370
  543.3000  -999.2500     7.4672     7.4951
  543.4000  -999.2500     7.4674     7.4853
  543.5000  -999.2500     7.4676     7.4603
  543.6000  -999.2500     7.4678     7.4339
  543.7000  -999.2500     7.4680     7.4256
  543.8000  -999.2500     7.4682     7.3829
  543.9000  -999.2500     7.4684     7.3830
  544.0000  -999.2500     7.4686     7.3831
  544.1000  -999.2500     7.4441     7.3832
  544.2000  -999.2500     7.4175     7.3651
  544.3000  -999.2500     7.4177     7.3325
  544.4000  -999.2500     7.4179     7.3326
  544.5000  -999.2500     7.4181     7.3327
  544.6000  -999.2500     7.4183     7.3328
  544.7000  -999.2500     7.4185     7.3609
  544.8000  -999.2500     7.4370     7.3839
  544.9000  -999.2500     7.4705     7.3840
  545.0000  -999.2500     7.4707     7.3841
  545.1000  -999.2500     7.4709     7.3842
  545.2000  -999.2500     7.5081     7.3843
  545.3000  -999.2500     7.5232     7.3844
  545.4000  -999.2500     7.5234     7.3845
  545.5000  -999.2500     7.5236     7.3979
  545.6000  -999.2500     7.5239     7.4359
  545.7000  -999.2500     7.5241     7.4361
  545.8000  -999.2500     7.5243     7.4362
  545.9000  -999.2500     7.5245     7.4363
  546.0000  -999.2500     7.5470     7.4364
