~VERSION INFORMATION
 VERS.                2.0:   CWLS LOG ASCII STANDARD - VERSION 2.0
 WRAP.                 NO:   ONE LINE PER DEPTH STEP
~WELL INFORMATION
#MNEM.UNIT      DATA TYPE    INFORMATION
#----------   ------------   ------------------------------
 STRT.F           43.0000:   START DEPTH
 STOP.F          620.0000:   STOP DEPTH
 STEP.F            0.5000:   STEP LENGTH
 NULL.          -999.2500:   NO VALUE
 COMP. FENIX & SCISSON INC:   COMPANY
 WELL.      16 SX 2 #16-2:   WELL
 FLD .             TEAPOT:   FIELD
 LOC .       S2 T38N R78W:   LOCATION
 CNTY.            NATRONA:   COUNTY
 STAT.            WYOMING:   STATE
 CTRY. UNITED STATES OF AMERICA:   COUNTRY
 SRVC.            Unknown:   SERVICE COMPANY
 DATE.        11-OCT-1978:   LOGDATE
 API .       490251071400:   API NUMBER
~CURVE INFORMATION
#MNEM.UNIT       API CODE    CURVE DESCRIPTION
#----------   ------------   ------------------------------
 DEPT.F                  :   
 SPR .MV     05 010 01 00:   SPONTANEOUS POTENTIAL FROM RES.
 SN  .OHMM   05 040 16 00:   SHORT NORMAL 16"
 ILD .OHMM   05 120 46 00:   INDUCTION LOG DEEP
 CALD.IN     45 280 60 00:   CALIPER
 GRD .GAPI   45 310 01 00:   GAMMA RAY FROM DENSITY LOG
 DPHI.DEC    45 890 12 00:   DENSITY POROSITY SANDSTONE
 RHOB.G/C3   45 350 01 00:   BULK DENSITY
 DRHO.G/C3   45 356 01 00:   DENSITY CORRECTION
~PARAMETER INFORMATION
#MNEM.UNIT          VALUE    DESCRIPTION
#----------   ------------   ------------------------------
 PD  .                 GL:   PERMANENT DATUM
 EPD .F              5135:   ELEVATION PERMANENT DATUM
 LMF .                 KB:   LOG MEASURED FROM
 DAPD.F                 4:   FEET ABOVE PERMANENT DATUM
 DMF .                 KB:   DRILLING MEASURED FROM
 EKB .F              5139:   KELLING BUSHING
 EGL .F              5135:   GROUND LEVEL
 DATE.           10-11-78:   RUN DATE
 RUN .                  1:   RUN NUMBER
 DD  .F               620:   DEPTH DRILLER
 DL  .F               620:   DEPTH LOGGER
 BLI .F               614:   BOTTOM LOG INTERVAL
 TLI .F                40:   TOP LOG INTERVAL
 CS  .IN            8.625:   CASING SIZE
 CBD .F                40:   CASING BOTTOM DRILLER
 CBL .F                40:   CASING BOTTOM LOGGER
 BS  .IN            7.875:   BIT SIZE
 BSD .F               620:   BIT SIZE AT DEPTH
 DFT .                KCL:   DRILLING FLUID TYPE
 RMS .OHMM            .16:   RESISTIVITY MUD SAMPLE
 MST .F                66:   MUD SAMPLE TEMPERATURE
 RMF .OHMM            .16:   RESISTIVITY MUD FILTRATE SAMPLE
 MFST.F                70:   MUD FILTRATE SAMPLE TEMPERATURE
 RMC .OHMM             .2:   RESISTIVITY MUD CAKE
 MCST.F                71:   MUD CAKE SAMPLE TEMPERATURE
 TCS .HRS               1:   TIME CURCULATED STOPPED
 MRT .F                70:   MAXIMUM RECORDED TEMPERATURE
 LUN .               2958:   LOGGING UNIT NUMBER
 LUL .               CASP:   LOGGING UNIT LOCATION
 ENGI.             MILLER:   RECORDING ENGINEER
 WITN.              AMEND:   WITNESSED BY
 CLNT.            A2DTECH:   CLIENT CODE
 ORIG.           5" PRINT:   ORIGIN OF DATA
 UWI .       490251071400:   UNIQUE WELL ID
 DICO. A2D Technologies, Inc.:   DIGITIZING COMPANY
~OTHER INFORMATION
~A   DEPT      SPR         SN        ILD       CALD         GRD      DPHI       RHOB       DRHO   
# ...
  245.5000   -46.7076     7.2834     8.9311     7.6917    96.8325     0.1249     2.4813     0.0079
  246.0000   -46.8640     7.3067     8.9238     7.6592    96.8339     0.1226     2.4865     0.0098
  246.5000   -46.8693     7.3301     8.9166     7.6280   102.8925     0.1201     2.4914     0.0118
  247.0000   -46.8084     7.3535     8.9093     7.5991   107.0806     0.1178     2.4930     0.0139
  247.5000   -46.7457     7.3770     8.9021     7.5841   109.7930     0.1161     2.4940     0.0128
  248.0000   -46.6830     7.3892     8.8949     7.5698   104.0443     0.1161     2.4931     0.0104
  248.5000   -46.6204     7.3715     8.8871     7.5555    98.4720     0.1169     2.4924     0.0081
  249.0000   -46.5582     7.3595     8.8563     7.5415    93.6449     0.1184     2.4874     0.0056
  249.5000   -46.5131     7.3476     8.8132     7.5357    95.6205     0.1226     2.4810     0.0026
  250.0000   -46.5139     7.3357     8.7708     7.5312    98.6397     0.1272     2.4745     0.0034
  250.5000   -46.5139     7.3238     8.7285     7.5267   101.6886     0.1318     2.4680     0.0044
  251.0000   -46.5139     7.3120     8.6865     7.5222   105.0539     0.1364     2.4622     0.0053
  251.5000   -46.5139     7.3001     8.6447     7.5199   111.0207     0.1344     2.4637     0.0062
  252.0000   -46.5139     7.2883     8.6030     7.5199   116.9848     0.1316     2.4705     0.0080
  252.5000   -46.5139     7.2765     8.5616     7.5199   122.9634     0.1288     2.4771     0.0100
  253.0000   -46.5139     7.2647     8.5205     7.5199   126.7869     0.1260     2.4789     0.0121
  253.5000   -46.5139     7.2530     8.4810     7.5200   122.5634     0.1232     2.4787     0.0142
  254.0000   -46.5139     7.2412     8.4546     7.5324   118.7582     0.1243     2.4784     0.0163
  254.5000   -46.5139     7.2295     8.4279     7.5463   122.7285     0.1277     2.4782     0.0184
  255.0000   -46.5139     7.2178     8.4013     7.5602   119.1235     0.1264     2.4788     0.0205
  255.5000   -46.5139     7.2061     8.3747     7.5741   111.0608     0.1252     2.4804     0.0224
  256.0000   -46.5132     7.1944     8.3483     7.5880   103.8839     0.1240     2.4820     0.0214
  256.5000   -46.5102     7.1828     8.3219     7.6019   103.7754     0.1229     2.4836     0.0202
  257.0000   -46.5292     7.1711     8.2956     7.6158   104.5602     0.1217     2.4826     0.0158
  257.5000   -47.1134     7.1595     8.2693     7.6297   109.5757     0.1234     2.4799     0.0114
  258.0000   -47.7287     7.1479     8.2537     7.6415   115.1041     0.1265     2.4751     0.0072
  258.5000   -48.3371     7.1363     8.2537     7.6480   119.8008     0.1296     2.4704     0.0045
  259.0000   -48.6718     7.1248     8.2536     7.6546   109.2004     0.1327     2.4662     0.0049
  259.5000   -48.5765     7.1132     8.2536     7.6612   102.2777     0.1357     2.4688     0.0055
  260.0000   -48.5652     7.1017     8.2536     7.6678   101.9935     0.1315     2.4748     0.0061
  260.5000   -48.8867     7.0902     8.2257     7.6744   105.7473     0.1266     2.4806     0.0067
  261.0000   -49.2006     7.0788     8.1809     7.6810   109.9897     0.1218     2.4846     0.0073
  261.5000   -49.5138     7.0672     8.1364     7.6876   106.2873     0.1220     2.4819     0.0079
  262.0000   -49.8271     7.0563     8.0587     7.6942   102.4683     0.1249     2.4794     0.0086
  262.5000   -50.1409     6.9368     7.8792     7.7008    98.9602     0.1277     2.4769     0.0092
  263.0000   -50.4530     6.8243     7.7037     7.7074    97.7860     0.1273     2.4761     0.0098
  263.5000   -50.5765     6.7134     7.5321     7.7140    96.6472     0.1269     2.4792     0.0103
  264.0000   -50.6676     6.6044     7.3644     7.7206    95.8337     0.1217     2.4861     0.0119
  264.5000   -50.7583     6.4972     7.2003     7.7272    96.1181     0.1181     2.4899     0.0135
  265.0000   -50.8491     6.3917     7.0400     7.7338   100.1497     0.1229     2.4840     0.0145
  265.5000   -50.8875     6.3054     6.9274     7.7404   102.9565     0.1286     2.4705     0.0145
  266.0000   -50.8683     6.2634     6.9274     7.7470   102.4032     0.1341     2.4623     0.0145
  266.5000   -50.8495     6.2590     6.9915     7.7536   101.8992     0.1299     2.4746     0.0145
  267.0000   -50.8306     6.2842     7.0829     7.7602   102.6547     0.1249     2.4863     0.0145
  267.5000   -50.8117     6.3681     7.2155     7.7668   105.2721     0.1200     2.4915     0.0144
  268.0000   -50.7928     6.4531     7.3506     7.7734   109.4944     0.1195     2.4875     0.0156
  268.5000   -50.7738     6.5393     7.4882     7.7800   113.6883     0.1216     2.4836     0.0174
  269.0000   -50.7549     6.6263     7.6284     7.7866   117.8847     0.1233     2.4856     0.0192
  269.5000   -50.7360     6.7157     7.7713     7.7932   120.5140     0.1210     2.4886     0.0210
  270.0000   -50.7168     6.7442     7.9166     7.7998   121.5793     0.1187     2.4916     0.0228
  270.5000   -50.6986     6.7528     8.1043     7.8064   122.6491     0.1165     2.4935     0.0246
  271.0000   -50.7296     6.7609     8.0883     7.8130   122.8169     0.1171     2.4907     0.0264
  271.5000   -50.7644     6.7692     8.0630     7.8196   119.5610     0.1184     2.4879     0.0281
  272.0000   -50.7990     6.7775     8.0371     7.8262   114.9882     0.1197     2.4851     0.0299
  272.5000   -50.8336     6.7857     8.0114     7.8328   118.5502     0.1211     2.4841     0.0317
  273.0000   -50.8681     6.7941     7.9858     7.8394   125.0080     0.1224     2.4841     0.0335
  273.5000   -50.9027     6.7999     7.9603     7.8460   122.9637     0.1237     2.4841     0.0353
  274.0000   -50.9372     6.7000     7.8421     7.8527   110.8708     0.1229     2.4841     0.0381
  274.5000   -50.9718     6.6159     7.7005     7.8581   102.1672     0.1220     2.4840     0.0425
  275.0000   -51.0063     6.5326     7.5615     7.8538   105.4284     0.1221     2.4841     0.0469
  275.5000   -51.0409     6.4506     7.4250     7.8495   108.4954     0.1231     2.4855     0.0527
  276.0000   -51.0755     6.3695     7.2909     7.8451   110.8632     0.1222     2.4894     0.0655
  276.5000   -51.0948     6.2894     7.1086     7.8408   102.8337     0.1185     2.4933     0.0781
  277.0000   -51.0649     6.2103     6.7549     7.8365   101.2087     0.1176     2.4966     0.0884
  277.5000   -51.0344     6.1320     6.4193     7.8321   104.4344     0.1195     2.4868     0.0852
  278.0000   -51.0040     6.0881     6.0998     7.8278   106.1535     0.1209     2.4765     0.0770
  278.5000   -50.9737     6.0885     5.7965     7.8236   103.6611     0.1356     2.4567     0.0689
  279.0000   -50.9433     6.0885     5.5083     7.8191   101.0976     0.1506     2.4350     0.0607
  279.5000   -50.9119     6.0885     5.3022     7.7957    98.5529     0.1564     2.4212     0.0526
  280.0000   -50.8364     6.0885     5.2535     7.7701    96.2849     0.1455     2.4413     0.0445
  280.5000   -50.7040     6.0881     5.2535     7.7445    96.6136     0.1376     2.4584     0.0364
  281.0000   -50.5725     6.0911     5.3022     7.7188   101.0007     0.1298     2.4752     0.0283
  281.5000   -50.4406     6.0840     5.7492     7.6932   104.1350     0.1219     2.4842     0.0202
  282.0000   -50.3088     6.2424     6.3080     7.6675   103.1798     0.1231     2.4786     0.0121
  282.5000   -50.1768     6.3513     6.9210     7.6421   101.3709     0.1269     2.4732     0.0039
  283.0000   -50.0439     6.4641     7.3202     7.6427   101.0668     0.1309     2.4716     0.0001
  283.5000   -49.9073     6.5788     7.6668     7.6464   102.2857     0.1310     2.4711    -0.0008
  284.0000   -49.8877     6.6956     7.9548     7.6501   103.5065     0.1304     2.4711    -0.0010
  284.5000   -49.8758     6.8133     8.1028     7.6538   104.7115     0.1298     2.4725     0.0026
  285.0000   -49.8631     6.9241     8.1779     7.6575   104.5657     0.1286     2.4775     0.0060
  285.5000   -49.8503     7.0367     8.2531     7.6655   104.2642     0.1244     2.4862     0.0095
