~VERSION INFORMATION
 VERS.                2.0:   CWLS LOG ASCII STANDARD - VERSION 2.0
 WRAP.                 NO:   ONE LINE PER DEPTH STEP
~WELL INFORMATION
#MNEM.UNIT      DATA TYPE    INFORMATION
#----------   ------------   ------------------------------
 STRT.F           19.0000:   START DEPTH
 STOP.F         1200.0000:   STOP DEPTH
 STEP.F            0.5000:   STEP LENGTH
 NULL.          -999.2500:   NO VALUE
 COMP.       INTEX OIL CO:   COMPANY
 WELL.     NPR 3 #73 S-14:   WELL
 FLD .             TEAPOT:   FIELD
 LOC .      S14 T38N R78W:   LOCATION
 CNTY.            NATRONA:   COUNTY
 STAT.            WYOMING:   STATE
 CTRY. UNITED STATES OF AMERICA:   COUNTRY
 SRVC.       Schlumberger:   SERVICE COMPANY
 DATE.        24-AUG-1966:   LOGDATE
 API .       490250970900:   API NUMBER
~CURVE INFORMATION
#MNEM.UNIT       API CODE    CURVE DESCRIPTION
#----------   ------------   ------------------------------
 DEPT.F                  :   
 SPR .MV     05 010 01 00:   SPONTANEOUS POTENTIAL FROM RES.
 ILD .OHMM   05 120 46 00:   INDUCTION LOG DEEP
 ASN .OHMM   05 041 16 00:   AMPLIFIED SHORT NORMAL 16"
 CILD.MMHO   05 110 46 00:   CONDUCTIVITY INDUCTION LOG DEEP
 CALD.IN     45 280 60 00:   CALIPER
 GRD .GAPI   45 310 01 00:   GAMMA RAY FROM DENSITY LOG
 CORR.G/C3   45 356 01 00:   DENSITY CORRECTION
 RHOB.G/C3   45 350 01 00:   BULK DENSITY
 DPHI.DEC    45 890 12 00:   DENSITY POROSITY SANDSTONE
~PARAMETER INFORMATION
#MNEM.UNIT          VALUE    DESCRIPTION
#----------   ------------   ------------------------------
 PD  .                 GL:   PERMANENT DATUM
 EPD .F              5274:   ELEVATION PERMANENT DATUM
 LMF .                 KB:   LOG MEASURED FROM
 DAPD.F                 5:   FEET ABOVE PERMANENT DATUM
 DMF .                 KB:   DRILLING MEASURED FROM
 EKB .F              5279:   KELLING BUSHING
 EGL .F              5274:   GROUND LEVEL
 DATE.            8-24-66:   RUN DATE
 RUN .                  1:   RUN NUMBER
 DD  .F              1200:   DEPTH DRILLER
 DL  .F              1200:   DEPTH LOGGER
 BLI .F              1199:   BOTTOM LOG INTERVAL
 TLI .F                86:   TOP LOG INTERVAL
 CS  .IN            8.625:   CASING SIZE
 CBD .F                10:   CASING BOTTOM DRILLER
 BS  .IN             6.75:   BIT SIZE
 BSD .F              1200:   BIT SIZE AT DEPTH
 DFT .                GEL:   DRILLING FLUID TYPE
 DFD .               10.1:   DRILLING FLUID DENSITY
 DFV .                 60:   DRILLING FLUID VISCOSITY
 MSS .          FLOW LINE:   MUD SAMPLE SOURCE
 RMS .OHMM            1.8:   RESISTIVITY MUD SAMPLE
 MST .F                67:   MUD SAMPLE TEMPERATURE
 RMF .OHMM            1.4:   RESISTIVITY MUD FILTRATE SAMPLE
 MFST.F                77:   MUD FILTRATE SAMPLE TEMPERATURE
 MFSS.                  M:   MUD FILTRATE SAMPLE SOURCE
 RMB .OHMM            1.1:   RESISTIVITY MUD AT BHT
 BHT .F               112:   BOTTOM HOLE TEMPERATURE
 TCS .HRS               1:   TIME CURCULATED STOPPED
 MRT .F               112:   MAXIMUM RECORDED TEMPERATURE
 LUN .               4507:   LOGGING UNIT NUMBER
 LUL .               CSPR:   LOGGING UNIT LOCATION
 ENGI.            MANGOLD:   RECORDING ENGINEER
 WITN.                MAY:   WITNESSED BY
 CLNT.            A2DTECH:   CLIENT CODE
 ORIG.           5" PRINT:   ORIGIN OF DATA
 UWI .       490250970900:   UNIQUE WELL ID
 DICO. A2D Technologies, Inc.:   DIGITIZING COMPANY
~OTHER INFORMATION
~A   DEPT      SPR        ILD        ASN       CILD       CALD         GRD        CORR     RHOB       DPHI   
# ...
  858.5000   -45.5500     7.9850     9.2630   122.3780     7.1120    89.8820     0.0460     2.4710     0.1080
  859.0000   -44.6920     7.9560     9.2570   121.7070     7.0980    88.2910     0.0540     2.4770     0.1020
  859.5000   -43.6140     7.9560     9.2010   121.1030     7.0900    89.2700     0.0610     2.4910     0.0940
  860.0000   -43.1490     7.9820     9.1150   120.4990     7.0820    86.4500     0.0500     2.4870     0.0910
  860.5000   -43.2510     8.0080     9.0450   119.8950     7.0820    89.0990     0.0340     2.4750     0.1040
  861.0000   -43.8040     8.0300     9.0260   119.2910     7.0940    94.4220     0.0280     2.4690     0.1080
  861.5000   -44.2640     8.0610     9.1120   118.6870     7.1050    93.6380     0.0380     2.4760     0.1090
  862.0000   -44.1350     8.0790     9.1490   118.0830     7.1170    92.7260     0.0400     2.4940     0.0960
  862.5000   -43.4860     8.1080     9.0490   117.4790     7.1290    93.6830     0.0310     2.4990     0.0880
  863.0000   -42.9830     8.1370     9.0350   116.8750     7.1400    92.8830     0.0310     2.4890     0.1030
  863.5000   -42.9650     8.0840     9.1580   116.3840     7.1520    92.9440     0.0360     2.4880     0.0980
  864.0000   -43.0160     8.0200     9.2870   118.1590     7.1610    96.0150     0.0400     2.4970     0.0930
  864.5000   -43.1440     7.9270     9.3420   119.6550     7.1640    99.0190     0.0330     2.5060     0.0870
  865.0000   -43.4510     7.6900     9.2020   122.2340     7.1690   100.2410     0.0160     2.5000     0.0880
  865.5000   -43.5600     7.4530     8.9710   125.8330     7.1730   101.3860     0.0210     2.4760     0.1030
  866.0000   -43.3310     7.2630     8.9620   129.4320     7.1770    96.9070     0.0320     2.4630     0.1120
  866.5000   -43.0830     7.0410     8.9560   134.5920     7.1820    95.7020     0.0280     2.4600     0.1130
  867.0000   -43.0590     6.8390     8.5840   143.3570     7.1860    96.9590     0.0240     2.4590     0.1150
  867.5000   -43.1630     6.6230     8.1750   144.5550     7.1900    98.1510     0.0420     2.4670     0.1130
  868.0000   -43.3120     6.4180     7.8790   146.1660     7.1950   100.4680     0.0480     2.4880     0.1020
  868.5000   -43.3280     6.3510     7.5010   147.7770     7.1980    99.5230     0.0560     2.4820     0.0990
  869.0000   -43.1180     6.3740     7.2900   149.3880     7.1970    98.0730     0.0600     2.4860     0.1010
  869.5000   -43.0290     6.4000     7.2870   151.3490     7.1940    96.7200     0.0510     2.5040     0.0900
  870.0000   -43.2140     6.4160     7.2320   150.0450     7.1920    97.7590     0.0400     2.5320     0.0790
  870.5000   -43.5960     6.4460     7.2670   148.3800     7.1890    99.7180     0.0300     2.5270     0.0720
  871.0000   -43.7380     6.5190     7.4660   146.7140     7.1870   100.2780     0.0200     2.4830     0.0950
  871.5000   -43.2210     6.6020     7.5990   145.0490     7.1840   101.2430     0.0160     2.4730     0.1080
  872.0000   -42.7770     6.6750     7.6390   143.5120     7.1820    99.9920     0.0190     2.4560     0.1160
  872.5000   -42.8590     6.7520     7.6860   142.0680     7.1800    99.4530     0.0240     2.4490     0.1140
  873.0000   -42.9630     6.8290     7.7320   140.6240     7.1770    99.2840     0.0330     2.4710     0.1070
  873.5000   -42.9570     6.9070     7.7710   139.1800     7.1750    95.2400     0.0430     2.4890     0.1020
  874.0000   -42.8240     6.9800     7.8060   137.7360     7.1720    93.1840     0.0530     2.5070     0.0890
  874.5000   -42.6330     7.0630     7.8400   136.2920     7.1700    92.6280     0.0630     2.5140     0.0820
  875.0000   -42.6930     7.1390     7.8790   134.8480     7.1680    92.3820     0.0950     2.5220     0.0730
  875.5000   -42.8780     7.1640     7.9510   133.4040     7.1650    92.7490     0.0910     2.5690     0.0510
  876.0000   -43.0360     7.1750     8.0770   131.9600     7.1630    92.9680     0.0610     2.5590     0.0550
  876.5000   -43.2640     7.1980     8.2080   130.5160     7.1600    93.3280     0.0580     2.5430     0.0670
  877.0000   -43.3520     7.2140     8.3380   129.0720     7.1600    94.4510     0.0510     2.5380     0.0690
  877.5000   -43.0980     7.2320     8.4650   128.5280     7.1640    95.4210     0.0440     2.5250     0.0740
  878.0000   -42.7410     7.2400     8.5090   128.8310     7.1680    96.1990     0.0390     2.5000     0.0880
  878.5000   -42.6150     7.2280     8.4830   129.1330     7.1720    94.3530     0.0420     2.4810     0.1000
  879.0000   -42.7050     7.2170     8.4530   129.4360     7.1770    95.0410     0.0510     2.4790     0.1050
  879.5000   -42.6480     7.2060     8.4250   129.7390     7.1730    97.8840     0.0590     2.4820     0.1030
  880.0000   -42.3100     7.1940     8.3580   130.0420     7.1540   100.1340     0.0680     2.4980     0.0870
  880.5000   -41.9650     7.1830     8.2650   130.3450     7.1390   101.8840     0.0720     2.5320     0.0750
  881.0000   -41.9960     7.1720     8.1920   130.6480     7.1190   102.5870     0.0690     2.5290     0.0780
  881.5000   -42.3940     7.1610     8.0840   130.9500     7.1120   102.9840     0.0680     2.5210     0.0760
  882.0000   -42.8010     7.1500     8.0330   131.2530     7.0840   102.8020     0.0720     2.5310     0.0710
  882.5000   -43.2930     7.1480     8.1430   131.5560     6.9930   101.3600     0.0720     2.5380     0.0650
  883.0000   -43.7370     7.1580     8.2600   131.8590     6.9050   103.2450     0.0640     2.5260     0.0730
  883.5000   -43.7720     7.1700     8.3750   132.1620     6.8580   100.4030     0.0550     2.5080     0.0850
  884.0000   -43.5790     7.1810     8.4730   132.4650     7.0410    98.2930     0.0520     2.5180     0.0820
  884.5000   -43.1650     7.1920     8.4110   132.7670     7.1860    96.4000     0.0570     2.5130     0.0800
  885.0000   -42.6200     7.2040     8.3100   133.0700     7.1900    94.7790     0.0590     2.5180     0.0810
  885.5000   -42.3110     7.2150     8.2370   133.3730     7.1780    94.0200     0.0630     2.5270     0.0770
  886.0000   -42.1950     7.2270     8.1620   133.6760     7.1690    93.0530     0.0460     2.4980     0.0890
  886.5000   -42.1740     7.2380     8.1610   133.9790     7.1600    97.0230     0.0310     2.5060     0.0870
  887.0000   -42.1920     7.2170     8.1630   134.2820     7.1600    98.8790     0.0360     2.5000     0.0990
  887.5000   -42.1820     7.1570     8.1080   134.5840     7.1620    98.0830     0.0380     2.4950     0.0930
  888.0000   -42.1860     7.0930     8.0610   134.8870     7.1630    95.2910     0.0440     2.5160     0.0740
  888.5000   -42.1870     7.0350     8.0200   135.1900     7.1650    91.1550     0.0530     2.5390     0.0660
  889.0000   -42.1840     6.9700     7.9710   135.8720     7.1670    94.1420     0.0630     2.5440     0.0640
  889.5000   -42.1880     6.9090     7.9290   137.0680     7.1690    94.8630     0.0600     2.5280     0.0740
  890.0000   -42.1520     6.8490     7.8830   138.2650     7.1700    96.1900     0.0420     2.5030     0.0830
  890.5000   -42.1170     6.7820     7.8310   139.4610     7.1720    98.2150     0.0260     2.5020     0.0900
  891.0000   -42.0870     6.7290     7.7790   140.6580     7.1740    98.3570     0.0310     2.4980     0.0930
  891.5000   -42.0370     6.6370     7.7240   141.8540     7.1750    98.3100     0.0390     2.4700     0.1050
  892.0000   -42.0290     6.4680     7.6690   143.3570     7.1770    97.8920     0.0340     2.4580     0.1200
  892.5000   -41.9640     6.3000     7.6180   146.8200     7.1790    97.4130     0.0220     2.4540     0.1210
  893.0000   -41.7550     6.1470     7.5570   151.4730     7.1780    96.9440     0.0110     2.4530     0.1140
  893.5000   -41.5080     5.9870     7.4490   156.1260     7.1770    95.0920     0.0170     2.4670     0.1050
  894.0000   -41.3160     5.8280     7.2840   160.7790     7.1760    93.2260     0.0280     2.4890     0.0960
  894.5000   -41.1730     5.6680     7.0900   165.4320     7.1760    93.4480     0.0390     2.4840     0.1000
