~VERSION INFORMATION
 VERS.                2.0:   CWLS LOG ASCII STANDARD - VERSION 2.0
 WRAP.                 NO:   ONE LINE PER DEPTH STEP
~WELL INFORMATION
#MNEM.UNIT      DATA TYPE    INFORMATION
#----------   ------------   ------------------------------
 STRT.F           34.0000:   START DEPTH
 STOP.F          458.0000:   STOP DEPTH
 STEP.F            0.5000:   STEP LENGTH
 NULL.          -999.2500:   NO VALUE
 COMP. FENIX & SCISSON INC:   COMPANY
 WELL.    42 SX 3FO #42-3:   WELL
 FLD .             TEAPOT:   FIELD
 LOC .       S3 T38N R78W:   LOCATION
 CNTY.            NATRONA:   COUNTY
 STAT.            WYOMING:   STATE
 CTRY. UNITED STATES OF AMERICA:   COUNTRY
 SRVC.              Welex:   SERVICE COMPANY
 DATE.        29-JUN-1980:   LOGDATE
 API .       490251081500:   API NUMBER
~CURVE INFORMATION
#MNEM.UNIT       API CODE    CURVE DESCRIPTION
#----------   ------------   ------------------------------
 DEPT.F                  :   
 RHOB.G/C3   45 350 01 00:   BULK DENSITY
 CORR.G/C3   45 356 01 00:   DENSITY CORRECTION
 DPHI.DEC    45 890 12 00:   DENSITY POROSITY SANDSTONE
 GRD .GAPI   45 310 01 00:   GAMMA RAY FROM DENSITY LOG
 CALD.IN     45 280 60 00:   CALIPER
~PARAMETER INFORMATION
#MNEM.UNIT          VALUE    DESCRIPTION
#----------   ------------   ------------------------------
 PD  .                 GL:   PERMANENT DATUM
 EPD .F              5162:   ELEVATION PERMANENT DATUM
 LMF .                 KB:   LOG MEASURED FROM
 DAPD.F                 5:   FEET ABOVE PERMANENT DATUM
 DMF .                 KB:   DRILLING MEASURED FROM
 EKB .F              5167:   KELLING BUSHING
 EGL .F              5162:   GROUND LEVEL
 DATE.            6-29-80:   RUN DATE
 RUN .                  1:   RUN NUMBER
 DD  .F               470:   DEPTH DRILLER
 DL  .F               460:   DEPTH LOGGER
 BLI .F               458:   BOTTOM LOG INTERVAL
 TLI .F                46:   TOP LOG INTERVAL
 CS  .IN                7:   CASING SIZE
 BS  .IN             6.25:   BIT SIZE
 BSD .F               470:   BIT SIZE AT DEPTH
 DFT .        AIR DRILLED:   DRILLING FLUID TYPE
 BHT .F                73:   BOTTOM HOLE TEMPERATURE
 TCS .HRS               2:   TIME CURCULATED STOPPED
 MRT .F                73:   MAXIMUM RECORDED TEMPERATURE
 ENGI.            TOTHILL:   RECORDING ENGINEER
 WITN.              AMEND:   WITNESSED BY
 CLNT.            A2DTECH:   CLIENT CODE
 ORIG.           5" PRINT:   ORIGIN OF DATA
 UWI .       490251081500:   UNIQUE WELL ID
 DICO. A2D Technologies, Inc.:   DIGITIZING COMPANY
~OTHER INFORMATION
~A   DEPT       RHOB      CORR      DPHI         GRD        CALD 
# ...
  400.0000     2.3960     0.0781     0.1737    70.3735     6.3604
  400.5000     2.3958     0.0754     0.1661    70.3318     6.3715
  401.0000     2.4059     0.0730     0.1570    71.0792     6.3824
  401.5000     2.4346     0.0904     0.1437    71.2497     6.3946
  402.0000     2.4488     0.0963     0.1407    71.3299     6.4311
  402.5000     2.4533     0.1002     0.1418    72.1307     6.4667
  403.0000     2.4454     0.0923     0.1468    72.9929     6.5026
  403.5000     2.4371     0.0831     0.1497    73.8599     6.5022
  404.0000     2.4316     0.0776     0.1503    74.7413     6.4871
  404.5000     2.4363     0.0816     0.1470    76.0872     6.4717
  405.0000     2.4425     0.0855     0.1438    77.9567     6.4563
  405.5000     2.4482     0.0801     0.1507    79.0520     6.4408
  406.0000     2.4274     0.0673     0.1625    78.6730     6.4253
  406.5000     2.4060     0.0542     0.1665    78.8901     6.4095
  407.0000     2.4072     0.0519     0.1654    79.3628     6.3937
  407.5000     2.4091     0.0545     0.1643    78.0354     6.3782
  408.0000     2.4116     0.0572     0.1622    79.0343     6.3485
  408.5000     2.4193     0.0654     0.1517    80.9877     6.3130
  409.0000     2.4435     0.0790     0.1407    81.8617     6.2772
  409.5000     2.4672     0.0928     0.1308    82.6848     6.2767
  410.0000     2.4713     0.0915     0.1306    83.5162     6.2815
  410.5000     2.4739     0.0843     0.1304    83.7845     6.2865
  411.0000     2.4639     0.0771     0.1320    83.7977     6.2914
  411.5000     2.4604     0.0711     0.1327    83.8523     6.2963
  412.0000     2.4642     0.0756     0.1323    81.3421     6.3011
  412.5000     2.4662     0.0803     0.1324    79.0504     6.3060
  413.0000     2.4581     0.0796     0.1359    78.6877     6.3109
  413.5000     2.4499     0.0738     0.1395    76.5522     6.3158
  414.0000     2.4460     0.0694     0.1397    75.1193     6.3207
  414.5000     2.4604     0.0772     0.1349    73.9929     6.3255
  415.0000     2.4763     0.0851     0.1258    73.2640     6.3304
  415.5000     2.4829     0.0911     0.1212    73.7137     6.3353
  416.0000     2.4796     0.0925     0.1212    74.5517     6.3402
  416.5000     2.4847     0.0939     0.1223    75.3724     6.3451
  417.0000     2.4786     0.0902     0.1259    75.9222     6.3499
  417.5000     2.4681     0.0813     0.1284    76.4514     6.3508
  418.0000     2.4642     0.0725     0.1309    77.0034     6.3461
  418.5000     2.4660     0.0644     0.1328    78.1513     6.3415
  419.0000     2.4628     0.0620     0.1344    78.7513     6.3369
  419.5000     2.4548     0.0597     0.1345    79.0417     6.3323
  420.0000     2.4578     0.0619     0.1294    79.3272     6.3276
  420.5000     2.4850     0.0686     0.1183    79.6198     6.3230
  421.0000     2.4918     0.0752     0.1137    80.2960     6.3184
  421.5000     2.4959     0.0800     0.1122    81.5604     6.3138
  422.0000     2.5000     0.0829     0.1110    82.8491     6.3092
  422.5000     2.5030     0.0858     0.1105    81.0311     6.3046
  423.0000     2.4990     0.0838     0.1151    79.7619     6.2999
  423.5000     2.4936     0.0797     0.1197    80.8034     6.2954
  424.0000     2.4800     0.0754     0.1244    81.6854     6.2926
  424.5000     2.4663     0.0690     0.1293    80.0604     6.2926
  425.0000     2.4627     0.0641     0.1339    80.3314     6.2926
  425.5000     2.4574     0.0627     0.1359    80.6816     6.2926
  426.0000     2.4535     0.0613     0.1339    82.2775     6.2926
  426.5000     2.4693     0.0639     0.1279    83.6675     6.2926
  427.0000     2.4774     0.0759     0.1203    82.7276     6.2926
  427.5000     2.4840     0.0877     0.1127    83.5360     6.2926
  428.0000     2.5034     0.0992     0.1095    84.7334     6.2926
  428.5000     2.5083     0.1012     0.1084    85.9672     6.2926
  429.0000     2.5050     0.0912     0.1106    86.0227     6.2926
  429.5000     2.5017     0.0779     0.1204    85.8085     6.2926
  430.0000     2.4827     0.0646     0.1340    85.6210     6.2926
  430.5000     2.4482     0.0512     0.1477    86.2423     6.2926
  431.0000     2.4224     0.0445     0.1533    86.5486     6.2926
  431.5000     2.4295     0.0445     0.1512    84.8003     6.2926
  432.0000     2.4389     0.0499     0.1461    82.5479     6.2926
  432.5000     2.4483     0.0606     0.1368    80.2343     6.2926
  433.0000     2.4615     0.0712     0.1277    80.0274     6.2926
  433.5000     2.4722     0.0801     0.1283    82.7350     6.2926
  434.0000     2.4758     0.0773     0.1320    85.6003     6.2925
  434.5000     2.4589     0.0749     0.1357    88.2806     6.2927
  435.0000     2.4567     0.0870     0.1293    89.6703     6.3003
  435.5000     2.4742     0.1009     0.1218    90.8764     6.3085
  436.0000     2.4908     0.1131     0.1143    91.6167     6.3166
  436.5000     2.4968     0.1212     0.1139    92.3848     6.3247
  437.0000     2.4871     0.1294     0.1167    93.3897     6.3328
  437.5000     2.4862     0.1367     0.1166    95.9508     6.3409
  438.0000     2.4892     0.1328     0.1113    98.6093     6.3491
  438.5000     2.5108     0.1271     0.1036   101.2906     6.3494
  439.0000     2.5199     0.1101     0.0988   100.2961     6.3436
  439.5000     2.5208     0.0916     0.1059    98.7295     6.3377
  440.0000     2.5110     0.0731     0.1162    95.3172     6.3318
  440.5000     2.4903     0.0558     0.1213    91.7811     6.3260
  441.0000     2.4969     0.0475     0.1243    90.8367     6.3201
  441.5000     2.4775     0.0394     0.1273    92.6281     6.3144
  442.0000     2.4773     0.0376     0.1295    94.4033     6.2916
  442.5000     2.4666     0.0366     0.1373    95.4629     6.2628
  443.0000     2.4491     0.0356     0.1450    84.7866     6.2340
  443.5000     2.4318     0.0347     0.1494  -999.2500     6.2482
  444.0000     2.4287     0.0384     0.1475  -999.2500     6.2656
  444.5000     2.4440     0.0489     0.1390  -999.2500     6.2829
  445.0000     2.4639     0.0658     0.1326  -999.2500     6.3003
  445.5000     2.4776     0.0712     0.1262  -999.2500     6.3175
  446.0000     2.4693     0.0726     0.1237  -999.2500     6.3326
  446.5000     2.4734     0.0741     0.1215  -999.2500     6.3279
  447.0000     2.4812     0.0771     0.1168  -999.2500     6.3235
  447.5000     2.4938     0.0801     0.1105  -999.2500     6.3191
  448.0000     2.5072     0.0831     0.1067  -999.2500     6.3148
  448.5000     2.5113     0.0788     0.1046  -999.2500     6.3187
  449.0000     2.5049     0.0672     0.1110  -999.2500     6.3307
  449.5000     2.4975     0.0557     0.1174  -999.2500     6.3428
  450.0000     2.4832     0.0441     0.1238  -999.2500     6.3547
  450.5000     2.4687     0.0362     0.1287  -999.2500     6.3668
  451.0000     2.4662     0.0315     0.1332  -999.2500     6.3517
  451.5000     2.4614     0.0275     0.1376  -999.2500     6.3095
  452.0000     2.4460     0.0219     0.1384  -999.2500     6.2673
  452.5000     2.4529     0.0224     0.1328  -999.2500     6.2248
  453.0000     2.4763     0.0317     0.1251  -999.2500     6.1981
  453.5000     2.4848     0.0409     0.1216  -999.2500     6.1991
  454.0000     2.4767     0.0505     0.1199  -999.2500     6.2086
  454.5000     2.4768     0.0518     0.1219  -999.2500     6.2181
  455.0000     2.4796     0.0509     0.1256  -999.2500     6.2277
  455.5000     2.4713     0.0456     0.1321  -999.2500     6.2303
  456.0000     2.4624     0.0396     0.1336  -999.2500     6.2259
  456.5000     2.4553     0.0363     0.1348  -999.2500     6.2216
  457.0000     2.4646     0.0344     0.1362  -999.2500     6.2172
  457.5000  -999.2500  -999.2500  -999.2500  -999.2500     6.2129
  458.0000  -999.2500  -999.2500  -999.2500  -999.2500     6.2124
