~VERSION INFORMATION
 VERS.                2.0:   CWLS LOG ASCII STANDARD - VERSION 2.0
 WRAP.                 NO:   ONE LINE PER DEPTH STEP
~WELL INFORMATION
#MNEM.UNIT      DATA TYPE    INFORMATION
#----------   ------------   ------------------------------
 STRT.F           30.0000:   START DEPTH
 STOP.F          733.0000:   STOP DEPTH
 STEP.F            0.5000:   STEP LENGTH
 NULL.          -999.2500:   NO VALUE
 COMP. FENIX & SCISSON INC:   COMPANY
 WELL.    NPR-3 #51 S -34:   WELL
 FLD .             TEAPOT:   FIELD
 LOC .      S34 T39N R78W:   LOCATION
 CNTY.            NATRONA:   COUNTY
 STAT.            WYOMING:   STATE
 CTRY. UNITED STATES OF AMERICA:   COUNTRY
 SRVC.      Dresser Atlas:   SERVICE COMPANY
 DATE.        20-MAR-1977:   LOGDATE
 API .       490251031600:   API NUMBER
~CURVE INFORMATION
#MNEM.UNIT       API CODE    CURVE DESCRIPTION
#----------   ------------   ------------------------------
 DEPT.F                  :   
 CALD.IN     45 280 60 00:   CALIPER FROM DENSITY LOG
 GRD .GAPI   45 310 01 00:   GAMMA RAY FROM DENSITY LOG
 CORR.G/C3   45 356 01 00:   DENSITY CORRECTION
 DPHI.DEC    45 890 12 00:   DENSITY POROSITY SANDSTONE
 RHOB.G/C3   45 350 01 00:   BULK DENSITY
 SPR .MV     07 010 01 00:   SPONTANEOUS POTENTIAL
 ILD .OHMM   07 120 46 00:   INDUCTION LOG DEEP
 ILM .OHMM   07 120 44 00:   INDUCTION LOG MEDIUM
 SFL .OHMM   07 220 01 00:   SHALLOW FOCUSED LOG RESISTIVITY
~PARAMETER INFORMATION
#MNEM.UNIT          VALUE    DESCRIPTION
#----------   ------------   ------------------------------
 PD  .                 GL:   PERMANENT DATUM
 EPD .F              5065:   ELEVATION PERMANENT DATUM
 LMF .                 KB:   LOG MEASURED FROM
 DAPD.F                 4:   FEET ABOVE PERMANENT DATUM
 DMF .                 KB:   DRILLING MEASURED FROM
 EKB .F              5069:   KELLING BUSHING
 EGL .F              5065:   GROUND LEVEL
 DATE.        20-MAR-1977:   RUN DATE
 RUN .                  1:   RUN NUMBER
 DD  .F               735:   DEPTH DRILLER
 DL  .F               731:   DEPTH LOGGER
 BLI .F               729:   BOTTOM LOG INTERVAL
 TLI .F                42:   TOP LOG INTERVAL
 CS  .IN            8.625:   CASING SIZE
 CBD .F                40:   CASING BOTTOM DRILLER
 CBL .F                42:   CASING BOTTOM LOGGER
 BS  .IN            7.875:   BIT SIZE
 BSD .F               735:   BIT SIZE AT DEPTH
 DFT .           CHEM GEL:   DRILLING FLUID TYPE
 DFD .                9.0:   DRILLING FLUID DENSITY
 DFV .                 38:   DRILLING FLUID VISCOSITY
 DFPH.                8.5:   DRILLING FLUID PH
 DFL .                 72:   DRILLING FLUID LOSS
 MSS .           FLOWLINE:   MUD SAMPLE SOURCE
 RMS .OHMM             .4:   RESISTIVITY MUD SAMPLE
 MST .F                51:   MUD SAMPLE TEMPERATURE
 RMF .OHMM            .72:   RESISTIVITY MUD FILTRATE SAMPLE
 MFST.F                48:   MUD FILTRATE SAMPLE TEMPERATURE
 RMC .OHMM           1.16:   RESISTIVITY MUD CAKE
 MCST.F                48:   MUD CAKE SAMPLE TEMPERATURE
 MFSS.               MEAS:   MUD FILTRATE SAMPLE SOURCE
 MCSS.               MEAS:   MUD CAKE SAMPLE SOURCE
 RMB .OHMM            .31:   RESISTIVITY MUD AT BHT
 BHT .F                66:   BOTTOM HOLE TEMPERATURE
 TCS .HRS            0300:   TIME CURCULATED STOPPED
 MRT .F                66:   MAXIMUM RECORDED TEMPERATURE
 LUN .               6145:   LOGGING UNIT NUMBER
 LUL .              GLTTE:   LOGGING UNIT LOCATION
 ENGI.              RANCK:   RECORDING ENGINEER
 WITN.              BURKE:   WITNESSED BY
 CLNT.            A2DTECH:   CLIENT CODE
 ORIG.           5" PRINT:   ORIGIN OF DATA
 UWI .       490251031600:   UNIQUE WELL ID
 DICO. A2D Technologies, Inc.:   DIGITIZING COMPANY
~OTHER INFORMATION
~A   DEPT     CALD        GRD       CORR       DPHI       RHOB        SPR        ILD        ILM        SFL   
# ...
  687.0000     8.1091    97.7776     0.0224     0.0625     2.5500   -58.0000    10.6310    12.4191    13.3090
  687.5000     8.1114    98.2421     0.0181     0.0709     2.5306   -57.9851    10.5629    12.4252    13.6894
  688.0000     8.1138    96.4790     0.0137     0.0805     2.5157   -57.9701    10.5693    12.4312    14.3764
  688.5000     8.1158    92.6207     0.0124     0.0744     2.5203   -57.9552    10.5744    12.3499    14.4816
  689.0000     8.1031    97.2699     0.0171     0.0702     2.5287   -57.7910    10.5795    12.2707    14.0945
  689.5000     8.1054    97.1430     0.0233     0.0759     2.5325   -57.9259    10.5104    12.0257    13.3414
  690.0000     8.1076    95.8220     0.0280     0.0779     2.5259   -58.0602    10.5158    11.7505    13.2541
  690.5000     8.0945    93.7548     0.0312     0.0713     2.5200   -58.3438    10.3760    11.1098    13.3544
  691.0000     8.0973    91.6876     0.0269     0.0683     2.5329   -58.4955    10.2259    10.3993    13.0862
  691.5000     8.0846    90.5159     0.0211     0.0713     2.5367   -58.9109    10.0329    10.2028    12.4730
  692.0000     8.0869    90.3642     0.0137     0.0760     2.5278   -59.0452     9.6968    10.3503    11.4840
  692.5000     8.0889    92.2023     0.0064     0.0784     2.5197   -59.0302     9.5022    10.5107    11.2519
  693.0000     8.0759    95.5082     0.0111     0.0781     2.5221   -59.1781     9.3115    10.7254    11.1039
  693.5000     8.0635    96.5941     0.0173     0.0723     2.5289   -59.2988     9.0617    10.7306    11.1093
  694.0000     8.0658    93.0156     0.0189     0.0765     2.5313   -59.4331     8.8186    10.6616    11.1147
  694.5000     8.0531    95.4260     0.0116     0.0798     2.5224   -59.4179     8.7016    10.5122    11.0434
  695.0000     8.0703    99.6274     0.0058     0.0815     2.5135   -59.5525     8.5851    10.3733    11.0488
  695.5000     8.0725   100.5582     0.0029     0.0806     2.5174   -59.5373     8.5301    10.0955    10.9765
  696.0000     8.0747    96.9855     0.0031     0.0755     2.5257   -59.6718     8.4754     9.8198    10.8308
  696.5000     8.0770   100.5899     0.0033     0.0746     2.5274   -59.8061     8.3629     9.4960    10.6883
  697.0000     8.0643   100.4630     0.0035     0.0766     2.5245   -59.9463     8.3093     9.3744    10.4014
  697.5000     8.0665    99.2913     0.0036     0.0784     2.5193   -60.2240     8.1435     9.3790    10.1912
  698.0000     8.0688    99.3137     0.0023     0.0799     2.5157   -60.3622     8.0903     9.3862    10.1258
  698.5000     8.0710    99.1867     0.0100     0.0753     2.5301   -60.4955     8.0952     9.5852    10.0608
  699.0000     8.0736    98.0150     0.0192     0.0696     2.5399   -60.7781     8.0992     9.6565    10.2074
  699.5000     8.0757    94.3060     0.0285     0.0642     2.5453   -60.9105     8.1594     9.6612    10.4267
  700.0000     8.0749    95.5224     0.0301     0.0611     2.5476   -60.8955     8.1404     9.4021    11.1795
  700.5000     8.0703    93.3036     0.0224     0.0687     2.5427   -61.4776     8.1665     9.2119    11.3394
  701.0000     8.0658   100.9327     0.0153     0.0767     2.5364   -61.4627     8.1137     9.0876    11.3433
  701.5000     8.0612   103.9349     0.0082     0.0784     2.5208   -61.5970     8.0057     8.8431    11.0372
  702.0000     8.0567   104.8476     0.0039     0.0736     2.5159   -61.7313     7.8446     8.6636    10.5917
  702.5000     8.0521   102.9244     0.0207     0.0678     2.5329   -61.8657     7.6867     8.4891    10.1642
  703.0000     8.0476    98.9117     0.0315     0.0648     2.5428   -61.8507     7.5843     8.4327     9.8217
  703.5000     8.0430   102.0632     0.0287     0.0639     2.5478   -61.9851     7.4833     8.4364     9.6899
  704.0000     8.0385   105.9610     0.0259     0.0698     2.5374   -62.1194     7.2822     8.3803     9.6933
  704.5000     8.0339   108.2169     0.0246     0.0719     2.5285   -62.2537     7.0865     8.2679     9.6967
  705.0000     8.0293   109.1376     0.0249     0.0725     2.5256   -62.3881     6.8484     8.1570     9.7000
  705.5000     8.0248   104.5142     0.0266     0.0688     2.5295   -62.5224     6.7106     7.9921     9.7034
  706.0000     8.0202   101.9501     0.0298     0.0691     2.5372   -62.9552     6.6672     7.8312     9.7742
  706.5000     8.0157    95.0019     0.0346     0.0687     2.5455   -62.9403     6.5784     7.6728     9.7776
  707.0000     8.0111   101.7355     0.0363     0.0639     2.5461   -62.9254     6.5813     7.5177     9.7126
  707.5000     8.0066    95.3390     0.0395     0.0665     2.5468   -62.9104     6.5387     7.3650     9.7169
  708.0000     8.0020    99.6845     0.0428     0.0689     2.5474   -62.8955     6.4964     7.3682     9.5066
  708.5000     7.9975   102.8360     0.0430     0.0704     2.5363   -62.8806     6.4992     7.3707     9.1747
  709.0000     7.9929   103.1517     0.0433     0.0731     2.5221   -62.8657     6.5021     7.4245     7.9861
  709.5000     7.9883   104.6614     0.0390     0.0904     2.5125   -62.5522     6.5500     7.5830     6.9298
  710.0000     7.9838   106.1668     0.0376     0.1095     2.4841   -62.3881     6.6903     8.1296     7.6299
  710.5000     7.9792   103.3524     0.0439     0.1028     2.4700   -62.5224     6.7865     8.7761     9.4707
  711.0000     7.9747   102.3248     0.0471     0.0875     2.5069   -62.8060     6.9800     9.1516    10.8810
  711.5000     7.9701   102.9389     0.0338     0.0728     2.5295   -62.9403     7.2288     9.3470    10.6506
  712.0000     7.9656   104.8964     0.0310     0.0803     2.5334   -62.7761     7.4866     9.4806    10.1843
  712.5000     7.9610   108.6449     0.0297     0.0922     2.5283   -62.7612     7.7000     9.4839     9.4180
  713.0000     7.9565   110.0053     0.0330     0.0793     2.5366   -62.2985     8.0299     9.4209     9.6938
  713.5000     7.9519   108.2314     0.0423     0.0613     2.5480   -62.2836     8.3740     9.4250    10.3358
  714.0000     7.9473   106.4511     0.0530     0.0579     2.5526   -62.5672     8.6725     9.4938    11.1403
  714.5000     7.9428   106.8052     0.0623     0.0555     2.5573   -62.7015     9.0441     9.5630    11.3774
  715.0000     7.9382   107.6866     0.0655     0.0533     2.5604   -62.8358     9.2378     9.7672    11.5327
  715.5000     7.9337   106.9610     0.0626     0.0521     2.5620   -63.2687     9.3706     9.9068    11.2215
  716.0000     7.9291   105.6673     0.0598     0.0515     2.5614   -63.8507     9.5053     9.7731    10.8285
  716.5000     7.9246   104.6015     0.0504     0.0514     2.5608   -64.2836     9.5094     9.7090    10.3338
  717.0000     7.9200   105.5185     0.0348     0.0523     2.5616   -64.5672     9.5796     9.8487    10.5618
  717.5000     7.9155   103.5954     0.0426     0.0528     2.5618   -65.0000     9.5176     9.8521    11.1628
  718.0000     7.9109   104.0603     0.0579     0.0540     2.5619   -65.4328     9.4561     9.6529    11.3191
  718.5000     7.9064   106.0177     0.0716     0.0549     2.5620   -65.5672     9.4602     9.4577    11.2449
  719.0000     7.9018   105.8856     0.0839     0.0529     2.5629   -66.0000     9.2698     9.3949    11.2488
  719.5000     7.8972   106.2164     0.0872     0.0531     2.5638   -66.2836     9.2099     9.3333    11.3322
  720.0000     7.8927   107.7280     0.0844     0.0622     2.5629   -66.5672     8.9623     9.2729    11.5727
  720.5000     7.8881   107.5789     0.0755     0.0697     2.5483   -66.8507     8.7820     9.2113    11.4969
  721.0000     7.8836   109.2421     0.0712     0.0754     2.5367   -67.4328     8.4285     8.9635    10.9566
  721.5000     7.8790   112.0951     0.0730     0.0780     2.5253   -67.8657     8.0334     8.3089    10.2982
  722.0000     7.8745   113.1570     0.0762     0.0813     2.5179   -68.0000     7.7636     7.5962     8.5449
  722.5000     7.8699   113.6219     0.0810     0.0857     2.5113   -67.8358     7.2476     6.3030     8.0314
  723.0000     7.8654   105.7286     0.0887     0.0935     2.5039   -67.2239     6.6730     5.8024     7.7608
