~VERSION INFORMATION
 VERS.                2.0:   CWLS LOG ASCII STANDARD - VERSION 2.0
 WRAP.                 NO:   ONE LINE PER DEPTH STEP
~WELL INFORMATION
#MNEM.UNIT      DATA TYPE    INFORMATION
#----------   ------------   ------------------------------
 STRT.F           45.5000:   START DEPTH
 STOP.F          740.0000:   STOP DEPTH
 STEP.F            0.5000:   STEP LENGTH
 NULL.          -999.2500:   NO VALUE
 COMP. FENIX & SCISSON INC:   COMPANY
 WELL.       NPR 3 #22-14:   WELL
 FLD .             TEAPOT:   FIELD
 LOC .      S14 T38N R78W:   LOCATION
 CNTY.            NATRONA:   COUNTY
 STAT.            WYOMING:   STATE
 CTRY. UNITED STATES OF AMERICA:   COUNTRY
 SRVC.           BIRDWELL:   SERVICE COMPANY
 DATE.        23-DEC-1978:   LOGDATE
 API .       490251075800:   API NUMBER
~CURVE INFORMATION
#MNEM.UNIT       API CODE    CURVE DESCRIPTION
#----------   ------------   ------------------------------
 DEPT.F                  :   
 SPR .MV     05 010 01 00:   SPONTANEOUS POTENTIAL FROM RES.
 SN  .OHMM   05 040 16 00:   SHORT NORMAL 16"
 IL  .OHMM   05 120 00 00:   INDUCTION LOG
 CALD.IN     45 280 60 00:   CALIPER
 GRD .GAPI   45 310 01 00:   GAMMA RAY FROM DENSITY LOG
 RHOB.G/C3   45 350 01 00:   BULK DENSITY
 DPHI.DEC    45 890 12 00:   DENSITY POROSITY SANDSTONE
 CORR.G/C3   45 356 01 00:   DENSITY CORRECTION
~PARAMETER INFORMATION
#MNEM.UNIT          VALUE    DESCRIPTION
#----------   ------------   ------------------------------
 PD  .                 GL:   PERMANENT DATUM
 EPD .F              5212:   ELEVATION PERMANENT DATUM
 LMF .                 KB:   LOG MEASURED FROM
 DAPD.F                 4:   FEET ABOVE PERMANENT DATUM
 DMF .                 KB:   DRILLING MEASURED FROM
 EKB .F              5216:   KELLING BUSHING
 EGL .F              5212:   GROUND LEVEL
 DATE.           12-23-78:   RUN DATE
 RUN .                  1:   RUN NUMBER
 DD  .F               735:   DEPTH DRILLER
 DL  .F               740:   DEPTH LOGGER
 BLI .F               733:   BOTTOM LOG INTERVAL
 TLI .F                50:   TOP LOG INTERVAL
 CS  .IN            8.625:   CASING SIZE
 CBD .F                40:   CASING BOTTOM DRILLER
 CBL .F                40:   CASING BOTTOM LOGGER
 BS  .IN            7.875:   BIT SIZE
 BSD .F               735:   BIT SIZE AT DEPTH
 DFT .                KCL:   DRILLING FLUID TYPE
 DFD .                8.7:   DRILLING FLUID DENSITY
 DFV .                 35:   DRILLING FLUID VISCOSITY
 DFPH.               10.5:   DRILLING FLUID PH
 DFL .               11.6:   DRILLING FLUID LOSS
 MSS .           FLOWLINE:   MUD SAMPLE SOURCE
 RMS .OHMM             .5:   RESISTIVITY MUD SAMPLE
 MST .F                60:   MUD SAMPLE TEMPERATURE
 RMF .OHMM             .5:   RESISTIVITY MUD FILTRATE SAMPLE
 MFST.F                60:   MUD FILTRATE SAMPLE TEMPERATURE
 RMC .OHMM             .7:   RESISTIVITY MUD CAKE
 MCST.F                60:   MUD CAKE SAMPLE TEMPERATURE
 MFSS.           MEASURED:   MUD FILTRATE SAMPLE SOURCE
 MCSS.           MEASURED:   MUD CAKE SAMPLE SOURCE
 RMB .OHMM           .518:   RESISTIVITY MUD AT BHT
 BHT .F                58:   BOTTOM HOLE TEMPERATURE
 TCS .HRS               5:   TIME CURCULATED STOPPED
 MRT .F                58:   MAXIMUM RECORDED TEMPERATURE
 LUN .               2958:   LOGGING UNIT NUMBER
 LUL .             CASPER:   LOGGING UNIT LOCATION
 ENGI.         B. ROLLINS:   RECORDING ENGINEER
 WITN.              IMMEL:   WITNESSED BY
 CLNT.            A2DTECH:   CLIENT CODE
 ORIG.           5" PRINT:   ORIGIN OF DATA
 UWI .       490251075800:   UNIQUE WELL ID
 DICO. A2D Technologies, Inc.:   DIGITIZING COMPANY
~OTHER INFORMATION
~A   DEPT      SPR         SN         IL       CALD         GRD      RHOB       DPHI       CORR   
# ...
  248.0000  -999.2500     8.9580     9.6550     7.9390    93.6600     2.4840     0.1220    -0.0020
  248.5000  -999.2500     8.9900     9.6550     7.9500    96.3940     2.4810     0.1200    -0.0010
  249.0000  -999.2500     9.0540     9.6870     7.9610    98.6750     2.4830     0.1180    -0.0010
  249.5000  -999.2500     9.1170     9.7220     7.9730   100.1370     2.4860     0.1160     0.0000
  250.0000  -999.2500     9.1430     9.7580     7.9840   100.4730     2.4890     0.1150     0.0020
  250.5000  -999.2500     9.1530     9.7930     7.9610   100.1150     2.4920     0.1170     0.0040
  251.0000  -999.2500     9.1630     9.8290     7.9110    97.9770     2.4910     0.1210     0.0060
  251.5000  -999.2500     9.1730     9.8640     7.9260    95.3460     2.4880     0.1210     0.0100
  252.0000  -999.2500     9.1830     9.8990     7.9410    95.0290     2.4820     0.1180     0.0150
  252.5000  -999.2500     9.1930     9.9250     7.9560    96.1170     2.4810     0.1130     0.0170
  253.0000  -999.2500     9.2040    10.0210     7.9710    98.6200     2.4890     0.1090     0.0190
  253.5000  -999.2500     9.2130    10.1290     7.9870    98.6580     2.4990     0.1040     0.0210
  254.0000  -999.2500     9.2210    10.2380     7.9690    97.9530     2.5080     0.1010     0.0240
  254.5000  -999.2500     9.3440    10.3470     7.9400    97.6600     2.5100     0.1020     0.0240
  255.0000  -999.2500     9.4590    10.4560     7.9120    97.7370     2.5120     0.1030     0.0140
  255.5000  -999.2500     9.5740    10.5650     7.9560    97.7830     2.5180     0.1050     0.0030
  256.0000  -999.2500     9.6890    10.6740     7.9820    99.0260     2.5230     0.1060    -0.0010
  256.5000  -999.2500     9.8040    10.7820     7.9530   101.1460     2.5290     0.1080    -0.0060
  257.0000  -999.2500     9.9190    10.8910     7.9290   103.1140     2.5180     0.1090    -0.0060
  257.5000  -999.2500    10.0350    11.0000     7.9240   103.2240     2.5040     0.1100    -0.0060
  258.0000  -999.2500    10.1500    11.1070     7.9140   103.3830     2.4980     0.1120    -0.0060
  258.5000  -999.2500    10.2650    11.2060     7.9040   103.5540     2.4960     0.1120    -0.0060
  259.0000  -999.2500    10.3800    11.3050     7.8940   103.7330     2.4950     0.1130    -0.0060
  259.5000  -999.2500    10.4950    11.4040     7.8900   103.9240     2.4950     0.1130    -0.0040
  260.0000  -999.2500    10.6030    11.5040     7.8900   104.1210     2.4940     0.1140    -0.0030
  260.5000  -999.2500    10.6850    11.6030     7.8900   104.1530     2.4950     0.1100    -0.0010
  261.0000  -999.2500    10.7680    11.7020     7.8900   101.2950     2.5010     0.1060     0.0000
  261.5000  -999.2500    10.8500    11.8010     7.8900    99.9550     2.5070     0.1030     0.0020
  262.0000  -999.2500    10.9320    11.9000     7.8900   101.4150     2.5130     0.0990     0.0030
  262.5000  -999.2500    10.9820    12.0400     7.8900   102.7840     2.5190     0.0990     0.0040
  263.0000  -999.2500    11.0350    12.0030     7.8900   102.7920     2.5190     0.1010     0.0060
  263.5000  -999.2500    11.1230    11.9420     7.8900   102.7480     2.5180     0.1030     0.0070
  264.0000  -999.2500    11.2120    11.8820     7.8900   102.7070     2.5150     0.1010     0.0090
  264.5000  -999.2500    11.3010    11.8200     7.8900   102.6720     2.5120     0.1000     0.0100
  265.0000  -999.2500    11.3890    11.9740     7.8900   102.6450     2.5140     0.1000     0.0120
  265.5000  -999.2500    11.4780    12.1700     7.8900   102.2110     2.5150     0.1000     0.0130
  266.0000  -999.2500    11.6050    12.3670     7.8910   101.7170     2.5140     0.1010     0.0140
  266.5000  -999.2500    11.5980    12.4960     7.9160   101.4260     2.5140     0.1010     0.0160
  267.0000  -999.2500    11.5870    12.5110     7.9410   101.4150     2.5200     0.1010     0.0150
  267.5000  -999.2500    11.5760    12.5270     7.9660   102.0770     2.5190     0.1010     0.0130
  268.0000  -999.2500    11.5640    12.5420     7.9900   102.4700     2.5170     0.1010     0.0110
  268.5000  -999.2500    11.5530    12.5570     7.9820   102.6240     2.5140     0.0990     0.0100
  269.0000  -999.2500    11.5420    12.5720     7.9730   100.8430     2.5160     0.0950     0.0080
  269.5000  -999.2500    11.5310    12.5870     7.9630    97.8460     2.5250     0.0930     0.0100
  270.0000  -999.2500    11.5200    12.6050     7.9540    94.7990     2.5330     0.0960     0.0120
  270.5000  -999.2500    11.5080    12.5260     7.9440    93.8240     2.5260     0.0990     0.0130
  271.0000  -999.2500    11.4900    12.4180     7.9350    93.6020     2.5170     0.1020     0.0140
  271.5000  -999.2500    11.4220    12.3090     7.9260    93.5630     2.5130     0.1050     0.0140
  272.0000  -999.2500    11.3550    12.2010     7.9160    93.5310     2.5090     0.1090     0.0140
  272.5000  -999.2500    11.2880    12.0920     7.9070    93.5030     2.5050     0.1120     0.0130
  273.0000  -999.2500    11.2210    11.9840     7.8970    93.4770     2.5000     0.1120     0.0110
  273.5000  -999.2500    11.1540    11.8750     7.8880    93.4520     2.4990     0.1100     0.0090
  274.0000  -999.2500    11.0870    11.7670     7.8790    93.4070     2.4990     0.1090     0.0060
  274.5000  -999.2500    11.0200    11.6590     7.8700    94.0920     2.4990     0.1100     0.0040
  275.0000  -999.2500    10.9530    11.5940     7.8740    97.1250     2.4990     0.1110     0.0020
  275.5000  -999.2500    10.8860    11.5740     7.8770   100.9660     2.4990     0.1110     0.0000
  276.0000  -999.2500    10.8190    11.5540     7.8800   104.4290     2.4980     0.1100    -0.0020
  276.5000  -999.2500    10.7510    11.5330     7.8840   105.1730     2.5000     0.1080    -0.0020
  277.0000  -999.2500    10.6840    11.5130     7.8870   100.1140     2.5020     0.1060    -0.0030
  277.5000  -999.2500    10.6170    11.4720     7.8910   100.8170     2.5040     0.1080    -0.0030
  278.0000  -999.2500    10.5500    11.3780     7.9580   101.3630     2.5040     0.1090    -0.0040
  278.5000  -999.2500    10.4880    11.2840     7.9990   101.1350     2.5020     0.1100    -0.0040
  279.0000  -999.2500    10.4880    11.1900     7.9540   100.8700     2.5010     0.1110    -0.0050
  279.5000  -999.2500    10.5230    11.0830     7.9120   100.6140     2.4990     0.1110    -0.0050
  280.0000  -999.2500    10.5510    11.1000     7.9070   100.3510     2.4980     0.1100    -0.0050
  280.5000  -999.2500    10.5790    11.1250     7.9030   101.2010     2.4980     0.1100    -0.0050
  281.0000  -999.2500    10.6060    11.1510     7.9000   102.9590     2.4990     0.1070    -0.0060
  281.5000  -999.2500    10.6340    11.1760     7.8960   103.0370     2.5010     0.1040    -0.0060
  282.0000  -999.2500    10.6610    11.1850     7.8920   103.1400     2.5040     0.1010    -0.0050
  282.5000  -999.2500    10.6830    11.1210     7.8880   103.8650     2.5100     0.0980    -0.0010
  283.0000  -999.2500    10.6830    11.0200     7.8840   104.0740     2.5170     0.0960     0.0030
  283.5000  -999.2500    10.5440    10.9200     7.8810   104.1450     2.5240     0.1000     0.0060
  284.0000  -999.2500    10.3780    10.8200     7.8770   104.2030     2.5200     0.1040     0.0100
  284.5000  -999.2500    10.2120    10.7190     7.8730   104.6220     2.5110     0.1080     0.0120
  285.0000  -999.2500    10.0470    10.6190     7.8700   105.1200     2.5050     0.1090     0.0120
  285.5000  -999.2500     9.9770    10.5180     7.8730   105.6030     2.5030     0.1100     0.0130
  286.0000  -999.2500     9.9120    10.4180     7.8760   105.4050     2.5010     0.1100     0.0130
  286.5000  -999.2500     9.8480    10.3170     7.8790   104.1450     2.5000     0.1100     0.0130
  287.0000  -999.2500     9.7840    10.2170     7.8810   102.8860     2.4990     0.1110     0.0130
  287.5000  -999.2500     9.7190    10.1160     7.8840   102.4960     2.4980     0.1120     0.0140
  288.0000  -999.2500     9.6550    10.0160     7.8870   102.7950     2.4980     0.1110     0.0140
