~VERSION INFORMATION
 VERS.                2.0:   CWLS LOG ASCII STANDARD - VERSION 2.0
 WRAP.                 NO:   ONE LINE PER DEPTH STEP
~WELL INFORMATION
#MNEM.UNIT      DATA TYPE    INFORMATION
#----------   ------------   ------------------------------
 STRT.F            0.0000:   START DEPTH
 STOP.F          663.0000:   STOP DEPTH
 STEP.F            0.1000:   STEP LENGTH
 NULL.          -999.2500:   NO VALUE
 COMP.   FLUOR DANIEL INC:   COMPANY
 WELL.     62-6 X 3 #62-3:   WELL
 FLD .             TEAPOT:   FIELD
 LOC .       S3 T38N R78W:   LOCATION
 CNTY.            NATRONA:   COUNTY
 STAT.            WYOMING:   STATE
 CTRY. UNITED STATES OF AMERICA:   COUNTRY
 SRVC.      Western Atlas:   SERVICE COMPANY
 DATE.        11-APR-1995:   LOGDATE
 API .       490252270400:   API NUMBER
~CURVE INFORMATION
#MNEM.UNIT       API CODE    CURVE DESCRIPTION
#----------   ------------   ------------------------------
 DEPT.F                  :   
 GRR .GAPI   07 310 01 00:   GAMMA RAY
 RILD.OHMM   07 120 46 00:   INDUCTION LOG DEEP RESISTIVITY
 RILM.OHMM   07 120 44 00:   INDUCTION LOG MEDIUM RESISTIVITY
~PARAMETER INFORMATION
#MNEM.UNIT          VALUE    DESCRIPTION
#----------   ------------   ------------------------------
 PD  .                 GL:   PERMANENT DATUM
 EPD .F              5157:   ELEVATION PERMANENT DATUM
 LMF .                 KB:   LOG MEASURED FROM
 DAPD.F                10:   FEET ABOVE PERMANENT DATUM
 DMF .                 KB:   DRILLING MEASURED FROM
 EKB .F              5167:   KELLING BUSHING
 EDF .F              5166:   DRILLING FLOOR
 EGL .F              5157:   GROUND LEVEL
 DATE.        11-APR-1995:   RUN DATE
 RUN .                  1:   RUN NUMBER
 DD  .F               671:   DEPTH DRILLER
 DL  .F               671:   DEPTH LOGGER
 BLI .F               663:   BOTTOM LOG INTERVAL
 TLI .F                95:   TOP LOG INTERVAL
 CS  .IN            9.625:   CASING SIZE
 CBD .F                95:   CASING BOTTOM DRILLER
 CBL .F                95:   CASING BOTTOM LOGGER
 BS  .IN             8.75:   BIT SIZE
 BSD .F               671:   BIT SIZE AT DEPTH
 DFT .                AIR:   DRILLING FLUID TYPE
 MRT .F                90:   MAXIMUM RECORDED TEMPERATURE
 LUN .            HL 6530:   LOGGING UNIT NUMBER
 LUL .             CASPER:   LOGGING UNIT LOCATION
 ENGI.      PAT RASMUSSEN:   RECORDING ENGINEER
 WITN.        GARY STRONG:   WITNESSED BY
 CLNT.            A2DTECH:   CLIENT CODE
 ORIG.           5" PRINT:   ORIGIN OF DATA
 UWI .       490252270400:   UNIQUE WELL ID
 DICO. A2D Technologies, Inc.:   DIGITIZING COMPANY
~OTHER INFORMATION
~A    DEPT      GRR      RILD       RILM   
# ...
  200.2000   137.0530     7.5187     7.9858
  200.3000   136.9093     7.4698     7.9864
  200.4000   136.4249     7.4303     7.9871
  200.5000   136.1567     7.4189     7.9878
  200.6000   135.9124     7.4195     7.9884
  200.7000   135.4522     7.4020     7.9891
  200.8000   135.0988     7.3797     7.9899
  200.9000   134.6049     7.4210     7.9904
  201.0000   133.9839     7.4216     7.9911
  201.1000   133.6940     7.4220     7.9918
  201.2000   133.1615     7.4226     7.9924
  201.3000   132.5619     7.4231     7.9931
  201.4000   132.5639     7.4236     7.9938
  201.5000   132.5663     7.4357     7.9945
  201.6000   132.5687     7.4765     7.9951
  201.7000   132.6506     7.4771     7.9958
  201.8000   132.9486     7.4775     7.9965
  201.9000   133.4796     7.5126     7.9971
  202.0000   134.0848     7.5308     8.0075
  202.1000   134.5076     7.5313     8.0545
  202.2000   134.8595     7.5319     8.0553
  202.3000   135.2458     7.5376     8.0559
  202.4000   135.7655     7.5856     8.0565
  202.5000   136.2450     7.5861     8.0572
  202.6000   136.5085     7.5866     8.0579
  202.7000   137.1137     7.5871     8.0586
  202.8000   137.3293     7.5877     8.0617
  202.9000   137.5903     7.5882     8.1165
  203.0000   137.9799     7.5887     8.1603
  203.1000   138.4137     7.5893     8.1746
  203.2000   138.6313     7.5899     8.1753
  203.3000   138.6337     7.6270     8.1760
  203.4000   138.6365     7.6439     8.1767
  203.5000   138.4217     7.6444     8.1804
  203.6000   137.8168     7.6449     8.2354
  203.7000   137.0434     7.6523     8.2361
  203.8000   136.3591     7.6994     8.2368
  203.9000   135.7976     7.7538     8.2374
  204.0000   135.0241     7.7627     8.2381
  204.1000   134.1353     7.7734     8.2388
  204.2000   133.2570     7.7841     8.2395
  204.3000   132.2784     7.7949     8.2403
  204.4000   131.3242     7.8056     8.2409
  204.5000   130.3701     7.8164     8.2785
  204.6000   129.4159     7.8271     8.3000
  204.7000   128.5974     7.8378     8.3215
  204.8000   128.0121     7.8486     8.3596
  204.9000   126.9549     7.8593     8.3647
  205.0000   126.0548     7.8701     8.4196
  205.1000   126.0572     7.8808     8.4203
  205.2000   126.2249     7.8915     8.4210
  205.3000   126.7289     7.9023     8.4518
  205.4000   127.5060     7.9130     8.4814
  205.5000   128.2480     7.9238     8.4821
  205.6000   128.7832     7.9345     8.4879
  205.7000   129.3892     7.9653     8.5431
  205.8000   129.8052     7.9961     8.5437
  205.9000   130.3243     7.9969     8.5840
  206.0000   130.7229     7.9977     8.6050
  206.1000   130.9839     7.9986     8.6286
  206.2000   131.2108     7.9993     8.6668
  206.3000   131.2140     8.0333     8.6684
  206.4000   131.2169     8.0567     8.6771
  206.5000   131.2199     8.0748     8.6858
  206.6000   131.2229     8.1146     8.6945
  206.7000   131.1064     8.1164     8.7032
  206.8000   130.8514     8.1730     8.7118
  206.9000   130.5633     8.1737     8.7205
  207.0000   130.0302     8.1745     8.7292
  207.1000   129.5371     8.1752     8.7379
  207.2000   129.0241     8.1760     8.7466
  207.3000   128.6727     8.1768     8.7553
  207.4000   128.4176     8.1776     8.7640
  207.5000   128.3133     8.1786     8.7727
  207.6000   128.5422     8.1792     8.7935
  207.7000   128.5453     8.1800     8.9043
  207.8000   129.0421     8.1808     8.9560
  207.9000   129.5612     8.1816     8.9677
  208.0000   129.9197     8.1824     9.0017
  208.1000   130.1807     8.1832     9.0316
  208.2000   130.2932     8.1841     9.0321
  208.3000   130.0381     8.2257     9.0326
  208.4000   129.7712     8.2428     9.0331
  208.5000   129.5281     8.2436     9.0853
  208.6000   129.0703     8.2444     9.0974
  208.7000   128.7169     8.2452     9.0979
  208.8000   128.4619     8.2460     9.0984
  208.9000   128.2068     8.2470     9.0989
  209.0000   127.9217     8.2476     9.0931
  209.1000   127.3827     8.2484     9.0366
  209.2000   126.6506     8.2492     9.0371
  209.3000   126.2831     8.2500     9.0376
  209.4000   126.0281     8.2508     9.0381
  209.5000   125.8886     8.2517     9.0386
  209.6000   125.9639     8.2526     9.0391
  209.7000   126.1958     8.2532     9.0396
  209.8000   126.1990     8.2541     9.0402
  209.9000   126.4458     8.2549     9.0406
  210.0000   126.7068     8.2404     9.0411
  210.1000   126.9679     8.1991     9.0416
  210.2000   127.1145     8.2000     9.0422
  210.3000   127.1888     8.2009     9.0427
  210.4000   127.4217     8.2016     9.0432
  210.5000   127.4249     8.2024     9.0437
  210.6000   127.6707     8.2032     9.0442
  210.7000   127.7319     8.2040     9.0447
  210.8000   128.0482     8.2048     9.0452
  210.9000   128.4538     8.2056     9.0457
  211.0000   128.7851     8.2064     9.0315
  211.1000   129.3042     8.2072     8.9837
  211.2000   129.8556     8.2080     8.9843
  211.3000   130.1004     8.2088     8.9848
  211.4000   130.5603     8.2096     8.9853
  211.5000   130.9237     8.2043     8.9858
  211.6000   131.0723     8.1543     8.9629
  211.7000   131.0753     8.1550     8.9242
  211.8000   131.1044     8.1558     8.9193
  211.9000   131.3827     8.1566     8.8631
  212.0000   131.3855     8.1574     8.8143
  212.1000   131.3885     8.1582     8.8024
  212.2000   131.3916     8.1590     8.7715
  212.3000   131.3946     8.1598     8.7422
  212.4000   131.3293     8.1606     8.7426
  212.5000   131.0991     8.1614     8.7431
  212.6000   131.1026     8.1326     8.7437
  212.7000   130.8654     8.1063     8.7441
  212.8000   130.8072     8.1071     8.7446
  212.9000   130.8102     8.1079     8.7140
  213.0000   130.9237     8.1088     8.6847
  213.1000   131.1847     8.0643     8.6852
  213.2000   131.4698     8.0540     8.6809
  213.3000   132.0273     8.0548     8.6258
  213.4000   132.2691     8.0556     8.5786
  213.5000   132.3343     8.0564     8.5667
  213.6000   132.4900     8.0525     8.5369
  213.7000   132.6416     8.0021     8.5080
  213.8000   132.6446     8.0028     8.5085
  213.9000   132.6245     8.0036     8.5090
  214.0000   132.3496     7.9762     8.5095
  214.1000   132.3524     7.9296     8.5099
  214.2000   132.3554     7.8952     8.5104
  214.3000   132.2068     7.8960     8.5109
  214.4000   132.0602     7.8968     8.5113
  214.5000   132.0633     7.8976     8.5118
  214.6000   132.0884     7.8983     8.5123
  214.7000   132.3707     7.8991     8.5128
  214.8000   133.3214     7.8999     8.5132
  214.9000   134.3565     7.9006     8.5521
  215.0000   135.6927     7.9051     8.5738
  215.1000   136.9216     7.9574     8.5958
  215.2000   137.6345     7.9582     8.6478
  215.3000   138.1325     7.9942     8.6959
  215.4000   138.4159     8.0153     8.6964
  215.5000   138.4187     8.0161     8.6969
  215.6000   138.4217     8.0169     8.7363
  215.7000   138.2751     8.0209     8.7588
  215.8000   138.0201     8.0745     8.7593
  215.9000   137.7018     8.0752     8.7598
  216.0000   137.2088     8.0760     8.7643
  216.1000   136.9310     8.0768     8.8222
  216.2000   136.4639     8.0776     8.8226
  216.3000   136.1426     8.0894     8.8625
  216.4000   135.8876     8.1385     8.8854
  216.5000   135.4217     8.1933     8.9077
  216.6000   134.7751     8.1941     8.9487
  216.7000   134.4819     8.2303     8.9492
  216.8000   133.6388     8.2529     8.9497
  216.9000   132.9398     8.2537     8.9502
  217.0000   132.3594     8.2653     8.9904
  217.1000   131.6988     8.3130     9.0139
  217.2000   130.8233     8.3139     9.0363
  217.3000   129.7329     8.3146     9.0781
  217.4000   128.4098     8.3154     9.0863
  217.5000   126.4310     8.3433     9.2068
  217.6000   125.0360     8.3940     9.2073
  217.7000   123.4908     8.4450     9.2485
  217.8000   122.3855     8.4942     9.2729
  217.9000   121.4077     8.4952     9.2957
  218.0000   120.3012     8.5402     9.3651
  218.1000   119.7881     8.5561     9.4707
  218.2000   119.2232     8.5569     9.4713
  218.3000   118.9940     8.5765     9.5229
