~VERSION INFORMATION
 VERS.                2.0:   CWLS LOG ASCII STANDARD - VERSION 2.0
 WRAP.                 NO:   ONE LINE PER DEPTH STEP
~WELL INFORMATION
#MNEM.UNIT      DATA TYPE    INFORMATION
#----------   ------------   ------------------------------
 STRT.F            0.0000:   START DEPTH
 STOP.F          546.0000:   STOP DEPTH
 STEP.F            0.5000:   STEP LENGTH
 NULL.          -999.2500:   NO VALUE
 COMP. LAWRENCE/ALLISON INC:   COMPANY
 WELL.   NPR 3 #76-21SX10:   WELL
 FLD .             TEAPOT:   FIELD
 LOC .      S10 T38N R78W:   LOCATION
 CNTY.            NATRONA:   COUNTY
 STAT.            WYOMING:   STATE
 CTRY. UNITED STATES OF AMERICA:   COUNTRY
 SRVC.      Dresser Atlas:   SERVICE COMPANY
 DATE.        22-JUL-1984:   LOGDATE
 API .       490251097000:   API NUMBER
~CURVE INFORMATION
#MNEM.UNIT       API CODE    CURVE DESCRIPTION
#----------   ------------   ------------------------------
 DEPT.F                  :   
 CALD.IN     45 280 60 00:   CALIPER FROM DENSITY LOG
 DEN .G/C3   45 350 01 00:   COMPENSATED BULK DENSTIY
 CORR.G/C3   45 356 01 00:   DENSITY CORRECTION
 DPHI.DEC    45 890 12 00:   POROSITY DENSITY SANDSTONE
 CNC .DEC    42 890 03 00:   NEUTRON POROSITY SANDSTONE
 GRR .GAPI   07 310 01 00:   GAMMA RAY
 SPR .MV     07 010 01 00:   SPONTANEOUS POTENTIAL
 RILD.OHMM   07 120 46 00:   INDUCTION LOG DEEP RESISTIVITY
 RILM.OHMM   07 120 44 00:   INDUCTION LOG MEDIUM RESISTIVITY
 RFOC.OHMM   07 220 04 00:   RESISTIVITY FOCUSED LOG
 AC  .US/F   60 520 00 00:   ACCOUSTIC
~PARAMETER INFORMATION
#MNEM.UNIT          VALUE    DESCRIPTION
#----------   ------------   ------------------------------
 PD  .                 GL:   PERMANENT DATUM
 EPD .F              5167:   ELEVATION PERMANENT DATUM
 LMF .                 GL:   LOG MEASURED FROM
 DMF .                 GL:   DRILLING MEASURED FROM
 EGL .F              5167:   GROUND LEVEL
 DATE.        22-JUL-1984:   RUN DATE
 RUN .                  1:   RUN NUMBER
 DD  .F               551:   DEPTH DRILLER
 DL  .F               547:   DEPTH LOGGER
 BLI .F               544:   BOTTOM LOG INTERVAL
 CS  .IN            9.625:   CASING SIZE
 CBD .F                40:   CASING BOTTOM DRILLER
 CBL .F                42:   CASING BOTTOM LOGGER
 BS  .IN            7.875:   BIT SIZE
 BSD .F               551:   BIT SIZE AT DEPTH
 DFT .        KCL POLYMER:   DRILLING FLUID TYPE
 MSS .           FLOWLINE:   MUD SAMPLE SOURCE
 RMS .OHMM           .193:   RESISTIVITY MUD SAMPLE
 MST .F                75:   MUD SAMPLE TEMPERATURE
 RMF .OHMM           .144:   RESISTIVITY MUD FILTRATE SAMPLE
 MFST.F                75:   MUD FILTRATE SAMPLE TEMPERATURE
 RMC .OHMM            .24:   RESISTIVITY MUD CAKE
 MCST.F                74:   MUD CAKE SAMPLE TEMPERATURE
 MFSS.               CALC:   MUD FILTRATE SAMPLE SOURCE
 MCSS.               CALC:   MUD CAKE SAMPLE SOURCE
 TCS .HRS               5:   TIME CURCULATED STOPPED
 MRT .F                90:   MAXIMUM RECORDED TEMPERATURE
 LUN .               6274:   LOGGING UNIT NUMBER
 LUL .               GLTE:   LOGGING UNIT LOCATION
 ENGI.             RAUTIO:   RECORDING ENGINEER
 WITN.              FIVAS:   WITNESSED BY
 CLNT.            A2DTECH:   CLIENT CODE
 ORIG.       2", 5" PRINT:   ORIGIN OF DATA
 UWI .       490251097000:   UNIQUE WELL ID
 DICO. A2D Technologies, Inc.:   DIGITIZING COMPANY
~OTHER INFORMATION
~A    DEPT    CALD        DEN       CORR       DPHI        CNC         GRR       SPR       RILD       RILM       RFOC         AC   
# ...
  335.5000     8.1960     2.2890     0.0380     0.2180     0.2740    70.8860     7.0420    35.6700    25.9640    34.9800   103.4780
  336.0000     8.0850     2.2890     0.0390     0.2190     0.2740    73.1170     8.8380    36.2860    27.5460    34.6400   103.0350
  336.5000     7.9910     2.2960     0.0280     0.2140     0.2570    75.1130    10.8020    35.2820    28.6810    34.1120   102.5140
  337.0000     7.9940     2.3110     0.0180     0.2060     0.2510    76.0560    12.0210    34.0310    28.9640    33.6570   102.1800
  337.5000     7.9970     2.3250     0.0280     0.1970     0.2550    74.7910    12.8430    34.3200    29.0910    33.4130   102.5160
  338.0000     8.0010     2.3290     0.0370     0.1940     0.2600    72.5310    13.0490    34.9620    29.2180    35.1770   102.9430
  338.5000     8.0040     2.3210     0.0420     0.1980     0.2620    72.6700    13.3900    35.9550    29.3900    36.5890   103.3710
  339.0000     8.0070     2.3140     0.0360     0.2030     0.2690    74.0270    13.8860    35.6920    28.8610    37.6410   103.3690
  339.5000     8.0110     2.3180     0.0330     0.2030     0.2810    76.3550    14.3710    35.1160    28.0540    36.7230   102.4800
  340.0000     8.0140     2.3270     0.0410     0.1990     0.2830    76.9390    14.5690    34.5400    27.2470    34.9420   101.4830
  340.5000     8.0180     2.3380     0.0480     0.1900     0.2850    75.8110    13.7350    33.4990    26.4400    33.1080   100.7150
  341.0000     8.0210     2.3490     0.0460     0.1820     0.2760    73.8360    12.9290    32.2190    25.8050    32.3160   100.5250
  341.5000     8.0240     2.3600     0.0520     0.1770     0.2700    71.4440    11.7360    30.9390    25.1970    31.7940   100.6910
  342.0000     8.0280     2.3650     0.0620     0.1720     0.2660    71.5030    10.5710    30.6120    24.5890    31.5300   100.8570
  342.5000     8.0270     2.3650     0.0540     0.1710     0.2630    73.0410     9.4070    30.3790    24.0230    31.0280   100.9450
  343.0000     8.0220     2.3560     0.0330     0.1770     0.2700    73.0720     8.2450    29.9200    23.6370    29.8820   100.9450
  343.5000     8.0160     2.3480     0.0110     0.1830     0.2800    73.0180     7.0840    28.8580    23.2760    28.7370   100.6840
  344.0000     8.0110     2.3510     0.0280     0.1830     0.2840    74.7520     6.0450    27.7960    22.9810    28.3640   100.3850
  344.5000     8.0120     2.3650     0.0510     0.1740     0.2810    79.2550     5.3530    26.8160    22.7380    27.6350   100.4150
  345.0000     8.0150     2.3730     0.0600     0.1670     0.2740    81.9740     4.7320    26.6280    22.4220    27.0050   100.4920
  345.5000     8.0180     2.3700     0.0610     0.1680     0.2640    80.8040     4.3180    26.4540    22.1290    26.8160   100.4540
  346.0000     8.0200     2.3670     0.0550     0.1710     0.2590    78.7140     4.0050    26.3290    21.7810    27.3120   100.1210
  346.5000     8.0230     2.3690     0.0490     0.1700     0.2640    75.8860     3.6540    26.8160    21.2940    27.0580    99.7890
  347.0000     8.0260     2.3710     0.0510     0.1690     0.2620    75.8560     3.3180    26.5750    20.8070    26.5350    99.4570
  347.5000     8.0280     2.3700     0.0560     0.1690     0.2580    77.0210     3.2470    26.3290    20.4560    26.0130    99.1240
  348.0000     8.0280     2.3680     0.0560     0.1700     0.2530    80.0310     3.9630    26.2690    20.2480    25.8510    98.7560
  348.5000     8.0260     2.3710     0.0430     0.1690     0.2580    80.4040     4.6580    26.2030    19.9230    26.4890    98.1140
  349.0000     8.0230     2.3740     0.0310     0.1660     0.2650    80.5680     5.3480    26.1360    19.5450    27.0370    97.4630
  349.5000     8.0210     2.3780     0.0280     0.1640     0.2690    79.9870     5.9180    25.8950    19.2220    27.4160    97.5470
  350.0000     8.0180     2.3760     0.0440     0.1650     0.2660    78.8750     5.8240    25.2430    18.9300    27.5630    97.8610
  350.5000     8.0150     2.3750     0.0520     0.1670     0.2640    78.1820     5.4530    24.7980    19.2200    26.7110    99.1280
  351.0000     8.0130     2.3750     0.0530     0.1660     0.2630    79.7770     5.5430    24.5540    19.7940    25.8560   100.5360
  351.5000     8.0100     2.3750     0.0530     0.1660     0.2620    81.9340     5.6360    24.3110    20.5570    25.6150   101.4510
  352.0000     8.0090     2.3720     0.0600     0.1700     0.2610    82.8690     5.6420    24.0040    20.4330    26.0140   102.0190
  352.5000     8.0080     2.3640     0.0720     0.1750     0.2600    81.0610     5.3930    23.5870    19.8260    26.8160   101.8350
  353.0000     8.0060     2.3580     0.0740     0.1770     0.2620    78.2590     4.9330    23.6960    18.5620    26.6500   101.2470
  353.5000     8.0050     2.3610     0.0580     0.1740     0.2680    77.0830     4.4460    23.8420    17.2350    26.3300   100.6600
  354.0000     8.0040     2.3670     0.0420     0.1700     0.2780    78.7100     3.4020    24.0230    16.3000    25.8910   100.0510
  354.5000     8.0030     2.3720     0.0380     0.1670     0.2710    80.0740     2.3050    23.8660    15.7520    25.5290    99.4040
  355.0000     8.0010     2.3710     0.0350     0.1690     0.2610    81.1980     1.6610    23.6610    15.3370    25.2950    98.9600
  355.5000     8.0000     2.3680     0.0330     0.1720     0.2530    84.5170     1.0330    23.4560    14.9160    25.0620    98.4240
  356.0000     7.9990     2.3640     0.0340     0.1730     0.2510    84.3460     0.5830    22.9450    14.8040    24.8310    97.8110
  356.5000     7.9980     2.3710     0.0400     0.1690     0.2510    80.1130     0.3100    22.2230    14.6190    24.6030    97.1980
  357.0000     7.9960     2.3780     0.0460     0.1640     0.2510    76.1040     0.2980    21.5020    14.4170    23.9990    96.5850
  357.5000     7.9950     2.3880     0.0450     0.1570     0.2510    77.0410     0.2970    20.8150    14.1130    22.8510    95.8890
  358.0000     7.9940     2.3980     0.0370     0.1510     0.2540    81.4270     0.3000    20.2500    13.8080    21.7040    94.7540
  358.5000     7.9930     2.4070     0.0280     0.1460     0.2540    86.4780     0.3650    19.7470    13.5160    20.5570    93.5820
  359.0000     7.9910     2.4170     0.0340     0.1400     0.2510    88.6950     0.4310    19.4460    13.1200    19.7950    92.5340
  359.5000     7.9900     2.4270     0.0520     0.1350     0.2360    87.4250     0.5330    19.2800    13.2640    19.2800    91.0250
  360.0000     7.9890     2.4370     0.0690     0.1290     0.2330    84.9820     1.3900    19.2800    13.4850    19.3820    89.3900
  360.5000     7.9880     2.4480     0.0750     0.1210     0.2320    81.8100     2.2460    20.0720    13.7070    19.4640    87.7560
  361.0000     7.9870     2.4640     0.0770     0.1120     0.2320    80.9720     3.0100    20.8180    13.7910    19.5460    86.1210
  361.5000     7.9850     2.4810     0.0730     0.1020     0.2330    81.0060     3.5070    21.3250    13.8550    19.6270    84.9250
  362.0000     7.9840     2.4760     0.0510     0.1070     0.2350    82.1310     4.0060    21.3250    13.7500    19.8680    85.6120
  362.5000     7.9830     2.4590     0.0330     0.1170     0.2330    83.6800     4.5070    20.7100    13.6240    20.0000    88.1090
  363.0000     7.9820     2.4410     0.0450     0.1280     0.2320    84.2180     5.0240    20.2330    13.4860    19.9150    90.6070
  363.5000     7.9800     2.4250     0.0560     0.1360     0.2360    82.8560     5.2690    19.8310    13.3470    19.8180    93.0850
  364.0000     7.9790     2.4200     0.0590     0.1410     0.2330    81.0260     5.3380    19.5010    13.1940    19.8460    94.7790
  364.5000     7.9780     2.4100     0.0530     0.1460     0.2290    80.3710     4.9390    19.1880    13.0410    19.9000    96.0700
  365.0000     7.9770     2.3990     0.0480     0.1520     0.2290    79.4740     4.5620    18.9080    13.0010    19.9540    96.2690
  365.5000     7.9750     2.3920     0.0430     0.1560     0.2410    76.9320     3.6950    18.6280    13.0010    20.0000    95.9280
