~VERSION INFORMATION
 VERS.                2.0:   CWLS LOG ASCII STANDARD - VERSION 2.0
 WRAP.                 NO:   ONE LINE PER DEPTH STEP
~WELL INFORMATION
#MNEM.UNIT      DATA TYPE    INFORMATION
#----------   ------------   ------------------------------
 STRT.F           28.0000:   START DEPTH
 STOP.F          563.0000:   STOP DEPTH
 STEP.F            0.1000:   STEP LENGTH
 NULL.          -999.2500:   NO VALUE
 COMP.       F D SERV INC:   COMPANY
 WELL.    SX-3 62-4 #62-3:   WELL
 FLD .          N.P.R. #3:   FIELD
 LOC .       S3 T38N R78W:   LOCATION
 CNTY.            NATRONA:   COUNTY
 STAT.            WYOMING:   STATE
 CTRY. UNITED STATES OF AMERICA:   COUNTRY
 SRVC.     Atlas Wireline:   SERVICE COMPANY
 DATE.        03-MAY-1992:   LOGDATE
 API .       490252252100:   API NUMBER
~CURVE INFORMATION
#MNEM.UNIT       API CODE    CURVE DESCRIPTION
#----------   ------------   ------------------------------
 DEPT.F                  :   
 RILD.OHMM   07 120 46 00:   INDUCTION LOG DEEP RESISTIVITY
 RILM.OHMM   07 120 44 00:   INDUCTION LOG MEDIUM RESISTIVITY
 CALD.IN     45 280 60 00:   CALIPER FROM DENSITY LOG
 CORR.G/C3   45 356 01 00:   DENSITY CORRECTION
 DEN .G/C3   45 350 01 00:   COMPENSATED BULK DENSTIY
 GRD .GAPI   45 310 01 00:   GAMMA RAY FROM DENSITY LOG
 PORD.DEC    45 890 12 00:   POROSITY DENSITY SANDSTONE
~PARAMETER INFORMATION
#MNEM.UNIT          VALUE    DESCRIPTION
#----------   ------------   ------------------------------
 PD  .                 GL:   PERMANENT DATUM
 EPD .F              5156:   ELEVATION PERMANENT DATUM
 LMF .                 KB:   LOG MEASURED FROM
 DAPD.F                 5:   FEET ABOVE PERMANENT DATUM
 DMF .                 KB:   DRILLING MEASURED FROM
 EKB .F              5161:   KELLING BUSHING
 EGL .F              5156:   GROUND LEVEL
 DATE.        03-MAY-1992:   RUN DATE
 RUN .                  1:   RUN NUMBER
 DD  .F               565:   DEPTH DRILLER
 DL  .F               566:   DEPTH LOGGER
 BLI .F               564:   BOTTOM LOG INTERVAL
 TLI .F                50:   TOP LOG INTERVAL
 CS  .IN            8.625:   CASING SIZE
 CBD .F                49:   CASING BOTTOM DRILLER
 CBL .F                50:   CASING BOTTOM LOGGER
 BS  .IN            7.875:   BIT SIZE
 BSD .F               565:   BIT SIZE AT DEPTH
 DFT .        AIR DRILLED:   DRILLING FLUID TYPE
 LUN .             HL 632:   LOGGING UNIT NUMBER
 LUL .           RK. SPGS:   LOGGING UNIT LOCATION
 ENGI.               RALL:   RECORDING ENGINEER
 WITN.             STRONG:   WITNESSED BY
 CLNT.            A2DTECH:   CLIENT CODE
 ORIG.           5" PRINT:   ORIGIN OF DATA
 UWI .       490252252100:   UNIQUE WELL ID
 DICO. A2D Technologies, Inc.:   DIGITIZING COMPANY
~OTHER INFORMATION
~A   DEPT     RILD       RILM       CALD       CORR        DEN        GRD       PORD   
# ...
  310.1000     7.6056     7.7656     8.2675    -0.0024     2.5167   165.2724     0.0797
  310.2000     7.6055     7.7654     8.2673    -0.0027     2.5172   165.5929     0.0796
  310.3000     7.6053     7.7236     8.2671    -0.0039     2.5174   165.8429     0.0796
  310.4000     7.6051     7.6787     8.2669    -0.0040     2.5177   166.1726     0.0795
  310.5000     7.5952     7.6578     8.2668    -0.0040     2.5181   166.6738     0.0793
  310.6000     7.5521     7.6426     8.2666    -0.0032     2.5181   167.2174     0.0793
  310.7000     7.5518     7.6044     8.2664    -0.0025     2.5181   167.6760     0.0791
  310.8000     7.5517     7.6042     8.2662    -0.0022     2.5187   168.3565     0.0790
  310.9000     7.5514     7.5624     8.2660    -0.0009     2.5189   168.8511     0.0789
  311.0000     7.5321     7.5512     8.2658     0.0020     2.5189   169.0226     0.0787
  311.1000     7.4988     7.5510     8.2657     0.0030     2.5191   169.0214     0.0787
  311.2000     7.4966     7.5508     8.2655     0.0043     2.5196   169.0201     0.0784
  311.3000     7.4466     7.5436     8.2653     0.0055     2.5196   168.7904     0.0784
  311.4000     7.4464     7.4982     8.2651     0.0070     2.5196   168.1816     0.0784
  311.5000     7.4179     7.4980     8.2650     0.0095     2.5192   167.2992     0.0784
  311.6000     7.3945     7.4645     8.2648     0.0095     2.5186   166.2933     0.0784
  311.7000     7.3943     7.4458     8.2646     0.0105     2.5179   165.2871     0.0784
  311.8000     7.3910     7.4294     8.2644     0.0110     2.5173   164.1863     0.0787
  311.9000     7.3428     7.3862     8.2642     0.0115     2.5166   163.5028     0.0794
  312.0000     7.3426     7.3426     8.2641     0.0125     2.5155   162.7481     0.0801
  312.1000     7.3135     7.3424     8.2639     0.0125     2.5146   162.1199     0.0809
  312.2000     7.2914     7.3422     8.2637     0.0140     2.5140   161.6163     0.0815
  312.3000     7.2790     7.3169     8.2635     0.0139     2.5132   161.1382     0.0820
  312.4000     7.2366     7.2744     8.2633     0.0139     2.5120   160.8608     0.0826
  312.5000     7.1904     7.2404     8.2632     0.0139     2.5113   160.8597     0.0831
  312.6000     7.1902     7.2401     8.2630     0.0139     2.5102   161.0343     0.0836
  312.7000     7.1607     7.1900     8.2628     0.0139     2.5094   161.1590     0.0842
  312.8000     7.1191     7.1563     8.2626     0.0152     2.5087   161.3073     0.0847
  312.9000     7.0777     7.1399     8.2624     0.0154     2.5079   161.7842     0.0851
  313.0000     7.0365     7.1226     8.2623     0.0154     2.5067   162.0602     0.0854
  313.1000     6.9925     7.0723     8.2621     0.0154     2.5060   162.5092     0.0856
  313.2000     6.9549     6.9914     8.2619     0.0154     2.5049   162.8358     0.0861
  313.3000     6.9145     6.9438     8.2617     0.0154     2.5041   163.3339     0.0864
  313.4000     6.8532     6.8775     8.2615     0.0154     2.5034   164.0126     0.0867
  313.5000     6.7871     6.7981     8.2614     0.0153     2.5026   164.5137     0.0870
  313.6000     6.7421     6.7028     8.2612     0.0153     2.5013   165.0695     0.0875
  313.7000     6.6600     6.5959     8.2610     0.0153     2.5000   165.2923     0.0880
  313.8000     6.6233     6.5196     8.2608     0.0153     2.4994   165.7157     0.0885
  313.9000     6.5562     6.4326     8.2606     0.0153     2.4983   166.2168     0.0890
  314.0000     6.4804     6.3699     8.2604     0.0153     2.4974   166.7179     0.0895
  314.1000     6.4054     6.2728     8.2603     0.0153     2.4965   167.1972     0.0900
  314.2000     6.3313     6.1805     8.2601     0.0153     2.4953   167.4756     0.0905
  314.3000     6.2560     6.1001     8.2599     0.0153     2.4939   167.4745     0.0910
  314.4000     6.1510     5.9945     8.2597     0.0155     2.4933   166.9568     0.0915
  314.5000     6.0719     5.8771     8.2595     0.0168     2.4923   166.0805     0.0920
  314.6000     5.9817     5.8184     8.2594     0.0180     2.4913   165.1457     0.0927
  314.7000     5.8913     5.7292     8.2592     0.0192     2.4905   164.4118     0.0935
  314.8000     5.8167     5.6302     8.2590     0.0197     2.4892   163.8484     0.0945
  314.9000     5.7157     5.5242     8.2588     0.0197     2.4879   163.1831     0.0955
  315.0000     5.5978     5.4021     8.2586     0.0197     2.4873   162.7702     0.0963
  315.1000     5.5204     5.3324     8.2585     0.0197     2.4867   162.3974     0.0972
  315.2000     5.4250     5.2511     8.2583     0.0173     2.4857   161.9638     0.0981
  315.3000     5.3188     5.1605     8.2581     0.0157     2.4846   161.7309     0.0988
  315.4000     5.1839     5.0572     8.2579     0.0138     2.4839   161.7296     0.0993
  315.5000     5.0063     4.9410     8.2577     0.0113     2.4826   161.9487     0.1000
  315.6000     4.8383     4.8220     8.2576     0.0091     2.4814   162.1987     0.1008
  315.7000     4.7021     4.6410     8.2574     0.0091     2.4802   162.5680     0.1015
  315.8000     4.5576     4.4981     8.2572     0.0067     2.4792   163.0003     0.1023
  315.9000     4.4271     4.3269     8.2570     0.0052     2.4780   163.2870     0.1031
  316.0000     4.2944     4.1667     8.2568     0.0039     2.4756   164.1356     0.1042
  316.1000     4.1468     4.0311     8.2567     0.0026     2.4743   164.5725     0.1059
  316.2000     3.9836     3.9156     8.2565     0.0014     2.4719   165.0737     0.1077
  316.3000     3.8495     3.7948     8.2563     0.0000     2.4694   165.5749     0.1103
  316.4000     3.6827     3.7147     8.2561    -0.0012     2.4666   166.0761     0.1136
  316.5000     3.5065     3.6144     8.2559    -0.0024     2.4628   166.5601     0.1168
  316.6000     3.3276     3.5217     8.2558    -0.0030     2.4575   166.8433     0.1199
  316.7000     3.1598     3.4278     8.2556    -0.0034     2.4501   167.2778     0.1229
  316.8000     3.0181     3.3077     8.2554    -0.0047     2.4419   167.6116     0.1247
  316.9000     2.9282     3.1681     8.2552    -0.0060     2.4340   167.9785     0.1271
  317.0000     2.8390     3.0499     8.2550    -0.0072     2.4275   168.4133     0.1299
  317.1000     2.7653     2.9412     8.2699    -0.0076     2.4218   168.6633     0.1330
  317.2000     2.7061     2.8495     8.2697    -0.0076     2.4163   168.9476     0.1365
  317.3000     2.6607     2.7734     8.2695    -0.0080     2.4109   169.3798     0.1407
  317.4000     2.6267     2.7145     8.2694    -0.0091     2.4050   169.8809     0.1446
  317.5000     2.5861     2.6819     8.2692    -0.0091     2.3983   170.2665     0.1488
  317.6000     2.5414     2.6375     8.2690    -0.0080     2.3900   170.5165     0.1522
  317.7000     2.5048     2.5920     8.2838    -0.0076     2.3782   170.7811     0.1550
  317.8000     2.4714     2.5472     8.2837    -0.0076     2.3612   171.3537     0.1583
  317.9000     2.4318     2.5085     8.2835    -0.0072     2.3386   171.5680     0.1625
  318.0000     2.4166     2.4820     8.2833    -0.0061     2.3320   171.8180     0.1677
  318.1000     2.3909     2.4673     8.2861    -0.0062     2.3219   171.9536     0.1778
  318.2000     2.3632     2.4394     8.2980    -0.0050     2.3081   172.0163     0.1895
  318.3000     2.3430     2.4222     8.2978    -0.0038     2.2935   172.2529     0.2003
  318.4000     2.3249     2.4081     8.2976    -0.0032     2.2812   172.2514     0.2106
  318.5000     2.2999     2.3941     8.2974    -0.0028     2.2700   170.9652     0.2214
  318.6000     2.2858     2.3829     8.2973    -0.0014     2.2598   168.9660     0.2271
  318.7000     2.2732     2.3828     8.3002     0.0013     2.2510   166.7043     0.2327
  318.8000     2.2600     2.3827     8.3119     0.0024     2.2436   164.4423     0.2404
  318.9000     2.2541     2.3827     8.3117     0.0037     2.2358   162.1803     0.2501
  319.0000     2.2493     2.3826     8.3116     0.0056     2.2247   159.5745     0.2564
  319.1000     2.2384     2.3882     8.3114     0.0080     2.2036   157.6567     0.2615
