~VERSION INFORMATION
 VERS.                2.0:   CWLS LOG ASCII STANDARD - VERSION 2.0
 WRAP.                 NO:   ONE LINE PER DEPTH STEP
~WELL INFORMATION
#MNEM.UNIT      DATA TYPE    INFORMATION
#----------   ------------   ------------------------------
 STRT.F           43.0000:   START DEPTH
 STOP.F          551.0000:   STOP DEPTH
 STEP.F            0.5000:   STEP LENGTH
 NULL.          -999.2500:   NO VALUE
 COMP. FENIX & SCISSON INC:   COMPANY
 WELL.   NPR 3  27-S #3-3:   WELL
 FLD .             TEAPOT:   FIELD
 LOC .       S3 T38N R78W:   LOCATION
 CNTY.            NATRONA:   COUNTY
 STAT.            WYOMING:   STATE
 CTRY. UNITED STATES OF AMERICA:   COUNTRY
 SRVC.           BIRDWELL:   SERVICE COMPANY
 DATE.        07-OCT-1978:   LOGDATE
 API .       490251071600:   API NUMBER
~CURVE INFORMATION
#MNEM.UNIT       API CODE    CURVE DESCRIPTION
#----------   ------------   ------------------------------
 DEPT.F                  :   
 SPR .MV     05 010 01 00:   SPONTANEOUS POTENTIAL FROM RES.
 SN  .OHMM   05 040 16 00:   SHORT NORMAL 16"
 ILD .OHMM   05 120 46 00:   INDUCTION LOG DEEP
 GRD .GAPI   45 310 01 00:   GAMMA RAY FROM DENSITY LOG
 CALD.IN     45 280 60 00:   CALIPER
 RHOB.G/C3   45 350 01 00:   BULK DENSITY
 CORR.G/C3   45 356 01 00:   DENSITY CORRECTION
 DPHI.DEC    45 890 12 00:   DENSITY POROSITY SANDSTONE
~PARAMETER INFORMATION
#MNEM.UNIT          VALUE    DESCRIPTION
#----------   ------------   ------------------------------
 PD  .                 GL:   PERMANENT DATUM
 EPD .F              5241:   ELEVATION PERMANENT DATUM
 LMF .                 KB:   LOG MEASURED FROM
 DAPD.F                 4:   FEET ABOVE PERMANENT DATUM
 DMF .                 KB:   DRILLING MEASURED FROM
 EKB .F              5245:   KELLING BUSHING
 EGL .F              5241:   GROUND LEVEL
 DATE.            10-7-78:   RUN DATE
 RUN .                  1:   RUN NUMBER
 DD  .F               552:   DEPTH DRILLER
 DL  .F               551:   DEPTH LOGGER
 BLI .F               545:   BOTTOM LOG INTERVAL
 TLI .F                48:   TOP LOG INTERVAL
 CS  .IN            8.625:   CASING SIZE
 CBL .F                43:   CASING BOTTOM LOGGER
 BS  .IN            7.875:   BIT SIZE
 BSD .F               552:   BIT SIZE AT DEPTH
 DFT .                KCL:   DRILLING FLUID TYPE
 DFD .                8.7:   DRILLING FLUID DENSITY
 DFV .                 38:   DRILLING FLUID VISCOSITY
 DFPH.                  9:   DRILLING FLUID PH
 DFL .                 38:   DRILLING FLUID LOSS
 MSS .            MUD PIT:   MUD SAMPLE SOURCE
 RMS .OHMM            .24:   RESISTIVITY MUD SAMPLE
 MST .F                48:   MUD SAMPLE TEMPERATURE
 RMF .OHMM             .2:   RESISTIVITY MUD FILTRATE SAMPLE
 MFST.F                62:   MUD FILTRATE SAMPLE TEMPERATURE
 RMC .OHMM             .3:   RESISTIVITY MUD CAKE
 MCST.F                62:   MUD CAKE SAMPLE TEMPERATURE
 MFSS.               MEAS:   MUD FILTRATE SAMPLE SOURCE
 MCSS.               MEAS:   MUD CAKE SAMPLE SOURCE
 TCS .HRS               3:   TIME CURCULATED STOPPED
 LUN .               2958:   LOGGING UNIT NUMBER
 LUL .               CASP:   LOGGING UNIT LOCATION
 ENGI.             MILLER:   RECORDING ENGINEER
 WITN.              AMEND:   WITNESSED BY
 CLNT.            A2DTECH:   CLIENT CODE
 ORIG.       2", 5" PRINT:   ORIGIN OF DATA
 UWI .       490251071600:   UNIQUE WELL ID
 DICO. A2D Technologies, Inc.:   DIGITIZING COMPANY
~OTHER INFORMATION
~A   DEPT      SPR         SN        ILD        GRD         CALD       RHOB      CORR        DPHI 
# ...
  407.5000   -12.5523    10.1823    13.1416    73.7209     8.3132     2.3765     0.0807     0.1823
  408.0000   -12.5274    10.2096    12.9671    72.7282     8.3622     2.3935     0.0748     0.1754
  408.5000   -12.5024    10.2369    13.1277    71.6645     8.3644     2.4090     0.0689     0.1668
  409.0000   -12.4745    10.2644    13.4337    73.8406     8.3425     2.4203     0.0652     0.1606
  409.5000   -12.4316    10.2919    13.7486    73.1929     8.3203     2.4333     0.0621     0.1408
  410.0000   -13.1115    10.3195    14.0677    71.6313     8.2979     2.4966     0.0347     0.1169
  410.5000   -13.7440    10.3472    14.3533    70.0466     8.2758     2.4931     0.0241     0.1067
  411.0000   -14.1050    10.3749    14.6040    70.2597     8.2649     2.4646     0.0317     0.1236
  411.5000   -14.4643    10.4432    14.8592    72.3976     8.3268     2.4369     0.0384     0.1455
  412.0000   -14.6490    10.7935    15.1694    74.5419     8.3889     2.4360     0.0445     0.1476
  412.5000   -14.6739    11.1555    15.5837    76.6642     8.4085     2.4442     0.0506     0.1453
  413.0000   -14.6959    11.5024    16.0093    76.7683     8.3958     2.4430     0.0567     0.1396
  413.5000   -14.7172    11.5024    16.4466    76.7563     8.3825     2.4448     0.0626     0.1339
  414.0000   -14.7389    11.5028    16.8957    76.7530     8.3691     2.4473     0.0625     0.1282
  414.5000   -14.7605    11.5024    17.1207    76.7530     8.3558     2.4462     0.0622     0.1237
  415.0000   -14.7823    11.5023    17.1602    76.7535     8.3425     2.4451     0.0619     0.1225
  415.5000   -14.8042    11.5024    17.1999    76.7572     8.3292     2.4479     0.0616     0.1222
  416.0000   -14.8249    11.5728    17.2397    76.7930     8.3160     2.4530     0.0612     0.1207
  416.5000   -14.8142    11.7689    17.7132    75.0727     8.3023     2.4508     0.0610     0.1228
  417.0000   -14.7044    11.9682    18.5506    72.8634     8.2802     2.4403     0.0633     0.1326
  417.5000   -14.5995    12.1709    18.9237    70.6021     8.2331     2.3956     0.0917     0.1446
  418.0000   -14.4946    12.3829    18.7500    68.2524     8.1869     2.3897     0.1270     0.1452
  418.5000   -14.3898    12.4049    19.1185    67.5882     8.1543     2.4062     0.1299     0.1410
  419.0000   -14.2850    12.4315    19.6063    67.8056     8.1379     2.4089     0.1040     0.1388
  419.5000   -14.1800    12.4589    19.8165    68.0445     8.1213     2.4089     0.0773     0.1515
  420.0000   -14.0705    12.4976    19.8165    68.6481     8.1037     2.4089     0.0482     0.1602
  420.5000   -14.0481    12.4349    19.8165    69.8452     8.1771     2.4041     0.0212     0.1683
  421.0000   -14.0529    12.3276    19.6737    75.5514     8.3120     2.3991     0.0168     0.1680
  421.5000   -14.0586    12.2206    18.9984    77.6267     8.4501     2.4004     0.0155     0.1676
  422.0000   -14.0642    12.1570    18.2171    77.8467     8.4863     2.4016     0.0168     0.1673
  422.5000   -14.0697    12.1748    17.9053    77.9398     8.4391     2.3980     0.0180     0.1674
  423.0000   -14.0752    12.1884    17.9570    78.0369     8.2870     2.3924     0.0193     0.1724
  423.5000   -14.0807    12.2017    17.9955    78.1702     8.1422     2.3867     0.0205     0.1762
  424.0000   -14.0862    12.2150    18.0348    79.0508     8.1371     2.3886     0.0206     0.1759
  424.5000   -14.0917    12.2283    18.0712    79.9777     8.1107     2.3962     0.0202     0.1710
  425.0000   -14.0972    12.2417    17.7176    80.2695     8.0783     2.4036     0.0198     0.1664
  425.5000   -14.1027    12.2550    17.3704    80.1714     8.0805     2.4111     0.0194     0.1619
  426.0000   -14.1082    12.2684    17.0857    80.0656     8.1394     2.4186     0.0190     0.1574
  426.5000   -14.1137    12.2818    17.0340    79.9549     8.1975     2.4261     0.0193     0.1533
  427.0000   -14.1192    12.2952    16.9802    80.0823     8.2557     2.4339     0.0198     0.1498
  427.5000   -14.1247    12.3086    16.9270    80.2582     8.3144     2.4389     0.0203     0.1462
  428.0000   -14.1302    12.3221    16.8738    80.4334     8.3432     2.4432     0.0207     0.1426
  428.5000   -14.1357    12.3355    16.8207    80.5073     8.3546     2.4477     0.0206     0.1390
  429.0000   -14.1412    12.3490    16.7678    80.3354     8.3659     2.4471     0.0197     0.1388
  429.5000   -14.1467    12.3625    16.7148    80.1652     8.3783     2.4404     0.0186     0.1445
  430.0000   -14.1522    12.3760    16.6613    80.2319     8.2625     2.4310     0.0163     0.1492
  430.5000   -14.1577    12.3895    16.6322    80.3288     8.3014     2.4274     0.0140     0.1532
  431.0000   -14.1632    12.4030    16.8580    80.1492     8.3301     2.4186     0.0130     0.1591
  431.5000   -14.1687    12.4165    17.0820    79.9588     8.2921     2.4055     0.0130     0.1654
  432.0000   -14.1742    12.4301    17.2570    79.7649     8.2585     2.3957     0.0130     0.1707
  432.5000   -14.1798    12.4437    17.1241    79.7719     8.2771     2.3990     0.0129     0.1691
  433.0000   -14.1853    12.4572    17.0166    80.6005     8.2975     2.4047     0.0137     0.1674
  433.5000   -14.1908    12.4709    16.9097    81.4478     8.3177     2.4044     0.0151     0.1657
  434.0000   -14.1962    12.4845    16.7863    82.2871     8.3350     2.4021     0.0164     0.1639
  434.5000   -14.2018    12.4982    17.0767    82.9516     8.3052     2.4061     0.0178     0.1639
  435.0000   -14.2073    12.5237    17.5431    82.9878     8.2744     2.4030     0.0211     0.1655
  435.5000   -14.2128    12.5488    18.0658    80.8020     8.2623     2.3979     0.0347     0.1695
  436.0000   -14.2183    12.5741    18.7459    78.2743     8.2752     2.3931     0.0567     0.1719
  436.5000   -14.2238    12.5996    19.4515    75.9982     8.2873     2.3980     0.0939     0.1666
  437.0000   -14.2292    12.6132    20.0000    74.5359     8.2836     2.4214     0.1006     0.1384
  437.5000   -14.2348    12.5878    19.8088    73.1802     8.2183     2.4447     0.0996     0.1285
  438.0000   -14.2406    12.5702    19.6568    73.7499     8.2076     2.4670     0.0887     0.1185
  438.5000   -14.2585    12.5526    19.6346    75.9860     8.2225     2.4674     0.0562     0.1165
  439.0000   -14.2898    12.5352    19.6358    78.7417     8.2379     2.4475     0.0281     0.1269
  439.5000   -14.3208    12.5183    19.6420    83.1654     8.2533     2.4238     0.0169     0.1396
  440.0000   -14.3520    12.5000    19.6346    85.5359     8.2686     2.4000     0.0052     0.1620
  440.5000   -14.3831    12.2517    18.2444    85.3185     8.2769     2.3859     0.0020     0.1768
  441.0000   -14.4142    11.9720    17.0231    85.0307     8.2769     2.3846     0.0035     0.1783
  441.5000   -14.4453    11.7165    16.1125    84.7394     8.2769     2.3854     0.0051     0.1778
  442.0000   -14.4765    11.5602    15.9523    84.6737     8.2769     2.3854     0.0067     0.1773
  442.5000   -14.5076    11.4155    15.8363    85.3765     8.2769     2.3841     0.0082     0.1769
  443.0000   -14.5387    11.3624    15.7208    85.6291     8.2769     2.3870     0.0098     0.1760
  443.5000   -14.5698    11.3228    15.6085    83.7215     8.2769     2.3907     0.0109     0.1741
  444.0000   -14.6014    11.2834    15.4351    82.5246     8.2768     2.3944     0.0105     0.1699
  444.5000   -14.6307    11.2441    15.2589    82.8637     8.2766     2.3958     0.0102     0.1708
  445.0000   -14.7875    11.2050    15.1674    83.2515     8.2773     2.3940     0.0099     0.1720
  445.5000   -14.9898    11.1660    15.1674    83.5016     8.3008     2.3923     0.0095     0.1738
  446.0000   -15.1950    11.1272    15.1674    82.8816     8.3827     2.3865     0.0092     0.1755
  446.5000   -15.4001    11.0884    15.1674    82.2777     8.3932     2.3814     0.0092     0.1768
  447.0000   -15.6054    11.0498    15.1674    81.7488     8.3730     2.3833     0.0103     0.1775
  447.5000   -15.8123    11.0113    15.1674    82.3412     8.2985     2.3890     0.0114     0.1738
