~VERSION INFORMATION
 VERS.                2.0:   CWLS LOG ASCII STANDARD - VERSION 2.0
 WRAP.                 NO:   ONE LINE PER DEPTH STEP
~WELL INFORMATION
#MNEM.UNIT      DATA TYPE    INFORMATION
#----------   ------------   ------------------------------
 STRT.F           11.0000:   START DEPTH
 STOP.F          804.0000:   STOP DEPTH
 STEP.F            0.1000:   STEP LENGTH
 NULL.          -999.2500:   NO VALUE
 COMP. BROWN JOHN E&C INC:   COMPANY
 WELL. 72-1 STX-34 #72-34:   WELL
 FLD .             TEAPOT:   FIELD
 LOC .      S34 T39N R78W:   LOCATION
 CNTY.            NATRONA:   COUNTY
 STAT.            WYOMING:   STATE
 CTRY. UNITED STATES OF AMERICA:   COUNTRY
 SRVC.     Atlas Wireline:   SERVICE COMPANY
 DATE.        31-JAN-1992:   LOGDATE
 API .       490252250200:   API NUMBER
~CURVE INFORMATION
#MNEM.UNIT       API CODE    CURVE DESCRIPTION
#----------   ------------   ------------------------------
 DEPT.F                  :   
 GRR .GAPI   07 310 01 00:   GAMMA RAY
 RILD.OHMM   07 120 46 00:   INDUCTION LOG DEEP RESISTIVITY
 RILM.OHMM   07 120 44 00:   INDUCTION LOG MEDIUM RESISTIVITY
~PARAMETER INFORMATION
#MNEM.UNIT          VALUE    DESCRIPTION
#----------   ------------   ------------------------------
 PD  .                 GL:   PERMANENT DATUM
 EPD .F              5069:   ELEVATION PERMANENT DATUM
 LMF .                 KB:   LOG MEASURED FROM
 DAPD.F                10:   FEET ABOVE PERMANENT DATUM
 DMF .                 KB:   DRILLING MEASURED FROM
 EKB .F              5079:   KELLING BUSHING
 EDF .F              5078:   DRILLING FLOOR
 EGL .F              5069:   GROUND LEVEL
 DATE.        31-JAN-1992:   RUN DATE
 RUN .                  1:   RUN NUMBER
 DD  .F               814:   DEPTH DRILLER
 DL  .F               813:   DEPTH LOGGER
 BLI .F               804:   BOTTOM LOG INTERVAL
 CS  .IN            9.625:   CASING SIZE
 CBD .F               100:   CASING BOTTOM DRILLER
 CBL .F               104:   CASING BOTTOM LOGGER
 BS  .IN             8.75:   BIT SIZE
 BSD .F               814:   BIT SIZE AT DEPTH
 DFT .                AIR:   DRILLING FLUID TYPE
 MRT .F                90:   MAXIMUM RECORDED TEMPERATURE
 LUN .           HL- 6274:   LOGGING UNIT NUMBER
 LUL .             CASPER:   LOGGING UNIT LOCATION
 ENGI.             RAUTIO:   RECORDING ENGINEER
 WITN.        GARY STRONG:   WITNESSED BY
 CLNT.            A2DTECH:   CLIENT CODE
 ORIG.           5" PRINT:   ORIGIN OF DATA
 UWI .       490252250200:   UNIQUE WELL ID
 DICO. A2D Technologies, Inc.:   DIGITIZING COMPANY
~OTHER INFORMATION
~A   DEPT       GRR      RILD       RILM   
# ...
  375.0000   127.9374     9.6303     9.3700
  375.1000   127.8384     9.6301     9.3167
  375.2000   127.8402     9.5876     9.2827
  375.3000   127.8421     9.5328     9.2824
  375.4000   127.8439     9.4784     9.2821
  375.5000   127.8459     9.4291     9.2819
  375.6000   127.8475     9.4288     9.2463
  375.7000   127.8493     9.3824     9.2168
  375.8000   127.8511     9.3626     9.2054
  375.9000   127.8529     9.3623     9.1522
  376.0000   127.8549     9.3621     9.1011
  376.1000   127.8566     9.3618     9.0881
  376.2000   128.0306     9.3109     9.0609
  376.3000   128.5082     9.2960     9.0244
  376.4000   129.3049     9.2958     9.0242
  376.5000   130.2883     9.2955     9.0238
  376.6000   131.2717     9.2953     9.0236
  376.7000   131.8770     9.2950     9.0234
  376.8000   132.2376     9.2947     9.0231
  376.9000   132.4848     9.2945     9.0304
  377.0000   132.7322     9.2942     9.0858
  377.1000   133.0187     9.2940     9.0856
  377.2000   133.4334     9.2937     9.0853
  377.3000   133.7766     9.2935     9.0851
  377.4000   133.9316     9.2932     9.0847
  377.5000   133.9688     9.2929     9.0845
  377.6000   134.2380     9.2926     9.0843
  377.7000   134.2396     9.2924     9.0840
  377.8000   134.2414     9.2922     9.0838
  377.9000   134.3528     9.2919     9.0835
  378.0000   134.5477     9.2916     9.0875
  378.1000   134.5495     9.3079     9.1466
  378.2000   134.7922     9.3563     9.1464
  378.3000   135.0395     9.3560     9.1461
  378.4000   135.1601     9.3558     9.1458
  378.5000   135.3710     9.3555     9.1456
  378.6000   136.0839     9.3553     9.1453
  378.7000   136.3761     9.3550     9.1451
  378.8000   136.7794     9.3547     9.1448
  378.9000   137.2722     9.3545     9.1446
  379.0000   137.7650     9.3542     9.1443
  379.1000   138.2579     9.3540     9.1441
  379.2000   138.8056     9.3537     9.1439
  379.3000   139.2433     9.3534     9.1435
  379.4000   139.4142     9.3531     9.1433
  379.5000   139.3122     9.3962     9.1430
  379.6000   139.0684     9.4183     9.1428
  379.7000   138.8146     9.4180     9.1425
  379.8000   138.8163     9.4178     9.1875
  379.9000   138.8182     9.4175     9.2060
  380.0000   138.8200     9.4172     9.2058
  380.1000   138.7578     9.4169     9.2055
  380.2000   138.5073     9.4167     9.2052
  380.3000   138.0183     9.4164     9.2050
  380.4000   137.7242     9.4162     9.2426
  380.5000   137.6188     9.4159     9.2689
  380.6000   137.6206     9.4156     9.2686
  380.7000   137.6224     9.4154     9.2684
  380.8000   137.6245     9.4151     9.2681
  380.9000   137.6260     9.4106     9.2679
  381.0000   137.6278     9.3489     9.2677
  381.1000   137.7279     9.3487     9.2674
  381.2000   137.9340     9.3153     9.2672
  381.3000   137.9360     9.2621     9.2668
  381.4000   137.9377     9.2092     9.2666
  381.5000   138.1120     9.1536     9.2663
  381.6000   138.3592     9.1534     9.2661
  381.7000   138.5482     9.1531     9.2555
  381.8000   138.5513     9.1528     9.2011
  381.9000   138.7986     9.1525     9.2009
  382.0000   139.0459     9.1523     9.2006
  382.1000   139.2932     9.1520     9.1739
  382.2000   139.6158     9.1099     9.1217
  382.3000   140.0720     9.0878     9.0699
  382.4000   140.0741     9.0875     9.0090
  382.5000   140.2824     9.0809     9.0088
  382.6000   140.6794     9.0237     9.0086
  382.7000   141.0795     8.9776     8.9899
  382.8000   141.2914     8.9603     8.9454
  382.9000   141.2934     8.9377     8.9451
  383.0000   141.7429     8.8973     8.9449
  383.1000   142.2356     8.8971     8.9446
  383.2000   142.8380     8.8969     8.9444
  383.3000   143.5236     8.8966     8.9441
  383.4000   144.0255     8.8964     8.9439
  383.5000   144.9913     8.8961     8.9437
  383.6000   145.9753     8.8959     8.9434
  383.7000   146.8324     8.8956     8.9432
  383.8000   147.5706     8.8954     8.9429
  383.9000   148.2832     8.8951     8.9427
  384.0000   148.5752     8.8949     8.9424
  384.1000   149.1802     8.8947     8.9422
  384.2000   149.4863     8.8944     8.9419
  384.3000   149.2271     8.8941     8.9226
  384.4000   148.5819     8.8938     8.8719
  384.5000   148.5842     8.8936     8.8172
  384.6000   148.1495     8.8933     8.7712
  384.7000   147.6602     8.8931     8.7554
  384.8000   147.0669     8.8928     8.7552
  384.9000   146.2855     8.8926     8.7436
  385.0000   145.2648     8.8634     8.6938
  385.1000   144.5606     8.8301     8.6936
  385.2000   144.0041     8.8240     8.6555
  385.3000   143.6361     8.7681     8.6063
  385.4000   143.3284     8.7236     8.5573
  385.5000   142.8461     8.6738     8.5126
  385.6000   142.6026     8.6242     8.5123
  385.7000   142.1637     8.5750     8.4710
  385.8000   141.6745     8.5251     8.4229
  385.9000   141.2664     8.4303     8.3564
  386.0000   140.9741     8.4062     8.2771
  386.1000   140.1412     8.3809     8.2769
  386.2000   139.7174     8.3330     8.2329
  386.3000   139.2283     8.2820     8.2188
  386.4000   138.8377     8.1733     8.1745
  386.5000   138.5528     8.1732     8.0933
  386.6000   138.0322     8.1444     8.0472
  386.7000   138.0339     8.0979     8.0014
  386.8000   138.5539     8.0516     7.9560
  386.9000   139.4075     8.0025     7.8859
  387.0000   140.3912     7.9600     7.8255
  387.1000   141.3753     7.9146     7.8210
  387.2000   142.3589     7.8908     7.7707
  387.3000   143.1530     7.8682     7.6944
  387.4000   143.7584     7.7797     7.6349
  387.5000   144.3267     7.7353     7.6091
  387.6000   145.0652     7.6911     7.6011
  387.7000   145.9192     7.6473     7.5558
  387.8000   146.1276     7.5890     7.4346
  387.9000   146.6747     7.5123     7.3988
  388.0000   147.2276     7.5121     7.3780
  388.1000   147.5108     7.4741     7.3252
  388.2000   148.0461     7.4593     7.2436
  388.3000   148.2719     7.4409     7.1943
  388.4000   148.3522     7.3984     7.1942
  388.5000   148.3540     7.3551     7.1940
  388.6000   148.3558     7.3142     7.1798
  388.7000   148.3577     7.3034     7.1436
  388.8000   148.3595     7.2816     7.1433
  388.9000   148.3613     7.2521     7.1432
  389.0000   148.4902     7.2492     7.1429
  389.1000   148.8075     7.2011     7.1427
  389.2000   149.3004     7.1667     7.1426
  389.3000   149.8817     7.1258     7.1424
  389.4000   150.2856     7.1005     7.1422
  389.5000   150.7784     7.1004     7.1420
  389.6000   151.0971     7.1002     7.1418
  389.7000   151.1592     7.1000     7.1416
  389.8000   151.7061     7.1282     7.1434
  389.9000   152.1445     7.1494     7.1911
  390.0000   152.3147     7.1592     7.1910
  390.1000   152.3165     7.1999     7.1908
  390.2000   152.3183     7.2409     7.1905
  390.3000   152.3202     7.2493     7.1957
  390.4000   152.0864     7.2724     7.2405
  390.5000   151.6641     7.2997     7.3149
  390.6000   151.1749     7.3086     7.3418
  390.7000   150.5573     7.4021     7.3601
  390.8000   149.5560     7.4392     7.3928
  390.9000   147.8386     7.4815     7.3926
  391.0000   146.1213     7.5058     7.4756
  391.1000   144.6822     7.5056     7.5283
  391.2000   143.2942     7.5054     7.5710
  391.3000   141.5781     7.5887     7.6010
  391.4000   139.6323     7.6430     7.6036
  391.5000   138.3572     7.6865     7.6538
  391.6000   137.1974     7.7174     7.6901
  391.7000   136.1185     7.7172     7.7336
  391.8000   134.9763     7.7169     7.7607
  391.9000   134.1950     7.7535     7.7670
  392.0000   133.7369     7.7976     7.8146
  392.1000   133.2476     7.8420     7.8145
  392.2000   132.8742     7.8798     7.8142
  392.3000   132.7479     7.8795     7.8140
  392.4000   132.9954     7.9209     7.8137
  392.5000   133.2425     7.9343     7.8135
  392.6000   133.8700     7.9341     7.8133
  392.7000   134.6083     7.9449     7.8131
  392.8000   135.3463     7.9894     7.8369
  392.9000   136.0658     7.9892     7.8673
  393.0000   136.6357     7.9889     7.8672
  393.1000   136.6372     7.9887     7.8669
