~VERSION INFORMATION
 VERS.                2.0:   CWLS LOG ASCII STANDARD - VERSION 2.0
 WRAP.                 NO:   ONE LINE PER DEPTH STEP
~WELL INFORMATION
#MNEM.UNIT      DATA TYPE    INFORMATION
#----------   ------------   ------------------------------
 STRT.F           19.5000:   START DEPTH
 STOP.F          690.5000:   STOP DEPTH
 STEP.F            0.5000:   STEP LENGTH
 NULL.          -999.2500:   NO VALUE
 COMP. FENIX & SCISSON INC:   COMPANY
 WELL. 37-22 SX 11 WI #3-11:   WELL
 FLD .             TEAPOT:   FIELD
 LOC .      S11 T38N R78W:   LOCATION
 CNTY.            NATRONA:   COUNTY
 STAT.            WYOMING:   STATE
 CTRY. UNITED STATES OF AMERICA:   COUNTRY
 SRVC.      Dresser Atlas:   SERVICE COMPANY
 DATE.        11-AUG-1980:   LOGDATE
 API .       490251084400:   API NUMBER
~CURVE INFORMATION
#MNEM.UNIT       API CODE    CURVE DESCRIPTION
#----------   ------------   ------------------------------
 DEPT.F                  :   
 SPR .MV     07 010 01 00:   SPONTANEOUS POTENTIAL
 SFL .OHMM   07 220 01 00:   SHALLOW FOCUSED LOG RESISTIVITY
 ILD .OHMM   07 120 46 00:   INDUCTION LOG DEEP
 ILM .OHMM   07 120 44 00:   INDUCTION LOG MEDIUM
 GRD .GAPI   45 310 01 00:   GAMMA RAY FROM DENSITY LOG
 CALD.IN     45 280 60 00:   CALIPER
 CORR.G/C3   45 356 01 00:   DENSITY CORRECTION
 RHOB.G/C3   45 350 01 00:   BULK DENSITY
 NPHI.DEC    42 890 12 00:   NEUTRON POROSITY SANDSTONE
 DPHI.DEC    45 890 12 00:   DENSITY POROSITY SANDSTONE
~PARAMETER INFORMATION
#MNEM.UNIT          VALUE    DESCRIPTION
#----------   ------------   ------------------------------
 PD  .                 GL:   PERMANENT DATUM
 EPD .F              5191:   ELEVATION PERMANENT DATUM
 LMF .                 KB:   LOG MEASURED FROM
 DAPD.F                 5:   FEET ABOVE PERMANENT DATUM
 DMF .                 KB:   DRILLING MEASURED FROM
 EKB .F              5196:   KELLING BUSHING
 EGL .F              5191:   GROUND LEVEL
 DATE.            8-11-80:   RUN DATE
 RUN .                  1:   RUN NUMBER
 DD  .F               680:   DEPTH DRILLER
 DL  .F               689:   DEPTH LOGGER
 BLI .F               687:   BOTTOM LOG INTERVAL
 TLI .F                20:   TOP LOG INTERVAL
 CS  .IN            8.625:   CASING SIZE
 BS  .IN            7.875:   BIT SIZE
 BSD .F               680:   BIT SIZE AT DEPTH
 DFT .           CHEM GEL:   DRILLING FLUID TYPE
 DFD .                9.9:   DRILLING FLUID DENSITY
 DFV .                 52:   DRILLING FLUID VISCOSITY
 DFPH.               11.5:   DRILLING FLUID PH
 DFL .                104:   DRILLING FLUID LOSS
 MSS .           FLOWLINE:   MUD SAMPLE SOURCE
 RMS .OHMM             .2:   RESISTIVITY MUD SAMPLE
 MST .F                74:   MUD SAMPLE TEMPERATURE
 RMF .OHMM            .15:   RESISTIVITY MUD FILTRATE SAMPLE
 MFST.F                74:   MUD FILTRATE SAMPLE TEMPERATURE
 RMC .OHMM            .25:   RESISTIVITY MUD CAKE
 MCST.F                74:   MUD CAKE SAMPLE TEMPERATURE
 MFSS.               CALC:   MUD FILTRATE SAMPLE SOURCE
 MCSS.               CALC:   MUD CAKE SAMPLE SOURCE
 TCS .HRS               3:   TIME CURCULATED STOPPED
 LUN .             HL6150:   LOGGING UNIT NUMBER
 LUL .                 FM:   LOGGING UNIT LOCATION
 ENGI.            BRANNEY:   RECORDING ENGINEER
 WITN.           MCINTYRE:   WITNESSED BY
 CLNT.            A2DTECH:   CLIENT CODE
 ORIG.           5" PRINT:   ORIGIN OF DATA
 UWI .       490251084400:   UNIQUE WELL ID
 DICO. A2D Technologies, Inc.:   DIGITIZING COMPANY
~OTHER INFORMATION
~A   DEPT      SPR        SFL        ILD        ILM        GRD       CALD       CORR       RHOB       NPHI       DPHI   
# ...
  187.0000   -58.9950     7.0110     6.1920     5.6800   119.9350     8.0510     0.0240     2.4600     0.2710     0.1350
  187.5000   -58.9400     7.0390     6.2390     5.7250   121.6140     8.0520     0.0360     2.4710     0.2670     0.1250
  188.0000   -58.8840     7.0670     6.2850     5.7700   119.3860     8.0530     0.0390     2.4790     0.2690     0.1300
  188.5000   -58.8280     7.0950     6.3320     5.8150   121.2180     8.0540     0.0200     2.4650     0.2710     0.1280
  189.0000   -58.7730     7.1230     6.3780     5.8600   118.8700     8.0540     0.0240     2.4740     0.2710     0.1230
  189.5000   -58.7180     7.1510     6.4250     5.9050   115.9130     8.0550     0.0280     2.4860     0.2680     0.1190
  190.0000   -58.6620     7.1790     6.4720     5.9490   115.4780     8.0560     0.0320     2.4980     0.2640     0.1140
  190.5000   -58.7320     7.2070     6.5180     5.9940   113.0520     8.0570     0.0340     2.5000     0.2700     0.1160
  191.0000   -58.9470     7.2350     6.5650     6.0270   114.1810     8.0580     0.0330     2.4910     0.2770     0.1190
  191.5000   -59.1660     7.2630     6.6070     5.9690   115.2520     8.0590     0.0250     2.4820     0.2720     0.1210
  192.0000   -59.1720     7.2910     6.5630     5.9240   116.6460     8.0590     0.0160     2.4720     0.2750     0.1260
  192.5000   -58.9800     7.3100     6.5230     5.8790   118.6210     8.0600     0.0080     2.4630     0.2790     0.1310
  193.0000   -58.7930     7.2080     6.4830     5.8350   117.7790     8.0610     0.0060     2.4580     0.2730     0.1370
  193.5000   -58.6320     7.1310     6.4430     5.7900   118.8070     8.0620     0.0100     2.4720     0.2760     0.1280
  194.0000   -58.6320     7.0530     6.4030     5.7450   116.1080     8.0630     0.0180     2.4840     0.2780     0.1190
  194.5000   -58.6680     6.9760     6.3630     5.7000   114.8310     8.0640     0.0250     2.4650     0.2740     0.1310
  195.0000   -58.8910     6.8990     6.3230     5.6550   114.7660     8.0650     0.0330     2.4750     0.2700     0.1250
  195.5000   -59.1140     6.8210     6.2830     5.6100   115.1990     8.0660     0.0400     2.4870     0.2740     0.1180
  196.0000   -59.3410     6.7440     6.2420     5.5540   112.7000     8.0670     0.0470     2.5000     0.2780     0.1110
  196.5000   -59.4980     6.6680     6.1950     5.6010   115.8440     8.0680     0.0550     2.5120     0.2830     0.1050
  197.0000   -59.8840     6.7890     6.2610     5.6880   119.0430     8.0680     0.0620     2.5270     0.2810     0.0980
  197.5000   -59.8820     6.9080     6.3660     5.7750   121.9380     8.0690     0.0520     2.5170     0.2760     0.1050
  198.0000   -59.6730     7.0280     6.4720     5.8620   121.0190     8.0700     0.0380     2.4930     0.2710     0.1140
  198.5000   -59.4630     7.1470     6.5770     5.9490   119.8890     8.0710     0.0240     2.4790     0.2700     0.1250
  199.0000   -59.2530     7.2670     6.6830     6.0360   118.7590     8.0720     0.0240     2.4880     0.2760     0.1210
  199.5000   -59.0420     7.3860     6.7890     6.1230   116.6960     8.0730     0.0290     2.4760     0.2720     0.1270
  200.0000   -58.8310     7.5050     6.8940     6.2100   114.7010     8.0740     0.0330     2.4960     0.2590     0.1240
  200.5000   -58.6200     7.6250     7.0000     6.2970   112.8140     8.0750     0.0380     2.5110     0.2610     0.1190
  201.0000   -58.4300     7.7440     7.1060     6.3840   111.7060     8.0760     0.0310     2.4970     0.2650     0.1140
  201.5000   -58.3890     7.8630     7.1770     6.4710   110.7490     8.0760     0.0220     2.4870     0.2690     0.1180
  202.0000   -58.3500     8.0140     7.0560     6.5460   111.3500     8.0770     0.0120     2.4780     0.2670     0.1220
  202.5000   -58.3110     7.9110     6.9640     6.4280   111.6890     8.0780     0.0030     2.4680     0.2670     0.1270
  203.0000   -58.2710     7.7730     6.8730     6.3020   112.6530     8.0790     0.0010     2.4620     0.2700     0.1310
  203.5000   -58.2320     7.6350     6.7820     6.1760   112.4920     8.0800    -0.0010     2.4690     0.2660     0.1360
  204.0000   -58.1930     7.4970     6.6910     6.0500   110.8950     8.0810     0.0110     2.4760     0.2680     0.1260
  204.5000   -58.1540     7.3580     6.6000     5.9240   112.3870     8.0820     0.0280     2.4720     0.2730     0.1290
  205.0000   -58.1140     7.2200     6.5090     5.7980   115.2920     8.0830     0.0140     2.4580     0.2710     0.1350
  205.5000   -58.0740     7.1110     6.4170     5.6720   114.1440     8.0830     0.0110     2.4480     0.2740     0.1400
  206.0000   -58.0480     7.1670     6.3260     5.5480   115.0940     8.0840     0.0270     2.4560     0.2720     0.1340
  206.5000   -58.3670     7.2140     6.3100     5.5970   116.7910     8.0850     0.0440     2.4700     0.2660     0.1260
  207.0000   -58.7000     7.2600     6.3840     5.6560   117.6780     8.0860     0.0470     2.4840     0.2610     0.1200
  207.5000   -59.0340     7.3070     6.4440     5.7150   116.0770     8.0870     0.0450     2.4970     0.2660     0.1150
  208.0000   -59.3670     7.3530     6.5040     5.7740   114.5640     8.0880     0.0430     2.5050     0.2600     0.1140
  208.5000   -59.3700     7.4000     6.5640     5.8340   114.6980     8.0890     0.0410     2.4960     0.2550     0.1160
  209.0000   -59.2500     7.4460     6.6240     5.8930   113.2710     8.0900     0.0390     2.4880     0.2610     0.1200
  209.5000   -59.1290     7.4930     6.6840     5.9520   111.9320     8.0910     0.0370     2.4790     0.2650     0.1220
  210.0000   -59.0090     7.5390     6.7440     6.0110   113.2430     8.0910     0.0360     2.4750     0.2690     0.1190
  210.5000   -58.8890     7.5860     6.8050     6.0710   112.5460     8.0920     0.0440     2.4960     0.2730     0.1150
  211.0000   -58.7680     7.6320     6.8650     6.1300   111.7300     8.0930     0.0440     2.5070     0.2750     0.1100
  211.5000   -58.6050     7.6790     6.9250     6.1890   110.9330     8.0940     0.0390     2.4940     0.2770     0.1170
  212.0000   -58.4440     7.7250     6.9850     6.2480   110.4600     8.0950     0.0340     2.4740     0.2710     0.1240
  212.5000   -58.4830     7.7720     7.0450     6.3080   110.5330     8.0960     0.0300     2.4830     0.2640     0.1200
  213.0000   -58.5350     7.8190     7.1050     6.3670   111.4550     8.0980     0.0320     2.4930     0.2670     0.1170
  213.5000   -58.5890     7.8650     7.1650     6.4260   113.0850     8.1000     0.0350     2.4750     0.2710     0.1250
  214.0000   -58.6430     7.9120     7.2250     6.4860   113.9500     8.1010     0.0360     2.4820     0.2750     0.1190
  214.5000   -58.6970     7.9580     7.3100     6.4680   113.0680     8.1030     0.0370     2.4980     0.2770     0.1120
  215.0000   -58.7510     8.0050     7.2750     6.4360   113.1120     8.1050     0.0370     2.5030     0.2750     0.1190
  215.5000   -58.8050     8.0510     7.2160     6.4040   111.0070     8.1070     0.0340     2.4870     0.2730     0.1140
  216.0000   -58.8110     8.0880     7.1570     6.3720   112.4400     8.1090     0.0410     2.5120     0.2700     0.1040
  216.5000   -58.7800     7.9810     7.0980     6.3400   113.5230     8.1100     0.0500     2.5400     0.2690     0.0920
  217.0000   -58.7490     7.8930     7.0390     6.3080   109.4390     8.1120     0.0370     2.5250     0.2710     0.1020
  217.5000   -58.7170     7.8060     6.9800     6.2760   106.6960     8.1140     0.0070     2.4960     0.2730     0.1170
  218.0000   -58.6860     7.7180     6.9210     6.2450   107.4050     8.1160    -0.0050     2.4720     0.2730     0.1280
  218.5000   -58.6540     7.6300     6.8620     6.2130   109.5770     8.1170     0.0200     2.4830     0.2710     0.1210
  219.0000   -58.6220     7.5430     6.8030     6.1810   112.1830     8.1190     0.0360     2.4970     0.2690     0.1150
  219.5000   -58.5910     7.4550     6.7440     6.1490   114.7980     8.1210     0.0310     2.4890     0.2710     0.1220
  220.0000   -58.5590     7.4360     6.6680     6.1170   117.3930     8.1230     0.0230     2.4730     0.2730     0.1290
