~VERSION INFORMATION
 VERS.                2.0:   CWLS LOG ASCII STANDARD - VERSION 2.0
 WRAP.                 NO:   ONE LINE PER DEPTH STEP
~WELL INFORMATION
#MNEM.UNIT      DATA TYPE    INFORMATION
#----------   ------------   ------------------------------
 STRT.F           32.0000:   START DEPTH
 STOP.F         1006.0000:   STOP DEPTH
 STEP.F            0.5000:   STEP LENGTH
 NULL.          -999.2500:   NO VALUE
 COMP. FENIX & SCISSON INC:   COMPANY
 WELL.        NPR-3 #54-2:   WELL
 FLD .             TEAPOT:   FIELD
 LOC .       S2 T38N R78W:   LOCATION
 CNTY.            NATRONA:   COUNTY
 STAT.            WYOMING:   STATE
 CTRY. UNITED STATES OF AMERICA:   COUNTRY
 SRVC.              Welex:   SERVICE COMPANY
 DATE.        08-SEP-1977:   LOGDATE
 API .       490251041600:   API NUMBER
~CURVE INFORMATION
#MNEM.UNIT       API CODE    CURVE DESCRIPTION
#----------   ------------   ------------------------------
 DEPT.F                  :   
 CALD.IN     45 280 60 00:   CALIPER FROM DENSITY LOG
 GRD .GAPI   45 310 01 00:   GAMMA RAY FROM DENSITY LOG
 CORR.G/C3   45 356 01 00:   DENSITY CORRECTION
 DPHI.DEC    45 890 12 00:   DENSITY POROSITY SANDSTONE
 RHOB.G/C3   45 350 01 00:   BULK DENSITY
 SPR .MV     07 010 01 00:   SPONTANEOUS POTENTIAL
 ILD .OHMM   07 120 46 00:   INDUCTION LOG DEEP
 ILM .OHMM   07 120 44 00:   INDUCTION LOG MEDIUM
 SGRD.OHMM   07 221 05 00:   SHALLOW SHORT GUARD RESISTIVITY
~PARAMETER INFORMATION
#MNEM.UNIT          VALUE    DESCRIPTION
#----------   ------------   ------------------------------
 PD  .                 GL:   PERMANENT DATUM
 EPD .F              5160:   ELEVATION PERMANENT DATUM
 LMF .                 KB:   LOG MEASURED FROM
 DAPD.F                10:   FEET ABOVE PERMANENT DATUM
 DMF .                 KB:   DRILLING MEASURED FROM
 EKB .F              5170:   KELLING BUSHING
 EGL .F              5160:   GROUND LEVEL
 DATE.        08-SEP-1977:   RUN DATE
 RUN .                  1:   RUN NUMBER
 DD  .F              1000:   DEPTH DRILLER
 DL  .F              1008:   DEPTH LOGGER
 BLI .F              1006:   BOTTOM LOG INTERVAL
 TLI .F                47:   TOP LOG INTERVAL
 CS  .IN            8.625:   CASING SIZE
 BS  .IN             6.75:   BIT SIZE
 BSD .F              1000:   BIT SIZE AT DEPTH
 DFT .            KCL MUD:   DRILLING FLUID TYPE
 DFD .                9.1:   DRILLING FLUID DENSITY
 BHT .F               100:   BOTTOM HOLE TEMPERATURE
 TCS .HRS            0230:   TIME CURCULATED STOPPED
 MRT .F               100:   MAXIMUM RECORDED TEMPERATURE
 ENGI.          D. LAWSON:   RECORDING ENGINEER
 WITN.         HARRINGTON:   WITNESSED BY
 CLNT.            A2DTECH:   CLIENT CODE
 ORIG.           5" PRINT:   ORIGIN OF DATA
 UWI .       490251041600:   UNIQUE WELL ID
 DICO. A2D Technologies, Inc.:   DIGITIZING COMPANY
~OTHER INFORMATION
~A   DEPT     CALD         GRD       CORR      DPHI         RHOB      SPR        ILD        ILM       SGRD   
# ...
  397.0000     7.2124    69.2152     0.0104     0.1824     2.3650   -36.1296     9.5031    10.6807    12.4372
  397.5000     7.2149    74.0224     0.0076     0.1824     2.3651   -35.8128    10.0828    10.8917    13.0639
  398.0000     7.2175    76.8805     0.0077     0.1821     2.3652   -35.6807    10.4549    11.1983    13.5335
  398.5000     7.2200    68.9882     0.0094     0.1818     2.3661   -35.7469    10.6050    11.2823    12.8130
  399.0000     7.2225    63.4816     0.0095     0.1808     2.3684   -35.6070    10.6094    11.2091    13.1820
  399.5000     7.2251    65.1499     0.0096     0.1790     2.3737   -35.4411    10.3240    11.2947    13.3366
  400.0000     7.2120    69.0583     0.0113     0.1757     2.3775   -35.4246    10.4722    11.5380    13.4184
  400.5000     7.2140    66.6831     0.0114     0.1719     2.3799   -35.2587    10.7726    11.7053    13.5002
  401.0000     7.2156    65.9522     0.0131     0.1682     2.3896   -35.0928    11.0795    11.8750    13.5885
  401.5000     7.2172    65.2122     0.0162     0.1627     2.3971   -35.0763    11.3963    11.8815    13.6915
  402.0000     7.2191    66.9771     0.0194     0.1589     2.4016   -35.0599    11.6412    11.9707    13.6033
  402.5000     7.2207    70.6953     0.0255     0.1570     2.4054   -35.0434    11.8040    11.9773    12.1841
  403.0000     7.2224    71.8655     0.0302     0.1552     2.4077   -34.7280    11.6338    12.0655    14.5992
  403.5000     7.2087    71.5233     0.0318     0.1546     2.4063   -34.5621    11.1561    11.9078    16.0955
  404.0000     7.2107    70.7077     0.0319     0.1603     2.3995   -34.0972    10.5722    11.8323    16.3276
  404.5000     7.2124    73.0239     0.0305     0.1665     2.3897   -33.7818    10.5932    11.7555    15.5671
  405.0000     7.1986    73.5865     0.0307     0.1692     2.3846   -33.3169    10.8961    11.7637    15.0443
  405.5000     7.2007    71.2190     0.0308     0.1686     2.3952   -32.8520    11.2076    11.9342    14.9498
  406.0000     7.1874    66.7540     0.0295     0.1703     2.3794   -32.3871    11.5280    12.1913    14.8558
  406.5000     7.1890    68.8661     0.0296     0.1715     2.3780   -31.9222    11.9399    12.3680    15.0747
  407.0000     7.1907    72.0244     0.0282     0.1712     2.3795   -31.3079    12.3665    12.6344    15.2945
  407.5000     7.1624    73.2347     0.0268     0.1693     2.3842   -30.8430    12.6158    12.8176    15.4104
  408.0000     7.1487    72.0631     0.0270     0.1666     2.3910   -30.6770    12.7087    13.0034    15.7437
  408.5000     7.1204    70.1392     0.0241     0.1654     2.3924   -30.5111    12.8022    13.1919    15.9732
  409.0000     7.1071    67.4680     0.0212     0.1675     2.3878   -30.3452    12.7192    13.1992    16.3186
  409.5000     7.0938    70.9253     0.0198     0.1701     2.3819   -30.1792    12.6354    12.9334    16.4422
  410.0000     7.0959    71.8415     0.0185     0.1707     2.3790   -30.0133    12.4669    13.1227    16.5642
  410.5000     7.0975    71.5618     0.0171     0.1680     2.3889   -29.6979    12.4734    13.4053    16.2358
  411.0000     7.0992    70.0864     0.0173     0.1656     2.3912   -29.3825    13.0075    13.6941    16.0225
  411.5000     7.0855    65.1730     0.0189     0.1632     2.3942   -29.0671    13.5646    14.0862    14.0562
  412.0000     7.0427    62.8007     0.0205     0.1607     2.3988   -28.9011    14.3426    14.5902    16.7235
  412.5000     7.0289    62.5163     0.0222     0.1586     2.4048   -28.4363    14.9568    15.1122    16.2767
  413.0000     7.0156    66.5763     0.0253     0.1553     2.4123   -27.9714    15.3830    15.5449    15.6240
  413.5000     7.0023    70.0336     0.0285     0.1523     2.4098   -27.5065    15.3893    15.6615    15.0853
  414.0000     7.0044    71.6972     0.0316     0.1630     2.3902   -27.1911    15.3957    15.9989    16.7652
  414.5000     7.0060    71.5671     0.0348     0.1708     2.3778   -26.7262    15.1888    16.3435    20.0851
  415.0000     7.0077    70.5400     0.0394     0.1728     2.3780   -26.2613    14.7818    16.1278    26.6964
  415.5000     6.9939    68.3172     0.0426     0.1686     2.3810   -25.9459    14.4841    15.6962    29.6371
  416.0000     6.9806    66.6923     0.0458     0.1656     2.3872   -25.7800    13.9973    14.8591    24.4284
  416.5000     6.9379    66.4079     0.0503     0.1620     2.3923   -25.9171    13.7154    14.2626    16.3580
  417.0000     6.8942    68.3752     0.0505     0.1635     2.3930   -26.1996    13.4392    13.7852    14.8557
  417.5000     6.8514    68.9925     0.0476     0.1670     2.3899   -26.6274    13.0777    13.6033    13.8704
  418.0000     6.8078    69.0118     0.0459     0.1715     2.3847   -27.0594    12.6382    13.4237    13.4999
  418.5000     6.7650    68.7322     0.0418     0.1708     2.3811   -27.6409    12.2982    13.2464    13.3223
  419.0000     6.7513    68.0042     0.0390     0.1681     2.3812   -28.2223    11.8849    13.0715    13.0567
  419.5000     6.7534    67.2761     0.0376     0.1690     2.3812   -28.9533    11.6456    12.8991    12.8851
  420.0000     6.7397    66.9917     0.0333     0.1724     2.3788   -29.6842    11.2542    12.9063    13.1638
  420.5000     6.7417    69.1085     0.0289     0.1759     2.3714   -30.4151    10.7265    12.9134    13.3557
  421.0000     6.7434    70.4731     0.0245     0.1776     2.3701   -31.4450    10.5823    13.0103    13.7393
  421.5000     6.7450    71.2398     0.0231     0.1770     2.3740   -32.0264    11.0367    13.1079    14.2323
  422.0000     6.7466    69.9139     0.0233     0.1744     2.3737   -32.9068    11.3511    13.2062    14.2450
  422.5000     6.7483    67.5416     0.0189     0.1766     2.3685   -34.0862    11.5928    13.3052    13.5756
  423.0000     6.7649    65.9167     0.0175     0.1802     2.3658   -35.4150    11.2822    13.4050    13.9657
  423.5000     6.7665    64.8897     0.0162     0.1789     2.3705   -36.4449    11.0549    13.5056    14.4667
  424.0000     6.7831    67.3006     0.0148     0.1747     2.3758   -37.1758    10.6834    13.6069    14.9857
  424.5000     6.7997    71.8043     0.0134     0.1714     2.3794   -37.7573    10.6878    13.4273    14.7888
  425.0000     6.8013    72.2720     0.0120     0.1705     2.3810   -38.1893    10.6922    13.2500    14.3937
  425.5000     6.8179    70.1838     0.0122     0.1669     2.3888   -38.6212    10.6967    12.8954    13.6252
  426.0000     6.8495    71.7611     0.0108     0.1618     2.3996   -38.9037    10.5529    12.6375    12.8076
  426.5000     6.8810    74.7486     0.0109     0.1525     2.4139   -39.1904    10.2701    12.3830    11.9614
  427.0000     6.9125    77.3063     0.0111     0.1420     2.4259   -39.7677    10.1332    11.8854    13.6648
  427.5000     6.9291    78.3930     0.0112     0.1384     2.4353   -40.7976     9.8606    11.4847    14.5389
  428.0000     6.9457    80.5499     0.0114     0.1372     2.4404   -41.9769     9.6620    10.8860    13.6615
  428.5000     6.9474    82.4648     0.0115     0.1354     2.4426   -43.1563     9.4021    10.2873    13.6775
  429.0000     6.9490    83.3871     0.0116     0.1338     2.4417   -44.3357     9.2118     9.6885    12.8450
  429.5000     6.9506    85.7893     0.0118     0.1359     2.4388   -45.2161     8.6601     9.0898    11.7400
  430.0000     6.9672    90.5569     0.0119     0.1383     2.4337   -45.9470     7.9733     8.4911    10.3688
  430.5000     6.9838    92.8184     0.0120     0.1424     2.4322   -46.0841     7.4433     7.8924     9.8290
  431.0000     7.0004    92.5388     0.0122     0.1409     2.4368   -46.2171     6.8530     7.2937     9.5000
  431.5000     7.0170    90.9139     0.0123     0.1373     2.4413   -46.1966     6.3534     6.8126     9.1132
  432.0000     7.0186    86.1500     0.0124     0.1319     2.4459   -46.3337     6.0975     6.5428     8.5616
  432.5000     7.0352    84.0718     0.0126     0.1250     2.4504   -46.4667     5.9747     6.4605     8.1716
  433.0000     7.0369    88.2813     0.0127     0.1190     2.4527   -46.5997     5.8544     6.5591     8.2392
