~VERSION INFORMATION
 VERS.                2.0:   CWLS LOG ASCII STANDARD - VERSION 2.0
 WRAP.                 NO:   ONE LINE PER DEPTH STEP
~WELL INFORMATION
#MNEM.UNIT      DATA TYPE    INFORMATION
#----------   ------------   ------------------------------
 STRT.F            0.0000:   START DEPTH
 STOP.F          774.0000:   STOP DEPTH
 STEP.F            0.5000:   STEP LENGTH
 NULL.          -999.2500:   NO VALUE
 COMP. LAWRENCE/ALLISON INC:   COMPANY
 WELL. SX 11 WP #37-53-11:   WELL
 FLD .             TEAPOT:   FIELD
 LOC .      S11 T38N R78W:   LOCATION
 CNTY.            NATRONA:   COUNTY
 STAT.            WYOMING:   STATE
 CTRY. UNITED STATES OF AMERICA:   COUNTRY
 SRVC.            Unknown:   SERVICE COMPANY
 DATE.        19-SEP-1984:   LOGDATE
 API .       490251098900:   API NUMBER
~CURVE INFORMATION
#MNEM.UNIT       API CODE    CURVE DESCRIPTION
#----------   ------------   ------------------------------
 DEPT.F                  :   
 GRR .GAPI   07 310 01 00:   GAMMA RAY FROM RES. LOG.
 SPR .MV     07 010 01 00:   SPONTANEOUS POTENTIAL
 RFOC.OHMM   07 220 04 00:   RESISTIVITY FOCUSED LOG
 ILD .OHMM   07 120 46 00:   INDUCTION LOG DEEP RESISTIVITY
 RILM.OHMM   07 120 44 00:   INDUCTION LOG MEDIUM RESISTIVITY
 CALD.IN     45 280 60 00:   CALIPER
 DEN .G/C3   45 350 01 00:   COMPENSATED BULK DENSTIY
 CORR.G/C3   45 356 01 00:   DENSITY CORRECTION
 PORD.DEC    45 890 12 00:   POROSITY DENSITY SANDSTONE
 AC  .US/F   60 520 00 00:   ACOUSTIC SONIC
 CNC .DEC    42 890 03 00:   NEUTRON POROSITY SANDSTONE
~PARAMETER INFORMATION
#MNEM.UNIT          VALUE    DESCRIPTION
#----------   ------------   ------------------------------
 PD  .                 GL:   PERMANENT DATUM
 EPD .F              5153:   ELEVATION PERMANENT DATUM
 LMF .                 GL:   LOG MEASURED FROM
 DMF .                 GL:   DRILLING MEASURED FROM
 EGL .F              5153:   GROUND LEVEL
 DATE.       19-SEPT-1984:   RUN DATE
 RUN .                  1:   RUN NUMBER
 DD  .F               785:   DEPTH DRILLER
 DL  .F               774:   DEPTH LOGGER
 BLI .F               772:   BOTTOM LOG INTERVAL
 CS  .IN            8.625:   CASING SIZE
 CBD .F                42:   CASING BOTTOM DRILLER
 CBL .F                41:   CASING BOTTOM LOGGER
 BS  .IN            7.875:   BIT SIZE
 BSD .F               785:   BIT SIZE AT DEPTH
 DFT .          KCL WATER:   DRILLING FLUID TYPE
 MSS .           FLOWLINE:   MUD SAMPLE SOURCE
 RMS .OHMM            .27:   RESISTIVITY MUD SAMPLE
 MST .F                82:   MUD SAMPLE TEMPERATURE
 TCS .HRS               2:   TIME CURCULATED STOPPED
 MRT .F               100:   MAXIMUM RECORDED TEMPERATURE
 LUN .               6274:   LOGGING UNIT NUMBER
 LUL .               GLTE:   LOGGING UNIT LOCATION
 ENGI.         HINDS/MACK:   RECORDING ENGINEER
 WITN.             STRONG:   WITNESSED BY
 CLNT.            A2DTECH:   CLIENT CODE
 ORIG.   1", 2", 5" PRINT:   ORIGIN OF DATA
 UWI .       490251098900:   UNIQUE WELL ID
 DICO. A2D Technologies, Inc.:   DIGITIZING COMPANY
~OTHER INFORMATION
~A    DEPT      GRR       SPR       RFOC        ILD       RILM       CALD        DEN       CORR       PORD         AC        CNC   
# ...
  305.0000   110.4583   -35.8688     8.8471     7.7259     9.1948     8.1110     2.4719     0.0020     0.1234   101.4271     0.2824
  305.5000   110.6941   -36.0290     9.0633     7.8645     9.3185     8.1125     2.4710     0.0159     0.1237   101.2137     0.2756
  306.0000   110.7093   -36.1892     9.2442     8.0057     9.4439     8.1140     2.4701     0.0181     0.1241   100.9841     0.2739
  306.5000   110.4012   -36.3496     9.4288     8.1493     9.5201     8.1155     2.4693     0.0083     0.1245   101.1452     0.2413
  307.0000   108.8285   -36.5096     9.6170     8.2974     9.3534     8.1161     2.4687     0.0062     0.1241   101.3195     0.3009
  307.5000   107.0444   -36.6699     9.6962     8.2754     9.2360     8.1161     2.4727     0.0178     0.1221   101.4938     0.3109
  308.0000   105.3538   -36.6592     9.6422     8.2476     9.1201     8.1161     2.4775     0.0292     0.1191   101.6799     0.3021
  308.5000   105.9517   -36.4776     9.6033     8.2199     9.0937     8.1161     2.4748     0.0270     0.1210   101.7625     0.2838
  309.0000   108.2716   -36.2966     9.5646     8.1923     9.0937     8.1161     2.4642     0.0098     0.1267   101.8511     0.2742
  309.5000   110.6901   -36.1151     9.5260     8.1647     9.0938     8.1161     2.4536    -0.0075     0.1324   101.9395     0.2722
  310.0000   112.7151   -35.9338     9.4876     8.1373     9.0937     8.1161     2.4539    -0.0135     0.1347   102.0281     0.2342
  310.5000   111.9508   -35.7525     9.4493     8.1099     9.0936     8.1161     2.4646    -0.0046     0.1266   102.1166     0.2639
  311.0000   109.4747   -35.5708     9.4112     8.0827     9.0938     8.1161     2.4747     0.0047     0.1210   102.2051     0.2689
  311.5000   107.0899   -35.3822     9.3733     8.0555     9.0481     8.1161     2.4786     0.0108     0.1191   102.2936     0.3221
  312.0000   108.6156   -35.4523     9.3436     8.0284     8.9606     8.1161     2.4745     0.0126     0.1212   102.3821     0.3138
  312.5000   112.9190   -35.5275     9.3110     8.0014     8.8732     8.1161     2.4703     0.0145     0.1247   102.4752     0.2986
  313.0000   113.2458   -35.4738     9.2785     7.9077     8.7356     8.1161     2.4695     0.0154     0.1249   102.6472     0.2989
  313.5000   110.6819   -35.4231     9.2462     7.8077     8.5782     8.1161     2.4691     0.0128     0.1250   102.8283     0.2863
  314.0000   107.4535   -35.3694     9.2139     7.7089     8.4236     8.1161     2.4689     0.0105     0.1255   103.0732     0.2827
  314.5000   105.6154   -35.6603     9.1817     7.6114     8.3421     8.1161     2.4647     0.0013     0.1283   103.3388     0.2878
  315.0000   106.1739   -36.2498     9.0445     7.5152     8.2755     8.1161     2.4563    -0.0087     0.1329   103.6044     0.2920
  315.5000   107.3351   -36.8380     8.8937     7.4201     8.2094     8.1161     2.4477    -0.0187     0.1378   104.0145     0.2962
  316.0000   108.7280   -37.4310     8.7450     7.3263     8.1467     8.1161     2.4391    -0.0261     0.1427   104.4741     0.3006
  316.5000   110.1074   -37.6898     8.5985     7.2336     8.1597     8.1161     2.4327    -0.0255     0.1459   104.8207     0.2944
  317.0000   110.9687   -37.6405     8.4555     7.1421     8.1751     8.1161     2.4397    -0.0162     0.1436   104.9881     0.2839
  317.5000   109.9137   -37.5863     8.2974     7.0359     8.1905     8.1161     2.4482    -0.0045     0.1396   105.1590     0.2752
  318.0000   108.7316   -37.5311     8.4278     7.0835     8.2057     8.1161     2.4484     0.0071     0.1373   105.0596     0.2813
  318.5000   108.6249   -37.4765     8.5900     7.1419     8.2217     8.1161     2.4487     0.0189     0.1387   103.6680     0.2859
  319.0000   108.8260   -37.4218     8.7554     7.2013     8.3477     8.1161     2.4532     0.0309     0.1359   101.4366     0.2799
  319.5000   107.5334   -37.3671     8.9239     7.2610     8.4752     8.1161     2.4655     0.0355     0.1295    99.0954     0.2747
  320.0000   106.3743   -37.3124     9.0956     7.3392     8.6062     8.1161     2.4802     0.0234     0.1205    97.5050     0.2747
  320.5000   106.9891   -37.2578     9.2706     7.4472     8.6761     8.1161     2.4950     0.0116     0.1087    98.5174     0.2853
  321.0000   107.7805   -37.2029     9.3472     7.5568     8.7661     8.1161     2.5045     0.0098     0.1038   100.2883     0.2887
  321.5000   107.0180   -37.1490     9.1706     7.6681     8.7923     8.1161     2.5081     0.0076     0.1003   101.6359     0.2920
  322.0000   106.3970   -37.0524     9.0091     7.7809     8.8188     8.1161     2.4930     0.0054     0.1050   102.3050     0.2953
  322.5000   107.5477   -36.9351     9.0113     7.8955     8.8469     8.1161     2.4781     0.0010     0.1167   101.8656     0.2987
  323.0000   108.7421   -36.8171     9.1318     7.9327     8.8908     8.1161     2.4661    -0.0072     0.1245   101.4261     0.3030
  323.5000   109.9373   -36.6986     9.2625     7.9455     8.9376     8.1161     2.4608    -0.0132     0.1289   100.9841     0.3022
  324.0000   111.0290   -36.5824     9.3950     7.9584     8.9846     8.1161     2.4599    -0.0075     0.1310   101.0291     0.2940
  324.5000   110.2766   -36.3330     9.4333     7.9714     9.0318     8.1161     2.4643    -0.0052     0.1285   101.0744     0.2927
  325.0000   108.5941   -36.0059     9.4333     7.9843     9.0944     8.1161     2.4685    -0.0086     0.1259   101.1197     0.2914
  325.5000   108.1447   -35.6727     9.4333     7.9978     9.0685     8.1158     2.4674    -0.0073     0.1259   101.1649     0.2871
  326.0000   109.6025   -35.5974     9.3836     7.9756     9.0189     8.1148     2.4672     0.0036     0.1269   101.3930     0.2851
  326.5000   112.0190   -35.8353     9.2826     7.9497     8.9688     8.1138     2.4810     0.0221     0.1216   101.7408     0.2839
  327.0000   112.7757   -36.1073     9.1826     7.9240     8.9192     8.1127     2.4952     0.0408     0.1125   101.8982     0.2779
  327.5000   114.4298   -36.3661     9.0838     7.8983     8.8699     8.1117     2.4965     0.0417     0.1072   101.9259     0.2693
  328.0000   116.2768   -36.5164     9.0108     7.8727     8.8208     8.1106     2.4914     0.0392     0.1076   101.9554     0.2656
  328.5000   115.5246   -36.4551     9.1076     7.8472     8.7720     8.1096     2.4867     0.0367     0.1136   102.0111     0.2789
  329.0000   113.5646   -36.3970     9.1855     7.8217     8.7235     8.1086     2.4855     0.0342     0.1145   102.1716     0.2898
  329.5000   111.8010   -36.3358     9.2619     7.7964     8.6864     8.1075     2.4844     0.0315     0.1154   102.3309     0.2950
  330.0000   110.1837   -36.4831     9.2056     7.7711     8.7135     8.1065     2.4820     0.0234     0.1179   102.4907     0.2806
  330.5000   108.5539   -36.6801     9.1512     7.7459     8.7400     8.1054     2.4748     0.0154     0.1207   102.6495     0.2724
  331.0000   107.0450   -36.8890     9.0971     7.7108     8.7665     8.1044     2.4687     0.0073     0.1235   102.7400     0.2816
  331.5000   106.7508   -36.7097     9.0434     7.7636     8.7931     8.1033     2.4648     0.0000     0.1263   102.5722     0.2873
  332.0000   107.1031   -36.4090     9.0108     7.8524     8.8196     8.1023     2.4662     0.0041     0.1274   102.2077     0.2902
  332.5000   104.8700   -36.1053     9.1182     7.9420     8.8471     8.1013     2.4673     0.0090     0.1263   101.4372     0.2930
  333.0000   101.4973   -35.8023     9.1963     8.0327     8.9358     8.1002     2.4583     0.0138     0.1291   100.6747     0.2930
  333.5000    97.8856   -35.4995     9.3000     8.1245     9.0511     8.0992     2.4560     0.0185     0.1317   100.0456     0.2848
  334.0000    97.4537   -35.1967     9.5334     8.2858     9.1679     8.0981     2.4653     0.0204     0.1309    99.8727     0.2768
  334.5000    98.6527   -34.8938     9.7728     8.4720     9.2862     8.0971     2.4750     0.0150     0.1207    99.6969     0.2676
  335.0000    99.3151   -34.5910    10.0181     8.6624     9.4060     8.0964     2.4700     0.0098     0.1233    99.5211     0.2732
