~VERSION INFORMATION
 VERS.                2.0:   CWLS LOG ASCII STANDARD - VERSION 2.0
 WRAP.                 NO:   ONE LINE PER DEPTH STEP
~WELL INFORMATION
#MNEM.UNIT      DATA TYPE    INFORMATION
#----------   ------------   ------------------------------
 STRT.F           21.0000:   START DEPTH
 STOP.F          484.0000:   STOP DEPTH
 STEP.F            0.5000:   STEP LENGTH
 NULL.          -999.2500:   NO VALUE
 COMP.       F D SERV INC:   COMPANY
 WELL. N P R 3 SX-3 #78-3:   WELL
 FLD .             TEAPOT:   FIELD
 LOC .       S3 T38N R78W:   LOCATION
 CNTY.            NATRONA:   COUNTY
 STAT.            WYOMING:   STATE
 CTRY. UNITED STATES OF AMERICA:   COUNTRY
 SRVC.     Atlas Wireline:   SERVICE COMPANY
 DATE.        04-DEC-1992:   LOGDATE
 API .       490252254500:   API NUMBER
~CURVE INFORMATION
#MNEM.UNIT       API CODE    CURVE DESCRIPTION
#----------   ------------   ------------------------------
 DEPT.F                  :   
 DPHI.DEC    45 890 12 00:   DENSITY POROSITY SANDSTONE
 NPHI.DEC    42 890 03 00:   NEUTRON POROSITY SANDSTONE
 C13 .IN     45 280 13 00:   CALIPER 1 - 3
 GRD .GAPI   45 310 01 00:   GAMMA RAY FROM DENSITY LOG
 ZCOR.G/C3   45 356 01 00:   DENSITY CORRECTION
 ZDEN.G/C3   45 350 01 00:   BULK DENSITY
 RILD.OHMM   07 120 46 00:   INDUCTION LOG DEEP RESISTIVITY
 RILM.OHMM   07 120 44 00:   INDUCTION LOG MEDIUM RESISTIVITY
~PARAMETER INFORMATION
#MNEM.UNIT          VALUE    DESCRIPTION
#----------   ------------   ------------------------------
 PD  .                 GL:   PERMANENT DATUM
 EPD .F              5120:   ELEVATION PERMANENT DATUM
 LMF .                 KB:   LOG MEASURED FROM
 DAPD.F                10:   FEET ABOVE PERMANENT DATUM
 DMF .                 KB:   DRILLING MEASURED FROM
 EKB .F              5130:   KELLING BUSHING
 EDF .F              5129:   DRILLING FLOOR
 EGL .F              5120:   GROUND LEVEL
 DATE.        04-DEC-1992:   RUN DATE
 RUN .                  1:   RUN NUMBER
 DD  .F               488:   DEPTH DRILLER
 DL  .F               488:   DEPTH LOGGER
 BLI .F               479:   BOTTOM LOG INTERVAL
 CS  .IN            8.625:   CASING SIZE
 CBD .F                50:   CASING BOTTOM DRILLER
 CBL .F                54:   CASING BOTTOM LOGGER
 BS  .IN            7.875:   BIT SIZE
 BSD .F               488:   BIT SIZE AT DEPTH
 DFT .           AIR FOAM:   DRILLING FLUID TYPE
 MRT .F                66:   MAXIMUM RECORDED TEMPERATURE
 LUN .           HL- 6274:   LOGGING UNIT NUMBER
 LUL .             CASPER:   LOGGING UNIT LOCATION
 ENGI.             RAUTIO:   RECORDING ENGINEER
 WITN.        GARY STRONG:   WITNESSED BY
 CLNT.            A2DTECH:   CLIENT CODE
 ORIG.           5" PRINT:   ORIGIN OF DATA
 UWI .       490252254500:   UNIQUE WELL ID
 DICO. A2D Technologies, Inc.:   DIGITIZING COMPANY
~OTHER INFORMATION
~A   DEPT     DPHI       NPHI        C13        GRD       ZCOR       ZDEN       RILD       RILM   
# ...
  223.5000     0.1156     0.3504     8.1575   168.5021     0.0229     2.4603     5.8399     5.9593
  224.0000     0.1177     0.3517     8.1566   169.4067     0.0047     2.4564     5.5626     5.7142
  224.5000     0.1189     0.3526     8.1557   169.7039    -0.0030     2.4550     5.3355     5.4031
  225.0000     0.1196     0.3535     8.1548   170.6056     0.0076     2.4549     5.0467     5.0379
  225.5000     0.1241     0.3563     8.1537   171.8118     0.0166     2.4488     4.6748     4.5358
  226.0000     0.1414     0.3702     8.1528   172.7152     0.0165     2.4268     4.3910     4.2589
  226.5000     0.1608     0.3851     8.1519   173.6182    -0.0002     2.3965     4.2117     4.1704
  227.0000     0.1754     0.3875     8.1510   174.8244     0.0212     2.3631     4.0680     4.1124
  227.5000     0.1778     0.3779     8.1502   173.6049     0.0359     2.3584     4.0121     4.0838
  228.0000     0.1633     0.3706     8.1493   170.8717     0.0298     2.3820     4.0408     4.0838
  228.5000     0.1548     0.3658     8.1484   167.5325     0.0161     2.3964     4.0981     4.1124
  229.0000     0.1518     0.3597     8.1475   164.4963     0.0206     2.4001     4.1853     4.2015
  229.5000     0.1467     0.3552     8.1466   164.1873     0.0371     2.4053     4.3647     4.4146
  230.0000     0.1367     0.3509     8.1455   166.6057     0.0219     2.4189     4.6480     4.7303
  230.5000     0.1282     0.3513     8.1446   170.2361     0.0082     2.4356     5.0263     5.0027
  231.0000     0.1222     0.3501     8.1437   171.7454     0.0172     2.4454     5.4302     5.2908
  231.5000     0.1161     0.3463     8.1428   172.6486     0.0416     2.4590     5.8124     5.5565
  232.0000     0.1098     0.3380     8.1419   170.0242     0.0584     2.4748     6.0616     5.8355
  232.5000     0.1040     0.3313     8.1411   165.6656     0.0669     2.4824     6.2775     6.0433
  233.0000     0.1007     0.3283     8.1402   164.1445     0.0638     2.4869     6.5011     6.2585
  233.5000     0.0982     0.3295     8.1393   162.9265     0.0517     2.4892     6.6394     6.5269
  234.0000     0.0951     0.3304     8.1384   160.7994     0.0334     2.4944     6.7335     6.7594
  234.5000     0.0898     0.3314     8.1355   161.0965     0.0273     2.5004     6.7345     7.0001
  235.0000     0.0871     0.3320     8.1212   163.2118     0.0242     2.5064     6.6884     7.0988
  235.5000     0.0880     0.3335     8.1203   165.3271     0.0241     2.5079     6.5966     7.0492
  236.0000     0.0950     0.3351     8.1195   167.7536     0.0241     2.4889     6.5978     6.9028
  236.5000     0.1041     0.3357     8.1186   169.5939     0.0225     2.4821     6.5987     6.8016
  237.0000     0.1102     0.3369     8.1177   168.0352     0.0194     2.4783     6.5996     6.6954
  237.5000     0.1163     0.3384     8.1168   164.6960     0.0163     2.4646     6.5091     6.4814
  238.0000     0.1221     0.3391     8.1159   162.8719     0.0132     2.4499     6.4198     6.3467
  238.5000     0.1321     0.3350     8.1150   162.2614     0.0176     2.4289     6.3761     6.2149
  239.0000     0.1366     0.3302     8.1293   164.3752     0.0312     2.4251     6.2452     6.0433
  239.5000     0.1318     0.3318     8.1259   168.9148     0.0462     2.4349     5.9901     5.9177
  240.0000     0.1215     0.3364     8.0970   172.8483     0.0355     2.4515     5.7455     5.6744
  240.5000     0.1158     0.3416     8.0657   174.9636     0.0203     2.4644     5.3968     5.2539
  241.0000     0.1128     0.3458     8.0497   175.8668     0.0188     2.4636     4.9643     4.8307
  241.5000     0.1186     0.3516     8.0336   176.1639     0.0126     2.4544     4.6630     4.4415
  242.0000     0.1363     0.3622     8.0327   176.4610    -0.0011     2.4324     4.5039     4.1704
  242.5000     0.1594     0.3780     8.0472   176.7582     0.0110     2.3794     4.5360     4.1997
  243.0000     0.1810     0.3665     8.0613   175.2356     0.0366     2.3547     4.6325     4.4428
  243.5000     0.1759     0.3544     8.0907   170.0782     0.0532     2.3709     4.7309     4.7696
  244.0000     0.1601     0.3356     8.0898   166.4359     0.0395     2.4118     4.6988     5.1204
  244.5000     0.1341     0.3308     8.0584   166.3778     0.0046     2.4459     4.9003     5.4792
  245.0000     0.1141     0.3311     8.0423   167.6363     0.0029     2.4678     5.2549     5.8355
  245.5000     0.1080     0.3326     8.0414   166.0909     0.0153     2.4784     5.6038     6.1715
  246.0000     0.1035     0.3354     8.0254   163.3818     0.0288     2.4806     5.9703     6.4814
  246.5000     0.1032     0.3386     8.0245   165.4959     0.0270     2.4806     6.3462     6.7122
  247.0000     0.1038     0.3421     8.0236   169.4294     0.0224     2.4798     6.5265     6.8546
  247.5000     0.1033     0.3415     8.0227   172.4538     0.0208     2.4805     6.6654     6.9513
  248.0000     0.1024     0.3357     8.0370   174.5691     0.0253     2.4842     6.7129     7.0001
  248.5000     0.1039     0.3354     8.0361   173.9571     0.0237     2.4804     6.8066     7.0492
  249.0000     0.1072     0.3361     8.0352   172.1330     0.0175     2.4728     6.8042     7.0988
  249.5000     0.1115     0.3361     8.0341   171.5211     0.0084     2.4659     6.8496     7.0492
  250.0000     0.1127     0.3343     8.0181   173.6364     0.0008     2.4674     6.8472     7.0001
  250.5000     0.1088     0.3331     8.0478   169.6866     0.0007     2.4712     6.8449     7.1406
  251.0000     0.1055     0.3325     8.0774   167.2535     0.0006     2.4772     6.8905     7.1458
  251.5000     0.1025     0.3344     8.0918   168.7598     0.0081     2.4825     6.8881     7.0941
  252.0000     0.1001     0.3375     8.0910   171.1751     0.0111     2.4863     6.8857     6.9940
  252.5000     0.0992     0.3404     8.1055   172.9844     0.0110     2.4884     6.8834     6.9438
  253.0000     0.1007     0.3407     8.1046   173.8849     0.0125     2.4861     6.8758     6.8940
  253.5000     0.1047     0.3410     8.1192   173.8758     0.0140     2.4800     6.8307     6.7967
  254.0000     0.1080     0.3417     8.1183   173.5636     0.0018     2.4747     6.7804     6.7953
  254.5000     0.1086     0.3420     8.1175   174.1588     0.0002     2.4739     6.7780     6.8897
  255.0000     0.1049     0.3417     8.1168   176.5742     0.0123     2.4769     6.8238     6.9853
  255.5000     0.0919     0.3405     8.1161   176.2623     0.0243     2.4958     6.8686     7.0330
  256.0000     0.0832     0.3396     8.1001   169.5868     0.0212     2.5109     6.9629     7.0809
  256.5000     0.0926     0.3424     8.0842   166.8528    -0.0048     2.5131     7.0098     7.0300
  257.0000     0.1102     0.3430     8.0859   171.6902    -0.0077     2.4745     6.9097     6.9309
  257.5000     0.1269     0.3393     8.0979   174.7116     0.0256     2.4449     6.7170     6.7342
  258.0000     0.1318     0.3388     8.1124   174.7394     0.0542     2.4335     6.3057     6.3522
  258.5000     0.1290     0.3518     8.1268   174.0808     0.0345     2.4365     5.8375     5.7780
  259.0000     0.1342     0.3627     8.1259   175.0101    -0.0019     2.4402     5.5571     5.0539
  259.5000     0.1536     0.3819     8.1251   176.3970    -0.0170     2.4137     5.3623     4.8791
  260.0000     0.1876     0.3881     8.1244   182.5438     0.0116     2.3598     5.2467     4.8781
  260.5000     0.1897     0.3783     8.1085   188.8986     0.0297     2.3394     5.1405     4.9116
  261.0000     0.1761     0.3713     8.0774   189.8010     0.0327     2.3542     5.0322     5.1931
  261.5000     0.1522     0.3659     8.0463   185.5475     0.0186     2.4037     4.9955     5.4527
  262.0000     0.1285     0.3616     7.9999   180.6901     0.0084     2.4415     4.9245     5.4901
  262.5000     0.1243     0.3595     7.9991   177.3479     0.0053     2.4460     4.9229     5.4124
  263.0000     0.1231     0.3592     7.9832   175.5209     0.0007     2.4467     4.8529     5.2619
  263.5000     0.1237     0.3636     7.9978   175.8152    -0.0069     2.4459     4.7176     4.5418
