~VERSION INFORMATION
 VERS.                2.0:   CWLS LOG ASCII STANDARD - VERSION 2.0
 WRAP.                 NO:   ONE LINE PER DEPTH STEP
~WELL INFORMATION
#MNEM.UNIT      DATA TYPE    INFORMATION
#----------   ------------   ------------------------------
 STRT.F            1.0000:   START DEPTH
 STOP.F          524.0000:   STOP DEPTH
 STEP.F            0.1000:   STEP LENGTH
 NULL.          -999.2500:   NO VALUE
 COMP.       F D SERV INC:   COMPANY
 WELL.    87-2 SX-3 #87-3:   WELL
 FLD .             TEAPOT:   FIELD
 LOC .       S3 T38N R78W:   LOCATION
 CNTY.            NATRONA:   COUNTY
 STAT.            WYOMING:   STATE
 CTRY. UNITED STATES OF AMERICA:   COUNTRY
 SRVC.     Atlas Wireline:   SERVICE COMPANY
 DATE.        20-OCT-1992:   LOGDATE
 API .       490252254700:   API NUMBER
~CURVE INFORMATION
#MNEM.UNIT       API CODE    CURVE DESCRIPTION
#----------   ------------   ------------------------------
 DEPT.F                  :   
 GRR .GAPI   07 310 01 00:   GAMMA RAY
 RILD.OHMM   07 120 46 00:   INDUCTION LOG DEEP RESISTIVITY
 RILM.OHMM   07 120 44 00:   INDUCTION LOG MEDIUM RESISTIVITY
~PARAMETER INFORMATION
#MNEM.UNIT          VALUE    DESCRIPTION
#----------   ------------   ------------------------------
 PD  .                 GL:   PERMANENT DATUM
 EPD .F              5124:   ELEVATION PERMANENT DATUM
 LMF .                 KB:   LOG MEASURED FROM
 DAPD.F                10:   FEET ABOVE PERMANENT DATUM
 DMF .                 KB:   DRILLING MEASURED FROM
 EKB .F              5134:   KELLING BUSHING
 EDF .F              5133:   DRILLING FLOOR
 EGL .F              5124:   GROUND LEVEL
 DATE.        20-OCT-1992:   RUN DATE
 RUN .                  1:   RUN NUMBER
 DD  .F               533:   DEPTH DRILLER
 DL  .F               532:   DEPTH LOGGER
 BLI .F               524:   BOTTOM LOG INTERVAL
 TLI .F                74:   TOP LOG INTERVAL
 CS  .IN            8.625:   CASING SIZE
 CBD .F                85:   CASING BOTTOM DRILLER
 CBL .F                74:   CASING BOTTOM LOGGER
 BS  .IN            7.875:   BIT SIZE
 BSD .F               533:   BIT SIZE AT DEPTH
 DFT .           AIR FOAM:   DRILLING FLUID TYPE
 TCS .HRS               3:   TIME CURCULATED STOPPED
 MRT .F                70:   MAXIMUM RECORDED TEMPERATURE
 LUN .            HL-6274:   LOGGING UNIT NUMBER
 LUL .             CASPER:   LOGGING UNIT LOCATION
 ENGI.             RAUTIO:   RECORDING ENGINEER
 WITN.        GARY STRONG:   WITNESSED BY
 CLNT.            A2DTECH:   CLIENT CODE
 ORIG.           5" PRINT:   ORIGIN OF DATA
 UWI .       490252254700:   UNIQUE WELL ID
 DICO. A2D Technologies, Inc.:   DIGITIZING COMPANY
~OTHER INFORMATION
~A    DEPT     GRR       RILD       RILM   
# ...
  164.8000   113.0245     8.8589     8.6124
  164.9000   113.7391     8.8591     8.6636
  165.0000   114.2945     8.8592     8.6630
  165.1000   114.7282     8.8593     8.6624
  165.2000   114.9038     8.8594     8.6857
  165.3000   114.6998     8.8596     8.7218
  165.4000   114.2535     8.8597     8.7212
  165.5000   113.9970     8.8598     8.7206
  165.6000   113.5272     8.8861     8.7597
  165.7000   112.8564     8.9221     8.7804
  165.8000   112.1178     8.9222     8.7798
  165.9000   111.4440     8.9224     8.7791
  166.0000   110.9520     8.9225     8.7785
  166.1000   110.3626     8.9226     8.7779
  166.2000   110.1657     8.9227     8.7773
  166.3000   110.0613     8.9228     8.7767
  166.4000   110.0625     8.9230     8.7761
  166.5000   110.0637     8.9702     8.7755
  166.6000   110.0651     8.9857     8.7749
  166.7000   110.0662     8.9858     8.7743
  166.8000   109.9072     8.9859     8.7736
  166.9000   109.6617     8.9861     8.7730
  167.0000   109.3697     8.9862     8.7724
  167.1000   108.8571     8.9863     8.7717
  167.2000   108.3856     8.9864     8.7712
  167.3000   107.8936     8.9866     8.7706
  167.4000   107.6467     8.9814     8.7700
  167.5000   107.5822     8.9243     8.7623
  167.6000   107.3456     8.9245     8.7078
  167.7000   107.3471     8.8917     8.7072
  167.8000   107.1494     8.8626     8.6728
  167.9000   107.0458     8.8530     8.6455
  168.0000   107.1320     8.8013     8.6337
  168.1000   107.3799     8.7532     8.5842
  168.2000   107.6566     8.7037     8.5351
  168.3000   107.8756     8.6797     8.5234
  168.4000   108.1234     8.6658     8.4966
  168.5000   108.3713     8.6168     8.4479
  168.6000   108.6191     8.5598     8.3995
  168.7000   108.8765     8.5196     8.3446
  168.8000   109.1148     8.4714     8.3036
  168.9000   109.5430     8.4235     8.2855
  169.0000   109.9140     8.3759     8.2661
  169.1000   110.1618     8.3247     8.2188
  169.2000   110.4291     8.2384     8.1690
  169.3000   111.3119     8.1774     8.0816
  169.4000   111.7119     8.1311     8.0222
  169.5000   112.2064     8.0743     7.9544
  169.6000   112.6151     7.9835     7.8755
  169.7000   112.9207     7.9384     7.8290
  169.8000   113.7458     7.8586     7.7226
  169.9000   113.9656     7.7699     7.6523
  170.0000   114.5371     7.6963     7.5900
  170.1000   115.2783     7.6528     7.5318
  170.2000   116.0677     7.6040     7.4511
  170.3000   117.0902     7.5292     7.4036
  170.4000   118.5188     7.4988     7.3660
  170.5000   120.1811     7.4812     7.3238
  170.6000   121.6604     7.4469     7.2988
  170.7000   122.8273     7.4992     7.2570
  170.8000   123.7835     7.4584     7.2154
  170.9000   124.0779     7.4472     7.1970
  171.0000   124.0789     7.4473     7.2103
  171.1000   123.9367     7.4474     7.2464
  171.2000   123.6047     7.4453     7.2458
  171.3000   123.0532     7.3959     7.2454
  171.4000   121.9595     7.3959     7.2449
  171.5000   121.5215     7.3960     7.2444
  171.6000   120.8668     7.3962     7.2439
  171.7000   120.3397     7.3963     7.2433
  171.8000   120.1430     7.3964     7.2429
  171.9000   120.1445     7.3965     7.2423
  172.0000   120.1457     7.3966     7.2418
  172.1000   120.1469     7.3967     7.2413
  172.2000   120.2732     7.3968     7.2408
  172.3000   120.5892     7.3969     7.2402
  172.4000   121.0723     7.3970     7.2398
  172.5000   121.3659     7.4299     7.2393
  172.6000   121.5680     7.4490     7.2388
  172.7000   121.9602     7.4491     7.2383
  172.8000   122.3672     7.4492     7.2378
  172.9000   122.5845     7.4493     7.2373
  173.0000   122.5859     7.4494     7.2368
  173.1000   122.8073     7.4495     7.2363
  173.2000   123.0551     7.4496     7.2358
  173.3000   123.1964     7.4497     7.2353
  173.4000   123.1478     7.4498     7.2348
  173.5000   122.8953     7.4499     7.2343
  173.6000   122.8965     7.4500     7.2559
  173.7000   122.8977     7.4501     7.2839
  173.8000   122.8989     7.4502     7.2867
  173.9000   122.8312     7.4503     7.3337
  174.0000   122.5978     7.4505     7.3333
  174.1000   122.5993     7.4505     7.3328
  174.2000   122.3984     7.4506     7.3488
  174.3000   122.1530     7.4507     7.3832
  174.4000   121.9075     7.4508     7.3825
  174.5000   121.6621     7.4510     7.3820
  174.6000   121.3913     7.4511     7.3815
  174.7000   121.3924     7.4512     7.4012
  174.8000   121.2293     7.4706     7.4321
  174.9000   121.0914     7.5035     7.4316
  175.0000   121.0926     7.5036     7.4311
  175.1000   121.0938     7.5038     7.4306
  175.2000   121.0950     7.5369     7.4301
  175.3000   121.2797     7.5565     7.4295
  175.4000   121.4009     7.5566     7.4337
  175.5000   121.4021     7.5567     7.4804
  175.6000   121.4033     7.5568     7.4800
  175.7000   121.4048     7.5941     7.4794
  175.8000   121.4058     7.6099     7.4789
  175.9000   121.1152     7.6101     7.4784
  176.0000   120.5342     7.6102     7.4779
  176.1000   119.6988     7.6103     7.4773
  176.2000   118.0723     7.6104     7.5083
  176.3000   117.4076     7.6420     7.5286
  176.4000   116.9991     7.6639     7.5281
  176.5000   116.7537     7.6640     7.5276
  176.6000   116.5596     7.6641     7.5269
  176.7000   116.5609     7.6642     7.5265
  176.8000   116.5621     7.6643     7.5260
  176.9000   117.1162     7.6901     7.5255
  177.0000   117.9848     7.7182     7.5249
  177.1000   119.0432     7.7183     7.5244
  177.2000   120.2638     7.7184     7.5239
  177.3000   121.4242     7.7185     7.5234
  177.4000   122.2394     7.7484     7.5228
  177.5000   123.2271     7.7728     7.5223
  177.6000   124.2149     7.7827     7.5218
  177.7000   125.1367     7.8274     7.5640
  177.8000   125.6790     7.8275     7.5734
  177.9000   125.9029     7.8619     7.5728
  178.0000   126.1507     7.8825     7.5723
  178.1000   126.0714     7.8827     7.5718
  178.2000   125.4750     7.8866     7.5712
  178.3000   124.4710     7.9381     7.6076
  178.4000   123.7463     7.9382     7.6232
  178.5000   122.8225     7.9383     7.6399
  178.6000   121.9654     7.9566     7.6755
  178.7000   121.2981     7.9941     7.6749
  178.8000   120.8061     7.9942     7.7155
  178.9000   120.2296     8.0375     7.7275
  179.0000   120.2307     8.0504     7.7482
  179.1000   120.2319     8.0731     7.7918
  179.2000   120.2331     8.1070     7.8344
  179.3000   120.2343     8.1089     7.8338
  179.4000   120.2356     8.1640     7.8689
  179.5000   120.2367     8.1641     7.8876
  179.6000   120.5714     8.1642     7.9023
  179.7000   121.0659     8.1809     7.9417
  179.8000   121.5603     8.2216     7.9410
  179.9000   122.0625     8.2217     7.9805
  180.0000   122.5493     8.2641     7.9955
  180.1000   123.2298     8.2795     7.9950
  180.2000   123.7127     8.3007     8.0034
  180.3000   124.1050     8.3377     8.0498
  180.4000   124.8154     8.3379     8.0492
  180.5000   125.1049     8.3380     8.0487
  180.6000   125.5163     8.3744     8.0716
  180.7000   126.0107     8.3966     8.1038
  180.8000   126.5966     8.3967     8.1059
  180.9000   127.3032     8.3968     8.1593
  181.0000   127.8423     8.3970     8.1588
  181.1000   128.5165     8.3971     8.1583
  181.2000   129.4252     8.3972     8.1749
  181.3000   130.4130     8.3973     8.2143
  181.4000   131.1854     8.3974     8.2136
  181.5000   131.1867     8.3975     8.2131
  181.6000   130.9443     8.3528     8.2125
  181.7000   130.5121     8.3394     8.2119
  181.8000   130.1499     8.3164     8.2220
  181.9000   129.9045     8.2816     8.2682
  182.0000   129.6591     8.2802     8.2676
  182.1000   129.3732     8.2243     8.2671
  182.2000   129.1682     8.1869     8.2665
  182.3000   129.0719     8.1406     8.2659
  182.4000   129.0732     8.1106     8.2614
  182.5000   129.0744     8.0995     8.2072
  182.6000   129.0757     7.9985     8.2068
  182.7000   129.0768     7.9986     8.2062
  182.8000   129.2463     7.9684     8.1871
  182.9000   129.3827     7.9432     8.1401
