~VERSION INFORMATION
 VERS.                2.0:   CWLS LOG ASCII STANDARD - VERSION 2.0
 WRAP.                 NO:   ONE LINE PER DEPTH STEP
~WELL INFORMATION
#MNEM.UNIT      DATA TYPE    INFORMATION
#----------   ------------   ------------------------------
 STRT.F            0.0000:   START DEPTH
 STOP.F         4113.0000:   STOP DEPTH
 STEP.F            0.5000:   STEP LENGTH
 NULL.          -999.2500:   NO VALUE
 COMP. LAWRENCE/ALLISON INC:   COMPANY
 WELL.  NPR # #3 76 -MX-3:   WELL
 FLD .             TEAPOT:   FIELD
 LOC .       S3 T38N R78W:   LOCATION
 CNTY.            NATRONA:   COUNTY
 STAT.            WYOMING:   STATE
 CTRY. UNITED STATES OF AMERICA:   COUNTRY
 SRVC.      Dresser Atlas:   SERVICE COMPANY
 DATE.        04-SEP-1983:   LOGDATE
 API .       490251094300:   API NUMBER
~CURVE INFORMATION
#MNEM.UNIT       API CODE    CURVE DESCRIPTION
#----------   ------------   ------------------------------
 DEPT.F                  :   
 GRR .GAPI   07 310 01 00:   GAMMA RAY
 SPR .MV     07 010 01 00:   SPONTANEOUS POTENTIAL
 RILD.OHMM   07 120 46 00:   INDUCTION LOG DEEP RESISTIVITY
 RILM.OHMM   07 120 44 00:   INDUCTION LOG MEDIUM RESISTIVITY
 RFOC.OHMM   07 220 04 00:   RESISTIVITY FOCUSED LOG
 CNCF.DEC    42 890 03 00:   NEUTRON POROSITY SANDSTONE
 PORD.DEC    45 890 12 00:   POROSITY DENSITY SANDSTONE
 CALD.IN     45 280 60 00:   CALIPER FROM DENSITY LOG
 CORR.G/C3   45 356 01 00:   DENSITY CORRECTION
 DEN .G/C3   45 350 01 00:   COMPENSATED BULK DENSTIY
 AC  .US/F   60 520 00 00:   ACCOUSTIC
~PARAMETER INFORMATION
#MNEM.UNIT          VALUE    DESCRIPTION
#----------   ------------   ------------------------------
 PD  .                 GL:   PERMANENT DATUM
 EPD .F              5147:   ELEVATION PERMANENT DATUM
 LMF .                 KB:   LOG MEASURED FROM
 DAPD.F                10:   FEET ABOVE PERMANENT DATUM
 DMF .                 KB:   DRILLING MEASURED FROM
 EKB .F              5157:   KELLING BUSHING
 EGL .F              5147:   GROUND LEVEL
 DATE.        04-SEP-1983:   RUN DATE
 RUN .                  1:   RUN NUMBER
 DD  .F              4119:   DEPTH DRILLER
 DL  .F              4115:   DEPTH LOGGER
 BLI .F              4112:   BOTTOM LOG INTERVAL
 CS  .IN            9.625:   CASING SIZE
 CBD .F               491:   CASING BOTTOM DRILLER
 CBL .F               494:   CASING BOTTOM LOGGER
 BS  .IN             8.75:   BIT SIZE
 BSD .F              4119:   BIT SIZE AT DEPTH
 DFT .            KCL GEL:   DRILLING FLUID TYPE
 DFD .                8.9:   DRILLING FLUID DENSITY
 DFV .                 46:   DRILLING FLUID VISCOSITY
 DFPH.                9.0:   DRILLING FLUID PH
 DFL .               13.6:   DRILLING FLUID LOSS
 MSS .           MUD TANK:   MUD SAMPLE SOURCE
 RMS .OHMM           .315:   RESISTIVITY MUD SAMPLE
 MST .F                92:   MUD SAMPLE TEMPERATURE
 RMF .OHMM            .25:   RESISTIVITY MUD FILTRATE SAMPLE
 MFST.F                84:   MUD FILTRATE SAMPLE TEMPERATURE
 RMC .OHMM             .4:   RESISTIVITY MUD CAKE
 MCST.F                92:   MUD CAKE SAMPLE TEMPERATURE
 MFSS.               MEAS:   MUD FILTRATE SAMPLE SOURCE
 MCSS.               CALC:   MUD CAKE SAMPLE SOURCE
 RMB .OHMM            .22:   RESISTIVITY MUD AT BHT
 BHT .F               132:   BOTTOM HOLE TEMPERATURE
 TCS .HRS               4:   TIME CURCULATED STOPPED
 MRT .F               132:   MAXIMUM RECORDED TEMPERATURE
 LUN .               6274:   LOGGING UNIT NUMBER
 LUL .              GLTE.:   LOGGING UNIT LOCATION
 ENGI.             RAUTIO:   RECORDING ENGINEER
 WITN.             STRONG:   WITNESSED BY
 CLNT.            A2DTECH:   CLIENT CODE
 ORIG.        2" 5" PRINT:   ORIGIN OF DATA
 UWI .       490251094300:   UNIQUE WELL ID
 DICO. A2D Technologies, Inc.:   DIGITIZING COMPANY
~OTHER INFORMATION
~A    DEPT     GRR        SPR       RILD       RILM       RFOC       CNCF       PORD       CALD       CORR        DEN         AC   
# ...
 1677.5000   117.8701   -50.0046     6.0363     6.0641     6.8101     0.2838     0.0593     9.0338     0.0180     2.5438  -999.2500
 1678.0000   121.9138   -49.8652     6.0323     6.0156     6.8061     0.2766     0.0614     9.0195    -0.0181     2.5454  -999.2500
 1678.5000   127.2095   -49.7257     5.9851     6.0107     6.8021     0.2826     0.0656     9.0204    -0.0301     2.5522  -999.2500
 1679.0000   127.8166   -49.5863     5.9811     5.9627     6.7982     0.2767     0.0638     9.0211    -0.0074     2.5643  -999.2500
 1679.5000   124.3423   -49.4512     5.9772     5.9579     6.8445     0.2720     0.0551     9.0219     0.0326     2.5658  -999.2500
 1680.0000   115.8665   -49.4685     5.9733     5.9541     6.8395     0.2744     0.0502     9.0226     0.0666     2.5613  -999.2500
 1680.5000   112.0854   -49.4858     5.9695     5.9493     6.8356     0.2730     0.0538     9.0233     0.0576     2.5606  -999.2500
 1681.0000   109.2434   -49.3421     5.9656     5.9446     6.8316     0.2763     0.0556     9.0392     0.0199     2.5652  -999.2500
 1681.5000   107.3466   -49.3637     5.9617     5.9399     6.8276     0.2895     0.0514     9.0400     0.0260     2.5697  -999.2500
 1682.0000   111.6970   -49.3810     5.9578     5.9352     6.8236     0.2994     0.0480     9.0407     0.0502     2.5667  -999.2500
 1682.5000   113.8628   -49.3984     5.9980     5.9304     6.8196     0.2898     0.0520     9.0414     0.0684     2.5570  -999.2500
 1683.0000   115.7156   -49.4157     6.0365     5.9687     6.8157     0.2805     0.0616     9.0421     0.0639     2.5442  -999.2500
 1683.5000   117.2554   -49.4330     6.0326     5.9640     6.8117     0.2769     0.0670     9.0580     0.0444     2.5390  -999.2500
 1684.0000   118.7952   -49.4503     6.0733     6.0024     6.8077     0.2855     0.0667     9.0588     0.0158     2.5399  -999.2500
 1684.5000   120.6480   -49.4676     6.1133     5.9976     6.9029     0.2871     0.0622     9.0443     0.0219     2.5466  -999.2500
 1685.0000   123.4397   -49.4849     6.1536     6.0801     6.9490     0.2823     0.0589     9.0452     0.0325     2.5519  -999.2500
 1685.5000   129.3614   -49.3412     6.1941     6.0752     6.9954     0.2745     0.0568     9.0459     0.0492     2.5557  -999.2500
 1686.0000   129.6555   -49.5196     6.1900     6.1146     6.9913     0.2866     0.0586     9.0466     0.0462     2.5535  -999.2500
 1686.5000   126.4942   -49.5369     6.2309     6.1541     6.9872     0.2926     0.0635     9.0475     0.0342     2.5447  -999.2500
 1687.0000   122.7132   -49.5542     6.2267     6.1948     6.8829     0.2860     0.0733     9.0482     0.0101     2.5280  -999.2500
 1687.5000   119.5582   -49.5715     6.2678     6.2347     6.8293     0.2758     0.0754     9.0489    -0.0004     2.5265  -999.2500
 1688.0000   121.7239   -49.5888     6.2637     6.2285     6.8253     0.2698     0.0715     9.0497    -0.0033     2.5394  -999.2500
 1688.5000   120.7598   -49.6061     6.2596     6.2699     6.8213     0.2683     0.0658     9.0504     0.0013     2.5492  -999.2500
 1689.0000   117.2918   -49.6234     6.2556     6.3091     6.8678     0.2710     0.0579     9.0513     0.0203     2.5545  -999.2500
 1689.5000   112.8848   -49.6407     6.2968     6.3497     6.9137     0.2824     0.0568     9.0520     0.0511     2.5568  -999.2500
 1690.0000   110.3558   -49.6581     6.3383     6.3920     6.9598     0.2968     0.0574     9.0527     0.0346     2.5553  -999.2500
 1690.5000   108.7719   -49.6754     6.3800     6.4332     7.0063     0.2890     0.0565     9.0534     0.0181     2.5584  -999.2500
 1691.0000   111.5574   -49.6927     6.4221     6.4734     7.0530     0.2737     0.0541     9.0541     0.0166     2.5622  -999.2500
 1691.5000   113.7232   -49.7100     6.5112     6.4682     7.1062     0.2674     0.0523     9.0549     0.0363     2.5637  -999.2500
 1692.0000   114.3303   -49.7273     6.5541     6.4630     7.1522     0.2719     0.0517     9.0558     0.0683     2.5615  -999.2500
 1692.5000   106.7871   -49.7446     6.5498     6.5060     7.1952     0.2795     0.0538     9.0565     0.0455     2.5608  -999.2500
 1693.0000   101.7542   -49.7619     6.5931     6.4995     7.1391     0.2894     0.0550     9.0420     0.0349     2.5608  -999.2500
 1693.5000   103.2940   -49.7793     6.5886     6.4475     7.0836     0.2951     0.0541     9.0429     0.0365     2.5616  -999.2500
 1694.0000   106.1532   -49.7618     6.5843     6.4423     7.0284     0.2939     0.0529     9.0436     0.0471     2.5609  -999.2500
 1694.5000   107.4322   -49.6528     6.5327     6.3908     6.9234     0.2912     0.0538     9.0445     0.0503     2.5534  -999.2500
 1695.0000   109.4846   -49.6708     6.4815     6.3397     6.9194     0.2939     0.0556     9.0452     0.0409     2.5474  -999.2500
 1695.5000   107.4401   -49.6881     6.3845     6.2890     6.9154     0.2993     0.0637     9.0459    -0.0009     2.5422  -999.2500
 1696.0000   103.7163   -49.5480     6.3344     6.2387     6.9113     0.2954     0.0649     9.0466    -0.0220     2.5422  -999.2500
 1696.5000   101.8974   -49.5658     6.2395     6.1888     6.8575     0.2828     0.0634     9.0474    -0.0128     2.5460  -999.2500
 1697.0000   107.2865   -49.5831     6.1461     6.1403     6.8535     0.2765     0.0598     9.0483     0.0143     2.5506  -999.2500
 1697.5000   109.6719   -49.4432     6.0979     6.0912     6.8495     0.2864     0.0601     9.0490     0.0355     2.5484  -999.2500
 1698.0000   108.9996   -49.4608     6.0501     6.0425     6.8455     0.2979     0.0634     9.0497     0.0416     2.5424  -999.2500
 1698.5000   108.6823   -49.4781     6.0027     6.0377     6.8415     0.3000     0.0667     9.0504     0.0447     2.5416  -999.2500
 1699.0000   109.6169   -49.4953     5.9988     5.9895     6.8376     0.2971     0.0652     9.0511     0.0432     2.5500  -999.2500
 1699.5000   113.0399   -49.5125     5.9949     5.9847     6.7843     0.2805     0.0608     9.0497     0.0418     2.5546  -999.2500
 1700.0000   118.3178   -49.3730     5.9380     5.9799     6.7883     0.2727     0.0556     9.0375     0.0388     2.5554  -999.2500
 1700.5000   117.0215   -49.2319     5.8736     5.9761     6.8263     0.2799     0.0568     9.0405     0.0386     2.5531  -999.2500
 1701.0000   115.1299   -49.0965     5.8553     5.9722     6.8214     0.2985     0.0604     9.0433     0.0329     2.5472  -999.2500
 1701.5000   115.4869   -49.1136     5.8940     5.9683     6.7195     0.3021     0.0637     9.0460     0.0300     2.5428  -999.2500
 1702.0000   123.8895   -48.9696     5.8901     5.9644     6.6673     0.3057     0.0673     9.0488     0.0240     2.5383  -999.2500
 1702.5000   123.0204   -48.6775     5.8863     5.9605     6.6634     0.3000     0.0694     9.0515     0.0196     2.5362  -999.2500
 1703.0000   117.2158   -48.5335     5.8817     5.9566     6.6596     0.2882     0.0697     9.0543     0.0272     2.5370  -999.2500
 1703.5000   114.6871   -48.2414     5.8779     5.9528     6.7050     0.2783     0.0645     9.0571     0.0333     2.5401  -999.2500
 1704.0000   115.2945   -48.0974     5.9176     5.9489     6.7498     0.2777     0.0612     9.0598     0.0394     2.5462  -999.2500
 1704.5000   114.9505   -47.9577     5.9129     5.9443     6.7949     0.2792     0.0609     9.0623     0.0471     2.5478  -999.2500
 1705.0000   114.9257   -47.8180     5.9091     5.9404     6.7900     0.2801     0.0612     9.0480     0.0381     2.5479  -999.2500
 1705.5000   116.7788   -47.8394     5.9053     5.9366     6.7861     0.2861     0.0636     9.0493     0.0276     2.5472  -999.2500
 1706.0000   119.2579   -47.6991     5.9015     5.9327     6.7822     0.3020     0.0639     9.0350     0.0201     2.5458  -999.2500
 1706.5000   121.1110   -47.5596     5.8131     5.8862     6.7783     0.2972     0.0651     9.0363     0.0142     2.5421  -999.2500
 1707.0000   122.3443   -47.1068     5.5632     5.5921     6.7744     0.2719     0.0684     9.0223     0.0097     2.5377  -999.2500
 1707.5000   120.7484   -46.8103     5.2476     4.8713     6.7705     0.2638     0.0813     9.0235     0.0083     2.5250  -999.2500
