~VERSION INFORMATION
 VERS.                2.0:   CWLS LOG ASCII STANDARD - VERSION 2.0
 WRAP.                 NO:   ONE LINE PER DEPTH STEP
~WELL INFORMATION
#MNEM.UNIT      DATA TYPE    INFORMATION
#----------   ------------   ------------------------------
 STRT.F            2.0000:   START DEPTH
 STOP.F          602.0000:   STOP DEPTH
 STEP.F            0.1000:   STEP LENGTH
 NULL.          -999.2500:   NO VALUE
 COMP.       F D SERV INC:   COMPANY
 WELL.    63-1 SX-3 #63-3:   WELL
 FLD .             TEAPOT:   FIELD
 LOC .       S3 T38N R78W:   LOCATION
 CNTY.            NATRONA:   COUNTY
 STAT.            WYOMING:   STATE
 CTRY. UNITED STATES OF AMERICA:   COUNTRY
 SRVC.     Atlas Wireline:   SERVICE COMPANY
 DATE.        20-APR-1992:   LOGDATE
 API .       490252251300:   API NUMBER
~CURVE INFORMATION
#MNEM.UNIT       API CODE    CURVE DESCRIPTION
#----------   ------------   ------------------------------
 DEPT.F                  :   
 GRR .GAPI   07 310 01 00:   GAMMA RAY
 RILD.OHMM   07 120 46 00:   INDUCTION LOG DEEP RESISTIVITY
 RILM.OHMM   07 120 44 00:   INDUCTION LOG MEDIUM RESISTIVITY
~PARAMETER INFORMATION
#MNEM.UNIT          VALUE    DESCRIPTION
#----------   ------------   ------------------------------
 PD  .                 GL:   PERMANENT DATUM
 EPD .F              5176:   ELEVATION PERMANENT DATUM
 LMF .                 KB:   LOG MEASURED FROM
 DAPD.F                 5:   FEET ABOVE PERMANENT DATUM
 DMF .                 KB:   DRILLING MEASURED FROM
 EKB .F              5181:   KELLING BUSHING
 EDF .F              5180:   DRILLING FLOOR
 EGL .F              5176:   GROUND LEVEL
 DATE.        20-APR-1992:   RUN DATE
 RUN .                  1:   RUN NUMBER
 DD  .F               608:   DEPTH DRILLER
 DL  .F               608:   DEPTH LOGGER
 BLI .F               602:   BOTTOM LOG INTERVAL
 CS  .IN            8.625:   CASING SIZE
 CBD .F                48:   CASING BOTTOM DRILLER
 CBL .F                50:   CASING BOTTOM LOGGER
 BS  .IN            7.875:   BIT SIZE
 BSD .F               608:   BIT SIZE AT DEPTH
 DFT .                AIR:   DRILLING FLUID TYPE
 TCS .HRS               2:   TIME CURCULATED STOPPED
 MRT .F                85:   MAXIMUM RECORDED TEMPERATURE
 LUN .           HL- 6274:   LOGGING UNIT NUMBER
 LUL .             CASPER:   LOGGING UNIT LOCATION
 ENGI.             RAUTIO:   RECORDING ENGINEER
 WITN.        GARY STRONG:   WITNESSED BY
 CLNT.            A2DTECH:   CLIENT CODE
 ORIG.           5" PRINT:   ORIGIN OF DATA
 UWI .       490252251300:   UNIQUE WELL ID
 DICO. A2D Technologies, Inc.:   DIGITIZING COMPANY
~OTHER INFORMATION
~A    DEPT      GRR      RILD       RILM   
# ...
  475.2000    89.7820    20.7111    19.6719
  475.3000    90.3143    20.7108    19.7906
  475.4000    91.1158    20.7105    19.7904
  475.5000    91.8007    20.7103    19.7901
  475.6000    92.0278    20.7941    19.7898
  475.7000    92.1485    20.8550    19.8209
  475.8000    92.3366    20.8863    19.9342
  475.9000    92.3402    21.0008    20.0674
  476.0000    92.0429    21.0005    20.0672
  476.1000    92.0459    21.0002    20.2076
  476.2000    92.0495    20.9999    20.3491
  476.3000    91.9651    20.9996    20.3488
  476.4000    91.7220    20.9993    20.3485
  476.5000    91.4573    20.9990    20.4581
  476.6000    91.2361    20.9988    20.5751
  476.7000    90.9933    20.9985    20.6340
  476.8000    90.8646    20.9981    20.6337
  476.9000    90.8090    20.9978    20.6335
  477.0000    90.5662    20.9976    20.6331
  477.1000    90.3231    20.9972    20.6329
  477.2000    90.0803    20.9970    20.6326
  477.3000    89.8373    20.9241    20.6323
  477.4000    89.5090    20.8043    20.6320
  477.5000    89.0498    20.7045    20.6317
  477.6000    88.7823    20.7042    20.6314
  477.7000    88.5640    20.7039    20.6311
  477.8000    87.9880    20.7036    20.5728
  477.9000    86.8063    20.7033    20.4869
  478.0000    85.2532    20.7030    20.4866
  478.1000    84.2701    20.7028    20.4863
  478.2000    83.2879    20.7024    20.4860
  478.3000    82.3052    20.7021    20.4858
  478.4000    81.3227    20.7018    20.4409
  478.5000    80.4226    20.7016    20.3425
  478.6000    79.7409    20.7013    20.3422
  478.7000    79.4707    20.7010    20.3420
  478.8000    79.4739    20.7007    20.3417
  478.9000    79.8051    20.7004    20.2844
  479.0000    80.0845    20.7001    20.1685
  479.1000    80.1415    20.6998    20.0585
  479.2000    80.3934    20.6922    20.0582
  479.3000    80.6419    20.5550    19.9639
  479.4000    81.0821    20.5547    19.8498
  479.5000    81.7136    20.4818    19.6518
  479.6000    82.4567    20.4109    19.3341
  479.7000    83.1752    20.4106    19.0993
  479.8000    83.7338    20.4103    18.7964
  479.9000    84.3846    20.2989    18.4768
  480.0000    85.1280    20.1828    18.1624
  480.1000    85.7657    20.0672    17.8531
  480.2000    86.2626    19.8870    17.5530
  480.3000    86.7681    19.5552    17.3178
  480.4000    87.7405    19.2981    17.2365
  480.5000    88.3560    19.1122    17.0797
  480.6000    88.8525    18.8943    16.9214
  480.7000    89.2724    18.6789    16.8247
  480.8000    89.5227    18.4658    16.7220
  480.9000    89.8068    18.2468    16.8111
  481.0000    90.2364    18.0473    16.8388
  481.1000    90.7329    17.9170    16.8386
  481.2000    91.1267    17.8145    16.8130
  481.3000    91.3769    17.6827    16.7208
  481.4000    91.6345    17.4883    16.7205
  481.5000    92.1166    17.3736    16.7204
  481.6000    92.6134    17.2888    16.7202
  481.7000    93.1101    17.2520    16.7199
  481.8000    93.6068    17.2518    16.7197
  481.9000    94.0847    17.2517    16.7194
  482.0000    94.3716    17.2514    16.7192
  482.1000    94.5851    17.2512    16.7189
  482.2000    94.6800    17.3248    16.7187
  482.3000    94.6836    17.3717    16.7436
  482.4000    94.7322    17.3714    16.8393
  482.5000    94.9926    17.3712    16.9533
  482.6000    94.9960    17.3709    16.9531
  482.7000    94.8183    17.2855    16.9529
  482.8000    94.7016    17.2494    16.9526
  482.9000    94.7765    17.2492    16.9524
  483.0000    95.0105    17.2490    16.9521
  483.1000    95.0147    17.2487    17.0420
  483.2000    95.0178    17.1526    17.0705
  483.3000    95.0214    17.0545    17.1175
  483.4000    95.0250    17.0084    17.1644
  483.5000    94.9862    17.0082    17.0662
  483.6000    94.7308    17.0080    16.9507
  483.7000    94.7342    17.0077    16.9505
  483.8000    94.2022    17.0075    16.9503
  483.9000    93.2192    17.0072    16.9500
  484.0000    92.0584    17.0070    16.9356
  484.1000    91.0756    17.0068    16.8315
  484.2000    89.9264    17.0065    16.7427
  484.3000    89.3153    17.0063    16.7138
  484.4000    88.5793    17.0060    16.7136
  484.5000    87.8433    16.9536    16.7133
  484.6000    87.2248    16.8870    16.7066
  484.7000    87.2292    16.8777    16.4809
  484.8000    87.4635    16.7689    16.4045
  484.9000    87.5379    16.7687    16.3107
  485.0000    87.5415    16.7684    16.1838
  485.1000    87.6106    16.7271    16.0258
  485.2000    87.8711    16.6511    16.0255
  485.3000    88.4580    16.6509    16.0253
  485.4000    88.6628    16.5568    15.9612
  485.5000    89.2066    16.5344    15.8700
  485.6000    90.0415    16.4829    15.8022
  485.7000    90.9945    16.3885    15.8020
  485.8000    91.7939    16.2853    15.8017
  485.9000    92.7092    16.0773    15.6563
  486.0000    94.0451    15.9964    15.5299
  486.1000    95.2928    15.9050    15.4412
  486.2000    96.2827    15.8139    15.3405
  486.3000    97.2492    15.7233    15.1518
  486.4000    97.5476    15.6327    14.9935
  486.5000    98.1477    15.4560    14.8230
  486.6000    98.4591    15.3474    14.6543
  486.7000    98.4627    15.2118    14.4873
  486.8000    98.5002    15.0383    14.3223
  486.9000    98.7720    14.8578    14.1279
  487.0000    99.0004    14.5756    13.9984
  487.1000    99.0805    14.4285    13.7934
  487.2000    98.8543    14.3183    13.5585
  487.3000    98.3646    14.2363    13.3591
  487.4000    97.8750    14.1548    13.3589
  487.5000    97.3856    14.0738    13.2889
  487.6000    96.8960    13.9932    13.2655
  487.7000    96.1241    13.9132    13.2297
  487.8000    95.3140    13.8336    13.1728
  487.9000    94.8246    13.7808    13.1726
  488.0000    94.2869    13.7806    13.1723
  488.1000    94.2902    13.7804    13.1118
  488.2000    94.2938    13.7803    13.0369
  488.3000    94.2974    13.7800    12.9624
  488.4000    94.3010    13.7798    12.8883
  488.5000    94.3046    13.7440    12.8084
  488.6000    94.3083    13.5881    12.7415
  488.7000    94.3119    13.5879    12.7188
  488.8000    94.3155    13.5268    12.7186
  488.9000    94.3191    13.4494    12.7006
  489.0000    94.3228    13.3985    12.6297
  489.1000    94.3268    13.3892    12.6295
  489.2000    94.3300    13.3048    12.6294
  489.3000    94.3336    13.2364    12.6292
  489.4000    94.2278    13.1607    12.6290
  489.5000    94.0392    13.0854    12.6289
  489.6000    94.0428    13.0279    12.6287
  489.7000    93.8007    13.0267    12.6285
  489.8000    93.7484    12.9522    12.6283
  489.9000    93.4809    12.8781    12.6281
  490.0000    92.9112    12.8462    12.6104
  490.1000    92.1748    12.8204    12.5383
  490.2000    91.3501    12.7470    12.4667
  490.3000    91.3533    12.6672    12.4522
  490.4000    91.3569    12.6671    12.4520
  490.5000    91.3605    12.6669    12.4267
  490.6000    91.4156    12.6667    12.3650
  490.7000    91.6694    12.6491    12.3648
  490.8000    92.4020    12.5767    12.3005
  490.9000    92.9572    12.5047    12.2783
  491.0000    93.4539    12.4901    12.2781
  491.1000    93.9507    12.4899    12.2780
  491.2000    94.4249    12.4644    12.2778
  491.3000    94.7082    12.3931    12.2776
  491.4000    94.9253    12.3159    12.2775
  491.5000    95.0166    12.3158    12.2773
  491.6000    95.0202    12.3156    12.2771
  491.7000    95.0724    12.3154    12.2679
  491.8000    95.3292    12.3153    12.1913
  491.9000    95.3327    12.3151    12.1281
  492.0000    95.3364    12.3148    12.1061
  492.1000    95.2100    12.3147    12.1059
  492.2000    95.0419    12.3145    12.1058
  492.3000    95.0061    12.3143    12.1056
  492.4000    94.4464    12.3142    12.1054
  492.5000    94.4495    12.3140    12.1052
  492.6000    94.1411    12.3138    12.1050
  492.7000    93.2480    12.3137    12.1048
  492.8000    91.9553    12.3135    12.1047
  492.9000    91.4475    12.3134    12.1045
  493.0000    91.2137    12.3132    12.1044
  493.1000    90.7887    12.3130    12.1042
  493.2000    90.2992    12.2558    12.0724
  493.3000    89.8816    12.1857    12.0033
