~VERSION INFORMATION
 VERS.                2.0:   CWLS LOG ASCII STANDARD - VERSION 2.0
 WRAP.                 NO:   ONE LINE PER DEPTH STEP
~WELL INFORMATION
#MNEM.UNIT      DATA TYPE    INFORMATION
#----------   ------------   ------------------------------
 STRT.F           29.0000:   START DEPTH
 STOP.F          503.0000:   STOP DEPTH
 STEP.F            0.5000:   STEP LENGTH
 NULL.          -999.2500:   NO VALUE
 COMP. FENIX & SCISSON INC:   COMPANY
 WELL.      78 SX 3 #78-3:   WELL
 FLD .             TEAPOT:   FIELD
 LOC .       S3 T38N R78W:   LOCATION
 CNTY.            NATRONA:   COUNTY
 STAT.            WYOMING:   STATE
 CTRY. UNITED STATES OF AMERICA:   COUNTRY
 SRVC.            Unknown:   SERVICE COMPANY
 DATE.        17-OCT-1978:   LOGDATE
 API .       490251072400:   API NUMBER
~CURVE INFORMATION
#MNEM.UNIT       API CODE    CURVE DESCRIPTION
#----------   ------------   ------------------------------
 DEPT.F                  :   
 CALD.IN     45 280 60 00:   CALIPER
 GRD .GAPI   45 310 01 00:   GAMMA RAY FROM DENSITY LOG
 CORR.G/C3   45 356 01 00:   DENSITY CORRECTION
 RHOB.G/C3   45 350 01 00:   BULK DENSITY
 DPHI.DEC    45 890 12 00:   DENSITY POROSITY SANDSTONE
 SPR .MV     05 010 01 00:   SPONTANEOUS POTENTIAL FROM RES.
 IL  .OHMM   05 120 00 00:   INDUCTION LOG
 SN  .OHMM   05 040 16 00:   SHORT NORMAL 16"
~PARAMETER INFORMATION
#MNEM.UNIT          VALUE    DESCRIPTION
#----------   ------------   ------------------------------
 PD  .                 GL:   PERMANENT DATUM
 EPD .F              5154:   ELEVATION PERMANENT DATUM
 LMF .                 KB:   LOG MEASURED FROM
 DAPD.F                 4:   FEET ABOVE PERMANENT DATUM
 DMF .                 KB:   DRILLING MEASURED FROM
 EKB .F              5158:   KELLING BUSHING
 EGL .F              5154:   GROUND LEVEL
 DATE.           10-17-78:   RUN DATE
 RUN .                  1:   RUN NUMBER
 DD  .F               498:   DEPTH DRILLER
 DL  .F               503:   DEPTH LOGGER
 BLI .F               497:   BOTTOM LOG INTERVAL
 TLI .F                46:   TOP LOG INTERVAL
 CS  .IN            8.625:   CASING SIZE
 CBD .F                40:   CASING BOTTOM DRILLER
 BS  .IN            7.875:   BIT SIZE
 BSD .F               498:   BIT SIZE AT DEPTH
 DFT .                KCL:   DRILLING FLUID TYPE
 DFD .                8.7:   DRILLING FLUID DENSITY
 DFV .                 38:   DRILLING FLUID VISCOSITY
 DFPH.                  9:   DRILLING FLUID PH
 DFL .                9.6:   DRILLING FLUID LOSS
 MSS .          FLOW LINE:   MUD SAMPLE SOURCE
 RMS .OHMM             .2:   RESISTIVITY MUD SAMPLE
 MST .F                52:   MUD SAMPLE TEMPERATURE
 RMF .OHMM            .18:   RESISTIVITY MUD FILTRATE SAMPLE
 MFST.F                58:   MUD FILTRATE SAMPLE TEMPERATURE
 RMC .OHMM            .16:   RESISTIVITY MUD CAKE
 MCST.F                64:   MUD CAKE SAMPLE TEMPERATURE
 MFSS.               MEAS:   MUD FILTRATE SAMPLE SOURCE
 MCSS.               MEAS:   MUD CAKE SAMPLE SOURCE
 TCS .HRS               1:   TIME CURCULATED STOPPED
 MRT .F                72:   MAXIMUM RECORDED TEMPERATURE
 LUN .               2958:   LOGGING UNIT NUMBER
 LUL .               CASP:   LOGGING UNIT LOCATION
 ENGI.             MILLER:   RECORDING ENGINEER
 WITN.           DINSMORE:   WITNESSED BY
 CLNT.            A2DTECH:   CLIENT CODE
 ORIG.           5" PRINT:   ORIGIN OF DATA
 UWI .       490251072400:   UNIQUE WELL ID
 DICO. A2D Technologies, Inc.:   DIGITIZING COMPANY
~OTHER INFORMATION
~A   DEPT     CALD         GRD      CORR       RHOB       DPHI        SPR         IL         SN   
# ...
   69.5000     7.9992   142.2928     0.0102     2.4817     0.1123   -37.2020     7.6699     8.3018
   70.0000     7.9998   143.3293     0.0104     2.4790     0.1128   -37.2025     7.7839     8.2570
   70.5000     8.0003   144.7173     0.0107     2.4793     0.1110   -37.2024     7.9108     8.2571
   71.0000     8.0009   145.8878     0.0121     2.4852     0.1092   -37.2024     8.0406     8.2572
   71.5000     8.0015   145.5575     0.0135     2.4913     0.1074   -37.2024     8.1816     8.2572
   72.0000     8.0020   145.3418     0.0158     2.4971     0.1056   -37.2024     8.2189     8.2572
   72.5000     8.0026   145.6558     0.0222     2.4990     0.1038   -37.2024     8.2592     8.2572
   73.0000     8.0031   145.9840     0.0284     2.5002     0.1028   -37.2024     8.2997     8.2572
   73.5000     8.0037   144.7617     0.0346     2.5013     0.1015   -37.2024     8.3404     8.2572
   74.0000     8.0042   142.4839     0.0408     2.5025     0.1004   -37.2024     8.3812     8.2572
   74.5000     8.0048   140.1886     0.0460     2.5037     0.1015   -37.2024     8.4223     8.2572
   75.0000     8.0053   137.9142     0.0391     2.5040     0.1028   -37.2024     8.4636     8.2572
   75.5000     8.0059   136.1453     0.0323     2.5005     0.1041   -37.2024     8.4882     8.2572
   76.0000     8.0064   135.0842     0.0256     2.4967     0.1054   -37.2024     8.4126     8.2580
   76.5000     8.0070   135.1016     0.0188     2.4934     0.1067   -37.2024     8.3593     8.2089
   77.0000     8.0076   135.3423     0.0184     2.4917     0.1081   -37.2024     8.3062     8.1505
   77.5000     8.0081   137.0113     0.0189     2.4899     0.1092   -37.2024     8.2536     8.0924
   78.0000     8.0087   139.6685     0.0223     2.4881     0.1088   -37.2024     8.2012     8.0347
   78.5000     8.0092   142.3238     0.0258     2.4863     0.1084   -37.2024     8.1492     7.9775
   79.0000     8.0098   142.2675     0.0232     2.4845     0.1100   -37.2024     8.0975     7.9207
   79.5000     8.0103   141.7504     0.0190     2.4826     0.1118   -37.2024     8.0461     7.8643
   80.0000     8.0109   141.2247     0.0147     2.4808     0.1135   -37.2024     7.9951     7.8083
   80.5000     8.0114   140.7048     0.0106     2.4789     0.1152   -37.2024     7.9444     7.7527
   81.0000     8.0120   140.1826     0.0105     2.4771     0.1155   -37.2024     7.8940     7.6975
   81.5000     8.0125   139.6211     0.0106     2.4771     0.1155   -37.2024     7.8439     7.6654
   82.0000     8.0131   139.0717     0.0107     2.4776     0.1154   -37.2024     7.7942     7.6539
   82.5000     8.0136   147.0966     0.0108     2.4781     0.1154   -37.2024     7.7423     7.6424
   83.0000     8.0142   150.1868     0.0109     2.4786     0.1153   -37.2024     7.7721     7.6310
   83.5000     8.0147   148.6149     0.0109     2.4792     0.1152   -37.2024     7.8035     7.6196
   84.0000     8.0153   143.1307     0.0110     2.4797     0.1152   -37.2024     7.8351     7.6080
   84.5000     8.0159   143.0759     0.0111     2.4804     0.1138   -37.2024     7.8669     7.6015
   85.0000     8.0164   143.1123     0.0112     2.4822     0.1124   -37.2024     7.8861     7.6348
   85.5000     8.0170   143.0591     0.0113     2.4845     0.1123   -37.2024     7.9244     7.6591
   86.0000     8.0175   140.2257     0.0113     2.4894     0.1128   -37.2024     7.9630     7.6835
   86.5000     8.0181   137.8596     0.0114     2.4966     0.1098   -37.2022     8.0017     7.7080
   87.0000     8.0186   138.0146     0.0115     2.5039     0.1055   -37.2030     8.0406     7.7326
   87.5000     8.0192   138.3404     0.0116     2.5058     0.1023   -37.2243     8.0798     7.7572
   88.0000     8.0197   137.8079     0.0116     2.5023     0.1022   -37.2465     8.1191     7.7819
   88.5000     8.0203   135.7396     0.0117     2.4988     0.1021   -37.2687     8.1586     7.8067
   89.0000     8.0208   134.9641     0.0118     2.4982     0.1019   -37.2908     8.1982     7.8316
   89.5000     8.0214   135.2019     0.0119     2.4985     0.1018   -37.3130     8.2381     7.8566
   90.0000     8.0219   135.4001     0.0120     2.4988     0.1016   -37.3351     8.2782     7.8816
   90.5000     8.0225   135.5923     0.0120     2.4989     0.1034   -37.3574     8.3185     7.9067
   91.0000     8.0231   135.7872     0.0121     2.4943     0.1058   -37.3801     8.3589     7.9317
   91.5000     8.0236   136.1613     0.0122     2.4898     0.1082   -37.3970     8.4105     7.9594
   92.0000     8.0242   136.8411     0.0123     2.4893     0.1106   -37.3093     8.3966     7.9588
   92.5000     8.0247   137.0912     0.0123     2.4853     0.1130   -37.2290     8.3776     7.9589
   93.0000     8.0253   137.0660     0.0124     2.4787     0.1149   -36.7263     8.3586     7.9589
   93.5000     8.0258   138.4292     0.0127     2.4756     0.1165   -36.3990     8.3397     7.9589
   94.0000     8.0264   140.0470     0.0133     2.4747     0.1181   -36.3803     8.3208     7.9589
   94.5000     8.0269   141.4214     0.0139     2.4732     0.1197   -36.3597     8.3020     7.9589
   95.0000     8.0275   141.8685     0.0145     2.4685     0.1213   -36.3401     8.2832     7.9589
   95.5000     8.0281   144.7997     0.0151     2.4638     0.1229   -36.3202     8.2646     7.9590
   96.0000     8.0286   146.1307     0.0157     2.4630     0.1221   -36.3002     8.2572     7.9586
   96.5000     8.0292   146.5203     0.0163     2.4656     0.1207   -36.2803     8.2572     7.9733
   97.0000     8.0297   147.0256     0.0169     2.4685     0.1194   -36.2606     8.2572     7.9911
   97.5000     8.0303   148.5682     0.0175     2.4715     0.1180   -36.2405     8.2563     8.0089
   98.0000     8.0308   148.3292     0.0181     2.4744     0.1158   -36.2180     8.2780     8.0273
   98.5000     8.0314   148.0820     0.0177     2.4773     0.1130   -36.0781     8.3104     8.0865
   99.0000     8.0319   147.8025     0.0160     2.4802     0.1116   -35.8067     8.3774     8.1703
   99.5000     8.0325   146.3967     0.0143     2.4829     0.1133   -35.6125     8.5460     8.2544
  100.0000     8.0330   143.7755     0.0126     2.4802     0.1148   -35.6203     8.7154     8.3392
  100.5000     8.0336   141.7573     0.0110     2.4770     0.1164   -35.6246     8.8887     8.4250
  101.0000     8.0341   141.3517     0.0093     2.4739     0.1172   -35.6289     9.0654     8.5117
  101.5000     8.0306   139.3840     0.0085     2.4739     0.1170   -35.6331     9.2452     8.5992
  102.0000     8.0174   134.0984     0.0085     2.4768     0.1151   -35.6373     9.4308     8.6876
  102.5000     8.0044   133.7229     0.0085     2.4797     0.1133   -35.6415     9.5528     8.7770
  103.0000     7.9913   133.3789     0.0085     2.4825     0.1114   -35.6457     9.6561     8.8672
  103.5000     7.9783   133.0944     0.0085     2.4854     0.1096   -35.6499     9.7661     8.9584
  104.0000     7.9653   131.3423     0.0085     2.4882     0.1077   -35.6541     9.9101     9.0505
  104.5000     7.9522   127.1070     0.0085     2.4911     0.1059   -35.6583    10.0562     9.1436
  105.0000     7.9392   123.3023     0.0085     2.4940     0.1041   -35.6625    10.2045     9.2293
  105.5000     7.9261   122.7510     0.0085     2.4969     0.1024   -35.6667    10.3550     9.2769
  106.0000     7.9131   122.6198     0.0085     2.4925     0.1066   -35.6709    10.5077     9.3060
  106.5000     7.9000   122.9802     0.0085     2.4840     0.1111   -35.6751    10.6626     9.2885
  107.0000     7.8905   124.8845     0.0085     2.4751     0.1156   -35.6793    10.8199     9.2761
  107.5000     7.8836   127.2694     0.0085     2.4728     0.1181   -35.6835    10.9794     9.2636
  108.0000     7.8767   127.8676     0.0085     2.4718     0.1199   -35.6877    11.1413     9.2512
  108.5000     7.8698   127.1625     0.0085     2.4707     0.1217   -35.6919    11.3056     9.2388
  109.0000     7.8630   126.7133     0.0086     2.4653     0.1235   -35.6961    11.4984     9.2264
  109.5000     7.8561   127.4562     0.0096     2.4620     0.1230   -35.7003    11.4910     9.2140
