~VERSION INFORMATION
 VERS.                2.0:   CWLS LOG ASCII STANDARD - VERSION 2.0
 WRAP.                 NO:   ONE LINE PER DEPTH STEP
~WELL INFORMATION
#MNEM.UNIT      DATA TYPE    INFORMATION
#----------   ------------   ------------------------------
 STRT.F            6.0000:   START DEPTH
 STOP.F          495.0000:   STOP DEPTH
 STEP.F            0.5000:   STEP LENGTH
 NULL.          -999.2500:   NO VALUE
 COMP. FENIX & SCISSON INC:   COMPANY
 WELL. FI NPR-3 #65-25 SX3:   WELL
 FLD .  NAVAL RESERVES #3:   FIELD
 LOC .       S3 T38N R78W:   LOCATION
 CNTY.            NATRONA:   COUNTY
 STAT.            WYOMING:   STATE
 CTRY. UNITED STATES OF AMERICA:   COUNTRY
 SRVC.       Schlumberger:   SERVICE COMPANY
 DATE.        22-MAY-1980:   LOGDATE
 API .       490251080300:   API NUMBER
~CURVE INFORMATION
#MNEM.UNIT       API CODE    CURVE DESCRIPTION
#----------   ------------   ------------------------------
 DEPT.F                  :   
 SPR .MV     07 010 01 00:   SPONTANEOUS POTENTIAL
 SFL .OHMM   07 220 01 00:   SHALLOW FOCUSED LOG RESISTIVITY
 ILD .OHMM   07 120 46 00:   INDUCTION LOG DEEP RESISTIVITY
 ILM .OHMM   07 120 44 00:   INDUCTION LOG MEDIUM
 GRD .GAPI   45 310 01 00:   GAMMA RAY FROM DENSITY LOG
 CALD.IN     45 280 60 00:   CALIPER
 DPHI.DEC    45 890 12 00:   DENSITY POROSITY SANDSTONE
 RHOB.G/C3   45 350 01 00:   BULK DENSITY
 CORR.G/C3   45 356 01 00:   DENSITY CORRECTION
 NPHI.DEC    42 890 03 00:   NEUTRON POROSITY SANDSTONE
~PARAMETER INFORMATION
#MNEM.UNIT          VALUE    DESCRIPTION
#----------   ------------   ------------------------------
 PD  .                 GL:   PERMANENT DATUM
 EPD .F              5162:   ELEVATION PERMANENT DATUM
 LMF .                 KB:   LOG MEASURED FROM
 DAPD.F                 4:   FEET ABOVE PERMANENT DATUM
 DMF .                 KB:   DRILLING MEASURED FROM
 EKB .F              5166:   KELLING BUSHING
 EGL .F              5162:   GROUND LEVEL
 DATE.            5-22-80:   RUN DATE
 RUN .                  1:   RUN NUMBER
 DD  .F               500:   DEPTH DRILLER
 DL  .F               498:   DEPTH LOGGER
 BLI .F               492:   BOTTOM LOG INTERVAL
 TLI .F                10:   TOP LOG INTERVAL
 BS  .IN            9.875:   BIT SIZE
 BSD .F               500:   BIT SIZE AT DEPTH
 DFT .                KCL:   DRILLING FLUID TYPE
 DFD .                9.6:   DRILLING FLUID DENSITY
 DFV .                 45:   DRILLING FLUID VISCOSITY
 DFL .                8.9:   DRILLING FLUID LOSS
 MSS .               PITS:   MUD SAMPLE SOURCE
 RMS .OHMM            .21:   RESISTIVITY MUD SAMPLE
 MST .F                76:   MUD SAMPLE TEMPERATURE
 RMF .OHMM            .19:   RESISTIVITY MUD FILTRATE SAMPLE
 MFST.F                76:   MUD FILTRATE SAMPLE TEMPERATURE
 MFSS.               MEAS:   MUD FILTRATE SAMPLE SOURCE
 TLAB.HRS            0845:   TIME LOGGER AT BOTTOM
 LUN .               8035:   LOGGING UNIT NUMBER
 LUL .               CSPR:   LOGGING UNIT LOCATION
 ENGI.           C. DRAKE:   RECORDING ENGINEER
 WITN.              AMEND:   WITNESSED BY
 CLNT.            A2DTECH:   CLIENT CODE
 ORIG.           5" PRINT:   ORIGIN OF DATA
 UWI .       490251080300:   UNIQUE WELL ID
 DICO. A2D Technologies, Inc.:   DIGITIZING COMPANY
~OTHER INFORMATION
~A    DEPT     SPR        SFL        ILD        ILM         GRD       CALD      DPHI       RHOB       CORR        NPHI  
# ...
   73.0000   -89.0247     8.0197     8.0442     6.4286   117.0218    10.0851     0.1252     2.4677    -0.0037     0.3355
   73.5000   -88.8262     7.9030     8.1028     6.3642   118.6431    10.0819     0.1222     2.4733    -0.0020     0.3386
   74.0000   -88.7801     7.7881     7.9493     6.3003   120.2657    10.0786     0.1191     2.4779    -0.0003     0.3492
   74.5000   -88.9987     7.6749     7.8494     6.2371   121.3863    10.0754     0.1158     2.4834     0.0014     0.3586
   75.0000   -89.2171     7.5632     7.7508     6.1744   119.8620    10.0721     0.1162     2.4833     0.0013     0.3591
   75.5000   -89.1721     7.4527     7.6534     6.1126   117.5827    10.0689     0.1214     2.4753    -0.0019     0.3563
   76.0000   -88.9669     7.3885     7.5572     6.0883   117.0661    10.0656     0.1259     2.4674    -0.0017     0.3584
   76.5000   -88.7587     7.3882     7.4622     6.1172   117.7225    10.0622     0.1232     2.4734    -0.0013     0.3615
   77.0000   -88.5501     7.5123     7.3892     6.1649   117.5658    10.0639     0.1183     2.4819    -0.0010     0.3577
   77.5000   -88.3414     7.6352     7.4863     6.2128   116.2096    10.0677     0.1140     2.4897    -0.0005     0.3504
   78.0000   -88.1316     7.7602     7.5824     6.2610   114.7827    10.0716     0.1114     2.4910    -0.0010     0.3415
   78.5000   -88.0995     7.8818     7.6797     6.3096   114.2827    10.0756     0.1129     2.4857    -0.0018     0.3395
   79.0000   -88.0994     7.9958     7.7783     6.3586   114.8944    10.0795     0.1171     2.4779    -0.0025     0.3399
   79.5000   -88.1011     8.1068     7.8781     6.4079   116.0614    10.0832     0.1216     2.4736    -0.0018     0.3374
   80.0000   -88.1685     8.2194     7.9792     6.4576   117.0941    10.0868     0.1226     2.4754    -0.0007     0.3317
   80.5000   -88.3199     8.3335     8.0816     6.5077   117.2533    10.0904     0.1205     2.4808     0.0003     0.3250
   81.0000   -88.4695     8.4492     8.2536     6.5582   117.4153    10.0940     0.1162     2.4887     0.0013     0.3306
   81.5000   -88.6284     8.5666     8.1779     6.6091   116.6622    10.0977     0.1119     2.4956     0.0023     0.3400
   82.0000   -88.8570     8.6842     8.3026     6.6153   113.4713    10.1013     0.1094     2.4932    -0.0002     0.3415
   82.5000   -88.6836     8.7202     8.3751     6.6153   110.7534    10.1049     0.1135     2.4827    -0.0034     0.3341
   83.0000   -88.4930     8.8074     8.4482     6.6153   109.0669    10.1085     0.1202     2.4715    -0.0053     0.3269
   83.5000   -88.3917     8.6474     8.4851     6.6153   109.6643    10.1121     0.1248     2.4679    -0.0056     0.3321
   84.0000   -88.2945     8.5562     8.4758     6.6153   112.1324    10.1157     0.1243     2.4760    -0.0022     0.3378
   84.5000   -87.9617     8.4660     8.4695     6.6153   113.7136    10.1195     0.1163     2.4886    -0.0008     0.3439
   85.0000   -87.6499     8.3767     8.4633     6.6153   113.6519    10.1195     0.1115     2.4962     0.0005     0.3447
   85.5000   -87.5097     8.2884     8.4571     6.6153   113.2370    10.1181     0.1090     2.4935     0.0017     0.3446
   86.0000   -87.6847     8.1779     8.4508     6.6153   112.2453    10.1166     0.1114     2.4859     0.0027     0.3436
   86.5000   -87.8897     8.1828     8.4446     6.6153   111.2758    10.1151     0.1166     2.4804     0.0028     0.3409
   87.0000   -88.0883     8.1921     8.4384     6.6153   110.7007    10.1136     0.1211     2.4697    -0.0010     0.3329
   87.5000   -87.9125     8.2014     8.4322     6.6153   111.0184    10.1121     0.1291     2.4537    -0.0050     0.3226
   88.0000   -87.7094     8.2107     8.4260     6.6151   112.2786    10.1106     0.1387     2.4455    -0.0083     0.3275
   88.5000   -87.5075     8.2199     8.4198     6.6298   112.4871    10.1091     0.1384     2.4456    -0.0069     0.3407
   89.0000   -87.3056     8.2292     8.4135     6.6491   112.3158    10.1076     0.1356     2.4521    -0.0045     0.3531
   89.5000   -87.1046     8.2386     8.4065     6.6684   113.6431    10.1061     0.1320     2.4573    -0.0023     0.3505
   90.0000   -86.9901     8.2521     8.4064     6.6766   115.1146    10.1046     0.1315     2.4556    -0.0040     0.3449
   90.5000   -86.8788     8.2483     8.6101     6.7699   115.1375    10.1032     0.1338     2.4526    -0.0076     0.3383
   91.0000   -86.7699     8.4975     8.7604     6.9354   113.9099    10.1017     0.1365     2.4495    -0.0074     0.3351
   91.5000   -86.8110     8.6414     8.9133     7.1043   111.2862    10.1002     0.1367     2.4496    -0.0053     0.3324
   92.0000   -87.1011     8.7877     9.0688     7.2773   108.7054    10.0987     0.1331     2.4550    -0.0009     0.3291
   92.5000   -87.3920     8.9365     9.2271     7.4543   106.8984    10.0972     0.1274     2.4643     0.0004     0.3210
   93.0000   -87.3884     9.0878     9.3882     7.5964   108.1346    10.0957     0.1242     2.4698     0.0002     0.3235
   93.5000   -87.2139     9.2417     9.5521     7.7324   112.0916    10.0942     0.1235     2.4703    -0.0006     0.3276
   94.0000   -87.0369     9.3982     9.7188     7.8398   114.5946    10.0927     0.1230     2.4722    -0.0014     0.3319
   94.5000   -86.8969     9.5573     9.8884     7.9486   114.8508    10.0912     0.1208     2.4759    -0.0022     0.3253
   95.0000   -86.8978     9.7191    10.0610     8.0590   112.5826    10.0898     0.1201     2.4760    -0.0016     0.3164
   95.5000   -86.7891     9.8837    10.2366     8.1708   110.3225    10.0883     0.1212     2.4747    -0.0001     0.3113
   96.0000   -86.5354    10.0516    10.4153     8.2843   109.7195    10.0868     0.1221     2.4724     0.0005     0.3101
   96.5000   -86.3039    10.1778    10.5865     8.3993   109.5435    10.0853     0.1238     2.4701     0.0008     0.3090
   97.0000   -86.2987    10.2834    10.8650     8.5527   110.8724    10.0838     0.1235     2.4710     0.0012     0.3122
   97.5000   -86.2998    10.3899    11.1351     8.8153   110.4656    10.0823     0.1224     2.4732     0.0014     0.3154
   98.0000   -86.3002    10.4894    11.4118     9.0860   109.4131    10.0811     0.1206     2.4756    -0.0006     0.3149
   98.5000   -86.3000    10.8927    11.6956     9.3650   108.6922    10.0823     0.1184     2.4805    -0.0028     0.3058
   99.0000   -86.2981    11.5162    11.9865     9.7436   107.9376    10.0834     0.1142     2.4878    -0.0046     0.3010
   99.5000   -86.1941    12.1753    12.2848     9.6583   105.8162    10.0845     0.1066     2.4978    -0.0064     0.2903
  100.0000   -85.9771    13.0872    12.4976     9.5361   103.5483    10.0856     0.1022     2.5064    -0.0062     0.2822
  100.5000   -85.7549    12.7593    12.4976     9.4154   102.3975    10.0866     0.1060     2.5007    -0.0051     0.2782
  101.0000   -85.5788    12.1329    12.4976     9.2962   103.8995    10.0877     0.1135     2.4868    -0.0043     0.2886
  101.5000   -85.4129    11.5758    12.4983     9.1786   105.4965    10.0888     0.1190     2.4787    -0.0027     0.2948
  102.0000   -85.3748    11.3100    12.3644     9.0624   104.6224    10.0899     0.1198     2.4769    -0.0019     0.2977
  102.5000   -85.6093    11.0503    12.1829     8.9477   102.4242    10.0910     0.1202     2.4760    -0.0002     0.2941
  103.0000   -85.8393    10.9849    12.0039     8.8344   101.6282    10.0921     0.1198     2.4777     0.0061     0.2918
  103.5000   -86.0711    10.9844    11.8277     8.7226   103.5016    10.0932     0.1161     2.4863     0.0126     0.2926
  104.0000   -86.2908    10.9842    11.5862     8.6122   105.8882    10.0943     0.1138     2.4857     0.0123     0.2959
  104.5000   -86.2214    11.0831    11.2327     8.5032   109.7253    10.0954     0.1206     2.4728     0.0068     0.2993
  105.0000   -86.1388    11.1866    10.8901     8.3956   112.4213    10.0964     0.1328     2.4516     0.0014     0.3027
  105.5000   -86.0573    11.2923    10.5579     8.2536   113.0731    10.0975     0.1412     2.4409    -0.0015     0.3052
  106.0000   -85.9768    11.2277    10.2366     8.1779   112.0163    10.0986     0.1410     2.4422    -0.0016     0.2998
