~VERSION INFORMATION
 VERS.                2.0:   CWLS LOG ASCII STANDARD - VERSION 2.0
 WRAP.                 NO:   ONE LINE PER DEPTH STEP
~WELL INFORMATION
#MNEM.UNIT      DATA TYPE    INFORMATION
#----------   ------------   ------------------------------
 STRT.F           41.0000:   START DEPTH
 STOP.F          468.0000:   STOP DEPTH
 STEP.F            0.1000:   STEP LENGTH
 NULL.          -999.2500:   NO VALUE
 COMP.       F D SERV INC:   COMPANY
 WELL. NAVAL PETROLEUM RESERVE 3 SX-1 #53-1-10:   WELL
 FLD .             TEAPOT:   FIELD
 LOC .      S10 T38N R78W:   LOCATION
 CNTY.            NATRONA:   COUNTY
 STAT.            WYOMING:   STATE
 CTRY. UNITED STATES OF AMERICA:   COUNTRY
 SRVC.     Atlas Wireline:   SERVICE COMPANY
 DATE.        22-DEC-1992:   LOGDATE
 API .       490252256900:   API NUMBER
~CURVE INFORMATION
#MNEM.UNIT       API CODE    CURVE DESCRIPTION
#----------   ------------   ------------------------------
 DEPT.F                  :   
 GRR .GAPI   07 310 01 00:   GAMMA RAY
 RILD.OHMM   07 120 46 00:   INDUCTION LOG DEEP RESISTIVITY
 RILM.OHMM   07 120 44 00:   RESITIVITY LONG MEDIUM
~PARAMETER INFORMATION
#MNEM.UNIT          VALUE    DESCRIPTION
#----------   ------------   ------------------------------
 PD  .                 GL:   PERMANENT DATUM
 EPD .F              5185:   ELEVATION PERMANENT DATUM
 LMF .                 KB:   LOG MEASURED FROM
 DAPD.F                10:   FEET ABOVE PERMANENT DATUM
 DMF .                 KB:   DRILLING MEASURED FROM
 EKB .F              5195:   KELLING BUSHING
 EDF .F              5194:   DRILLING FLOOR
 EGL .F              5185:   GROUND LEVEL
 DATE.        22-DEC-1992:   RUN DATE
 RUN .                  1:   RUN NUMBER
 DD  .F               475:   DEPTH DRILLER
 DL  .F               472:   DEPTH LOGGER
 BLI .F               470:   BOTTOM LOG INTERVAL
 CS  .IN            8.625:   CASING SIZE
 CBL .F                80:   CASING BOTTOM LOGGER
 BS  .IN            7.875:   BIT SIZE
 BSD .F               475:   BIT SIZE AT DEPTH
 DFT .        AIR DRILLED:   DRILLING FLUID TYPE
 LUN .            HL 6321:   LOGGING UNIT NUMBER
 LUL .       RCK, SPRINGS:   LOGGING UNIT LOCATION
 ENGI.      JOHN THOMPSON:   RECORDING ENGINEER
 WITN.          G. STRONG:   WITNESSED BY
 CLNT.            A2DTECH:   CLIENT CODE
 ORIG.           5" PRINT:   ORIGIN OF DATA
 UWI .       490252256900:   UNIQUE WELL ID
 DICO. A2D Technologies, Inc.:   DIGITIZING COMPANY
~OTHER INFORMATION
~A   DEPT      GRR       RILD       RILM   
# ...
  350.4000   106.4388    21.7500    21.6577
  350.5000   106.8111    21.7515    21.6214
  350.6000   107.0622    21.7530    21.5851
  350.7000   107.3285    21.7546    21.5488
  350.8000   107.9085    21.7563    21.5239
  350.9000   108.1186    21.7576    21.5248
  351.0000   108.3697    21.7591    21.5258
  351.1000   108.6208    21.7606    21.5266
  351.2000   108.8719    21.7621    21.5275
  351.3000   109.1384    21.7638    21.5284
  351.4000   109.3741    21.7652    21.5293
  351.5000   109.6252    21.7631    21.5302
  351.6000   110.1172    21.7587    21.5313
  351.7000   110.3752    21.7594    21.5320
  351.8000   110.3794    21.6868    21.6061
  351.9000   110.5747    21.6102    21.6842
  352.0000   110.8283    21.6111    21.6851
  352.1000   111.0818    21.6120    21.6861
  352.2000   111.3055    21.6129    21.8051
  352.3000   111.3101    21.6138    21.8394
  352.4000   111.5394    21.5506    21.8403
  352.5000   111.7930    21.4655    21.8412
  352.6000   112.1645    21.4664    21.8421
  352.7000   112.7315    21.4674    21.8431
  352.8000   113.4835    21.3609    21.8439
  352.9000   114.3662    21.3200    21.8448
  353.0000   114.9878    21.3209    21.8458
  353.1000   115.7399    21.2937    21.8467
  353.2000   116.3935    21.1727    21.8476
  353.3000   116.9412    21.0287    21.8487
  353.4000   117.7202    20.9331    21.7494
  353.5000   118.4455    20.8142    21.6987
  353.6000   119.0109    20.7402    21.6996
  353.7000   119.3808    20.7037    21.7005
  353.8000   119.3967    20.4549    21.7015
  353.9000   118.8768    20.3454    21.5854
  354.0000   118.0490    20.2299    21.4630
  354.1000   117.3897    20.1151    21.3412
  354.2000   116.6461    20.0008    21.1840
  354.3000   116.0159    19.8776    20.9533
  354.4000   115.6412    19.6225    20.8190
  354.5000   115.6515    19.5255    20.7162
  354.6000   115.9535    19.3421    20.5987
  354.7000   116.1586    19.1705    20.4818
  354.8000   116.2642    19.0616    20.3656
  354.9000   116.2685    18.9532    20.2499
  355.0000   116.3131    18.8457    20.1351
  355.1000   116.5802    18.7387    20.0209
  355.2000   116.3483    18.6946    19.9073
  355.3000   116.2855    18.6561    19.8361
  355.4000   116.0328    18.5663    19.8195
  355.5000   115.5384    18.5672    19.7002
  355.6000   115.0440    18.4682    19.7010
  355.7000   114.4848    18.4398    19.6202
  355.8000   114.2719    18.4406    19.5659
  355.9000   114.0269    18.4413    19.5337
  356.0000   113.8909    18.4421    19.4317
  356.1000   113.8951    18.4430    19.4327
  356.2000   113.9010    18.3523    19.4334
  356.3000   114.1545    18.3164    19.3619
  356.4000   114.8025    18.3171    19.3002
  356.5000   115.6981    18.3179    19.3257
  356.6000   116.6993    18.3187    19.4367
  356.7000   117.7367    18.3194    19.4375
  356.8000   119.0767    18.3202    19.4383
  356.9000   120.0067    18.3820    19.5038
  357.0000   121.0082    18.4885    19.6168
  357.1000   121.7614    18.5796    19.7303
  357.2000   122.3345    18.5804    19.8519
  357.3000   123.0702    18.7819    20.0670
  357.4000   123.6479    18.9995    20.2993
  357.5000   124.0757    19.2196    20.4744
  357.6000   124.4202    19.4421    20.6277
  357.7000   124.5691    19.6670    20.8661
  357.8000   124.5733    19.9261    21.1409
  357.9000   124.5776    20.0257    21.3521
  358.0000   124.0889    20.1418    21.5188
  358.1000   123.4018    20.2585    21.6976
  358.2000   122.2411    20.3759    21.9208
  358.3000   120.6645    20.4934    22.0482
  358.4000   118.8922    20.4943    22.3036
  358.5000   116.7246    20.5882    22.5619
  358.6000   115.3661    20.6393    22.7475
  358.7000   114.0478    20.6829    22.8792
  358.8000   112.8056    20.7853    23.0310
  358.9000   111.6952    20.7862    23.3158
  359.0000   110.9635    20.7870    23.4415
  359.1000   110.3868    20.7879    23.5773
  359.2000   110.1826    20.8488    23.6456
  359.3000   109.9376    20.9350    23.6857
  359.4000   109.6925    20.9359    23.8227
  359.5000   109.4931    20.9369    23.9802
  359.6000   109.4983    21.0410    23.9811
  359.7000   109.5024    21.0849    24.0709
  359.8000   109.5067    21.0858    24.1506
  359.9000   109.5109    21.0866    24.1517
  360.0000   109.5959    21.0875    24.1527
  360.1000   109.8224    20.9679    24.1537
  360.2000   109.8271    20.9429    24.0463
  360.3000   109.8309    20.9437    23.8322
  360.4000   109.8352    20.9020    23.5615
  360.5000   109.2636    20.7999    23.2937
  360.6000   108.1443    20.8010    23.0097
  360.7000   107.4160    20.8018    22.6475
  360.8000   107.1256    20.7180    22.2627
  360.9000   106.9259    20.6003    21.8841
  361.0000   106.6808    20.4833    21.5116
  361.1000   106.4357    20.3669    21.1451
  361.2000   106.2320    20.2345    20.7334
  361.3000   106.2372    20.1364    20.4327
  361.4000   106.4788    20.0221    20.0128
  361.5000   106.9161    19.9084    19.6540
  361.6000   107.5491    19.7716    19.4306
  361.7000   108.3014    19.5457    19.2088
  361.8000   109.0307    19.3247    18.9918
  361.9000   109.5963    19.1052    18.6928
  362.0000   110.0363    18.8881    18.4343
  362.1000   110.3747    18.5992    18.1886
  362.2000   110.5176    18.1914    17.8788
  362.3000   110.4649    17.8578    17.5512
  362.4000   110.2230    17.4854    17.2761
  362.5000   110.2273    17.1588    17.0511
  362.6000   110.0327    16.9141    16.9050
  362.7000   109.9327    16.7218    16.8090
  362.8000   109.9370    16.5315    16.7014
  362.9000   109.9412    16.3156    16.3750
  363.0000   109.9457    16.1581    16.2961
  363.1000   109.9497    15.9746    16.1450
  363.2000   110.3127    15.8309    15.9616
  363.3000   111.0669    15.7225    15.7987
  363.4000   112.0685    15.5422    15.7083
  363.5000   113.0515    15.3672    15.6200
  363.6000   113.9109    15.2603    15.5314
  363.7000   114.5557    15.1250    15.4432
  363.8000   115.7878    14.9827    15.3556
  363.9000   117.2881    14.8976    15.2800
  364.0000   118.6304    14.8061    15.2808
  364.1000   119.3861    14.6517    15.2814
  364.2000   119.8864    14.4852    15.2820
  364.3000   120.1949    14.3206    15.2826
  364.4000   120.4485    14.1799    15.2833
  364.5000   120.6152    14.1042    15.2839
  364.6000   120.6525    14.1050    15.2847
  364.7000   120.9270    14.0372    15.2852
  364.8000   120.9309    13.9575    15.2858
  364.9000   120.9352    13.8783    15.2865
  365.0000   120.8182    13.8154    15.2871
  365.1000   120.5731    13.8160    15.2878
  365.2000   120.3006    13.8166    15.2884
  365.3000   119.4377    13.7561    15.2890
  365.4000   119.0227    13.7218    15.2897
  365.5000   118.5283    13.7224    15.2903
  365.6000   118.0339    13.7230    15.2796
  365.7000   117.5395    13.7235    15.1856
  365.8000   117.0340    13.7241    15.1861
  365.9000   116.7946    13.7247    15.1868
  366.0000   116.5495    13.7252    15.1874
  366.1000   116.3044    13.7258    15.1880
  366.2000   116.0594    13.7264    15.1887
  366.3000   115.8425    13.7271    15.1894
  366.4000   115.8477    13.7275    15.1899
  366.5000   115.6273    13.7281    15.1906
  366.6000   115.5527    13.7287    15.1912
  366.7000   115.4402    13.7137    15.1918
  366.8000   115.2582    13.6345    15.1925
  366.9000   115.2531    13.6351    15.1931
  367.0000   114.9644    13.6357    15.1270
  367.1000   114.9679    13.5930    15.0890
  367.2000   114.8210    13.5421    15.0896
  367.3000   114.6733    13.5330    15.0902
  367.4000   114.5902    13.4493    15.0909
  367.5000   114.0759    13.3798    15.0130
  367.6000   113.6016    13.3570    14.9874
  367.7000   113.1074    13.3207    14.9468
  367.8000   112.6130    13.2451    14.8620
  367.9000   112.1185    13.1738    14.7820
  368.0000   111.6242    13.1744    14.7828
  368.1000   111.0714    13.1118    14.7125
  368.2000   110.8553    13.0840    14.6290
  368.3000   110.7764    13.0845    14.5801
  368.4000   110.8929    13.0705    14.5645
  368.5000   111.2050    12.9948    14.4802
