~VERSION INFORMATION
 VERS.                2.0:   CWLS LOG ASCII STANDARD - VERSION 2.0
 WRAP.                 NO:   ONE LINE PER DEPTH STEP
~WELL INFORMATION
#MNEM.UNIT      DATA TYPE    INFORMATION
#----------   ------------   ------------------------------
 STRT.F           42.0000:   START DEPTH
 STOP.F         3140.0000:   STOP DEPTH
 STEP.F            0.5000:   STEP LENGTH
 NULL.          -999.2500:   NO VALUE
 COMP. LAWRENCE-ALLISON & AS:   COMPANY
 WELL.     88 X 33 #88-33:   WELL
 FLD .             NPR #3:   FIELD
 LOC .      S33 T39N R78W:   LOCATION
 CNTY.            NATRONA:   COUNTY
 STAT.            WYOMING:   STATE
 CTRY. UNITED STATES OF AMERICA:   COUNTRY
 SRVC.       Schlumberger:   SERVICE COMPANY
 DATE.        13-DEC-1987:   LOGDATE
 API .       490251120300:   API NUMBER
~CURVE INFORMATION
#MNEM.UNIT       API CODE    CURVE DESCRIPTION
#----------   ------------   ------------------------------
 DEPT.F                  :   
 GRR .GAPI   07 310 01 00:   GAMMA RAY FROM RES
 SPR .MV     07 010 01 00:   SPONTANEOUS POTENTIAL
 ILD .OHMM   07 120 46 00:   INDUCTION LOG DEEP RES
 ILM .OHMM   07 120 44 00:   INDUCTION LOG MEDIUM RES
 SFLU.OHMM   07 220 01 00:   SPHERICALLY FOCUSED LOG UNAVERAGED RES
 DPHI.DEC    45 890 12 00:   DENSITY POROSITY SANDSTONE
 NPHI.DEC    42 890 03 00:   NEUTRON POROSITY SANDSTONE
 CALD.IN     45 280 60 00:   CALIPER FROM DENSITY LOG
 DRHO.G/C3   45 356 01 00:   DENSITY CORRECTION
 RHOB.G/C3   45 350 01 00:   BULK DENSITY
~PARAMETER INFORMATION
#MNEM.UNIT          VALUE    DESCRIPTION
#----------   ------------   ------------------------------
 PD  .                 GL:   PERMANENT DATUM
 EPD .F              5746:   ELEVATION PERMANENT DATUM
 LMF .                 KB:   LOG MEASURED FROM
 DAPD.F                11:   FEET ABOVE PERMANENT DATUM
 DMF .                 KB:   DRILLING MEASURED FROM
 EKB .F              5157:   KELLING BUSHING
 EGL .F              5146:   GROUND LEVEL
 DATE.        13-DEC-1987:   RUN DATE
 RUN .                  1:   RUN NUMBER
 DD  .F              3155:   DEPTH DRILLER
 DL  .F              3140:   DEPTH LOGGER
 BLI .F              3132:   BOTTOM LOG INTERVAL
 TLI .F               614:   TOP LOG INTERVAL
 CS  .IN            9.625:   CASING SIZE
 CBD .F               608:   CASING BOTTOM DRILLER
 CBL .F               614:   CASING BOTTOM LOGGER
 BS  .IN            7.875:   BIT SIZE
 BSD .F              3155:   BIT SIZE AT DEPTH
 DFT .       KCL DIS. PAC:   DRILLING FLUID TYPE
 DFD .                  9:   DRILLING FLUID DENSITY
 DFV .                 41:   DRILLING FLUID VISCOSITY
 DFPH.                9.5:   DRILLING FLUID PH
 DFL .                8.4:   DRILLING FLUID LOSS
 MSS .           FLOWLINE:   MUD SAMPLE SOURCE
 RMS .OHMM          0.523:   RESISTIVITY MUD SAMPLE
 MST .F                63:   MUD SAMPLE TEMPERATURE
 RMF .OHMM          0.435:   RESISTIVITY MUD FILTRATE SAMPLE
 MFST.F                63:   MUD FILTRATE SAMPLE TEMPERATURE
 RMC .OHMM          0.489:   RESISTIVITY MUD CAKE
 MCST.F                63:   MUD CAKE SAMPLE TEMPERATURE
 MFSS.              PRESS:   MUD FILTRATE SAMPLE SOURCE
 MCSS.               CALC:   MUD CAKE SAMPLE SOURCE
 RMB .OHMM          0.288:   RESISTIVITY MUD AT BHT
 BHT .F               120:   BOTTOM HOLE TEMPERATURE
 TCS .HRS            0600:   TIME CURCULATED STOPPED
 TLAB.HRS            1430:   TIME LOGGER AT BOTTOM
 MRT .F               120:   MAXIMUM RECORDED TEMPERATURE
 LUN .               8198:   LOGGING UNIT NUMBER
 LUL .             CASPER:   LOGGING UNIT LOCATION
 ENGI.          W. BENSON:   RECORDING ENGINEER
 WITN.        GARY STRONG:   WITNESSED BY
 CLNT.            A2DTECH:   CLIENT CODE
 ORIG.           5" PRINT:   ORIGIN OF DATA
 UWI .       490251120300:   UNIQUE WELL ID
 DICO. A2D Technologies, Inc.:   DIGITIZING COMPANY
~OTHER INFORMATION
~A   DEPT      GRR        SPR        ILD        ILM       SFLU       DPHI       NPHI       CALD       DRHO       RHOB   
# ...
 2286.5000   132.7272   -95.8117     5.2484     5.1955     7.7984     0.1686     0.3493     8.7966    -0.0226     2.3848
 2287.0000   128.2046   -95.5151     5.0353     4.7479     6.9805     0.1580     0.3152     8.7814    -0.0307     2.4191
 2287.5000   129.5555   -95.3690     4.7315     4.4300     5.9941     0.1315     0.3014     8.7811    -0.0337     2.4593
 2288.0000   132.0360   -95.0705     4.4153     4.1048     5.1828     0.1164     0.2935     8.7808    -0.0359     2.4586
 2288.5000   132.9352   -94.7756     4.3250     3.9905     4.4197     0.1144     0.2977     8.7805    -0.0337     2.4361
 2289.0000   129.0902   -94.4789     4.3557     4.3690     4.4504     0.1263     0.3068     8.7802    -0.0270     2.4271
 2289.5000   124.7935   -94.4914     4.4171     4.7151     4.9375     0.1367     0.3155     8.7799    -0.0167     2.4091
 2290.0000   118.0119   -94.9398     4.4485     5.0186     6.1624     0.1465     0.3303     8.7646    -0.0100     2.3949
 2290.5000   117.0756   -95.0949     4.4183     5.1596     8.8951     0.1543     0.3514     8.7493    -0.0056     2.3837
 2291.0000   119.1324   -94.9487     4.3280     5.0535     9.5329     0.1565     0.3472     8.7340    -0.0033     2.3934
 2291.5000   122.7423   -94.8026     4.1812     4.6502     9.7330     0.1502     0.3197     8.7187    -0.0093     2.4047
 2292.0000   127.4818   -94.4877     3.9563     4.1621     6.7898     0.1411     0.2932     8.7035    -0.0137     2.4144
 2292.5000   131.7695   -94.2092     3.6919     3.5489     4.6392     0.1399     0.2983     8.7332    -0.0181     2.4092
 2293.0000   131.3132   -94.0631     3.4691     3.1110     3.5906     0.1444     0.3016     8.7628    -0.0211     2.4047
 2293.5000   128.5978   -94.0678     3.2598     2.9637     3.0619     0.1420     0.3118     8.7925    -0.0219     2.4114
 2294.0000   124.3011   -94.0723     3.0844     2.9229     3.1479     0.1357     0.3354     8.7922    -0.0219     2.4264
 2294.5000   122.9412   -94.0768     2.9185     2.9637     4.0113     0.1336     0.3604     8.8069    -0.0189     2.4250
 2295.0000   124.7439   -94.0822     2.8195     3.0895     4.7366     0.1387     0.3622     8.8216    -0.0137     2.4085
 2295.5000   127.6761   -94.2373     2.8004     3.1117     5.0064     0.1441     0.3468     8.8363    -0.0130     2.4025
 2296.0000   128.5753   -94.2418     2.8008     3.0470     4.7695     0.1378     0.3136     8.8360    -0.0189     2.4190
 2296.5000   128.5814   -94.2463     2.7818     2.9637     4.2693     0.1279     0.3016     8.8357    -0.0196     2.4467
 2297.0000   127.8885   -94.2508     2.7630     2.8430     4.0392     0.1170     0.3073     8.8354    -0.0174     2.4535
 2297.5000   126.9804   -94.2553     2.7634     2.7084     3.6407     0.1158     0.3136     8.8201    -0.0129     2.4535
 2298.0000   126.5241   -94.2598     2.7637     2.6894     2.9990     0.1197     0.3127     8.8198    -0.0152     2.4437
 2298.5000   126.9714   -94.1126     2.8027     2.8430     2.8769     0.1185     0.2958     8.8044    -0.0226     2.4505
 2299.0000   129.9036   -94.1182     2.8422     2.8827     3.5906     0.1101     0.2943     8.7892    -0.0270     2.4685
 2299.5000   134.8690   -94.2734     2.9225     2.9432     4.1815     0.0989     0.3006     8.7739    -0.0300     2.4873
 2300.0000   141.6416   -94.3032     2.9432     3.0470     4.4197     0.0887     0.3060     8.7736    -0.0300     2.4959
 2300.5000   140.9612   -94.6218     3.3343     3.2652     3.9561     0.0887     0.3124     8.7733    -0.0307     2.4978
 2301.0000   135.9891   -94.8889     3.7773     3.7501     4.2105     0.0893     0.3132     8.7730    -0.0322     2.4963
 2301.5000   132.1464   -94.8935     3.9926     3.9088     5.1828     0.0902     0.3078     8.7727    -0.0330     2.4955
 2302.0000   131.4665   -94.8980     4.1334     4.0460     6.1624     0.0911     0.3018     8.7724    -0.0330     2.4903
 2302.5000   134.6268   -94.9025     4.3388     4.2172     5.9116     0.0920     0.2990     8.7721    -0.0337     2.4903
 2303.0000   138.0131   -95.0576     4.6502     4.4880     5.6319     0.0923     0.2996     8.7718    -0.0337     2.4903
 2303.5000   138.4632   -95.2128     5.0186     4.8765     5.7104     0.0920     0.3048     8.7715    -0.0338     2.4918
 2304.0000   135.6590   -95.2173     5.3047     5.2258     6.4239     0.0890     0.3147     8.7712    -0.0330     2.4963
 2304.5000   125.7834   -95.2218     5.4538     5.5229     7.5330     0.0857     0.3292     8.7484    -0.0308     2.5023
 2305.0000   121.4015   -95.2263     5.4917     5.7169     8.4157     0.0854     0.3370     8.7256    -0.0323     2.5023
 2305.5000   121.9064   -95.2308     5.4917     5.7960     8.7727     0.0881     0.3379     8.7103    -0.0353     2.4963
 2306.0000   129.2029   -95.2354     5.5299     5.7153     8.5331     0.0914     0.3350     8.6800    -0.0368     2.4926
 2306.5000   134.0106   -95.2399     5.5299     5.5199     7.6381     0.0917     0.3240     8.6497    -0.0360     2.4911
 2307.0000   135.7589   -94.9421     5.5683     5.4055     6.9323     0.0926     0.3182     8.6344    -0.0331     2.4904
 2307.5000   135.9601   -94.7971     5.5683     5.3674     6.4685     0.0935     0.3130     8.6041    -0.0294     2.4889
 2308.0000   135.5060   -94.6499     5.5299     5.4042     6.3795     0.0953     0.3094     8.5739    -0.0257     2.4859
 2308.5000   135.0520   -94.5038     5.6071     5.5552     6.6964     0.0986     0.3028     8.5436    -0.0242     2.4791
 2309.0000   136.6534   -94.5095     5.7647     5.7105     7.1766     0.1040     0.2966     8.5283    -0.0264     2.4724
 2309.5000   138.4465   -94.6646     6.0512     5.9935     7.9621     0.1079     0.2982     8.5130    -0.0279     2.4664
 2310.0000   141.5964   -94.9703     6.4407     6.3784     8.9569     0.1109     0.3076     8.4827    -0.0309     2.4600
 2310.5000   145.8863   -94.9749     6.8078     6.7411     9.8688     0.1088     0.3091     8.4674    -0.0331     2.4610
 2311.0000   145.2063   -95.1300     7.2460     7.2238    10.7239     0.1025     0.3085     8.4521    -0.0331     2.4730
 2311.5000   141.3637   -95.1345     7.6062     7.6346    11.3348     0.0962     0.3058     8.4368    -0.0331     2.4838
 2312.0000   135.2620   -94.9873     7.8743     8.0130    11.5727     0.0956     0.3015     8.4365    -0.0324     2.4853
 2312.5000   130.0640   -94.9929     8.0957     8.2373    11.4136     0.0962     0.2840     8.4212    -0.0302     2.4861
 2313.0000   125.9954   -94.8457     8.3811     8.5856    11.1017     0.0944     0.2789     8.4209    -0.0280     2.4907
 2313.5000   122.1528   -94.8514     8.6167     8.7647    10.7984     0.0841     0.2828     8.4206    -0.0265     2.5038
 2314.0000   119.4397   -94.8559     8.7977     8.9476    10.7239     0.0793     0.2912     8.4203    -0.0243     2.5145
 2314.5000   118.7597   -94.8604     8.8589     8.9464    11.4136     0.0814     0.3051     8.4351    -0.0228     2.5128
 2315.0000   119.6610   -95.1662     8.7977     8.8834    12.2320     0.0877     0.3183     8.4497    -0.0213     2.5036
 2315.5000   122.8214   -95.3213     8.7370     8.6994    12.4026     0.0937     0.3204     8.4494    -0.0184     2.4940
 2316.0000   126.2077   -95.3258     8.6766     8.4019    12.0637     0.0982     0.3111     8.4341    -0.0176     2.4849
 2316.5000   128.2386   -95.0280     8.4981     8.1147    11.4929     0.1016     0.2957     8.4338    -0.0243     2.4783
 2317.0000   129.8176   -94.7324     8.4394     7.8917    11.1017     0.1046     0.2923     8.4335    -0.0303     2.4724
 2317.5000   132.3003   -94.5852     8.4981     8.0010    10.6499     0.1052     0.2944     8.4483    -0.0310     2.4695
 2318.0000   137.0420   -94.4391     8.5572     8.1677    10.0759     0.1028     0.3062     8.4479    -0.0288     2.4697
 2318.5000   139.0729   -94.4448     8.6167     8.5133    10.1460     0.0970     0.3183     8.4627    -0.0236     2.4780
 2319.0000   138.1670   -94.5999     8.6766     8.6912    10.8735     0.0919     0.3167     8.4773    -0.0221     2.4862
 2319.5000   134.5503   -94.9056     8.7370     8.7505    11.8157     0.0901     0.3071     8.4770    -0.0214     2.4922
