~VERSION INFORMATION
 VERS.                2.0:   CWLS LOG ASCII STANDARD - VERSION 2.0
 WRAP.                 NO:   ONE LINE PER DEPTH STEP
~WELL INFORMATION
#MNEM.UNIT      DATA TYPE    INFORMATION
#----------   ------------   ------------------------------
 STRT.F            0.0000:   START DEPTH
 STOP.F          497.0000:   STOP DEPTH
 STEP.F            0.1000:   STEP LENGTH
 NULL.          -999.2500:   NO VALUE
 COMP.       F D SERV INC:   COMPANY
 WELL. NAVAL PETROLEUM RESERVE 3 SX-1 #81-1-10:   WELL
 FLD .             NPR #3:   FIELD
 LOC .      S10 T38N R78W:   LOCATION
 CNTY.            NATRONA:   COUNTY
 STAT.            WYOMING:   STATE
 CTRY. UNITED STATES OF AMERICA:   COUNTRY
 SRVC.     Atlas Wireline:   SERVICE COMPANY
 DATE.        14-DEC-1997:   LOGDATE
 API .       490252257400:   API NUMBER
~CURVE INFORMATION
#MNEM.UNIT       API CODE    CURVE DESCRIPTION
#----------   ------------   ------------------------------
 DEPT.F                  :   
 GRR .GAPI   07 310 01 00:   GAMMA RAY
 RILD.OHMM   07 120 46 00:   INDUCTION LOG DEEP RESISTIVITY
 RILM.OHMM   07 120 44 00:   INDUCTION LOG MEDIUM RESISTIVITY
~PARAMETER INFORMATION
#MNEM.UNIT          VALUE    DESCRIPTION
#----------   ------------   ------------------------------
 PD  .                 GL:   PERMANENT DATUM
 EPD .F              5132:   ELEVATION PERMANENT DATUM
 LMF .                 KB:   LOG MEASURED FROM
 DAPD.F                10:   FEET ABOVE PERMANENT DATUM
 DMF .                 KB:   DRILLING MEASURED FROM
 EKB .F              5142:   KELLING BUSHING
 EDF .F              5141:   DRILLING FLOOR
 EGL .F              5132:   GROUND LEVEL
 DATE.        14-DEC-1992:   RUN DATE
 RUN .                  1:   RUN NUMBER
 DD  .F               513:   DEPTH DRILLER
 DL  .F               505:   DEPTH LOGGER
 BLI .F               497:   BOTTOM LOG INTERVAL
 CS  .IN            8.625:   CASING SIZE
 CBD .F                53:   CASING BOTTOM DRILLER
 CBL .F                54:   CASING BOTTOM LOGGER
 BS  .IN            7.875:   BIT SIZE
 BSD .F               513:   BIT SIZE AT DEPTH
 DFT .           AIR FOAM:   DRILLING FLUID TYPE
 BHT .F                68:   BOTTOM HOLE TEMPERATURE
 MRT .F                68:   MAXIMUM RECORDED TEMPERATURE
 LUN .           HL- 6274:   LOGGING UNIT NUMBER
 LUL .             CASPER:   LOGGING UNIT LOCATION
 ENGI.             RAUTIO:   RECORDING ENGINEER
 WITN.          G. STRONG:   WITNESSED BY
 CLNT.            A2DTECH:   CLIENT CODE
 ORIG.           5" PRINT:   ORIGIN OF DATA
 UWI .       490252257400:   UNIQUE WELL ID
 DICO. A2D Technologies, Inc.:   DIGITIZING COMPANY
~OTHER INFORMATION
~A    DEPT      GRR      RILD       RILM   
# ...
  218.4000   116.7446     6.6407     7.0996
  218.5000   115.9729     6.7152     7.1295
  218.6000   115.1221     6.8354     7.1348
  218.7000   114.1282     6.9540     7.1799
  218.8000   113.3277     7.0441     7.2202
  218.9000   112.5850     7.1207     7.2633
  219.0000   112.2189     7.1741     7.3067
  219.1000   112.1193     7.2168     7.3324
  219.2000   112.1181     7.2597     7.3429
  219.3000   112.1169     7.3028     7.3867
  219.4000   112.1157     7.3462     7.4360
  219.5000   112.1144     7.3961     7.4752
  219.6000   112.5887     7.4339     7.4884
  219.7000   113.1012     7.4478     7.5123
  219.8000   113.9117     7.4480     7.5413
  219.9000   114.9377     7.4481     7.5416
  220.0000   115.9638     7.4551     7.5419
  220.1000   116.9899     7.5002     7.5949
  220.2000   118.1300     7.5003     7.5952
  220.3000   119.0422     7.5363     7.6246
  220.4000   120.0683     7.5528     7.6701
  220.5000   120.9548     7.5530     7.7025
  220.6000   121.5337     7.5531     7.7028
  220.7000   121.7388     7.5532     7.7031
  220.8000   121.7374     7.5533     7.7034
  220.9000   121.7360     7.5534     7.7387
  221.0000   121.7349     7.5872     7.7578
  221.1000   121.7337     7.6063     7.7581
  221.2000   121.7325     7.6064     7.7585
  221.3000   121.7313     7.6065     7.7588
  221.4000   121.7301     7.6066     7.7591
  221.5000   121.7289     7.6067     7.7594
  221.6000   121.7275     7.6068     7.7598
  221.7000   122.1454     7.6385     7.7601
  221.8000   122.4928     7.6601     7.7766
  221.9000   122.7484     7.6602     7.8149
  222.0000   122.9277     7.6603     7.8152
  222.1000   122.9584     7.6604     7.8156
  222.2000   123.2264     7.7140     7.8540
  222.3000   123.2253     7.7895     7.9009
  222.4000   123.0241     7.8221     7.9259
  222.5000   122.9217     7.8441     7.9262
  222.6000   122.8092     7.8769     7.9266
  222.7000   122.4175     7.8770     7.9269
  222.8000   121.6908     7.8772     7.9715
  222.9000   121.4107     7.8773     7.9829
  223.0000   120.7048     7.8774     7.9832
  223.1000   120.1237     7.8775     7.9835
  223.2000   119.6088     7.8776     7.9839
  223.3000   119.1958     7.8777     7.9842
  223.4000   118.9378     7.8809     7.9846
  223.5000   118.6797     7.9329     7.9849
  223.6000   118.3902     7.9330     7.9852
  223.7000   118.3892     7.9331     8.0106
  223.8000   118.3880     7.9586     8.0416
  223.9000   118.3867     7.9886     8.0419
  224.0000   118.2932     7.9888     8.0422
  224.1000   118.0831     7.9895     8.0987
  224.2000   118.0783     8.0447     8.0990
  224.3000   117.7793     8.0448     8.0994
  224.4000   117.5623     8.0449     8.0997
  224.5000   117.3042     8.0450     8.1142
  224.6000   116.9189     8.0451     8.1569
  224.7000   116.4869     8.0453     8.1572
  224.8000   116.1904     8.0454     8.1576
  224.9000   115.6638     8.0455     8.1579
  225.0000   115.3612     8.0830     8.1582
  225.1000   114.9470     8.1018     8.1586
  225.2000   114.5944     8.1019     8.1589
  225.3000   114.3363     8.1021     8.1593
  225.4000   113.9313     8.1022     8.1596
  225.5000   113.2179     8.1023     8.1599
  225.6000   112.9445     8.1024     8.1603
  225.7000   112.9434     8.1025     8.1606
  225.8000   112.7450     8.1293     8.1610
  225.9000   112.6398     8.1593     8.1613
  226.0000   112.7470     8.1594     8.1616
  226.1000   113.0026     8.1608     8.1620
  226.2000   113.2976     8.2165     8.1623
  226.3000   114.1408     8.2166     8.1627
  226.4000   114.6040     8.2167     8.1630
  226.5000   115.3042     8.2169     8.1776
  226.6000   116.0735     8.2012     8.2206
  226.7000   117.0408     8.1601     8.2210
  226.8000   118.2691     8.1603     8.2213
  226.9000   119.3054     8.1604     8.2217
  227.0000   120.7589     8.1605     8.2220
  227.1000   122.3167     8.1606     8.2223
  227.2000   124.1133     8.1392     8.2227
  227.3000   125.2402     8.1043     8.2230
  227.4000   125.6630     8.1044     8.2234
  227.5000   125.8737     8.1045     8.2237
  227.6000   125.8715     8.1490     8.2241
  227.7000   125.5697     8.1613     8.2244
  227.8000   125.3554     8.1614     8.2247
  227.9000   124.7596     8.1615     8.2251
  228.0000   123.9879     8.1616     8.2254
  228.1000   123.1361     8.1617     8.2832
  228.2000   122.1076     8.1619     8.2835
  228.3000   121.0445     8.1202     8.2838
  228.4000   120.2988     8.1055     8.2842
  228.5000   119.5272     8.1057     8.2845
  228.6000   119.0743     8.1058     8.2849
  228.7000   118.7012     8.1059     8.2852
  228.8000   118.2570     8.1060     8.2856
  228.9000   118.0253     8.1061     8.2859
  229.0000   118.0240     8.1062     8.3152
  229.1000   118.0229     8.1063     8.3444
  229.2000   118.0217     8.1288     8.3448
  229.3000   118.0205     8.1631     8.3451
  229.4000   118.1249     8.1632     8.3455
  229.5000   118.3805     8.1633     8.3895
  229.6000   118.6361     8.1635     8.4044
  229.7000   118.9191     8.1636     8.4047
  229.8000   119.1474     8.1637     8.3876
  229.9000   119.4030     8.1440     8.3471
  230.0000   119.7992     8.1074     8.3475
  230.1000   120.1193     8.1075     8.3479
  230.2000   120.2703     8.1076     8.3078
  230.3000   120.4181     8.1077     8.2907
  230.4000   120.4169     8.1078     8.2681
  230.5000   120.4538     8.1079     8.2340
  230.6000   121.0168     8.1080     8.2343
  230.7000   121.2472     8.1081     8.2347
  230.8000   121.5028     8.1083     8.2350
  230.9000   121.6157     8.1084     8.2354
  231.0000   121.6145     8.1085     8.2072
  231.1000   121.6673     8.1086     8.1790
  231.2000   121.9229     8.1087     8.1794
  231.3000   122.2131     8.1088     8.1797
  231.4000   122.4341     8.1089     8.1801
  231.5000   122.5120     8.1090     8.1804
  231.6000   122.6442     8.1092     8.1467
  231.7000   122.9887     8.0721     8.1244
  231.8000   123.5012     8.0532     8.1247
  231.9000   124.0133     8.0533     8.1166
  232.0000   124.0118     8.0534     8.0691
  232.1000   124.2235     8.0571     8.0695
  232.2000   124.1426     8.1098     8.0698
  232.3000   124.0084     8.1099     8.0394
  232.4000   124.0072     8.1101     8.0146
  232.5000   124.0060     8.1102     8.0149
  232.6000   124.0048     8.1103     8.0097
  232.7000   123.7561     8.1104     7.9601
  232.8000   123.4980     8.1105     7.9604
  232.9000   123.0811     8.1106     7.9607
  233.0000   122.6807     8.1107     7.9335
  233.1000   122.2825     8.1108     7.9062
  233.2000   121.4852     8.1110     7.8956
  233.3000   120.3818     8.0958     7.8521
  233.4000   119.1899     8.0550     7.8525
  233.5000   118.0983     8.0551     7.8120
  233.6000   116.9205     8.0092     7.7987
  233.7000   115.7403     7.9621     7.7990
  233.8000   114.7723     7.9153     7.7831
  233.9000   114.0006     7.8688     7.7456
  234.0000   113.1444     7.8225     7.7460
  234.1000   112.9146     7.7764     7.6927
  234.2000   112.4723     7.7268     7.6556
  234.3000   112.2374     7.6852     7.6400
  234.4000   112.1405     7.6735     7.6191
  234.5000   111.9340     7.6481     7.5745
  234.6000   112.2474     7.6206     7.5250
  234.7000   112.8348     7.6016     7.4317
  234.8000   113.0530     7.5139     7.3908
  234.9000   113.3086     7.4636     7.3476
  235.0000   113.8253     7.3881     7.2544
  235.1000   114.5946     7.3014     7.1791
  235.2000   115.4055     7.2157     7.1595
  235.3000   116.4422     7.1309     7.0756
  235.4000   117.3444     7.0471     6.9831
  235.5000   117.7631     6.9630     6.9471
  235.6000   118.4410     6.8670     6.8494
  235.7000   118.9681     6.8018     6.7712
  235.8000   119.3770     6.7220     6.7039
  235.9000   120.0817     6.6609     6.5930
  236.0000   120.3493     6.5999     6.5158
  236.1000   120.5930     6.4919     6.3816
  236.2000   120.8486     6.4511     6.3202
  236.3000   121.1042     6.3457     6.2462
  236.4000   121.3598     6.2068     6.1561
  236.5000   121.5482     6.0618     6.0690
