~VERSION INFORMATION
 VERS.                2.0:   CWLS LOG ASCII STANDARD - VERSION 2.0
 WRAP.                 NO:   ONE LINE PER DEPTH STEP
~WELL INFORMATION
#MNEM.UNIT      DATA TYPE    INFORMATION
#----------   ------------   ------------------------------
 STRT.F            6.0000:   START DEPTH
 STOP.F          522.0000:   STOP DEPTH
 STEP.F            0.5000:   STEP LENGTH
 NULL.          -999.2500:   NO VALUE
 COMP.       F D SERV INC:   COMPANY
 WELL.    88-7 SX-3 #88-3:   WELL
 FLD .             TEAPOT:   FIELD
 LOC .       S3 T38N R78W:   LOCATION
 CNTY.            NATRONA:   COUNTY
 STAT.            WYOMING:   STATE
 CTRY. UNITED STATES OF AMERICA:   COUNTRY
 SRVC.      Western Atlas:   SERVICE COMPANY
 DATE.        30-NOV-1992:   LOGDATE
 API .       490252254100:   API NUMBER
~CURVE INFORMATION
#MNEM.UNIT       API CODE    CURVE DESCRIPTION
#----------   ------------   ------------------------------
 DEPT.F                  :   
 GRR .GAPI   07 310 01 00:   GAMMA RAY
 RILD.OHMM   07 120 46 00:   INDUCTION LOG DEEP RESISTIVITY
 RILM.OHMM   07 120 44 00:   INDUCTION LOG MEDIUM RESISTIVITY
 C13 .IN     45 280 13 00:   CALIPER 13
 ZCOR.G/C3   45 356 01 00:   DENSITY CORRECTION
 ZDEN.G/C3   45 350 01 00:   BULK DENSITY
 PORZ.DEC    45 890 00 00:   DENSITY POROSITY
 NPHI.DEC    42 890 03 00:   NEUTRON POROSITY SANDSTONE
~PARAMETER INFORMATION
#MNEM.UNIT          VALUE    DESCRIPTION
#----------   ------------   ------------------------------
 PD  .                 GL:   PERMANENT DATUM
 EPD .F              5155:   ELEVATION PERMANENT DATUM
 LMF .                 KB:   LOG MEASURED FROM
 DAPD.F                10:   FEET ABOVE PERMANENT DATUM
 DMF .                 KB:   DRILLING MEASURED FROM
 EKB .F              5165:   KELLING BUSHING
 EDF .F              5164:   DRILLING FLOOR
 EGL .F              5155:   GROUND LEVEL
 DATE.        30-NOV-1992:   RUN DATE
 RUN .                  1:   RUN NUMBER
 DD  .F               525:   DEPTH DRILLER
 DL  .F               525:   DEPTH LOGGER
 BLI .F               516:   BOTTOM LOG INTERVAL
 TLI .F                 6:   TOP LOG INTERVAL
 CS  .IN            8.625:   CASING SIZE
 CBD .F                95:   CASING BOTTOM DRILLER
 CBL .F                98:   CASING BOTTOM LOGGER
 BS  .IN            7.875:   BIT SIZE
 BSD .F               525:   BIT SIZE AT DEPTH
 DFT .           AIR FOAM:   DRILLING FLUID TYPE
 MRT .F                68:   MAXIMUM RECORDED TEMPERATURE
 LUN .           HL- 6774:   LOGGING UNIT NUMBER
 LUL .             CASPER:   LOGGING UNIT LOCATION
 ENGI.             RAUTIO:   RECORDING ENGINEER
 WITN.          BOB SYLER:   WITNESSED BY
 CLNT.            A2DTECH:   CLIENT CODE
 ORIG.           5" PRINT:   ORIGIN OF DATA
 UWI .       490252254100:   UNIQUE WELL ID
 DICO. A2D Technologies, Inc.:   DIGITIZING COMPANY
~OTHER INFORMATION
~A    DEPT     GRR       RILD       RILM        C13       ZCOR       ZDEN       PORZ       NPHI   
# ...
  370.5000    98.7842    18.3881    18.5048     8.4136     0.0546     2.4084     0.0854     0.2329
  371.0000    94.2249    18.6385    18.6304     8.3820     0.0696     2.4584     0.0680     0.2247
  371.5000    91.4894    18.5025    18.6240     8.3655     0.0544     2.5240     0.0532     0.2147
  372.0000    89.9696    18.2398    18.2335     8.3796     0.0362     2.5511     0.0620     0.2193
  372.5000    91.4894    17.8558    17.6039     8.4086     0.0074     2.5647     0.0788     0.2290
  373.0000    95.4407    17.3583    16.7608     8.4224    -0.0048     2.5443     0.0996     0.2412
  373.5000    99.3921    16.9929    16.0696     8.4813    -0.0034     2.5104     0.1204     0.2512
  374.0000    99.3921    16.5195    15.5148     8.5254     0.0028     2.4712     0.1415     0.2597
  374.5000    96.6565    15.9476    15.2958     8.5392     0.0145     2.4250     0.1472     0.2612
  375.0000    95.7447    15.5033    15.1853     8.5379     0.0161     2.4136     0.1476     0.2625
  375.5000    96.6565    15.2782    15.0756     8.5365     0.0233     2.4076     0.1464     0.2637
  376.0000   100.0000    15.1716    15.0714     8.5352     0.0292     2.4090     0.1452     0.2646
  376.5000   102.4316    15.1663    15.0672     8.5338     0.0290     2.4128     0.1440     0.2646
  377.0000   102.7356    15.1610    15.1686     8.5322     0.0289     2.4158     0.1428     0.2635
  377.5000   101.2158    15.1547    15.1634     8.5308     0.0288     2.4165     0.1431     0.2626
  378.0000    99.3921    15.1495    15.1592     8.5295     0.0332     2.4157     0.1441     0.2593
  378.5000    98.7842    15.0389    15.0497     8.5130     0.0436     2.4134     0.1429     0.2575
  379.0000    98.7842    14.9292    14.8373     8.5116     0.0466     2.4179     0.1369     0.2539
  379.5000    98.7842    14.8203    14.6278     8.5103     0.0404     2.4246     0.1284     0.2527
  380.0000    99.7366    14.6099    14.4212     8.4787     0.0222     2.4419     0.1224     0.2563
  380.5000   100.3040    14.5033    14.3171     8.4470     0.0085     2.4503     0.1228     0.2597
  381.0000    99.3921    14.3975    14.2137     8.3851     0.0099     2.4479     0.1255     0.2630
  381.5000    99.0881    14.0944    14.0130     8.3383     0.0022     2.4448     0.1308     0.2662
  382.0000   100.3040    13.7976    13.7192     8.3369    -0.0085     2.4378     0.1375     0.2710
  382.5000   102.4316    13.6017    13.6201     8.3356    -0.0086     2.4257     0.1446     0.2704
  383.0000   101.8237    13.4086    13.3345     8.3342    -0.0057     2.4170     0.1494     0.2689
  383.5000   100.0000    13.3108    13.1462     8.3329    -0.0041     2.4040     0.1468     0.2668
  384.0000    99.6960    13.1218    12.9606     8.3315    -0.0021     2.4062     0.1392     0.2680
  384.5000   102.7356    13.0261    12.8670     8.3322     0.0150     2.4182     0.1254     0.2711
  385.0000   105.7751    12.9310    12.7741     8.3335     0.0179     2.4385     0.1178     0.2735
  385.5000   108.8146    12.9266    12.7705     8.3348     0.0193     2.4543     0.1167     0.2736
  386.0000   110.9422    12.9221    12.7669     8.3361     0.0132     2.4603     0.1167     0.2724
  386.5000   109.7264    12.9176    12.7627     8.3374     0.0085     2.4611     0.1167     0.2712
  387.0000   107.2948    12.9239    12.8493     8.3387     0.0084     2.4603     0.1171     0.2691
  387.5000   107.9027    13.0902    12.9357     8.3400     0.0143     2.4602     0.1187     0.2664
  388.0000   110.6383    13.2684    13.1128     8.3413     0.0172     2.4594     0.1192     0.2627
  388.5000   111.5502    13.4502    13.2933     8.3426     0.0261     2.4549     0.1156     0.2594
  389.0000   108.8146    13.5409    13.3835     8.3439     0.0351     2.4556     0.1099     0.2528
  389.5000   104.2371    13.6310    13.5677     8.3452     0.0304     2.4616     0.1048     0.2483
  390.0000   102.4316    13.7217    13.6580     8.3465     0.0182     2.4729     0.1060     0.2523
  390.5000   105.3050    13.7158    13.6542     8.3478     0.0015     2.4788     0.1151     0.2581
  391.0000   107.2948    13.7111    13.5556     8.3491    -0.0046     2.4689     0.1283     0.2599
  391.5000   103.6474    13.5164    13.4577     8.3504    -0.0047     2.4436     0.1411     0.2599
  392.0000    99.0881    13.2318    13.1755     8.3517    -0.0032     2.4220     0.1463     0.2602
  392.5000    97.8723    12.9533    12.8992     8.3530     0.0030     2.4108     0.1439     0.2609
  393.0000   102.7356    12.7694    12.7171     8.3372     0.0115     2.4138     0.1376     0.2618
  393.5000   105.4711    12.6762    12.4505     8.3359     0.0129     2.4205     0.1288     0.2630
  394.0000   106.3830    12.4962    12.3605     8.3345     0.0052     2.4363     0.1255     0.2667
  394.5000   110.6383    12.1481    12.0946     8.3332     0.0006     2.4439     0.1252     0.2670
  395.0000   113.6778    11.9756    11.7652     8.3318     0.0125     2.4423     0.1244     0.2658
  395.5000   116.1094    11.7235    11.5840     8.3305     0.0184     2.4460     0.1241     0.2638
  396.0000   115.5015    11.6380    11.4346     8.3291     0.0108     2.4460     0.1238     0.2623
  396.5000   115.1976    11.5531    11.4315     8.3275    -0.0060     2.4460     0.1235     0.2647
  397.0000   112.7660    11.5491    11.4283     8.3261    -0.0061     2.4474     0.1226     0.2668
  397.5000   108.8146    11.7073    11.5864     8.2945    -0.0016     2.4482     0.1212     0.2660
  398.0000   108.5106    11.7972    11.8272     8.2931     0.0027     2.4504     0.1209     0.2669
  398.5000   108.5106    12.1136    12.1584     8.2766     0.0011     2.4488     0.1234     0.2675
  399.0000   108.2067    12.5393    12.4988     8.2753    -0.0005     2.4473     0.1258     0.2718
  399.5000   107.5988    13.2546    13.3046     8.2437    -0.0021     2.4450     0.1288     0.2718
  400.0000   107.2948    14.2202    14.4835     8.2272    -0.0038     2.4359     0.1417     0.2706
  400.5000   104.2586    17.5168    17.5996     8.2258    -0.0039     2.4010     0.1630     0.2641
  401.0000    98.4865    20.2811    20.0737     8.2245    -0.0040     2.3651     0.1844     0.2538
  401.5000    90.8907    24.3152    24.7101     8.2231    -0.0026     2.3291     0.2058     0.2465
  402.0000    82.6870    27.7622    29.0336     8.2218    -0.0012     2.2931     0.2361     0.2352
  402.5000    78.4347    31.2586    33.6093     8.2204     0.0167     2.2516     0.2434     0.2177
  403.0000    76.9179    34.2266    37.8361     8.2343     0.0392     2.2493     0.2416     0.2141
  403.5000    77.2249    37.4851    36.7929     8.2481     0.0331     2.2651     0.2325     0.2233
  404.0000    78.2210    39.0968    35.0379     8.2619     0.0209     2.2816     0.2199     0.2357
  404.5000    83.9889    37.9416    33.3666     8.2753     0.0208     2.2891     0.2193     0.2479
  405.0000    86.0993    36.1494    32.2213     8.2891     0.0071     2.2898     0.2206     0.2523
  405.5000    86.9641    34.7076    31.5521     8.3333    -0.0036     2.2860     0.2258     0.2513
  406.0000    87.2711    34.2266    31.5500     8.3925    -0.0007     2.2731     0.2302     0.2430
  406.5000    91.8333    34.4662    32.4400     8.4370     0.0218     2.2708     0.2279     0.2342
  407.0000    92.7474    34.4662    33.5885     8.3898     0.0368     2.2756     0.2197     0.2045
  407.5000    90.3196    33.9886    34.2962     8.3582     0.0728     2.2963     0.1971     0.1843
  408.0000    85.4594    33.0531    32.6602     8.2962     0.0999     2.3498     0.1343     0.1679
  408.5000    80.9031    31.9198    30.2469     8.2343     0.0636     2.4621     0.0842     0.1707
  409.0000    80.6014    30.8254    28.3974     8.2329     0.0034     2.5089     0.1070     0.1950
  409.5000    81.5170    29.9770    27.2107     8.2316    -0.0164     2.4915     0.1356     0.2285
  410.0000    86.0793    28.5480    25.9162     8.2303    -0.0059     2.4362     0.1642     0.2455
  410.5000    90.3376    27.3775    25.0495     8.2289     0.0031     2.3804     0.1873     0.2567
