~VERSION INFORMATION
 VERS.                2.0:   CWLS LOG ASCII STANDARD - VERSION 2.0
 WRAP.                 NO:   ONE LINE PER DEPTH STEP
~WELL INFORMATION
#MNEM.UNIT      DATA TYPE    INFORMATION
#----------   ------------   ------------------------------
 STRT.F           33.0000:   START DEPTH
 STOP.F          694.0000:   STOP DEPTH
 STEP.F            0.5000:   STEP LENGTH
 NULL.          -999.2500:   NO VALUE
 COMP. FENIX & SCISSON INC:   COMPANY
 WELL.  NPR 3 #64 S 34-34:   WELL
 FLD .             TEAPOT:   FIELD
 LOC .      S34 T39N R78W:   LOCATION
 CNTY.            NATRONA:   COUNTY
 STAT.            WYOMING:   STATE
 CTRY. UNITED STATES OF AMERICA:   COUNTRY
 SRVC.              Welex:   SERVICE COMPANY
 DATE.        28-APR-1977:   LOGDATE
 API .       490251034600:   API NUMBER
~CURVE INFORMATION
#MNEM.UNIT       API CODE    CURVE DESCRIPTION
#----------   ------------   ------------------------------
 DEPT.F                  :   
 CALD.IN     45 280 60 00:   CALIPER FROM DENSITY LOG
 GRD .GAPI   45 310 01 00:   GAMMA RAY FROM DENSITY LOG
 CORR.G/C3   45 356 01 00:   DENSITY CORRECTION
 DPHI.DEC    45 890 12 00:   DENSITY POROSITY SANDSTONE
 RHOB.G/C3   45 350 01 00:   BULK DENSITY
 SPR .MV     07 010 01 00:   SPONTANEOUS POTENTIAL
 ILD .OHMM   07 120 46 00:   INDUCTION LOG DEEP
 ILM .OHMM   07 120 44 00:   INDUCTION LOG MEDIUM
 SGRD.OHMM   07 221 05 00:   SHALLOW SHORT GUARD RESISTIVITY
~PARAMETER INFORMATION
#MNEM.UNIT          VALUE    DESCRIPTION
#----------   ------------   ------------------------------
 PD  .                 GL:   PERMANENT DATUM
 EPD .F              5079:   ELEVATION PERMANENT DATUM
 LMF .                 GL:   LOG MEASURED FROM
 DMF .                 GL:   DRILLING MEASURED FROM
 EGL .F              5079:   GROUND LEVEL
 DATE.        28-APR-1977:   RUN DATE
 RUN .                  1:   RUN NUMBER
 DD  .F               735:   DEPTH DRILLER
 DL  .F               697:   DEPTH LOGGER
 BLI .F               695:   BOTTOM LOG INTERVAL
 TLI .F                32:   TOP LOG INTERVAL
 CS  .IN            8.625:   CASING SIZE
 BS  .IN               12:   BIT SIZE
 BSD .F               735:   BIT SIZE AT DEPTH
 DFT .            KCL MUD:   DRILLING FLUID TYPE
 DFD .                9.0:   DRILLING FLUID DENSITY
 BHT .F                74:   BOTTOM HOLE TEMPERATURE
 TCS .HRS            0100:   TIME CURCULATED STOPPED
 MRT .F                74:   MAXIMUM RECORDED TEMPERATURE
 ENGI.            C. DOAK:   RECORDING ENGINEER
 WITN.           ROB LYON:   WITNESSED BY
 CLNT.            A2DTECH:   CLIENT CODE
 ORIG.           5" PRINT:   ORIGIN OF DATA
 UWI .       490251034600:   UNIQUE WELL ID
 DICO. A2D Technologies, Inc.:   DIGITIZING COMPANY
~OTHER INFORMATION
~A   DEPT     CALD        GRD       CORR       DPHI       RHOB        SPR        ILD        ILM       SGRD   
# ...
  142.5000     7.8967    95.4986     0.0263     0.1827     2.3669   -40.2667    12.7205    13.0325    14.7794
  143.0000     7.8981    94.0283     0.0249     0.1823     2.3647   -40.2473    11.9594    12.5308    14.4850
  143.5000     7.8994    93.0031     0.0235     0.1847     2.3610   -40.2310    11.5596    12.5433    14.2007
  144.0000     7.9008    92.5681     0.0221     0.1871     2.3604   -40.3668    11.4059    12.6498    14.2106
  144.5000     7.8724    95.1071     0.0207     0.1822     2.3664   -40.3445    11.5740    12.9207    14.2205
  145.0000     7.8291    95.8623     0.0189     0.1855     2.3583   -40.3266    11.7428    12.2303    14.1318
  145.5000     7.8305    95.7240     0.0161     0.1935     2.3426   -40.4609    11.9967    12.4239    13.5588
  146.0000     7.8467    97.6695     0.0104     0.2010     2.3360   -40.4401    12.0042    12.6043    13.1105
  146.5000     7.8629    99.7601     0.0058     0.2012     2.3368   -40.4222    12.0117    12.5254    13.5833
  147.0000     7.8642   101.7023     0.0014     0.1926     2.3466   -40.5580    11.9363    12.2834    13.2185
  147.5000     7.8655   103.1993     0.0080     0.1818     2.3631   -40.5357    11.8613    12.4670    12.8669
  148.0000     7.8669   104.3997     0.0141     0.1752     2.3789   -40.5178    11.8687    12.5658    13.6117
  148.5000     7.8831   105.3033     0.0201     0.1694     2.3910   -40.4999    11.7942    12.4912    13.3393
  149.0000     7.8844   105.9102     0.0246     0.1653     2.3993   -40.4465    11.7201    12.5036    13.0742
  149.5000     7.9006   105.6268     0.0262     0.1609     2.4061   -40.3725    11.1725    12.6054    13.1745
  150.0000     7.9019   104.2142     0.0263     0.1564     2.4130   -40.2985    10.6511    12.5267    13.4612
  150.5000     7.9451   102.6843     0.0234     0.1520     2.4219   -40.2836    10.1541    12.0300    13.2847
  151.0000     7.9643   106.2656     0.0250     0.1478     2.4347   -40.4179     9.5471    10.9274    13.2019
  151.5000     7.9504   108.6559     0.0281     0.1399     2.4452   -40.4030     8.7312    10.3473    13.1197
  152.0000     7.9521   110.6011     0.0296     0.1336     2.4528   -40.5374     8.3238     9.7980    12.6807
  152.5000     7.9382   113.4365     0.0312     0.1312     2.4543   -40.5224     7.7722     8.7775     9.0741
  153.0000     7.9399   115.0849     0.0310     0.1363     2.4484   -40.6568     7.1573     7.9730     8.3552
  153.5000     7.9261   115.8432     0.0253     0.1395     2.4433   -40.7911     6.7295     7.7084     7.9644
  154.0000     7.9277   115.8596     0.0223     0.1392     2.4418   -40.7761     6.5502     7.4011     7.4875
  154.5000     7.9288   115.8760     0.0210     0.1361     2.4464   -40.7612     6.2879     7.0569     7.1870
  155.0000     7.9304   115.5957     0.0241     0.1343     2.4494   -40.8956     6.1618     6.9179     6.9465
  155.5000     7.9318   113.3865     0.0256     0.1355     2.4510   -40.8806     6.2099     6.8288     6.7608
  156.0000     7.9331   111.3258     0.0272     0.1336     2.4496   -40.8658     6.2142     6.8349     7.6638
  156.5000     7.9344   110.0069     0.0258     0.1324     2.4519   -41.0002     6.2185     6.8886     7.9390
  157.0000     7.9355   112.1004     0.0259     0.1336     2.4527   -41.1345     6.1798     6.9910     8.3388
  157.5000     7.9369   113.0070     0.0259     0.1320     2.4505   -41.1194     6.0990     7.1940     8.7587
  158.0000     7.9382   111.2430     0.0260     0.1356     2.4483   -41.1045     6.0193     6.9071     8.9469
  158.5000     7.9396   110.8143     0.0261     0.1347     2.4499   -41.0896     6.0234     7.1076     8.6489
  159.0000     7.9409   110.0889     0.0262     0.1337     2.4515   -41.0746     6.0276     7.0161     8.4748
  159.5000     7.9422   108.4733     0.0262     0.1331     2.4523   -41.0597     6.0736     6.9242     8.1360
  160.0000     7.9435   105.9674     0.0263     0.1343     2.4509   -41.0448     6.1200     7.0776     7.5959
  160.5000     7.9449   106.2805     0.0249     0.1363     2.4472   -41.0299     6.1668     7.1416     7.2911
  161.0000     7.9463   106.5937     0.0219     0.1381     2.4420   -41.0149     6.2139     7.0410     7.1455
  161.5000     7.9476   106.4617     0.0205     0.1396     2.4384   -41.0000     6.3049     6.9506     7.5053
  162.0000     7.9489   105.4085     0.0191     0.1413     2.4347   -40.9851     6.3531     6.9568     8.3327
  162.5000     7.9502   105.9965     0.0162     0.1436     2.4348   -40.9702     6.4462     7.0115     8.8132
  163.0000     7.9516   107.9080     0.0162     0.1442     2.4356   -41.1048     6.5418     7.1157     8.3431
  163.5000     7.9529   109.5099     0.0148     0.1451     2.4309   -41.0896     6.6364     7.1716     8.2760
  164.0000     7.9542   110.2809     0.0149     0.1465     2.4282   -41.0746     6.6870     7.2279     8.5289
  164.5000     7.9556   108.7433     0.0150     0.1450     2.4321   -41.0597     6.5949     7.2847     8.5392
  165.0000     7.9570   107.2849     0.0166     0.1423     2.4352   -41.0448     6.5586     7.2409     8.3060
  165.5000     7.9582   105.9817     0.0211     0.1389     2.4382   -41.0299     6.6546     7.1476     8.1402
  166.0000     7.9596   104.8248     0.0287     0.1353     2.4473   -41.0149     6.5141     7.2039     8.0331
  166.5000     7.9609   106.1795     0.0333     0.1320     2.4562   -41.0000     6.3495     7.3110     7.8727
  167.0000     7.9623   107.5283     0.0349     0.1293     2.4615   -40.9851     6.3539     7.2106     7.7692
  167.5000     7.9611   109.0283     0.0350     0.1280     2.4541   -40.9701     6.3583     7.1237     7.6670
  168.0000     7.9600   110.3800     0.0335     0.1358     2.4489   -40.9552     6.3188     7.1304     7.6160
  168.5000     7.9588   112.0285     0.0291     0.1381     2.4460   -40.9403     6.3670     7.1381     7.5708
  169.0000     7.9576   112.3416     0.0274     0.1390     2.4453   -41.0751     6.4157     7.1445     7.5756
  169.5000     7.9565   113.2482     0.0245     0.1387     2.4424   -41.0597     6.5097     7.0999     7.6391
  170.0000     7.9553   115.3418     0.0218     0.1407     2.4387   -41.1945     6.6050     7.0588     7.8055
  170.5000     7.9542   115.0615     0.0219     0.1425     2.4396   -41.1791     6.7017     7.0651     7.9756
  171.0000     7.9530   114.0393     0.0204     0.1409     2.4396   -41.1642     6.7999     7.1702     8.5545
  171.5000     7.9519   113.7582     0.0175     0.1415     2.4367   -41.1493     6.8518     7.3783     8.8628
  172.0000     7.9507   114.0721     0.0116     0.1409     2.4398   -41.1343     6.9042     7.5925     8.2645
  172.5000     7.9496   112.3081     0.0102     0.1387     2.4421   -41.1194     6.9569     7.8129     7.9867
  173.0000     7.9484   111.5826     0.0147     0.1372     2.4444   -41.1045     7.0101     8.1519     8.2747
  173.5000     7.9473   111.7474     0.0163     0.1354     2.4489   -41.0896     7.0149     8.2713     8.6314
  174.0000     7.9461   112.2089     0.0164     0.1431     2.4370   -41.0746     7.0685     7.9433     8.8796
  174.5000     7.9450   110.5933     0.0135     0.1386     2.4401   -41.0597     7.0734     8.0057     9.2623
  175.0000     7.9438   108.3842     0.0105     0.1332     2.4499   -41.0448     7.1275     8.1812     9.5948
  175.5000     7.9426   105.8783     0.0136     0.1284     2.4582   -41.1797     7.2821     8.2455    10.0780
  176.0000     7.9415   104.4110     0.0167     0.1244     2.4642   -41.3141     7.5438     8.2529     9.6736
  176.5000     7.9403   104.5758     0.0213     0.1214     2.4695   -41.2985     7.7075     8.2603     8.9058
  177.0000     7.9392   106.3726     0.0229     0.1190     2.4726   -41.2836     7.8204     8.3831     9.0371
  177.5000     7.9380   108.7629     0.0214     0.1278     2.4637   -41.2687     7.8258     8.5077     9.4922
  178.0000     7.9369   110.1146     0.0170     0.1337     2.4511   -41.2537     7.7769     8.5745     9.8330
  178.5000     7.9357   110.7245     0.0126     0.1374     2.4436   -41.2388     7.6754     8.7020     9.7036
