~VERSION INFORMATION
 VERS.                2.0:   CWLS LOG ASCII STANDARD - VERSION 2.0
 WRAP.                 NO:   ONE LINE PER DEPTH STEP
~WELL INFORMATION
#MNEM.UNIT      DATA TYPE    INFORMATION
#----------   ------------   ------------------------------
 STRT.F          484.0000:   START DEPTH
 STOP.F         2291.5000:   STOP DEPTH
 STEP.F            0.5000:   STEP LENGTH
 NULL.          -999.2500:   NO VALUE
 COMP. FENIX & SCISSON INC:   COMPANY
 WELL.     45 SHX 3 #45-3:   WELL
 FLD .             TEAPOT:   FIELD
 LOC .       S3 T38N R78W:   LOCATION
 CNTY.            NATRONA:   COUNTY
 STAT.            WYOMING:   STATE
 CTRY. UNITED STATES OF AMERICA:   COUNTRY
 SRVC.              Welex:   SERVICE COMPANY
 DATE.        20-APR-1980:   LOGDATE
 API .       490251080400:   API NUMBER
~CURVE INFORMATION
#MNEM.UNIT       API CODE    CURVE DESCRIPTION
#----------   ------------   ------------------------------
 DEPT.F                  :   
 CALD.IN     45 280 60 00:   CALIPER
 GRD .GAPI   45 310 01 00:   GAMMA RAY FROM DENSITY LOG
 CORR.G/C3   45 356 01 00:   DENSITY CORRECTION
 RHOB.G/C3   45 350 01 00:   BULK DENSITY
 DPHI.DEC    45 890 12 00:   DENSITY POROSITY SANDSTONE
~PARAMETER INFORMATION
#MNEM.UNIT          VALUE    DESCRIPTION
#----------   ------------   ------------------------------
 PD  .                 GL:   PERMANENT DATUM
 EPD .F              5186:   ELEVATION PERMANENT DATUM
 LMF .                 KB:   LOG MEASURED FROM
 DAPD.F                10:   FEET ABOVE PERMANENT DATUM
 DMF .                 KB:   DRILLING MEASURED FROM
 EKB .F              5196:   KELLING BUSHING
 EGL .F              5186:   GROUND LEVEL
 DATE.            4-20-80:   RUN DATE
 RUN .                  1:   RUN NUMBER
 DD  .F              2341:   DEPTH DRILLER
 DL  .F              2293:   DEPTH LOGGER
 BLI .F              2291:   BOTTOM LOG INTERVAL
 TLI .F               500:   TOP LOG INTERVAL
 CS  .IN            9.625:   CASING SIZE
 BS  .IN             8.75:   BIT SIZE
 BSD .F              2341:   BIT SIZE AT DEPTH
 DFT .                OIL:   DRILLING FLUID TYPE
 TCS .HRS               2:   TIME CURCULATED STOPPED
 MRT .F               218:   MAXIMUM RECORDED TEMPERATURE
 ENGI.            TOTHILL:   RECORDING ENGINEER
 WITN.           DINSMORE:   WITNESSED BY
 CLNT.            A2DTECH:   CLIENT CODE
 ORIG.           5" PRINT:   ORIGIN OF DATA
 UWI .       490251080400:   UNIQUE WELL ID
 DICO. A2D Technologies, Inc.:   DIGITIZING COMPANY
~OTHER INFORMATION
~A   DEPT     CALD         GRD      CORR       RHOB       DPHI   
# ...
 1765.0000     8.9096    82.4557     0.0430     2.5420     0.0575
 1765.5000     8.8612    82.2355     0.0401     2.5404     0.0599
 1766.0000     8.8129    82.0860     0.0326     2.5328     0.0634
 1766.5000     8.7711    81.9156     0.0204     2.5252     0.0676
 1767.0000     8.7779    81.7410     0.0138     2.5177     0.0719
 1767.5000     8.7945    81.3754     0.0046     2.5101     0.0768
 1768.0000     8.8107    80.6864    -0.0045     2.5017     0.0821
 1768.5000     8.8270    80.0019    -0.0137     2.4921     0.0903
 1769.0000     8.8268    79.3098    -0.0143     2.4888     0.0902
 1769.5000     8.8139    79.5862    -0.0102     2.4927     0.0885
 1770.0000     8.8014    80.1155    -0.0083     2.4883     0.0902
 1770.5000     8.8005    80.6540    -0.0137     2.4846     0.0921
 1771.0000     8.8285    81.1895    -0.0134     2.4848     0.0921
 1771.5000     8.8547    81.6525    -0.0100     2.4864     0.0911
 1772.0000     8.8356    81.6417    -0.0066     2.4875     0.0904
 1772.5000     8.7508    81.6393    -0.0015     2.4931     0.0879
 1773.0000     8.7858    81.5974     0.0053     2.4996     0.0836
 1773.5000     8.8209    81.4945     0.0112     2.5040     0.0808
 1774.0000     8.8339    81.4000     0.0110     2.5054     0.0802
 1774.5000     8.8408    81.7604     0.0108     2.5072     0.0796
 1775.0000     8.8473    82.6669     0.0171     2.5106     0.0784
 1775.5000     8.8495    83.5666     0.0221     2.5141     0.0740
 1776.0000     8.8202    84.4694     0.0275     2.5146     0.0744
 1776.5000     8.7911    85.3707     0.0364     2.5109     0.0767
 1777.0000     8.7669    86.2694     0.0259     2.5022     0.0831
 1777.5000     8.7627    87.5654     0.0147     2.4936     0.0900
 1778.0000     8.8193    88.9799     0.0059     2.4865     0.0912
 1778.5000     8.8709    89.6460    -0.0004     2.4877     0.0909
 1779.0000     8.8468    90.0473     0.0046     2.4848     0.0948
 1779.5000     8.8200    89.9030    -0.0007     2.4777     0.0991
 1780.0000     8.7983    89.6824    -0.0046     2.4704     0.1002
 1780.5000     8.8235    89.4607    -0.0003     2.4799     0.0945
 1781.0000     8.8674    89.2404     0.0185     2.4928     0.0868
 1781.5000     8.9115    89.0250     0.0309     2.5061     0.0796
 1782.0000     8.9559    89.0311     0.0333     2.5096     0.0765
 1782.5000     8.9719    89.4488     0.0388     2.5178     0.0728
 1783.0000     8.9694    89.8549     0.0479     2.5268     0.0668
 1783.5000     8.9666    89.9866     0.0530     2.5340     0.0628
 1784.0000     8.9638    89.4561     0.0497     2.5308     0.0642
 1784.5000     8.9610    88.9434     0.0504     2.5329     0.0639
 1785.0000     8.9582    88.5860     0.0485     2.5294     0.0661
 1785.5000     8.9556    88.8204     0.0427     2.5259     0.0675
 1786.0000     8.9619    89.0430     0.0448     2.5257     0.0673
 1786.5000     8.9881    89.2658     0.0440     2.5215     0.0726
 1787.0000     9.0131    89.4736     0.0338     2.5132     0.0778
 1787.5000     9.0019    89.2515     0.0244     2.5050     0.0816
 1788.0000     8.9693    89.0057     0.0216     2.4965     0.0850
 1788.5000     8.9373    88.7631     0.0217     2.4972     0.0857
 1789.0000     8.9128    88.5761     0.0303     2.5002     0.0826
 1789.5000     8.9132    88.6554     0.0401     2.5088     0.0783
 1790.0000     8.9132    88.7647     0.0523     2.5208     0.0697
 1790.5000     8.9163    88.8692     0.0677     2.5330     0.0631
 1791.0000     8.9420    89.2913     0.0703     2.5322     0.0671
 1791.5000     8.9685    89.8483     0.0665     2.5257     0.0683
 1792.0000     8.9676    90.4087     0.0441     2.5082     0.0805
 1792.5000     8.9569    90.9681     0.0194     2.4884     0.0935
 1793.0000     8.9458    91.4560     0.0070     2.4806     0.0947
 1793.5000     8.9338    91.8259     0.0116     2.4852     0.0926
 1794.0000     8.9831    92.5820     0.0167     2.4897     0.0904
 1794.5000     9.0122    93.3894     0.0213     2.4943     0.0883
 1795.0000     8.9737    94.1988     0.0142     2.4906     0.0897
 1795.5000     8.9354    95.0070     0.0085     2.4854     0.0934
 1796.0000     8.9431    95.8151     0.0051     2.4833     0.0932
 1796.5000     8.9542    96.6247     0.0044     2.4834     0.0942
 1797.0000     8.9650    97.4362     0.0137     2.4862     0.0923
 1797.5000     8.9742    98.2218     0.0193     2.4891     0.0904
 1798.0000     8.9561    97.7557     0.0156     2.4862     0.0918
 1798.5000     8.9314    96.8768     0.0133     2.4832     0.0941
 1799.0000     8.8923    96.0011     0.0203     2.4903     0.0893
 1799.5000     8.8522    95.1264     0.0269     2.4970     0.0865
 1800.0000     8.8124    94.2497     0.0247     2.4890     0.0912
 1800.5000     8.7969    93.3787     0.0192     2.4807     0.0955
 1801.0000     8.8160    92.4053     0.0117     2.4758     0.1002
 1801.5000     8.8325    91.4188     0.0139     2.4749     0.0986
 1802.0000     8.8328    90.6792     0.0237     2.4840     0.0926
 1802.5000     8.8326    90.6930     0.0356     2.4928     0.0867
 1803.0000     8.8321    90.6947     0.0477     2.4999     0.0825
 1803.5000     8.8359    90.6984     0.0486     2.4948     0.0858
 1804.0000     8.9114    90.6701     0.0432     2.4915     0.0893
 1804.5000     8.9565    90.0974     0.0493     2.4974     0.0886
 1805.0000     8.9694    89.5220     0.0612     2.5026     0.0833
 1805.5000     8.9810    88.9515     0.0535     2.5055     0.0833
 1806.0000     8.9980    88.3954     0.0532     2.5088     0.0784
 1806.5000     9.0128    87.3664     0.0538     2.5035     0.0816
 1807.0000     8.9950    86.2606     0.0321     2.4956     0.0873
 1807.5000     9.0035    85.1483     0.0312     2.4965     0.0853
 1808.0000     9.0132    84.0850     0.0334     2.4993     0.0833
 1808.5000     9.0228    84.0468     0.0357     2.4973     0.0861
 1809.0000     9.0325    84.0559     0.0355     2.4892     0.0889
 1809.5000     9.0332    84.2441     0.0309     2.4811     0.0938
 1810.0000     9.0318    84.7506     0.0199     2.4733     0.0986
 1810.5000     9.0304    85.0587     0.0203     2.4760     0.0987
 1811.0000     9.0290    85.2373     0.0297     2.4851     0.0939
 1811.5000     9.0276    85.4140     0.0443     2.4974     0.0847
 1812.0000     9.0262    85.6686     0.0599     2.5114     0.0756
 1812.5000     9.0248    86.3570     0.0724     2.5245     0.0671
 1813.0000     9.0234    87.0458     0.0671     2.5241     0.0721
 1813.5000     9.0220    87.7330     0.0496     2.5112     0.0792
 1814.0000     9.0206    88.4185     0.0430     2.5045     0.0785
 1814.5000     9.0193    89.2851     0.0431     2.5053     0.0788
 1815.0000     9.0178    90.5361     0.0431     2.5065     0.0788
 1815.5000     9.0164    91.7832     0.0453     2.5074     0.0776
 1816.0000     9.0152    93.0292     0.0476     2.5130     0.0751
 1816.5000     9.0202    94.2749     0.0500     2.5191     0.0727
 1817.0000     9.0416    95.5207     0.0468     2.5158     0.0729
 1817.5000     9.0628    96.7664     0.0387     2.5140     0.0743
 1818.0000     9.0837    98.0122     0.0373     2.5151     0.0736
 1818.5000     9.0844    99.2580     0.0349     2.5101     0.0780
 1819.0000     9.0391   100.5021     0.0234     2.4997     0.0855
 1819.5000     8.9954   101.7485     0.0195     2.4936     0.0860
 1820.0000     8.9518   103.0155     0.0254     2.5073     0.0792
 1820.5000     8.9083   105.0221     0.0415     2.5184     0.0723
 1821.0000     8.9173   107.9999     0.0562     2.5280     0.0669
 1821.5000     8.9708   110.9610     0.0608     2.5350     0.0638
 1822.0000     9.0238   113.9295     0.0677     2.5389     0.0607
 1822.5000     9.0489   116.8969     0.0685     2.5349     0.0609
 1823.0000     9.0191   119.8643     0.0688     2.5369     0.0631
 1823.5000     8.9907   122.8297     0.0556     2.5167     0.0734
 1824.0000     8.9768   125.7917     0.0398     2.5026     0.0825
 1824.5000     8.9941   128.8029     0.0312     2.4965     0.0869
 1825.0000     9.0106   132.6438     0.0219     2.4854     0.0942
 1825.5000     9.0278   135.8695     0.0126     2.4743     0.1014
