~VERSION INFORMATION
 VERS.                2.0:   CWLS LOG ASCII STANDARD - VERSION 2.0
 WRAP.                 NO:   ONE LINE PER DEPTH STEP
~WELL INFORMATION
#MNEM.UNIT      DATA TYPE    INFORMATION
#----------   ------------   ------------------------------
 STRT.F            6.0000:   START DEPTH
 STOP.F          495.0000:   STOP DEPTH
 STEP.F            0.5000:   STEP LENGTH
 NULL.          -999.2500:   NO VALUE
 COMP. FENIX & SCISSON INC:   COMPANY
 WELL. FI NPR-3 #65-25 SX3:   WELL
 FLD .  NAVAL RESERVES #3:   FIELD
 LOC .       S3 T38N R78W:   LOCATION
 CNTY.            NATRONA:   COUNTY
 STAT.            WYOMING:   STATE
 CTRY. UNITED STATES OF AMERICA:   COUNTRY
 SRVC.       Schlumberger:   SERVICE COMPANY
 DATE.        22-MAY-1980:   LOGDATE
 API .       490251080300:   API NUMBER
~CURVE INFORMATION
#MNEM.UNIT       API CODE    CURVE DESCRIPTION
#----------   ------------   ------------------------------
 DEPT.F                  :   
 SPR .MV     07 010 01 00:   SPONTANEOUS POTENTIAL
 SFL .OHMM   07 220 01 00:   SHALLOW FOCUSED LOG RESISTIVITY
 ILD .OHMM   07 120 46 00:   INDUCTION LOG DEEP RESISTIVITY
 ILM .OHMM   07 120 44 00:   INDUCTION LOG MEDIUM
 GRD .GAPI   45 310 01 00:   GAMMA RAY FROM DENSITY LOG
 CALD.IN     45 280 60 00:   CALIPER
 DPHI.DEC    45 890 12 00:   DENSITY POROSITY SANDSTONE
 RHOB.G/C3   45 350 01 00:   BULK DENSITY
 CORR.G/C3   45 356 01 00:   DENSITY CORRECTION
 NPHI.DEC    42 890 03 00:   NEUTRON POROSITY SANDSTONE
~PARAMETER INFORMATION
#MNEM.UNIT          VALUE    DESCRIPTION
#----------   ------------   ------------------------------
 PD  .                 GL:   PERMANENT DATUM
 EPD .F              5162:   ELEVATION PERMANENT DATUM
 LMF .                 KB:   LOG MEASURED FROM
 DAPD.F                 4:   FEET ABOVE PERMANENT DATUM
 DMF .                 KB:   DRILLING MEASURED FROM
 EKB .F              5166:   KELLING BUSHING
 EGL .F              5162:   GROUND LEVEL
 DATE.            5-22-80:   RUN DATE
 RUN .                  1:   RUN NUMBER
 DD  .F               500:   DEPTH DRILLER
 DL  .F               498:   DEPTH LOGGER
 BLI .F               492:   BOTTOM LOG INTERVAL
 TLI .F                10:   TOP LOG INTERVAL
 BS  .IN            9.875:   BIT SIZE
 BSD .F               500:   BIT SIZE AT DEPTH
 DFT .                KCL:   DRILLING FLUID TYPE
 DFD .                9.6:   DRILLING FLUID DENSITY
 DFV .                 45:   DRILLING FLUID VISCOSITY
 DFL .                8.9:   DRILLING FLUID LOSS
 MSS .               PITS:   MUD SAMPLE SOURCE
 RMS .OHMM            .21:   RESISTIVITY MUD SAMPLE
 MST .F                76:   MUD SAMPLE TEMPERATURE
 RMF .OHMM            .19:   RESISTIVITY MUD FILTRATE SAMPLE
 MFST.F                76:   MUD FILTRATE SAMPLE TEMPERATURE
 MFSS.               MEAS:   MUD FILTRATE SAMPLE SOURCE
 TLAB.HRS            0845:   TIME LOGGER AT BOTTOM
 LUN .               8035:   LOGGING UNIT NUMBER
 LUL .               CSPR:   LOGGING UNIT LOCATION
 ENGI.           C. DRAKE:   RECORDING ENGINEER
 WITN.              AMEND:   WITNESSED BY
 CLNT.            A2DTECH:   CLIENT CODE
 ORIG.           5" PRINT:   ORIGIN OF DATA
 UWI .       490251080300:   UNIQUE WELL ID
 DICO. A2D Technologies, Inc.:   DIGITIZING COMPANY
~OTHER INFORMATION
~A    DEPT     SPR        SFL        ILD        ILM         GRD       CALD      DPHI       RHOB       CORR        NPHI  
# ...
   39.5000   -84.1117     4.9708     4.8536     4.2891   108.8756    10.0415     0.1303     2.4626     0.0162     0.3473
   40.0000   -84.6427     5.0323     4.9025     4.3380   108.7716    10.0415     0.1162     2.4860     0.0262     0.3308
   40.5000   -85.1880     5.1114     4.9519     4.4009   110.2036    10.0415     0.1094     2.4922     0.0305     0.3175
   41.0000   -85.3251     5.1780     5.0018     4.4647   112.0279    10.0415     0.1181     2.4823     0.0212     0.3166
   41.5000   -85.3605     5.2267     5.0522     4.5295   113.7988    10.0415     0.1277     2.4644     0.0091     0.3187
   42.0000   -85.3929     5.2758     5.1031     4.5951   113.5177    10.0415     0.1324     2.4533     0.0064     0.3214
   42.5000   -85.4262     5.3900     5.2333     4.7316   111.1386    10.0415     0.1291     2.4599     0.0109     0.3245
   43.0000   -85.4591     5.5825     5.4239     4.8882   109.2073    10.0415     0.1229     2.4744     0.0129     0.3275
   43.5000   -85.4875     5.7818     5.6215     5.0499   108.3143    10.0415     0.1193     2.4779     0.0082     0.3266
   44.0000   -85.7484     5.9883     5.8262     5.2170   109.6882    10.0415     0.1222     2.4735    -0.0004     0.3250
   44.5000   -86.0585     6.2022     6.0387     5.4008   111.2039    10.0415     0.1251     2.4685    -0.0030     0.3199
   45.0000   -86.4080     6.4795     6.2596     5.4216   112.7094    10.0415     0.1243     2.4696    -0.0046     0.3137
   45.5000   -86.9345     6.7899     6.4965     5.4824   114.0570    10.0415     0.1239     2.4706    -0.0047     0.3111
   46.0000   -87.4540     6.8762     6.4935     5.5437   114.0239    10.0415     0.1261     2.4687    -0.0058     0.3136
   46.5000   -87.9730     6.8923     6.5224     5.6073   112.2934    10.0414     0.1284     2.4634    -0.0069     0.3299
   47.0000   -88.4922     6.9084     6.5418     5.7054   112.0038    10.0445     0.1287     2.4629    -0.0081     0.3371
   47.5000   -89.0113     6.9246     6.6197     5.7596   111.7198    10.0483     0.1293     2.4614    -0.0088     0.3355
   48.0000   -89.5353     6.9850     6.7755     5.8211   111.3830    10.0520     0.1308     2.4588    -0.0093     0.3323
   48.5000   -89.7511     7.0553     6.9276     5.8816   110.8080    10.0558     0.1306     2.4616    -0.0071     0.3339
   49.0000   -89.8302     7.1264     6.9960     5.9369   111.4887    10.0595     0.1239     2.4725    -0.0009     0.3343
   49.5000   -89.9070     7.1981     7.0616     5.9924   114.1448    10.0633     0.1178     2.4852     0.0052     0.3348
   50.0000   -89.9843     7.2705     7.1293     6.0484   115.5396    10.0670     0.1131     2.4881     0.0085     0.3351
   50.5000   -90.0618     7.3411     7.2542     6.1050   115.9104    10.0708     0.1219     2.4748     0.0045     0.3292
   51.0000   -90.3542     7.4062     7.2850     6.1621   115.2268    10.0745     0.1258     2.4678     0.0023     0.3308
   51.5000   -90.8599     7.4719     7.3287     6.2197   115.3813    10.0782     0.1267     2.4662     0.0023     0.3341
   52.0000   -91.0952     7.5382     7.3727     6.2779   115.8458    10.0804     0.1251     2.4708     0.0055     0.3370
   52.5000   -91.0770     7.6031     7.4169     6.3173   114.9953    10.0773     0.1214     2.4773     0.0099     0.3319
   53.0000   -91.0521     7.6552     7.4615     6.3421   111.8647    10.0744     0.1171     2.4834     0.0121     0.3327
   53.5000   -91.0265     7.7075     7.5062     6.3689   109.8554    10.0714     0.1162     2.4829     0.0106     0.3404
   54.0000   -91.0013     7.7603     7.5513     6.3958   111.6024    10.0684     0.1178     2.4788     0.0086     0.3439
   54.5000   -90.9762     7.8134     7.5966     6.4228   116.5997    10.0655     0.1226     2.4738     0.0046     0.3362
   55.0000   -90.9505     7.8669     7.6422     6.4500   120.5893    10.0625     0.1226     2.4722     0.0005     0.3287
   55.5000   -90.9234     7.9211     7.6881     6.4772   121.7339    10.0627     0.1230     2.4712    -0.0021     0.3332
   56.0000   -90.9096     7.9566     7.7342     6.5046   120.8418    10.0652     0.1242     2.4693    -0.0025     0.3397
   56.5000   -91.2784     7.9689     7.7806     6.5321   119.8183    10.0676     0.1249     2.4679    -0.0012     0.3420
   57.0000   -91.6715     7.9807     7.8144     6.5596   118.4070    10.0701     0.1243     2.4701     0.0004     0.3435
   57.5000   -92.0591     7.9926     7.8274     6.5874   117.0915    10.0726     0.1242     2.4699     0.0001     0.3435
   58.0000   -92.2216     8.0046     7.8403     6.6151   116.9966    10.0750     0.1258     2.4661    -0.0043     0.3411
   58.5000   -92.0060     8.0166     7.8532     6.5801   118.8941    10.0775     0.1306     2.4605    -0.0064     0.3355
   59.0000   -91.7963     8.0275     7.8663     6.5445   121.8209    10.0800     0.1311     2.4599    -0.0083     0.3391
   59.5000   -91.5854     7.9998     7.8814     6.5093   125.6225    10.0825     0.1264     2.4660    -0.0058     0.3518
   60.0000   -91.3749     7.9712     7.7968     6.4743   128.1218    10.0849     0.1224     2.4725    -0.0030     0.3619
   60.5000   -91.1643     7.9428     7.7162     6.4395   130.5008    10.0874     0.1200     2.4767    -0.0018     0.3566
   61.0000   -90.9537     7.9145     7.6651     6.4048   129.8142    10.0899     0.1213     2.4759    -0.0024     0.3489
   61.5000   -90.7427     7.8863     7.6146     6.3704   127.2736    10.0924     0.1218     2.4729    -0.0030     0.3426
   62.0000   -90.5321     7.8580     7.5643     6.3361   124.3535    10.0948     0.1213     2.4745    -0.0035     0.3430
   62.5000   -90.4499     7.8306     7.5272     6.3173   121.6135    10.0973     0.1206     2.4763    -0.0040     0.3440
   63.0000   -90.3906     7.8095     7.6023     6.5329   120.7696    10.0998     0.1216     2.4749    -0.0045     0.3453
   63.5000   -90.3299     7.9624     7.7223     6.6861   118.3895    10.0996     0.1218     2.4738    -0.0051     0.3483
   64.0000   -90.1941     8.1628     7.9497     6.8430   114.6637    10.0976     0.1186     2.4793    -0.0056     0.3487
   64.5000   -89.9645     8.4590     8.1808     7.0035   110.9952    10.0956     0.0986     2.5031    -0.0014     0.3385
   65.0000   -89.7361     8.7674     8.4191     7.1217   109.6721    10.0936     0.0896     2.5291     0.0076     0.3276
   65.5000   -89.5069     8.8043     8.6430     7.0878   108.8392    10.0917     0.0826     2.5404     0.0262     0.3194
   66.0000   -89.3015     8.8039     8.5856     7.0496   110.7790    10.0897     0.0882     2.5318     0.0209     0.3251
   66.5000   -89.2989     8.7706     8.5211     7.0115   114.0772    10.0877     0.1103     2.4971     0.0119     0.3371
   67.0000   -89.2996     8.7229     8.4567     6.9737   116.0057    10.0857     0.1200     2.4783     0.0023     0.3491
   67.5000   -89.2995     8.6754     8.3931     6.9361   116.7405    10.0837     0.1217     2.4755    -0.0024     0.3611
   68.0000   -89.3010     8.5637     8.3300     6.8986   116.2562    10.0816     0.1167     2.4803    -0.0018     0.3575
   68.5000   -89.3953     8.5274     8.2673     6.8614   116.6831    10.0838     0.1130     2.4873     0.0032     0.3521
   69.0000   -89.7091     8.4879     8.2051     6.8244   117.0942    10.0878     0.1147     2.4858     0.0082     0.3447
   69.5000   -90.0319     8.4487     8.1434     6.7876   117.1931    10.0919     0.1209     2.4750     0.0040     0.3443
   70.0000   -89.9837     8.4096     8.0923     6.7509   116.1106    10.0959     0.1284     2.4639    -0.0009     0.3439
   70.5000   -89.8284     8.3707     8.0611     6.7145   113.5994    10.1001     0.1322     2.4556    -0.0048     0.3435
   71.0000   -89.6702     8.3320     8.0300     6.6766   111.8137    10.0981     0.1305     2.4594    -0.0054     0.3506
   71.5000   -89.5128     8.2936     7.9990     6.6260   111.1191    10.0949     0.1286     2.4626    -0.0055     0.3583
   72.0000   -89.3557     8.2537     7.9548     6.5596   112.2158    10.0917     0.1278     2.4633    -0.0054     0.3587
   72.5000   -89.1983     8.1381     7.9870     6.4938   115.3726    10.0884     0.1273     2.4644    -0.0053     0.3463
