~VERSION INFORMATION
 VERS.                2.0:   CWLS LOG ASCII STANDARD - VERSION 2.0
 WRAP.                 NO:   ONE LINE PER DEPTH STEP
~WELL INFORMATION
#MNEM.UNIT      DATA TYPE    INFORMATION
#----------   ------------   ------------------------------
 STRT.F            0.5000:   START DEPTH
 STOP.F          474.0000:   STOP DEPTH
 STEP.F            0.5000:   STEP LENGTH
 NULL.          -999.2500:   NO VALUE
 COMP.       F D SERV INC:   COMPANY
 WELL. NAVAL PETROLEUM RESERVE 3 SX-3 #78-1-3:   WELL
 FLD .             TEAPOT:   FIELD
 LOC .       S3 T38N R78W:   LOCATION
 CNTY.            NATRONA:   COUNTY
 STAT.            WYOMING:   STATE
 CTRY. UNITED STATES OF AMERICA:   COUNTRY
 SRVC.      Western Atlas:   SERVICE COMPANY
 DATE.        13-OCT-1992:   LOGDATE
 API .       490252255800:   API NUMBER
~CURVE INFORMATION
#MNEM.UNIT       API CODE    CURVE DESCRIPTION
#----------   ------------   ------------------------------
 DEPT.F                  :   
 GRR .GAPI   06 310 01 00:   GAMMA RAY FROM RESISTIVITY
 RILD.OHMM   06 120 46 00:   DEEP INDUCTION RESISTIVITY
 RILM.OHMM   06 120 44 00:   INDUCTION LOG MEDIUM RESISTIVITY
~PARAMETER INFORMATION
#MNEM.UNIT          VALUE    DESCRIPTION
#----------   ------------   ------------------------------
 PD  .                 GL:   PERMANENT DATUM
 EPD .F              5157:   ELEVATION PERMANENT DATUM
 LMF .                 KB:   LOG MEASURED FROM
 DAPD.F                10:   FEET ABOVE PERMANENT DATUM
 DMF .                 KB:   DRILLING MEASURED FROM
 EKB .F              5167:   KELLING BUSHING
 EDF .F              5166:   DRILLING FLOOR
 EGL .F              5157:   GROUND LEVEL
 DATE.        13-OCT-1992:   RUN DATE
 RUN .                  1:   RUN NUMBER
 DD  .F               480:   DEPTH DRILLER
 DL  .F               480:   DEPTH LOGGER
 BLI .F               474:   BOTTOM LOG INTERVAL
 CS  .IN            8.625:   CASING SIZE
 CBD .F                85:   CASING BOTTOM DRILLER
 CBL .F               100:   CASING BOTTOM LOGGER
 BS  .IN            7.875:   BIT SIZE
 BSD .F               480:   BIT SIZE AT DEPTH
 DFT .           AIR FOAM:   DRILLING FLUID TYPE
 BHT .F                70:   BOTTOM HOLE TEMPERATURE
 TCS .HRS            0230:   TIME CURCULATED STOPPED
 MRT .F                70:   MAXIMUM RECORDED TEMPERATURE
 LUN .            HL-6274:   LOGGING UNIT NUMBER
 LUL .             CASPER:   LOGGING UNIT LOCATION
 ENGI.             RAUTIO:   RECORDING ENGINEER
 WITN.        GARY STRONG:   WITNESSED BY
 CLNT.            A2DTECH:   CLIENT CODE
 ORIG.           5" PRINT:   ORIGIN OF DATA
 UWI .       490252255800:   UNIQUE WELL ID
 DICO. A2D Technologies, Inc.:   DIGITIZING COMPANY
~OTHER INFORMATION
~A    DEPT      GRR      RILD       RILM   
# ...
  182.5000   132.4284     8.3686     8.2848
  183.0000   128.2051     8.2536     8.1731
  183.5000   123.9819     8.1968     8.0071
  184.0000   124.2836     7.5964     7.7367
  184.5000   125.4902     7.1876     7.2217
  185.0000   127.9035     6.8008     6.7409
  185.5000   131.2217     6.5184     6.4684
  186.0000   132.4284     6.3905     6.3809
  186.5000   132.1267     6.4348     6.4268
  187.0000   130.3167     6.4348     6.5175
  187.5000   126.3952     6.5697     6.6554
  188.0000   123.0769     6.6612     6.7028
  188.5000   124.0342     6.6153     6.7975
  189.0000   125.7919     6.8987     7.1358
  189.5000   126.9985     7.1876     7.3912
  190.0000   131.5234     7.4921     7.6497
  190.5000   134.5400     7.7022     7.8115
  191.0000   134.2383     7.8637     7.9217
  191.5000   133.3333     7.9732     7.9783
  192.0000   132.4284     7.9805     8.0352
  192.5000   132.1267     7.9732     8.0368
  193.0000   131.8250     7.9182     7.9831
  193.5000   130.9201     7.9182     7.8755
  194.0000   130.0151     7.8637     7.8771
  194.5000   129.6953     7.8095     7.8786
  195.0000   130.6184     7.7557     7.7721
  195.5000   131.2217     7.7022     7.6665
  196.0000   131.5234     7.5964     7.6156
  196.5000   131.2217     7.3858     7.4609
  197.0000   130.3167     7.0401     7.2431
  197.5000   130.6184     6.7540     6.6831
  198.0000   131.2217     6.3905     6.3250
  198.5000   131.5234     5.8816     5.8228
  199.0000   131.8250     5.6037     5.6653
  199.5000   131.8250     5.2293     5.6664
  200.0000   130.6184     5.4509     5.7068
  200.5000   129.1101     5.6818     5.7930
  201.0000   129.4118     5.7212     6.1602
  201.5000   133.3238     5.8411     6.5116
  202.0000   137.5441     6.0466     6.7886
  202.5000   138.1452     6.4348     7.0774
  203.0000   129.9967     6.7540     7.2772
  203.5000   125.4688     7.0889     7.4826
  204.0000   124.8626     7.4956     7.6409
  204.5000   128.7812     7.7557     7.7880
  205.0000   131.7948     7.8637     7.8964
  205.5000   133.3002     7.8212     8.0618
  206.0000   133.5989     7.9314     8.1177
  206.5000   132.0869     8.0430     8.2306
  207.0000   129.9724     8.1561     8.3452
  207.5000   127.8578     8.2708     8.4030
  208.0000   127.2515     8.2719     8.3452
  208.5000   129.0586     8.3307     8.3452
  209.0000   133.2788     8.3896     8.4030
  209.5000   135.0859     8.4490     8.4613
  210.0000   135.0829     8.4501     8.5200
  210.5000   133.8733     8.5099     8.5790
  211.0000   134.1720     8.5701     8.6984
  211.5000   133.8667     8.7509     8.7587
  212.0000   132.0538     8.7521     8.7587
  212.5000   132.6542     8.6930     8.7587
  213.0000   135.6678     8.7545     8.8194
  213.5000   137.1732     8.7557     8.8194
  214.0000   133.2486     8.8179     8.8194
  214.5000   129.3241     8.7580     8.8194
  215.0000   128.4162     8.6392     8.7587
  215.5000   129.3182     8.6404     8.6984
  216.0000   131.4550     8.6416     8.6385
  216.5000   133.2339     8.6427     8.6385
  217.0000   134.1360     8.6439     8.6984
  217.5000   133.2273     8.5852     8.6385
  218.0000   132.0184     8.5275     8.5790
  218.5000   134.7297     8.4699     8.5200
  219.0000   137.1400     8.3497     8.3452
  219.5000   137.1371     8.2311     8.2206
  220.0000   135.9275     7.9075     8.0063
  220.5000   136.5279     7.4311     7.4718
  221.0000   137.7316     7.2296     7.3185
  221.5000   136.7762     6.9849     7.1190
  222.0000   135.0100     6.4742     6.5525
  222.5000   134.1021     5.8776     5.9896
  223.0000   134.0991     5.2993     5.0744
  223.5000   134.3986     4.5207     4.5433
  224.0000   134.6973     3.9374     4.0398
  224.5000   135.2969     3.4221     3.4833
  225.0000   136.8023     3.0355     3.0963
  225.5000   139.2126     2.7494     2.7626
  226.0000   138.8839     2.6380     2.6873
  226.5000   127.9006     2.5842     2.6873
  227.0000   113.2604     2.6387     2.7626
  227.5000   109.3359     2.7509     2.8400
  228.0000   110.2379     2.9077     3.1284
  228.5000   119.5864     3.2709     3.6420
  229.0000   132.2531     3.6540     4.2400
  229.5000   137.6800     4.4352     4.6706
  230.0000   139.1854     5.2828     5.2214
  230.5000   140.3891     5.6635     5.4810
  231.0000   142.4977     6.0568     5.9074
  231.5000   143.7285     6.4021     6.2864
  232.0000   144.0002     6.6742     6.5074
  232.5000   142.7898     6.8151     6.6898
  233.0000   141.8819     6.8633     6.8299
  233.5000   141.2756     6.8642     6.8772
  234.0000   144.2893     6.7242     6.7362
  234.5000   146.3979     6.5870     6.4626
  235.0000   146.9991     6.4082     6.2864
  235.5000   146.3921     6.0991     6.0682
  236.0000   147.5957     5.7668     5.8146
  236.5000   152.4876     5.4684     5.4751
  237.0000   156.1287     5.2469     5.2527
  237.5000   156.9383     5.1753     5.1450
  238.0000   154.8231     5.1051     5.1450
  238.5000   151.2002     5.0355     5.2527
  239.0000   147.5773     5.0713     5.3627
  239.5000   142.7478     5.1783     5.5130
  240.0000   142.4440     5.3242     5.7068
  240.5000   143.9487     5.5123     5.9484
  241.0000   143.9456     5.7503     6.3341
  241.5000   142.7360     6.5605     6.7025
  242.0000   143.1071     6.6928     7.0700
  242.5000   143.6351     6.8340     7.2681
  243.0000   142.1232     7.1244     7.4203
  243.5000   142.4219     7.3761     7.6811
  244.0000   143.9272     7.7966     7.8964
  244.5000   144.2267     8.0164     8.0618
  245.0000   144.5254     8.1291     8.1177
  245.5000   144.8241     8.0741     8.1177
  246.0000   144.8204     7.9644     8.0063
  246.5000   143.9125     7.8019     7.8400
  247.0000   143.6078     7.6958     7.6150
  247.5000   143.9066     7.5391     7.3692
  248.0000   143.6013     7.3344     7.2681
  248.5000   144.5033     7.0373     7.1683
  249.0000   145.1044     6.7991     6.9729
  249.5000   147.2123     6.7064     6.6898
  250.0000   151.1310     6.6154     6.3739
  250.5000   154.1446     5.6434     5.5897
  251.0000   154.4646     5.3398     5.3627
  251.5000   152.3288     5.0527     5.0744
  252.0000   148.8519     4.8813     4.8674
  252.5000   147.6774     4.8817     4.8015
  253.0000   146.4354     4.9159     5.0744
  253.5000   144.4314     4.9503     5.3258
  254.0000   143.8522     5.0558     5.6285
  254.5000   145.4007     5.2388     5.9896
  255.0000   146.9411     5.6466     6.3476
  255.5000   147.2749     6.0932     6.7123
  256.0000   146.7029     6.8537     7.1079
  256.5000   146.4342     7.2440     7.4474
  257.0000   147.4651     7.4477     7.6054
  257.5000   151.6347     7.6571     7.6602
  258.0000   154.0801     7.7685     7.7154
  258.5000   153.5090     7.8730     7.8248
  259.0000   151.7311     7.9282     7.8812
  259.5000   151.7633     7.9837     7.9380
  260.0000   151.1921     8.0954     7.9475
  260.5000   147.2841     8.1522     8.0533
  261.0000   147.9462     8.1527     8.0000
  261.5000   150.0899     8.0971     7.9465
  262.0000   151.0270     8.0976     7.9491
  262.5000   149.8525     8.0423     8.0064
  263.0000   148.3764     7.9326     7.9533
  263.5000   148.7102     7.9331     7.7387
  264.0000   149.0439     7.8788     7.7408
  264.5000   148.7441     7.8795     7.7970
  265.0000   146.0997     7.9347     7.7449
  265.5000   141.3053     7.9352     7.7475
  266.0000   141.6391     7.9358     7.7496
  266.5000   143.4812     7.9364     7.8595
  267.0000   144.4183     7.9369     7.9161
  267.5000   146.5620     7.8828     7.8637
  268.0000   150.5481     7.7215     7.6989
  268.5000   158.5219     7.4082     7.2926
  269.0000   160.2411     7.0586     7.0469
  269.5000   158.4633     6.7191     6.8094
  270.0000   154.5739     6.4083     6.4896
  270.5000   156.1143     6.2339     6.2278
  271.0000   159.7664     6.1063     6.1016
  271.5000   161.6085     6.1067     6.0612
  272.0000   161.0373     6.1071     6.1512
  272.5000   155.3459     5.9821     6.2781
  273.0000   155.9814     5.7394     6.2365
