~VERSION INFORMATION
 VERS.                2.0:   CWLS LOG ASCII STANDARD - VERSION 2.0
 WRAP.                 NO:   ONE LINE PER DEPTH STEP
~WELL INFORMATION
#MNEM.UNIT      DATA TYPE    INFORMATION
#----------   ------------   ------------------------------
 STRT.F           12.5000:   START DEPTH
 STOP.F          604.0000:   STOP DEPTH
 STEP.F            0.5000:   STEP LENGTH
 NULL.          -999.2500:   NO VALUE
 COMP. FENIX & SCISSON INC:   COMPANY
 WELL.   SX-3 NPR 3 #61-3:   WELL
 FLD .             TEAPOT:   FIELD
 LOC .       S3 T38N R78W:   LOCATION
 CNTY.            NATRONA:   COUNTY
 STAT.            WYOMING:   STATE
 CTRY. UNITED STATES OF AMERICA:   COUNTRY
 SRVC.           BIRDWELL:   SERVICE COMPANY
 DATE.        03-DEC-1978:   LOGDATE
 API .       490251074100:   API NUMBER
~CURVE INFORMATION
#MNEM.UNIT       API CODE    CURVE DESCRIPTION
#----------   ------------   ------------------------------
 DEPT.F                  :   
 SPR .MV     05 010 01 00:   SPONTANEOUS POTENTIAL FROM RES.
 SN  .OHMM   05 040 16 00:   SHORT NORMAL 16"
 IL  .OHMM   05 120 00 00:   INDUCTION LOG
 CALD.IN     45 280 60 00:   CALIPER
 GRD .GAPI   45 310 01 00:   GAMMA RAY FROM DENSITY LOG
 DEN .G/C3   45 350 01 00:   COMPENSATED BULK DENSTIY
 CORR.G/C3   45 356 01 00:   DENSITY CORRECTION
 DPHI.DEC    45 890 12 00:   DENSITY POROSITY SANDSTONE
~PARAMETER INFORMATION
#MNEM.UNIT          VALUE    DESCRIPTION
#----------   ------------   ------------------------------
 PD  .                 GL:   PERMANENT DATUM
 EPD .F              5099:   ELEVATION PERMANENT DATUM
 LMF .                 KB:   LOG MEASURED FROM
 DAPD.F                 4:   FEET ABOVE PERMANENT DATUM
 DMF .                 KB:   DRILLING MEASURED FROM
 EKB .F              5103:   KELLING BUSHING
 EGL .F              5099:   GROUND LEVEL
 DATE.            12-3-78:   RUN DATE
 RUN .                  1:   RUN NUMBER
 DD  .F               615:   DEPTH DRILLER
 DL  .F               604:   DEPTH LOGGER
 BLI .F               598:   BOTTOM LOG INTERVAL
 TLI .F                40:   TOP LOG INTERVAL
 CS  .IN            8.625:   CASING SIZE
 CBL .F                35:   CASING BOTTOM LOGGER
 BS  .IN            7.875:   BIT SIZE
 BSD .F               615:   BIT SIZE AT DEPTH
 DFT .                KCL:   DRILLING FLUID TYPE
 DFD .                8.8:   DRILLING FLUID DENSITY
 DFV .                 42:   DRILLING FLUID VISCOSITY
 DFPH.               12.2:   DRILLING FLUID PH
 DFL .                 10:   DRILLING FLUID LOSS
 MSS .           FLOWLINE:   MUD SAMPLE SOURCE
 RMS .OHMM            .24:   RESISTIVITY MUD SAMPLE
 MST .F                58:   MUD SAMPLE TEMPERATURE
 RMF .OHMM             .3:   RESISTIVITY MUD FILTRATE SAMPLE
 MFST.F                54:   MUD FILTRATE SAMPLE TEMPERATURE
 RMC .OHMM            .34:   RESISTIVITY MUD CAKE
 MCST.F                56:   MUD CAKE SAMPLE TEMPERATURE
 MFSS.           MEASURED:   MUD FILTRATE SAMPLE SOURCE
 MCSS.           MEASURED:   MUD CAKE SAMPLE SOURCE
 RMB .OHMM            .27:   RESISTIVITY MUD AT BHT
 BHT .F                56:   BOTTOM HOLE TEMPERATURE
 TCS .HRS               3:   TIME CURCULATED STOPPED
 MRT .F                52:   MAXIMUM RECORDED TEMPERATURE
 LUN .               2958:   LOGGING UNIT NUMBER
 LUL .                CPR:   LOGGING UNIT LOCATION
 ENGI.            ROLLINS:   RECORDING ENGINEER
 WITN.              AMEND:   WITNESSED BY
 CLNT.            A2DTECH:   CLIENT CODE
 ORIG.       2", 5" PRINT:   ORIGIN OF DATA
 UWI .       490251074100:   UNIQUE WELL ID
 DICO. A2D Technologies, Inc.:   DIGITIZING COMPANY
~OTHER INFORMATION
~A   DEPT      SPR         SN         IL       CALD         GRD       DEN       CORR       DPHI   
# ...
  296.0000   -52.6539     9.4062     8.2755     8.0197   108.4448     2.4522     0.0315     0.1477
  296.5000   -52.5344     9.3706     8.2390     8.0138   110.2870     2.4479     0.0314     0.1488
  297.0000   -52.4148     9.3351     8.2390     8.0078   111.3708     2.4476     0.0358     0.1488
  297.5000   -52.3114     9.2998     8.2390     8.0019   111.4930     2.4472     0.0418     0.1484
  298.0000   -52.3646     9.2647     8.2390     7.9961   111.6009     2.4481     0.0499     0.1470
  298.5000   -52.4156     9.2296     8.2390     7.9902   111.7254     2.4499     0.0615     0.1440
  299.0000   -52.4663     9.1947     8.2391     7.9840   111.1052     2.4517     0.0654     0.1435
  299.5000   -52.5168     9.1599     8.2390     7.9646   110.0639     2.4517     0.0678     0.1481
  300.0000   -52.5674     9.1252     8.2414     7.9287   108.1841     2.4456     0.0722     0.1528
  300.5000   -52.6179     9.0907     8.1579     7.8931   105.3581     2.4397     0.0842     0.1559
  301.0000   -52.6685     9.0569     8.0048     7.8573   102.5362     2.4378     0.1164     0.1488
  301.5000   -52.7190     8.9873     7.8546     7.8216    99.7078     2.4400     0.1516     0.1347
  302.0000   -52.7696     8.8720     7.7071     7.7960    97.5413     2.4664     0.1727     0.1204
  302.5000   -52.8201     8.7579     7.5625     7.7841    98.7493     2.4993     0.1496     0.1184
  303.0000   -52.8707     8.6453     7.4205     7.7719   102.9001     2.4870     0.1264     0.1416
  303.5000   -52.9212     8.5341     7.2813     7.7465   106.8384     2.4630     0.1247     0.1404
  304.0000   -52.9719     8.4244     7.1445     7.6468   106.7723     2.4522     0.1242     0.1358
  304.5000   -53.0231     8.3161     7.0105     7.5474   104.2649     2.4615     0.1237     0.1320
  305.0000   -53.0733     8.2092     6.8789     7.4486   101.7282     2.4709     0.1231     0.1320
  305.5000   -53.0688     8.1036     6.8491     7.3469   100.7531     2.4721     0.1225     0.1354
  306.0000   -52.8306     7.9994     6.9127     7.3033   101.9437     2.4693     0.1219     0.1393
  306.5000   -52.5984     7.8671     7.0099     7.3149   103.7611     2.4613     0.1214     0.1432
  307.0000   -52.3665     7.9668     7.1582     7.3487   105.5648     2.4548     0.1227     0.1433
  307.5000   -52.1346     8.1093     7.3097     7.3945   106.2971     2.4546     0.1299     0.1429
  308.0000   -51.9028     8.2542     7.4643     7.5694   105.6842     2.4542     0.1445     0.1428
  308.5000   -51.6710     8.4017     7.6223     7.3722   105.2121     2.4548     0.1667     0.1395
  309.0000   -51.4391     8.5519     7.7948     7.1982   105.6410     2.4567     0.1896     0.1277
  309.5000   -51.2073     8.7086     7.7665     7.5603   106.0565     2.4802     0.2050     0.1159
  310.0000   -50.9751     8.7264     7.7363     7.8004   106.3392     2.5119     0.1666     0.1048
  310.5000   -50.7398     8.7709     7.7062     7.8467   106.1674     2.5161     0.1282     0.1040
  311.0000   -50.5146     8.8156     7.6763     7.8659   105.9881     2.5105     0.0899     0.1305
  311.5000   -50.6552     8.8609     7.6464     7.8808   106.6774     2.4826     0.0509     0.1484
  312.0000   -50.8614     8.8715     7.6167     7.8868   107.6197     2.4522     0.0401     0.1599
  312.5000   -51.2190     8.8001     7.5871     7.8935   108.1719     2.4277     0.0441     0.1524
  313.0000   -51.5777     8.7138     7.5576     7.9005   108.2085     2.4369     0.0492     0.1431
  313.5000   -51.9380     8.6283     7.5282     7.9074   106.7180     2.4514     0.0391     0.1368
  314.0000   -52.2980     8.5437     7.4990     7.9143   105.0856     2.4590     0.0274     0.1437
  314.5000   -52.6585     8.4598     7.4697     7.9212   103.6684     2.4488     0.0155     0.1513
  315.0000   -53.0185     8.3768     7.4429     7.9281   103.2927     2.4361     0.0099     0.1589
  315.5000   -53.3489     8.2946     7.3378     7.9350   102.9007     2.4292     0.0075     0.1665
  316.0000   -53.5122     8.2133     7.0401     7.9419   102.2279     2.4223     0.0085     0.1740
  316.5000   -53.6799     8.1338     6.7545     7.9487   101.4696     2.4084     0.0093     0.1819
  317.0000   -53.8479     8.0012     6.4805     7.9557   100.9627     2.3944     0.0100     0.1827
  317.5000   -54.0189     7.8114     6.2176     7.9676   102.0577     2.3876     0.0108     0.1728
  318.0000   -54.3183     7.6246     5.9654     8.0010   103.8233     2.4013     0.0116     0.1627
  318.5000   -54.8189     7.4426     5.9080     8.0337   104.3549     2.4184     0.0124     0.1527
  319.0000   -55.3172     7.2649     5.9859     8.0666   105.1148     2.4355     0.0132     0.1426
  319.5000   -55.8278     7.0915     6.1138     8.0806   107.4507     2.4526     0.0122     0.1344
  320.0000   -55.9245     6.9127     6.2444     8.0809   108.6566     2.4674     0.0101     0.1336
  320.5000   -55.9253     6.9127     6.3778     8.0809   105.2681     2.4691     0.0079     0.1371
  321.0000   -55.9244     6.9127     6.5140     8.0808   102.5738     2.4657     0.0057     0.1413
  321.5000   -55.9220     6.9127     6.6532     8.0808   103.5632     2.4585     0.0053     0.1456
  322.0000   -55.7958     7.2810     6.8881     8.0808   106.1116     2.4514     0.0050     0.1491
  322.5000   -55.4628     7.6410     7.2292     8.0808   107.4069     2.4470     0.0048     0.1438
  323.0000   -55.1326     8.0254     7.5858     8.0808   107.5681     2.4481     0.0046     0.1383
  323.5000   -54.8016     8.3102     7.9489     8.0808   107.8940     2.4575     0.0043     0.1328
  324.0000   -54.4709     8.3933     8.1717     8.0808   108.5904     2.4674     0.0041     0.1312
  324.5000   -54.1403     8.5518     8.1216     8.0808   109.1791     2.4737     0.0038     0.1302
  325.0000   -53.7962     8.6269     8.0350     8.0808   108.5861     2.4757     0.0036     0.1285
  325.5000   -53.6939     8.7055     7.9401     8.0808   105.7504     2.4778     0.0053     0.1272
  326.0000   -53.6637     8.8016     7.9910     8.0808   104.9830     2.4799     0.0081     0.1298
  326.5000   -53.6354     8.8988     8.0686     8.0808   104.1127     2.4761     0.0110     0.1324
  327.0000   -53.6063     8.9970     8.1470     8.0808   106.3259     2.4716     0.0138     0.1340
  327.5000   -53.5771     9.0963     8.2261     8.0808   109.5010     2.4687     0.0167     0.1268
  328.0000   -53.5479     9.1968     8.3060     8.0808   109.9110     2.4773     0.0193     0.1174
  328.5000   -53.5186     9.2984     8.3926     8.0808   108.2589     2.4987     0.0174     0.1081
  329.0000   -53.4894     9.4018     8.3926     8.0808   106.5630     2.5208     0.0153     0.0996
  329.5000   -53.4602     9.4633     8.3772     8.0808   105.5433     2.5254     0.0132     0.1070
  330.0000   -53.4310     9.4261     8.3614     8.0808   106.7285     2.5152     0.0111     0.1174
  330.5000   -53.4017     9.3994     8.3455     8.0808   106.6624     2.5024     0.0091     0.1249
  331.0000   -53.3725     9.3727     8.3298     8.0808   104.9047     2.4898     0.0070     0.1216
  331.5000   -53.3433     9.3461     8.3140     8.0808   104.9946     2.4890     0.0049     0.1188
  332.0000   -53.3140     9.3195     8.2983     8.0808   107.2150     2.4934     0.0028     0.1217
  332.5000   -53.2848     9.2931     8.2826     8.0808   109.3023     2.4956     0.0008     0.1294
  333.0000   -53.2556     9.2667     8.2669     8.0808   111.3791     2.4736     0.0002     0.1372
  333.5000   -53.2263     9.2404     8.2512     8.0808   113.4611     2.4641     0.0022     0.1377
  334.0000   -53.1971     9.2142     8.2125     8.0808   114.1698     2.4642     0.0041     0.1368
  334.5000   -53.1674     9.1682     8.0922     8.0808   113.5973     2.4648     0.0060     0.1366
  335.0000   -53.1375     9.1116     7.9736     8.0808   109.5649     2.4630     0.0080     0.1416
  335.5000   -53.1381     9.0554     7.8567     8.0808   105.1870     2.4600     0.0098     0.1361
  336.0000   -53.3792     8.9994     7.7416     8.0808   103.4803     2.4648     0.0107     0.1304
