~VERSION INFORMATION
 VERS.                2.0:   CWLS LOG ASCII STANDARD - VERSION 2.0
 WRAP.                 NO:   ONE LINE PER DEPTH STEP
~WELL INFORMATION
#MNEM.UNIT      DATA TYPE    INFORMATION
#----------   ------------   ------------------------------
 STRT.F           38.0000:   START DEPTH
 STOP.F          483.5000:   STOP DEPTH
 STEP.F            0.5000:   STEP LENGTH
 NULL.          -999.2500:   NO VALUE
 COMP. FENIX & SCISSON INC:   COMPANY
 WELL.    43 SX 10 #43-10:   WELL
 FLD .             TEAPOT:   FIELD
 LOC .      S10 T38N R78W:   LOCATION
 CNTY.            NATRONA:   COUNTY
 STAT.            WYOMING:   STATE
 CTRY. UNITED STATES OF AMERICA:   COUNTRY
 SRVC.            Unknown:   SERVICE COMPANY
 DATE.        12-NOV-1978:   LOGDATE
 API .       490251072700:   API NUMBER
~CURVE INFORMATION
#MNEM.UNIT       API CODE    CURVE DESCRIPTION
#----------   ------------   ------------------------------
 DEPT.F                  :   
 SPR .MV     05 010 01 00:   SPONTANEOUS POTENTIAL FROM RES.
 SN  .OHMM   05 040 16 00:   SHORT NORMAL 16"
 IL  .OHMM   05 120 00 00:   INDUCTION LOG
 GRD .GAPI   45 310 01 00:   GAMMA RAY FROM DENSITY LOG
 CALD.IN     45 280 60 00:   CALIPER
 DEN .G/C3   45 350 01 00:   COMPENSATED BULK DENSTIY
 DPHI.DEC    45 890 12 00:   DENSITY POROSITY SANDSTONE
 CORR.G/C3   45 356 01 00:   DENSITY CORRECTION
~PARAMETER INFORMATION
#MNEM.UNIT          VALUE    DESCRIPTION
#----------   ------------   ------------------------------
 PD  .                 GL:   PERMANENT DATUM
 EPD .F              5193:   ELEVATION PERMANENT DATUM
 LMF .                 KB:   LOG MEASURED FROM
 DAPD.F                 4:   FEET ABOVE PERMANENT DATUM
 DMF .                 KB:   DRILLING MEASURED FROM
 EKB .F              5197:   KELLING BUSHING
 EGL .F              5193:   GROUND LEVEL
 DATE.           11-12-78:   RUN DATE
 RUN .                  1:   RUN NUMBER
 DD  .F               480:   DEPTH DRILLER
 DL  .F               485:   DEPTH LOGGER
 BLI .F               479:   BOTTOM LOG INTERVAL
 TLI .F                50:   TOP LOG INTERVAL
 CS  .IN            8.625:   CASING SIZE
 CBD .F                40:   CASING BOTTOM DRILLER
 CBL .F                45:   CASING BOTTOM LOGGER
 BS  .IN            7.875:   BIT SIZE
 BSD .F               480:   BIT SIZE AT DEPTH
 DFT .            SEA MUD:   DRILLING FLUID TYPE
 DFD .                8.7:   DRILLING FLUID DENSITY
 DFV .                 36:   DRILLING FLUID VISCOSITY
 DFPH.               10.5:   DRILLING FLUID PH
 MSS .            MUD PIT:   MUD SAMPLE SOURCE
 RMS .OHMM            .42:   RESISTIVITY MUD SAMPLE
 MST .F                52:   MUD SAMPLE TEMPERATURE
 RMF .OHMM            .42:   RESISTIVITY MUD FILTRATE SAMPLE
 MFST.F                52:   MUD FILTRATE SAMPLE TEMPERATURE
 RMC .OHMM            .48:   RESISTIVITY MUD CAKE
 MCST.F                54:   MUD CAKE SAMPLE TEMPERATURE
 MFSS.               MEAS:   MUD FILTRATE SAMPLE SOURCE
 MCSS.               MEAS:   MUD CAKE SAMPLE SOURCE
 RMB .OHMM            .34:   RESISTIVITY MUD AT BHT
 BHT .F                71:   BOTTOM HOLE TEMPERATURE
 TCS .HRS               3:   TIME CURCULATED STOPPED
 MRT .F                71:   MAXIMUM RECORDED TEMPERATURE
 LUN .               3006:   LOGGING UNIT NUMBER
 LUL .               CASP:   LOGGING UNIT LOCATION
 ENGI.             MILLER:   RECORDING ENGINEER
 WITN.           DINSMORE:   WITNESSED BY
 CLNT.            A2DTECH:   CLIENT CODE
 ORIG.       2", 5" PRINT:   ORIGIN OF DATA
 UWI .       490251072700:   UNIQUE WELL ID
 DICO. A2D Technologies, Inc.:   DIGITIZING COMPANY
~OTHER INFORMATION
~A   DEPT      SPR         SN         IL         GRD      CALD        DEN       DPHI       CORR   
# ...
  159.5000   -34.5618     8.5849     7.8239    85.8130     8.5552     2.4668     0.1296     0.0558
  160.0000   -34.5613     8.5255     7.7764    85.4596     8.5275     2.4644     0.1296     0.0542
  160.5000   -34.5356     8.4665     7.7273    86.9180     8.4935     2.4599     0.1318     0.0526
  161.0000   -34.4725     8.4079     7.6703    88.1815     8.4396     2.4555     0.1346     0.0536
  161.5000   -34.4100     8.3498     7.6137    88.7403     8.3583     2.4519     0.1372     0.0548
  162.0000   -34.3474     8.2922     7.5575    89.9197     8.2930     2.4520     0.1374     0.0561
  162.5000   -34.2846     8.2354     7.5018    90.0164     8.2629     2.4516     0.1376     0.0573
  163.0000   -34.2218     8.1774     7.4576    90.0043     8.2899     2.4437     0.1406     0.0588
  163.5000   -34.1642     7.9550     7.2747    87.8091     8.3474     2.4360     0.1491     0.0647
  164.0000   -34.1628     7.7391     7.0537    87.3194     8.4169     2.4311     0.1510     0.0704
  164.5000   -34.1641     7.5290     6.8394    86.4610     8.4806     2.4310     0.1500     0.0740
  165.0000   -34.1586     7.3247     6.6316    85.7088     8.5048     2.4378     0.1444     0.0716
  165.5000   -34.4469     7.1259     6.4301    85.6917     8.5147     2.4474     0.1388     0.0720
  166.0000   -34.5624     6.9324     6.3173    85.6915     8.5083     2.4570     0.1332     0.0744
  166.5000   -34.5455     6.7440     6.3972    85.6945     8.4716     2.4668     0.1287     0.0714
  167.0000   -34.2273     6.6753     6.4538    85.7749     8.4348     2.4703     0.1259     0.0680
  167.5000   -33.9150     6.6740     6.5110    85.9624     8.3705     2.4737     0.1236     0.0647
  168.0000   -33.7676     7.0302     6.5546    86.0919     8.2695     2.4736     0.1245     0.0653
  168.5000   -33.7649     7.3292     6.7840    86.2093     8.1689     2.4704     0.1260     0.0662
  169.0000   -33.7647     7.6410     7.0660    86.3255     8.0633     2.4693     0.1269     0.0670
  169.5000   -33.7649     7.9662     7.3597    86.6380     8.0605     2.4710     0.1255     0.0678
  170.0000   -33.7649     8.3054     7.6657    88.0705     8.2140     2.4728     0.1241     0.0686
  170.5000   -33.7649     8.5884     7.9843    90.7012     8.3737     2.4743     0.1228     0.0693
  171.0000   -33.7649     8.6800     8.0930    93.1935     8.4253     2.4692     0.1259     0.0702
  171.5000   -33.7649     8.7732     8.1683    94.0402     8.3918     2.4512     0.1334     0.0748
  172.0000   -33.7649     8.8674     8.2442    94.6086     8.3600     2.4330     0.1451     0.0971
  172.5000   -33.7649     8.9626     8.2776    95.1514     8.3278     2.4294     0.1529     0.1530
  173.0000   -33.7649     9.0508     8.3050    94.5750     8.2973     2.4626     0.1273     0.1915
  173.5000   -33.7649     9.0508     8.3325    92.8343     8.2859     2.5001     0.1145     0.1998
  174.0000   -33.7646     9.0508     8.3601    92.6500     8.2753     2.4934     0.1064     0.1634
  174.5000   -33.7622     9.0509     8.3878    92.4271     8.2650     2.4837     0.1177     0.1380
  175.0000   -33.8736     9.0509     8.4083    91.6833     8.2668     2.4737     0.1259     0.1125
  175.5000   -34.0100     9.0837     8.4185    90.8221     8.3063     2.4691     0.1308     0.0992
  176.0000   -34.1470     9.1202     8.4288    90.3639     8.3441     2.4753     0.1204     0.0933
  176.5000   -34.2825     9.1570     8.4390    90.1099     8.3786     2.4856     0.1156     0.0875
  177.0000   -34.3364     9.1943     8.4493    89.8604     8.3879     2.4830     0.1164     0.0817
  177.5000   -34.2705     9.2221     8.4597    89.5161     8.3963     2.4784     0.1198     0.0797
  178.0000   -34.2061     9.2329     8.4698    88.6864     8.3960     2.4772     0.1228     0.0863
  178.5000   -34.1413     9.2434     8.4801    88.4206     8.3923     2.4871     0.1162     0.1017
  179.0000   -34.0764     9.2538     8.4850    88.4998     8.3832     2.4966     0.1101     0.1169
  179.5000   -34.0122     9.2643     8.4316    88.7027     8.3826     2.5062     0.1036     0.1317
  180.0000   -33.9771     9.2746     8.3918    89.3821     8.4146     2.5114     0.1008     0.1146
  180.5000   -34.0424     9.2852     8.3520    90.0362     8.4460     2.4988     0.1081     0.0947
  181.0000   -34.1037     9.2957     8.3125    91.0176     8.4537     2.4862     0.1178     0.0749
  181.5000   -34.1757     9.3046     8.2731    91.3612     8.4514     2.4754     0.1230     0.0620
  182.0000   -34.4495     9.0714     8.2339    91.6488     8.4489     2.4736     0.1247     0.0566
  182.5000   -34.7183     8.9844     8.1949    93.3421     8.4464     2.4709     0.1264     0.0531
  183.0000   -34.9651     8.9000     8.1253    94.2755     8.4440     2.4690     0.1267     0.0529
  183.5000   -35.0927     8.8165     7.9819    91.1046     8.4415     2.4689     0.1269     0.0533
  184.0000   -35.2137     8.7336     7.8411    90.3183     8.4391     2.4677     0.1272     0.0538
  184.5000   -35.3345     8.6515     7.7027    93.1137     8.4365     2.4647     0.1287     0.0542
  185.0000   -35.4554     8.5702     7.5675    95.0864     8.4413     2.4617     0.1305     0.0547
  185.5000   -35.5764     8.4897     7.4564    95.6271     8.4503     2.4588     0.1322     0.0551
  186.0000   -35.6973     8.4102     7.3512    94.1512     8.4594     2.4557     0.1340     0.0556
  186.5000   -35.8182     8.3301     7.2445    93.7061     8.4687     2.4520     0.1359     0.0560
  187.0000   -35.9391     8.1410     7.1394    93.5334     8.4811     2.4477     0.1390     0.0564
  187.5000   -36.0601     7.9548     7.0563    93.3661     8.5059     2.4414     0.1442     0.0584
  188.0000   -36.1808     7.7728     6.7372    93.2011     8.5299     2.4297     0.1494     0.0619
  188.5000   -36.3025     7.5082     6.4325    92.4446     8.5539     2.4143     0.1577     0.0703
  189.0000   -36.3537     7.1319     6.1420    91.1242     8.5736     2.3934     0.1694     0.0731
  189.5000   -36.3547     6.7000     5.8628    90.6265     8.5639     2.3700     0.1853     0.0756
  190.0000   -36.3551     6.2506     5.5312    90.2571     8.5546     2.3342     0.2012     0.0808
  190.5000   -36.3529     5.8314     4.9810    89.7621     8.5454     2.2986     0.2171     0.0874
  191.0000   -36.2902     5.4403     4.4889    88.8318     8.5359     2.2632     0.2330     0.0943
  191.5000   -36.2275     4.9712     4.0445    88.6714     8.5456     2.2345     0.2488     0.1004
  192.0000   -36.1296     4.4848     3.6442    88.0459     8.5590     2.2204     0.2647     0.0955
  192.5000   -35.2441     4.1346     3.2842    87.0843     8.5729     2.2413     0.2690     0.0817
  193.0000   -34.3186     3.8398     3.1361    87.2088     8.5605     2.3111     0.2386     0.0679
  193.5000   -34.0716     3.3486     3.1056    88.9565     8.5444     2.3456     0.2017     0.0626
  194.0000   -33.9591     3.2316     3.1061    92.0260     8.5282     2.3791     0.1786     0.0598
  194.5000   -33.8497     3.1639     3.1061    95.0716     8.5120     2.4125     0.1589     0.0550
  195.0000   -33.7386     3.2707     3.1061    97.8891     8.4957     2.4353     0.1496     0.0505
  195.5000   -33.6242     3.5879     3.4517    97.2070     8.4913     2.4482     0.1400     0.0563
  196.0000   -33.3789     4.0880     3.8290    96.2446     8.4875     2.4606     0.1319     0.0649
  196.5000   -32.9598     4.6854     4.2475    96.7056     8.4837     2.4732     0.1236     0.0688
  197.0000   -32.5655     5.3702     4.7118    97.2587     8.4799     2.4783     0.1211     0.0692
  197.5000   -32.3324     6.0885     5.2269    97.9889     8.4765     2.4788     0.1186     0.0697
  198.0000   -32.1096     6.4005     5.7982    98.9568     8.4513     2.4871     0.1150     0.0702
  198.5000   -31.8869     6.7037     6.2631    99.4853     8.4221     2.4968     0.1098     0.0707
  199.0000   -31.6641     7.0213     6.2616   100.1776     8.3929     2.5018     0.1080     0.0712
  199.5000   -31.4413     7.1337     6.2599   101.5563     8.3638     2.4982     0.1080     0.0717
