~VERSION INFORMATION
 VERS.                2.0:   CWLS LOG ASCII STANDARD - VERSION 2.0
 WRAP.                 NO:   ONE LINE PER DEPTH STEP
~WELL INFORMATION
#MNEM.UNIT      DATA TYPE    INFORMATION
#----------   ------------   ------------------------------
 STRT.F            3.0000:   START DEPTH
 STOP.F          423.0000:   STOP DEPTH
 STEP.F            0.5000:   STEP LENGTH
 NULL.          -999.2500:   NO VALUE
 COMP. LAWRENCE/ALLISON INC:   COMPANY
 WELL.    53-62 STX #3-10:   WELL
 FLD .             TEAPOT:   FIELD
 LOC .      S10 T38N R78W:   LOCATION
 CNTY.            NATRONA:   COUNTY
 STAT.            WYOMING:   STATE
 CTRY. UNITED STATES OF AMERICA:   COUNTRY
 SRVC.           Gearhart:   SERVICE COMPANY
 DATE.        31-MAY-1988:   LOGDATE
 API .       490251122700:   API NUMBER
~CURVE INFORMATION
#MNEM.UNIT       API CODE    CURVE DESCRIPTION
#----------   ------------   ------------------------------
 DEPT.F                  :   
 GRR .GAPI   07 310 01 00:   GAMMA RAY
 RILD.OHMM   07 120 46 00:   INDUCTION LOG DEEP RESISTIVITY
 RILM.OHMM   07 120 44 00:   INDUCTION LOG MEDIUM RESISTIVITY
~PARAMETER INFORMATION
#MNEM.UNIT          VALUE    DESCRIPTION
#----------   ------------   ------------------------------
 PD  .                 GL:   PERMANENT DATUM
 EPD .F              5164:   ELEVATION PERMANENT DATUM
 LMF .                 KB:   LOG MEASURED FROM
 DAPD.F                10:   FEET ABOVE PERMANENT DATUM
 DMF .                 KB:   DRILLING MEASURED FROM
 EKB .F              5174:   KELLING BUSHING
 EGL .F              5164:   GROUND LEVEL
 DATE.        31-MAY-1988:   RUN DATE
 RUN .                  1:   RUN NUMBER
 DD  .F               435:   DEPTH DRILLER
 DL  .F             431.5:   DEPTH LOGGER
 BLI .F               423:   BOTTOM LOG INTERVAL
 CS  .IN            8.625:   CASING SIZE
 CBD .F                49:   CASING BOTTOM DRILLER
 CBL .F                49:   CASING BOTTOM LOGGER
 BS  .IN            7.875:   BIT SIZE
 BSD .F               435:   BIT SIZE AT DEPTH
 DFT .                AIR:   DRILLING FLUID TYPE
 TLAB.HRS            0330:   TIME LOGGER AT BOTTOM
 MRT .F                70:   MAXIMUM RECORDED TEMPERATURE
 LUN .               7597:   LOGGING UNIT NUMBER
 LUL .           GILLETTE:   LOGGING UNIT LOCATION
 ENGI.          HUCKFELDT:   RECORDING ENGINEER
 WITN.             STRONG:   WITNESSED BY
 CLNT.            A2DTECH:   CLIENT CODE
 ORIG.           5" PRINT:   ORIGIN OF DATA
 UWI .       490251122700:   UNIQUE WELL ID
 DICO. A2D Technologies, Inc.:   DIGITIZING COMPANY
~OTHER INFORMATION
~A    DEPT      GRR      RILD       RILM   
# ...
  276.0000    92.2505    23.8975    22.4379
  276.5000    92.2566    23.7109    22.1214
  277.0000    92.2626    23.3875    21.6573
  277.5000    91.6599    23.1962    21.0551
  278.0000    89.5350    22.8884    20.9039
  278.5000    87.7146    22.8820    21.0474
  279.0000    85.8941    22.8743    21.1908
  279.5000    84.3781    22.8680    21.1853
  280.0000    84.6886    23.0239    21.1809
  280.5000    87.4344    23.1793    21.3264
  281.0000    89.2669    23.3357    21.4717
  281.5000    90.7950    23.4932    21.6180
  282.0000    91.1040    23.1583    21.9182
  282.5000    88.9806    22.9903    21.9125
  283.0000    87.4646    22.8235    21.7551
  283.5000    86.5559    22.6579    21.4483
  284.0000    85.9543    22.4935    20.9983
  284.5000    86.2651    21.7133    20.7021
  285.0000    88.0976    21.7073    20.1264
  285.5000    90.2346    21.7012    19.6935
  286.0000    91.1538    21.2441    19.5626
  286.5000    90.5511    20.9427    19.5362
  287.0000    89.6439    20.5016    19.1472
  287.5000    88.4323    20.2108    18.8772
  288.0000    87.5251    19.9241    18.6109
  288.5000    87.5312    19.7795    18.2204
  289.0000    88.1461    19.4989    17.7138
  289.5000    88.1522    19.0882    17.3421
  290.0000    86.5957    18.9497    17.2176
  290.5000    85.0715    18.6809    17.4567
  291.0000    86.0964    18.4159    17.6991
  291.5000    87.8733    18.1547    17.8197
  292.0000    88.7926    18.0229    17.8160
  292.5000    88.1883    18.0179    17.8123
  293.0000    86.6738    18.1396    17.9346
  293.5000    85.1578    18.1345    17.8049
  294.0000    83.3374    18.1294    17.6770
  294.5000    82.7331    18.1192    17.6733
  295.0000    83.0450    17.8672    17.4241
  295.5000    83.3555    17.6022    17.0585
  296.0000    85.7969    16.7522    16.7006
  296.5000    87.9338    16.6446    16.3502
  297.0000    88.2428    16.4085    16.3384
  297.5000    87.3371    16.2885    16.1030
  298.0000    87.3431    16.1703    15.1292
  298.5000    87.3492    16.1658    14.9151
  299.0000    87.6596    16.1613    14.9120
  299.5000    88.5789    16.1568    14.7017
  300.0000    89.7008    15.9272    14.5969
  300.5000    91.6319    15.8095    14.5926
  301.0000    92.5481    15.6926    14.5796
  301.5000    93.7688    15.6861    14.3686
  302.0000    94.9895    15.7915    14.2773
  302.5000    96.2101    15.7833    14.5754
  303.0000    96.8220    15.8892    14.8805
  303.5000    97.4338    15.9943    15.0861
  304.0000    96.8280    16.2132    15.1879
  304.5000    95.2847    16.3187    15.2914
  305.0000    91.9230    16.3119    15.3934
  305.5000    91.3576    16.4200    15.4972
  306.0000    92.2740    16.4129    15.3849
  306.5000    92.2770    16.4061    15.3806
  307.0000    91.6718    16.2848    15.2691
  307.5000    88.3263    16.2779    15.2649
  308.0000    86.8065    16.1576    15.1543
  308.5000    88.6367    16.0239    15.0444
  309.0000    90.7706    15.6980    14.8312
  309.5000    95.3399    15.3639    14.6210
  310.0000    96.5605    15.0382    14.4137
  310.5000    95.0415    14.8228    14.2095
  311.0000    93.5224    14.6105    13.8134
  311.5000    92.6122    14.4013    13.5226
  312.0000    95.3549    14.3953    13.4208
  312.5000    97.4888    14.5924    13.2265
  313.0000    99.6227    15.0007    13.1383
  313.5000    99.9294    15.9701    13.2270
  314.0000    95.6714    16.7657    13.2224
  314.5000    95.6214    18.2281    13.9800
  315.0000    96.0223    19.6798    15.5231
  315.5000    93.2451    21.5469    17.9758
  316.0000    86.2466    23.9239    20.9622
  316.5000    78.6393    26.9378    23.2761
  317.0000    73.7474    31.6333    27.3337
  317.5000    71.0350    36.6304    31.4317
  318.0000    72.9945    39.2717    35.3932
  318.5000    78.3110    39.2552    38.7537
  319.0000    82.0598    38.6640    38.7429
  319.5000    82.9192    37.5677    38.1938
  320.0000    80.7920    36.8075    37.3899
  320.5000    79.5774    36.5355    36.8600
  321.0000    78.6664    36.2654    36.5928
  321.5000    78.6702    36.2503    36.5826
  322.0000    80.4997    36.4938    36.3174
  322.5000    81.1115    36.4748    36.0542
  323.0000    81.7234    36.2052    36.0442
  323.5000    82.3344    35.6867    35.7738
  324.0000    79.9029    35.1757    35.5233
  324.5000    78.6883    34.9157    35.2657
  325.0000    80.2133    34.9012    35.0099
  325.5000    81.7384    34.6432    34.7541
  326.0000    81.1326    34.3871    33.7853
  326.5000    78.0915    33.6581    33.0742
  327.0000    76.2680    32.9446    32.8344
  327.5000    75.0533    32.4728    32.1433
  328.0000    78.4049    31.5625    31.4667
  328.5000    80.5388    30.6778    30.3762
  329.0000    79.9330    30.0274    29.9457
  329.5000    79.0066    29.5972    28.7063
  330.0000    77.5038    29.3509    27.9061
  330.5000    76.8979    28.9211    26.7511
  331.0000    76.2477    28.3411    26.3719
  331.5000    75.9907    28.1316    25.9982
  332.0000    80.2563    27.9237    25.9910
  332.5000    82.6946    27.9121    26.1663
  333.0000    85.7418    27.7058    26.5281
  333.5000    86.3529    27.3090    26.7069
  334.0000    84.2250    26.9179    26.6993
  334.5000    83.3148    26.5325    26.6919
  335.0000    84.5362    26.5215    26.4922
  335.5000    86.0613    26.3254    26.3062
  336.0000    86.6731    26.3145    26.2988
  336.5000    86.0673    26.3036    26.2914
  337.0000    83.3306    26.2926    26.2826
  337.5000    80.8983    26.2817    26.2753
  338.0000    84.5543    26.2708    26.2681
  338.5000    85.7749    26.0766    26.2608
  339.0000    86.0816    25.7032    26.0704
  339.5000    83.0412    25.6888    25.7009
  340.0000    80.9133    25.3127    25.3367
  340.5000    79.6987    24.7678    25.1530
  341.0000    78.7885    24.6041    24.6236
  341.5000    80.0091    24.4201    24.4451
  342.0000    81.8548    24.2396    23.7636
  342.5000    84.3179    23.8925    23.2634
  343.0000    85.8022    23.0606    23.0948
  343.5000    86.7631    22.2578    22.7675
  344.0000    87.6915    20.8893    21.9784
  344.5000    90.0736    20.1621    20.9219
  345.0000    92.8164    19.8734    20.3386
  345.5000    95.5591    19.7265    19.7717
  346.0000    95.8658    19.8589    19.7662
  346.5000    92.2166    20.9925    20.1885
  347.0000    87.9578    22.3491    21.2093
  347.5000    85.8299    23.1361    22.4379
  348.0000    82.7888    23.9507    23.4080
  348.5000    78.5300    24.9683    23.6782
  349.0000    75.1845    25.1335    23.3410
  349.5000    73.9691    24.4288    22.8497
  350.0000    73.6677    23.2503    21.4499
  350.5000    78.5744    21.1943    20.5534
  351.0000    81.0128    19.8554    19.9721
  351.5000    80.5815    18.4058    19.4071
  352.0000    78.5508    17.5333    18.8372
  352.5000    80.0767    17.3866    17.8423
  353.0000    84.9503    17.0330    17.1014
  353.5000    87.9974    16.7880    16.6224
  354.0000    86.7828    16.7798    16.3845
  354.5000    85.2637    16.5384    16.1501
  355.0000    86.1800    16.3005    16.0308
  355.5000    87.7050    15.4048    15.9123
  356.0000    88.3169    15.2898    15.9057
  356.5000    87.7103    15.2824    15.8991
  357.0000    87.1052    15.1683    15.8925
  357.5000    86.4994    15.1609    15.7751
  358.0000    83.7626    15.1535    15.7686
  358.5000    84.6789    15.1461    15.7620
  359.0000    85.5952    15.1372    15.6456
  359.5000    88.0453    15.1299    15.4217
  360.0000    91.1009    15.1226    15.0950
  360.5000    91.9969    15.1153    14.7752
  361.0000    90.4251    15.1079    14.6661
  361.5000    88.9595    14.9952    14.6600
  362.0000    88.3529    14.9880    14.6539
  362.5000    92.9229    14.9807    14.6478
  363.0000    95.6656    14.8690    14.6416
  363.5000    96.5818    14.8618    14.7384
  364.0000    93.8451    14.8546    14.6293
  364.5000    91.1084    14.7437    14.6232
  365.0000    89.8930    14.6338    14.6158
  365.5000    93.2453    14.6267    14.6098
  366.0000    93.8564    14.6196    14.6037
  366.5000    92.3381    14.5105    14.4958
