~VERSION INFORMATION
 VERS.                2.0:   CWLS LOG ASCII STANDARD - VERSION 2.0
 WRAP.                 NO:   ONE LINE PER DEPTH STEP
~WELL INFORMATION
#MNEM.UNIT      DATA TYPE    INFORMATION
#----------   ------------   ------------------------------
 STRT.F            4.0000:   START DEPTH
 STOP.F          468.5000:   STOP DEPTH
 STEP.F            0.1000:   STEP LENGTH
 NULL.          -999.2500:   NO VALUE
 COMP. BROWN JOHN E&C INC:   COMPANY
 WELL.  SX-10 #1-14-SX-10:   WELL
 FLD .        N.P.R. No.3:   FIELD
 LOC .      S10 T38N R78W:   LOCATION
 CNTY.            NATRONA:   COUNTY
 STAT.            WYOMING:   STATE
 CTRY. UNITED STATES OF AMERICA:   COUNTRY
 SRVC.     Atlas Wireline:   SERVICE COMPANY
 DATE.        21-SEP-1991:   LOGDATE
 API .       490251125800:   API NUMBER
~CURVE INFORMATION
#MNEM.UNIT       API CODE    CURVE DESCRIPTION
#----------   ------------   ------------------------------
 DEPT.F                  :   
 GRR .GAPI   07 310 01 00:   GAMMA RAY FROM RES. LOG.
 ILD .OHMM   07 120 46 00:   INDUCTION LOG DEEP
 RILM.OHMM   07 120 44 00:   INDUCTION LOG MEDIUM RESISTIVITY
~PARAMETER INFORMATION
#MNEM.UNIT          VALUE    DESCRIPTION
#----------   ------------   ------------------------------
 PD  .                 GL:   PERMANENT DATUM
 EPD .F              5183:   ELEVATION PERMANENT DATUM
 LMF .                 KB:   LOG MEASURED FROM
 DAPD.F                10:   FEET ABOVE PERMANENT DATUM
 DMF .                 KB:   DRILLING MEASURED FROM
 EKB .F              5193:   KELLING BUSHING
 EGL .F              5183:   GROUND LEVEL
 DATE.            9-21-91:   RUN DATE
 RUN .                  1:   RUN NUMBER
 DD  .F               480:   DEPTH DRILLER
 DL  .F               478:   DEPTH LOGGER
 BLI .F               470:   BOTTOM LOG INTERVAL
 CS  .IN                7:   CASING SIZE
 CBD .F                90:   CASING BOTTOM DRILLER
 CBL .F                90:   CASING BOTTOM LOGGER
 BS  .IN             6.25:   BIT SIZE
 BSD .F               480:   BIT SIZE AT DEPTH
 DFT .                AIR:   DRILLING FLUID TYPE
 TCS .HRS               1:   TIME CURCULATED STOPPED
 MRT .F                80:   MAXIMUM RECORDED TEMPERATURE
 LUN .            HL-6307:   LOGGING UNIT NUMBER
 LUL .             CASPER:   LOGGING UNIT LOCATION
 ENGI.             RAUTIO:   RECORDING ENGINEER
 WITN.             STRONG:   WITNESSED BY
 CLNT.            A2DTECH:   CLIENT CODE
 ORIG.        2" 5" PRINT:   ORIGIN OF DATA
 UWI .       490251125800:   UNIQUE WELL ID
 DICO. A2D Technologies, Inc.:   DIGITIZING COMPANY
~OTHER INFORMATION
~A    DEPT       GRR      ILD       RILM   
# ...
  113.2000   135.4640     7.5711     7.8951
  113.3000   136.5483     7.5634     7.8879
  113.4000   137.6325     7.5557     7.8807
  113.5000   138.7168     7.5479     7.8735
  113.6000   139.5823     7.5402     7.8663
  113.7000   140.4478     7.5326     7.8591
  113.8000   141.3133     7.5249     7.8520
  113.9000   142.1788     7.5172     7.8448
  114.0000   143.0444     7.5095     7.8376
  114.1000   142.8507     7.4981     7.8304
  114.2000   142.6571     7.4868     7.8233
  114.3000   142.4635     7.4754     7.8162
  114.4000   142.2698     7.4641     7.8090
  114.5000   142.0762     7.4527     7.8019
  114.6000   141.7791     7.4565     7.7948
  114.7000   141.4819     7.4603     7.7876
  114.8000   141.1848     7.4641     7.7805
  114.9000   140.8877     7.4678     7.7734
  115.0000   140.5905     7.4716     7.7663
  115.1000   140.5209     7.4793     7.7602
  115.2000   140.4513     7.4869     7.7540
  115.3000   140.3817     7.4946     7.7479
  115.4000   140.3121     7.5022     7.7417
  115.5000   140.2425     7.5099     7.7356
  115.6000   139.8732     7.5175     7.7499
  115.7000   139.5040     7.5251     7.7642
  115.8000   139.1347     7.5328     7.7785
  115.9000   138.7655     7.5404     7.7929
  116.0000   138.3962     7.5480     7.8072
  116.1000   137.9211     7.5557     7.8200
  116.2000   137.4461     7.5633     7.8327
  116.3000   136.9710     7.5710     7.8455
  116.4000   136.4959     7.5787     7.8582
  116.5000   136.0208     7.5863     7.8710
  116.6000   135.9771     7.5940     7.8839
  116.7000   135.9334     7.6017     7.8967
  116.8000   135.8896     7.6094     7.9096
  116.9000   135.8459     7.6171     7.9225
  117.0000   135.8022     7.6248     7.9353
  117.1000   135.8656     7.6326     7.9483
  117.2000   135.9291     7.6404     7.9613
  117.3000   135.9925     7.6482     7.9743
  117.4000   136.0560     7.6560     7.9872
  117.5000   136.1194     7.6639     8.0002
  117.6000   136.1870     7.6941     8.0133
  117.7000   136.2545     7.7243     8.0264
  117.8000   136.3220     7.7545     8.0394
  117.9000   136.3895     7.7848     8.0525
  118.0000   136.4570     7.8150     8.0656
  118.1000   136.6010     7.8576     8.0733
  118.2000   136.7451     7.9003     8.0811
  118.3000   136.8891     7.9429     8.0888
  118.4000   137.0331     7.9855     8.0965
  118.5000   137.1772     8.0281     8.1043
  118.6000   137.5274     8.0053     8.0763
  118.7000   137.8776     7.9824     8.0484
  118.8000   138.2278     7.9596     8.0204
  118.9000   138.5781     7.9367     7.9925
  119.0000   138.9283     7.9139     7.9645
  119.1000   139.0063     7.8766     7.9450
  119.2000   139.0842     7.8392     7.9255
  119.3000   139.1622     7.8019     7.9060
  119.4000   139.2402     7.7646     7.8865
  119.5000   139.3182     7.7273     7.8670
  119.6000   138.8067     7.6912     7.8478
  119.7000   138.2952     7.6552     7.8285
  119.8000   137.7837     7.6191     7.8092
  119.9000   137.2722     7.5831     7.7900
  120.0000   136.7608     7.5470     7.7707
  120.1000   136.1123     7.5364     7.7517
  120.2000   135.4639     7.5258     7.7327
  120.3000   134.8154     7.5151     7.7137
  120.4000   134.1670     7.5045     7.6946
  120.5000   133.5185     7.4939     7.6756
  120.6000   133.1983     7.4853     7.6678
  120.7000   132.8781     7.4768     7.6600
  120.8000   132.5578     7.4682     7.6522
  120.9000   132.2376     7.4597     7.6444
  121.0000   131.9174     7.4511     7.6366
  121.1000   131.9470     7.4426     7.6286
  121.2000   131.9767     7.4341     7.6206
  121.3000   132.0063     7.4256     7.6127
  121.4000   132.0359     7.4171     7.6047
  121.5000   132.0656     7.4086     7.5967
  121.6000   131.9910     7.4001     7.5887
  121.7000   131.9164     7.3917     7.5808
  121.8000   131.8419     7.3832     7.5728
  121.9000   131.7673     7.3748     7.5649
  122.0000   131.6928     7.3663     7.5569
  122.1000   131.3518     7.3579     7.5490
  122.2000   131.0108     7.3495     7.5411
  122.3000   130.6698     7.3411     7.5332
  122.4000   130.3288     7.3327     7.5253
  122.5000   129.9877     7.3243     7.5174
  122.6000   129.6872     7.3159     7.5095
  122.7000   129.3866     7.3075     7.5016
  122.8000   129.0860     7.2992     7.4938
  122.9000   128.7855     7.2908     7.4859
  123.0000   128.4849     7.2825     7.4781
  123.1000   128.7567     7.2721     7.4702
  123.2000   129.0284     7.2617     7.4624
  123.3000   129.3002     7.2513     7.4546
  123.4000   129.5719     7.2409     7.4467
  123.5000   129.8437     7.2306     7.4389
  123.6000   130.1330     7.2092     7.4311
  123.7000   130.4223     7.1878     7.4233
  123.8000   130.7116     7.1664     7.4156
  123.9000   131.0009     7.1450     7.4078
  124.0000   131.2901     7.1235     7.4000
  124.1000   131.2500     7.1025     7.3884
  124.2000   131.2098     7.0814     7.3769
  124.3000   131.1696     7.0603     7.3654
  124.4000   131.1294     7.0392     7.3538
  124.5000   131.0892     7.0181     7.3423
  124.6000   131.3118     6.9973     7.3208
  124.7000   131.5345     6.9766     7.2993
  124.8000   131.7571     6.9558     7.2777
  124.9000   131.9797     6.9350     7.2562
  125.0000   132.2024     6.9142     7.2347
  125.1000   132.8056     6.8846     7.2135
  125.2000   133.4089     6.8550     7.1923
  125.3000   134.0122     6.8253     7.1712
  125.4000   134.6155     6.7957     7.1500
  125.5000   135.2188     6.7660     7.1288
  125.6000   135.1223     6.7241     7.1126
  125.7000   135.0259     6.6821     7.0963
  125.8000   134.9294     6.6402     7.0801
  125.9000   134.8330     6.5983     7.0639
  126.0000   134.7365     6.5564     7.0477
  126.1000   133.6008     6.5157     6.9844
  126.2000   132.4651     6.4751     6.9211
  126.3000   131.3293     6.4345     6.8577
  126.4000   130.1936     6.3938     6.7944
  126.5000   129.0579     6.3532     6.7311
  126.6000   128.2086     6.3138     6.6722
  126.7000   127.3592     6.2744     6.6133
  126.8000   126.5099     6.2351     6.5544
  126.9000   125.6606     6.1957     6.4955
  127.0000   124.8113     6.1563     6.4366
  127.1000   125.0209     6.1182     6.3803
  127.2000   125.2306     6.0800     6.3240
  127.3000   125.4403     6.0419     6.2677
  127.4000   125.6500     6.0037     6.2114
  127.5000   125.8597     5.9655     6.1550
  127.6000   126.7357     5.9316     6.1160
  127.7000   127.6118     5.8976     6.0770
  127.8000   128.4878     5.8637     6.0380
  127.9000   129.3638     5.8297     5.9990
  128.0000   130.2399     5.7958     5.9600
  128.1000   131.0740     5.8049     5.9745
  128.2000   131.9081     5.8141     5.9890
  128.3000   132.7423     5.8233     6.0035
  128.4000   133.5764     5.8324     6.0180
  128.5000   134.4106     5.8416     6.0325
  128.6000   135.0081     5.8501     6.0484
  128.7000   135.6057     5.8586     6.0643
  128.8000   136.2033     5.8671     6.0802
  128.9000   136.8009     5.8756     6.0961
  129.0000   137.3985     5.8842     6.1120
  129.1000   137.2608     5.8927     6.1384
  129.2000   137.1232     5.9013     6.1647
  129.3000   136.9855     5.9099     6.1911
  129.4000   136.8478     5.9185     6.2174
  129.5000   136.7102     5.9271     6.2438
  129.6000   136.2911     5.9357     6.2707
  129.7000   135.8721     5.9443     6.2976
  129.8000   135.4530     5.9530     6.3245
  129.9000   135.0340     5.9616     6.3514
  130.0000   134.6150     5.9703     6.3783
  130.1000   134.2431     5.9794     6.4058
  130.2000   133.8712     5.9885     6.4333
  130.3000   133.4993     5.9976     6.4608
  130.4000   133.1273     6.0067     6.4883
  130.5000   132.7554     6.0158     6.5158
  130.6000   132.9397     6.0419     6.5439
  130.7000   133.1240     6.0680     6.5720
  130.8000   133.3082     6.0941     6.6001
  130.9000   133.4925     6.1201     6.6282
  131.0000   133.6768     6.1462     6.6563
  131.1000   133.9331     6.1816     6.6849
  131.2000   134.1894     6.2169     6.7135
  131.3000   134.4457     6.2522     6.7420
