~VERSION INFORMATION
 VERS.                2.0:   CWLS LOG ASCII STANDARD - VERSION 2.0
 WRAP.                 NO:   ONE LINE PER DEPTH STEP
~WELL INFORMATION
#MNEM.UNIT      DATA TYPE    INFORMATION
#----------   ------------   ------------------------------
 STRT.F            0.0000:   START DEPTH
 STOP.F         4535.0000:   STOP DEPTH
 STEP.F            0.5000:   STEP LENGTH
 NULL.          -999.2500:   NO VALUE
 COMP. LAWRENCE - ALLISON & ASSOCIATES:   COMPANY
 WELL.    NPR ##3 56-X-15:   WELL
 FLD .   TEAPOT NAVAL RES:   FIELD
 LOC .      S15 T38N R78W:   LOCATION
 CNTY.            NATRONA:   COUNTY
 STAT.            WYOMING:   STATE
 CTRY. UNITED STATES OF AMERICA:   COUNTRY
 SRVC.      Dresser Atlas:   SERVICE COMPANY
 DATE.        03-MAY-1984:   LOGDATE
 API .       490251095900:   API NUMBER
~CURVE INFORMATION
#MNEM.UNIT       API CODE    CURVE DESCRIPTION
#----------   ------------   ------------------------------
 DEPT.F                  :   
 CORR.G/C3   45 356 01 00:   DENSITY CORRECTION
 DEN .G/C3   45 350 01 00:   COMPENSATED BULK DENSTIY
 PORD.DEC    45 890 12 00:   POROSITY DENSITY SANDSTONE
 CNC .DEC    42 890 03 00:   NEUTRON POROSITY SANDSTONE
 GRR .GAPI   07 310 01 00:   GAMMA RAY
 CALR.IN     07 280 01 00:   CALIPER FROM RESISTIVITY
 SPR .MV     07 010 01 00:   SPONTANEOUS POTENTIAL
 RILD.OHMM   07 120 46 00:   INDUCTION LOG DEEP RESISTIVITY
 RILM.OHMM   07 120 44 00:   INDUCTION LOG MEDIUM RESISTIVITY
 RFOC.OHMM   07 220 04 00:   RESISTIVITY FOCUSED LOG
 AC  .US/F   60 520 00 00:   ACCOUSTIC
~PARAMETER INFORMATION
#MNEM.UNIT          VALUE    DESCRIPTION
#----------   ------------   ------------------------------
 PD  .                 GL:   PERMANENT DATUM
 EPD .F              5326:   ELEVATION PERMANENT DATUM
 LMF .                 KB:   LOG MEASURED FROM
 DAPD.F                12:   FEET ABOVE PERMANENT DATUM
 DMF .                 KB:   DRILLING MEASURED FROM
 EKB .F              5338:   KELLING BUSHING
 EDF .F              5337:   DRILLING FLOOR
 EGL .F              5326:   GROUND LEVEL
 DATE.        03-MAY-1984:   RUN DATE
 RUN .                  1:   RUN NUMBER
 DD  .F              4547:   DEPTH DRILLER
 DL  .F              4539:   DEPTH LOGGER
 BLI .F              4536:   BOTTOM LOG INTERVAL
 CS  .IN            8.625:   CASING SIZE
 CBD .F              1027:   CASING BOTTOM DRILLER
 CBL .F              1021:   CASING BOTTOM LOGGER
 BS  .IN            7.875:   BIT SIZE
 BSD .F              4547:   BIT SIZE AT DEPTH
 DFT .            KCL GEL:   DRILLING FLUID TYPE
 DFD .                9.1:   DRILLING FLUID DENSITY
 DFV .                 44:   DRILLING FLUID VISCOSITY
 DFPH.                  8:   DRILLING FLUID PH
 DFL .               14.5:   DRILLING FLUID LOSS
 MSS .           MUD TANK:   MUD SAMPLE SOURCE
 RMS .OHMM           0.56:   RESISTIVITY MUD SAMPLE
 MST .F                73:   MUD SAMPLE TEMPERATURE
 RMF .OHMM           0.42:   RESISTIVITY MUD FILTRATE SAMPLE
 MFST.F                73:   MUD FILTRATE SAMPLE TEMPERATURE
 RMC .OHMM           0.71:   RESISTIVITY MUD CAKE
 MCST.F                73:   MUD CAKE SAMPLE TEMPERATURE
 MFSS.               MEAS:   MUD FILTRATE SAMPLE SOURCE
 MCSS.               CALC:   MUD CAKE SAMPLE SOURCE
 RMB .OHMM           0.29:   RESISTIVITY MUD AT BHT
 BHT .F               141:   BOTTOM HOLE TEMPERATURE
 TCS .HRS             3.5:   TIME CURCULATED STOPPED
 MRT .F               125:   MAXIMUM RECORDED TEMPERATURE
 LUN .               6302:   LOGGING UNIT NUMBER
 LUL .               CODY:   LOGGING UNIT LOCATION
 ENGI.              GETTY:   RECORDING ENGINEER
 WITN.           JENNINGS:   WITNESSED BY
 CLNT.            A2DTECH:   CLIENT CODE
 ORIG.           5" PRINT:   ORIGIN OF DATA
 UWI .       490251095900:   UNIQUE WELL ID
 DICO. A2D Technologies, Inc.:   DIGITIZING COMPANY
~OTHER INFORMATION
~A    DEPT    CORR        DEN       PORD        CNC        GRR       CALR        SPR       RILD       RILM       RFOC         AC   
# ...
 3599.0000     0.0247     2.5220     0.0770     0.1988    99.2481     8.2901    -9.4595     6.1452     6.4691     7.8022    73.2645
 3599.5000     0.0322     2.5189     0.0800     0.1976   101.3534     8.2896    -9.0090     5.7305     5.9486     6.8311    74.0211
 3600.0000     0.0191     2.5158     0.0831     0.1940   102.2556     8.2892    -8.5586     5.1973     5.4320     5.9655    76.5109
 3600.5000    -0.0027     2.5075     0.0870     0.1960   103.1739     8.2886    -8.2600     4.9827     5.1357     5.3848    77.4765
 3601.0000     0.0092     2.5074     0.0873     0.2050   103.7594     8.2880    -7.9608     4.7770     4.8894     5.0202    78.5721
 3601.5000     0.0393     2.5096     0.0855     0.2107   103.1097     8.2873    -7.5122     4.6439     4.7201     4.8464    79.7077
 3602.0000     0.0483     2.5127     0.0843     0.2132   101.9549     8.2866    -7.2134     4.4832     4.5567     4.7776    80.9991
 3602.5000     0.0316     2.5155     0.0840     0.2141   100.4511     8.2710    -6.9142     4.3887     4.4296     4.7427    81.5850
 3603.0000     0.0179     2.5034     0.0853     0.2178    99.5489     8.2704    -6.6158     4.2961     4.3664     4.6754    81.9507
 3603.5000     0.0103     2.4860     0.0928     0.2254   100.4511     8.2698    -6.4667     4.1763     4.2742     4.6085    81.6515
 3604.0000     0.0057     2.4882     0.0998     0.2333   103.1579     8.2692    -6.1679     4.0882     4.1840     4.5098    81.4271
 3604.5000     0.0101     2.4987     0.0950     0.2303   106.4662     8.2686    -6.3199     4.0580     4.1242     4.4134    81.4299
 3605.0000     0.0176     2.5039     0.0892     0.2285   108.5714     8.2529    -6.6217     4.0560     4.0937     4.3492    81.5829
 3605.5000     0.0175     2.5023     0.0887     0.2316   110.0752     8.2373    -6.9235     4.0260     4.0917     4.2326    81.9619
 3606.0000     0.0144     2.4993     0.0917     0.2380   109.1729     8.2216    -7.2253     3.9962     4.1183     4.2311    82.5670
 3606.5000     0.0143     2.5022     0.0920     0.2340   107.3684     8.2210    -7.5271     3.9666     4.1163     4.2297    83.4735
 3607.0000     0.0157     2.4999     0.0902     0.2253   105.2632     8.2204    -7.8289     3.9929     4.1143     4.3177    84.0786
 3607.5000     0.0171     2.5029     0.0887     0.2192   104.0602     8.2198    -8.1307     3.9904     4.1411     4.3768    84.2316
 3608.0000     0.0201     2.5088     0.0875     0.2169   103.1579     8.2192    -8.4324     4.0164     4.2024     4.4063    83.5556
 3608.5000     0.0260     2.5088     0.0857     0.2197   101.6541     8.2187    -8.5862     4.0424     4.2829     4.4044    83.4819
 3609.0000     0.0321     2.5147     0.0830     0.2227    99.5489     8.2181    -9.0360     4.0969     4.4015     4.3723    83.4847
 3609.5000     0.0394     2.5147     0.0809     0.2242    97.7444     8.2175    -9.2016     4.1523     4.5550     4.3102    83.4870
 3610.0000     0.0284     2.5192     0.0791     0.2191    98.1059     8.2169    -9.6396     4.2672     4.7139     4.3087    83.5646
 3610.5000     0.0193     2.5236     0.0770     0.2003   101.7629     8.2163    -9.8174     4.3863     4.9123     4.4602    83.4915
 3611.0000     0.0104     2.5251     0.0755     0.1858   105.3678     8.2157   -10.0934     4.5423     5.2269     4.7146    83.1169
 3611.5000     0.0043     2.5250     0.0752     0.1786   106.7669     8.2151   -10.5453     4.8017     5.6004     5.0184    82.2902
 3612.0000     0.0238     2.5332     0.0728     0.1717   100.1504     8.2143   -10.9973     5.1568     6.0007     5.4548    81.0114
 3612.5000     0.0434     2.5377     0.0698     0.1668    94.4361     8.2137   -11.4492     5.7256     6.3850     6.0546    79.1297
 3613.0000     0.0463     2.5324     0.0723     0.1660    94.7368     8.2131   -11.6008     6.2771     6.6085     6.5811    76.8712
 3613.5000     0.0311     2.5119     0.0787     0.1787    92.6316     8.2278   -11.7525     6.6788     6.6970     7.1552    74.7634
 3614.0000     0.0099     2.4960     0.0872     0.1912    87.2180     8.2270   -11.7540     6.8645     6.8514     7.4602    74.1628
 3614.5000    -0.0189     2.4960     0.0935     0.2015    87.8195     8.2264   -11.7554     6.6724     6.6905     7.5063    74.1698
 3615.0000    -0.0250     2.5004     0.0916     0.2100    90.2256     8.2410   -11.7569     6.3969     6.4589     6.9175    74.7099
 3615.5000    -0.0235     2.5027     0.0892     0.2173    91.1278     8.2403   -11.7584     6.0904     6.1492     6.1265    75.4922
 3616.0000    -0.0191     2.5064     0.0886     0.2182    92.3308     8.2397   -11.7599     5.7986     5.9346     5.9144    76.6356
 3616.5000    -0.0147     2.5078     0.0880     0.2176    93.8346     8.2391   -11.6109     5.7158     5.8515     5.8304    77.5656
 3617.0000    -0.0072     2.5078     0.0877     0.2177    97.1429     8.2385   -11.4622     5.7131     5.8081     5.7077    78.2461
 3617.5000     0.0002     2.5027     0.0895     0.2174   100.1504     8.2379   -11.3135     5.6708     5.7645     5.6267    78.7758
 3618.0000     0.0077     2.4941     0.0950     0.2171    99.2481     8.2373   -11.1649     5.6681     5.7218     5.5856    79.0041
 3618.5000     0.0166     2.5023     0.0938     0.2152    94.4361     8.2518   -11.1667     5.6261     5.6795     5.6228    79.1571
 3619.0000     0.0332     2.5135     0.0869     0.2096    91.7127     8.2512   -11.0181     5.5845     5.6767     5.7397    79.2347
 3619.5000     0.0316     2.5188     0.0826     0.2027    90.2017     8.2506   -11.0196     5.4667     5.7143     5.9002    79.0109
 3620.0000     0.0134     2.5059     0.0845     0.1984    89.6241     8.2500   -11.0210     5.3514     5.7514     6.0229    78.4856
 3620.5000    -0.0079     2.4922     0.0917     0.2057    89.9808     8.2645   -11.0225     5.2750     5.5131     6.1482    77.8096
 3621.0000    -0.0200     2.4861     0.0978     0.2121    92.3308     8.2789   -11.0240     5.1997     5.3967     6.2330    77.2844
 3621.5000    -0.0124     2.4831     0.1029     0.2131    96.5414     8.2806   -10.8754     5.0900     5.3197     5.9748    77.1353
 3622.0000     0.0012     2.4890     0.1011     0.2055   102.2556     8.3079   -11.0270     5.0174     5.2803     5.5702    77.5149
 3622.5000     0.0006     2.4920     0.0984     0.1986   104.3609     8.3223   -10.8582     4.9115     5.3523     5.1569    79.0997
 3623.0000    -0.0068     2.4942     0.0957     0.1992   104.9624     8.3216   -10.2792     4.8752     5.4618     4.9094    80.9859
 3623.5000    -0.0099     2.4949     0.0942     0.2029   104.0602     8.3362    -9.8303     4.9410     5.6131     5.0479    81.8170
 3624.0000    -0.0085     2.5009     0.0924     0.2059    99.2481     8.3355    -9.8321     5.0426     5.8088     5.4548    81.9694
 3624.5000    -0.0011     2.5016     0.0903     0.2041    92.6316     8.3349   -10.4342     5.1822     5.8874     5.7675    80.4651
 3625.0000    -0.0011     2.5000     0.0906     0.1981    89.6241     8.3343   -10.4357     5.3627     5.8437     5.9604    79.3369
 3625.5000    -0.0073     2.4999     0.0916     0.1936    90.8271     8.3337    -9.8366     5.5508     5.7603     6.0001    79.0377
 3626.0000     0.0047     2.5040     0.0884     0.1929    92.6316     8.3331    -9.5378     5.7058     5.7176     5.8733    79.0328
 3626.5000     0.0318     2.5130     0.0836     0.2000    92.9841     8.3325    -9.6894     5.8651     5.8417     5.8713    79.1176
 3627.0000     0.0347     2.5209     0.0813     0.2025    89.6241     8.3319    -9.9912     6.0288     6.0802     5.8284    79.1198
 3627.5000     0.0301     2.5163     0.0813     0.1942    88.7218     8.3313   -10.4431     6.2402     6.2922     5.8672    79.1221
 3628.0000     0.0194     2.5185     0.0813     0.1888    89.0226     8.3307   -10.5948     6.4944     6.5116     5.9476    79.0450
 3628.5000     0.0103     2.5229     0.0783     0.1896    89.9367     8.3301   -10.7464     6.6742     6.6920     6.0291    78.7432
 3629.0000     0.0072     2.5304     0.0735     0.1941    90.8551     8.3144   -11.0482     6.8114     6.8774     6.2410    78.3467
