~VERSION INFORMATION
 VERS.                2.0:   CWLS LOG ASCII STANDARD - VERSION 2.0
 WRAP.                 NO:   ONE LINE PER DEPTH STEP
~WELL INFORMATION
#MNEM.UNIT      DATA TYPE    INFORMATION
#----------   ------------   ------------------------------
 STRT.F           12.0000:   START DEPTH
 STOP.F          793.0000:   STOP DEPTH
 STEP.F            0.5000:   STEP LENGTH
 NULL.          -999.2500:   NO VALUE
 COMP.   FLUOR DANIEL INC:   COMPANY
 WELL.   35-1-X-10 #35-10:   WELL
 FLD .            WILDCAT:   FIELD
 LOC .      S10 T38N R78W:   LOCATION
 CNTY.            NATRONA:   COUNTY
 STAT.            WYOMING:   STATE
 CTRY. UNITED STATES OF AMERICA:   COUNTRY
 SRVC.      Western Atlas:   SERVICE COMPANY
 DATE.        20-AUG-1996:   LOGDATE
 API .       490252282200:   API NUMBER
~CURVE INFORMATION
#MNEM.UNIT       API CODE    CURVE DESCRIPTION
#----------   ------------   ------------------------------
 DEPT.F                  :   
 RFOC.OHMM   07 220 04 00:   RESISTIVITY FOCUSED LOG
 RILD.OHMM   07 120 46 00:   INDUCTION LOG DEEP RESISTIVITY
 RILM.OHMM   07 120 44 00:   INDUCTION LOG MEDIUM RESISTIVITY
 SPR .MV     07 010 01 00:   SPONTANEOUS POTENTIAL
 CALD.IN     45 280 60 00:   CALIPER FROM DENSITY LOG
 GRD .GAPI   45 310 01 00:   GAMMA RAY FROM DENSITY LOG
 ZCOR.G/C3   45 356 01 00:   DENSITY CORRECTION
 ZDEN.G/C3   45 350 01 00:   BULK DENSITY
 PORZ.DEC    45 890 12 00:   DENSITY POROSITY SANDSTONE
 CNC .DEC    42 890 03 00:   NEUTRON POROSITY SANDSTONE
~PARAMETER INFORMATION
#MNEM.UNIT          VALUE    DESCRIPTION
#----------   ------------   ------------------------------
 PD  .                 GL:   PERMANENT DATUM
 EPD .F              5228:   ELEVATION PERMANENT DATUM
 LMF .                 KB:   LOG MEASURED FROM
 DAPD.F                10:   FEET ABOVE PERMANENT DATUM
 DMF .                 KB:   DRILLING MEASURED FROM
 EKB .F              5238:   KELLING BUSHING
 EGL .F              5228:   GROUND LEVEL
 DATE.        20-AUG-1996:   RUN DATE
 RUN .                  1:   RUN NUMBER
 DD  .F               794:   DEPTH DRILLER
 DL  .F               794:   DEPTH LOGGER
 BLI .F               793:   BOTTOM LOG INTERVAL
 TLI .F                12:   TOP LOG INTERVAL
 CS  .IN           13.375:   CASING SIZE
 CBD .F                58:   CASING BOTTOM DRILLER
 CBL .F                59:   CASING BOTTOM LOGGER
 BS  .IN            12.25:   BIT SIZE
 BSD .F               794:   BIT SIZE AT DEPTH
 DFT .           SPUD MUD:   DRILLING FLUID TYPE
 DFD .                9.2:   DRILLING FLUID DENSITY
 DFV .                 50:   DRILLING FLUID VISCOSITY
 DFPH.                  9:   DRILLING FLUID PH
 DFL .               13.8:   DRILLING FLUID LOSS
 MSS .              CIRC.:   MUD SAMPLE SOURCE
 RMS .OHMM           1.14:   RESISTIVITY MUD SAMPLE
 MST .F                77:   MUD SAMPLE TEMPERATURE
 RMF .OHMM           0.90:   RESISTIVITY MUD FILTRATE SAMPLE
 MFST.F                77:   MUD FILTRATE SAMPLE TEMPERATURE
 RMC .OHMM            1.4:   RESISTIVITY MUD CAKE
 MCST.F                77:   MUD CAKE SAMPLE TEMPERATURE
 MFSS.               CALC:   MUD FILTRATE SAMPLE SOURCE
 MCSS.               CALC:   MUD CAKE SAMPLE SOURCE
 RMB .OHMM            .84:   RESISTIVITY MUD AT BHT
 BHT .F               104:   BOTTOM HOLE TEMPERATURE
 TCS .HRS               3:   TIME CURCULATED STOPPED
 MRT .F               104:   MAXIMUM RECORDED TEMPERATURE
 LUN .            HL-6530:   LOGGING UNIT NUMBER
 LUL .             CASPER:   LOGGING UNIT LOCATION
 ENGI.           BROWNLOW:   RECORDING ENGINEER
 WITN.      SCHULTE/HARDY:   WITNESSED BY
 CLNT.            A2DTECH:   CLIENT CODE
 ORIG.           5" PRINT:   ORIGIN OF DATA
 UWI .       490252282200:   UNIQUE WELL ID
 DICO. A2D Technologies, Inc.:   DIGITIZING COMPANY
~OTHER INFORMATION
~A   DEPT     RFOC       RILD       RILM        SPR       CALD        GRD       ZCOR       ZDEN       PORZ        CNC   
# ...
   79.0000     6.1794     6.9456     6.6597    -9.6823    12.5616    77.5169     0.1645     2.4143     0.1432     0.4123
   79.5000     6.2668     7.0436     6.7072    -9.8336    12.5467    79.0304     0.1584     2.4211     0.1399     0.3927
   80.0000     6.4505     7.0932     6.8022    -9.8336    12.5469    79.6377     0.1106     2.4423     0.1290     0.3703
   80.5000     6.6274     7.1433     6.8509    -9.8336    12.5470    77.2237     0.0618     2.4710     0.1169     0.3633
   81.0000     6.7680     7.1437     6.8518    -9.8336    12.5471    77.2669     0.0618     2.4854     0.1039     0.3519
   81.5000     6.8159     7.0948     6.8049    -9.8336    12.5473    79.0428     0.0679     2.4876     0.0997     0.3426
   82.0000     6.6275     6.9970     6.8060    -9.9849    12.5474    80.2542     0.0710     2.4748     0.0991     0.3486
   82.5000     6.4491     6.8529     6.7596    -9.9849    12.5476    81.4655     0.0711     2.4655     0.1070     0.3537
   83.0000     6.3165     6.7117     6.7136   -10.1362    12.5478    82.3747     0.0680     2.4544     0.1127     0.3540
   83.5000     6.1869     6.5735     6.6216   -10.2874    12.5479    82.0554     0.0576     2.4514     0.1169     0.3558
   84.0000     6.1024     6.4830     6.4857   -10.4387    12.5480    80.5685     0.0500     2.4544     0.1193     0.3648
   84.5000     6.0189     6.3939     6.3968   -10.4387    12.5482    80.2685     0.0438     2.4567     0.1196     0.3766
   85.0000     6.0199     6.3059     6.3091   -10.5900    12.5484    80.2721     0.0395     2.4605     0.1193     0.3856
   85.5000     6.0207     6.2625     6.2228   -10.7413    12.5485    80.2750     0.0396     2.4628     0.1175     0.3944
   86.0000     6.0215     6.2195     6.1802   -10.7413    12.5487    80.2779     0.0397     2.4643     0.1156     0.4088
   86.5000     5.9805     6.1768     6.1369   -10.8926    12.5488    79.9787     0.0382     2.4666     0.1132     0.4107
   87.0000     5.9398     6.1773     6.0121   -10.8926    12.5640    79.6794     0.0383     2.4673     0.1108     0.3850
   87.5000     5.8994     6.1313     5.9297   -11.0439    12.5642    79.3802     0.0429     2.4643     0.1087     0.3756
   88.0000     5.8187     6.0504     5.8893   -11.0439    12.5644    78.7795     0.0540     2.4575     0.1108     0.4037
   88.5000     5.7793     6.0088     5.8494   -11.1952    12.5645    79.4068     0.0687     2.4492     0.1174     0.4194
   89.0000     5.7400     6.0093     5.8504   -11.1952    12.5647    80.9008     0.0854     2.4386     0.1237     0.4323
   89.5000     5.7810     6.0097     5.8511   -11.3464    12.5648    81.2051     0.0946     2.4394     0.1294     0.4365
   90.0000     5.8221     6.0522     5.8928   -11.3464    12.5650    80.9059     0.1098     2.4455     0.1270     0.4317
   90.5000     5.9045     6.0949     5.9348   -11.4977    12.5500    80.9095     0.1129     2.4493     0.1216     0.4199
   91.0000     5.9467     6.1378     5.9827   -11.4977    12.5502    81.5368     0.1114     2.4530     0.1192     0.4181
   91.5000     5.9890     6.1811     6.0620   -11.4977    12.5503    82.1244     0.1024     2.4580     0.1146     0.4141
   92.0000     6.0737     6.2683     6.1051   -11.4977    12.5505    81.5223     0.0933     2.4727     0.1083     0.4018
   92.5000     6.1596     6.3566     6.1486   -11.4977    12.5506    82.1301     0.0873     2.4833     0.1007     0.3930
   93.0000     6.2034     6.4014     6.1953   -11.3464    12.5508    82.1330     0.0829     2.4818     0.1019     0.3822
   93.5000     6.2913     6.4916     6.2804   -11.1952    12.5509    82.1360     0.0799     2.4674     0.1104     0.3746
   94.0000     6.3803     6.5832     6.3693   -11.1952    12.5360    82.1395     0.0815     2.4621     0.1149     0.3788
   94.5000     6.4257     6.6759     6.4595   -11.0439    12.5512    82.1424     0.0882     2.4576     0.1173     0.3809
   95.0000     6.4729     6.7700     6.5510   -11.0439    12.5514    82.1453     0.0867     2.4539     0.1191     0.3797
   95.5000     6.5632     6.8177     6.6440   -11.0439    12.5515    82.7524     0.0836     2.4516     0.1189     0.3718
   96.0000     6.6560     6.8658     6.6914   -11.1952    12.5517    83.6818     0.0776     2.4569     0.1139     0.3658
   96.5000     6.7033     6.8664     6.7390   -11.1952    12.5518    84.5715     0.0714     2.4608     0.1130     0.3667
   97.0000     6.6577     6.8668     6.7399   -11.1952    12.5520    83.9702     0.0488     2.4645     0.1154     0.3685
   97.5000     6.5668     6.8673     6.6475   -11.3464    12.5521    82.4625     0.0276     2.4554     0.1191     0.3694
   98.0000     6.4767     6.8201     6.5111   -11.3464    12.5674    80.6527     0.0170     2.4471     0.1242     0.3700
   98.5000     6.3440     6.7263     6.4217   -11.4977    12.5675    79.7492     0.0170     2.4456     0.1248     0.3742
   99.0000     6.2138     6.6337     6.2899   -11.4977    12.5677    79.7528     0.0231     2.4471     0.1238     0.3870
   99.5000     6.0819     6.5425     6.2037   -11.4977    12.5524    80.3599     0.0216     2.4486     0.1238     0.3876
  100.0000     6.0017     6.4524     6.1614   -11.4977    12.5425    82.1755     0.0170     2.4494     0.1250     0.3863
  100.5000     5.9849     6.3788     6.1619   -11.4759    12.5379    83.9915     0.0231     2.4351     0.1308     0.3836
  101.0000     5.9681     6.3217     6.1623   -11.4540    12.5381    84.9007     0.0339     2.4375     0.1317     0.3808
  101.5000     5.9626     6.3230     6.1628   -11.4322    12.5382    85.2049     0.0382     2.4472     0.1262     0.3784
  102.0000     6.0047     6.3243     6.2063   -11.4103    12.5384    84.0001     0.0155     2.4577     0.1211     0.3784
  102.5000     6.0471     6.4146     6.2501   -11.3885    12.5234    83.3987     0.0155     2.4661     0.1172     0.3792
  103.0000     6.1379     6.5058     6.3826   -11.3667    12.5236    83.7044     0.0231     2.4744     0.1138     0.3883
  103.5000     6.3057     6.6445     6.5178   -11.3448    12.5388    84.3115     0.0337     2.4857     0.1090     0.3946
  104.0000     6.4392     6.7861     6.6116   -11.3221    12.5390    83.1059     0.0397     2.5061     0.0975     0.3949
  104.5000     6.6213     6.9307     6.7578   -11.3192    12.5391    79.7734     0.0443     2.5273     0.0815     0.3836
  105.0000     6.8086     7.1279     6.9411   -11.3162    12.5393    79.1841     0.0473     2.5275     0.0722     0.3746
  105.5000     6.9526     7.2810     7.0882   -11.3126    12.5394    79.7919     0.0520     2.4759     0.0785     0.3721
  106.0000     7.0997     7.4946     7.1382   -11.3097    12.5396    81.0032     0.0549     2.4669     0.0963     0.3766
  106.5000     7.1498     7.7002     7.1886   -11.4588    12.5397    81.6103     0.0534     2.4646     0.1084     0.3793
  107.0000     7.1504     7.7018     7.1391   -11.4552    12.5399    82.2181     0.0503     2.4646     0.1126     0.3802
  107.5000     7.0519     7.5968     6.9920   -11.4522    12.5400    82.2210     0.0458     2.4646     0.1129     0.3817
  108.0000     6.9069     7.4413     6.8919   -11.6006    12.5402    82.5259     0.0397     2.4639     0.1132     0.3868
  108.5000     6.6712     7.1882     6.7535   -11.6218    12.5403    82.8309     0.0382     2.4639     0.1132     0.3864
  109.0000     6.3989     6.9922     6.6144   -11.7461    12.5405    83.4381     0.0397     2.4669     0.1123     0.3791
  109.5000     6.1806     6.8491     6.4780   -11.8944    12.5407    84.0458     0.0413     2.4699     0.1095     0.3737
  110.0000     6.0534     6.7089     6.3887   -12.0421    12.5408    83.7458     0.0473     2.4752     0.1074     0.3712
  110.5000     6.0538     6.5263     6.3008   -12.0392    12.5258    84.6558     0.0443     2.4745     0.1065     0.3706
  111.0000     6.0965     6.4820     6.3013   -12.0362    12.5260    83.4502     0.0428     2.4730     0.1074     0.3706
  111.5000     6.1824     6.4836     6.3017   -12.0333    12.5262    81.0368     0.0458     2.4700     0.1083     0.3702
  112.0000     6.2694     6.5303     6.3906   -12.0297    12.5263    80.7368     0.0520     2.4676     0.1095     0.3657
