~VERSION INFORMATION
 VERS.                2.0:   CWLS LOG ASCII STANDARD - VERSION 2.0
 WRAP.                 NO:   ONE LINE PER DEPTH STEP
~WELL INFORMATION
#MNEM.UNIT      DATA TYPE    INFORMATION
#----------   ------------   ------------------------------
 STRT.F           50.0000:   START DEPTH
 STOP.F         1152.0000:   STOP DEPTH
 STEP.F            0.5000:   STEP LENGTH
 NULL.          -999.2500:   NO VALUE
 COMP. FENIX & SCISSON INC:   COMPANY
 WELL.  NPR 3 #65 SX14-14:   WELL
 FLD .             TEAPOT:   FIELD
 LOC .      S14 T38N R78W:   LOCATION
 CNTY.            NATRONA:   COUNTY
 STAT.            WYOMING:   STATE
 CTRY. UNITED STATES OF AMERICA:   COUNTRY
 SRVC.              Welex:   SERVICE COMPANY
 DATE.        13-JAN-1979:   LOGDATE
 API .       490251073800:   API NUMBER
~CURVE INFORMATION
#MNEM.UNIT       API CODE    CURVE DESCRIPTION
#----------   ------------   ------------------------------
 DEPT.F                  :   
 SPR .MV     07 010 01 00:   SPONTANEOUS POTENTIAL
 SGRD.OHMM   07 220 05 00:   SHALLOW GUARD RESISTIVITY
 ILD .OHMM   07 120 46 00:   INDUCTION LOG DEEP
 ILM .OHMM   07 120 44 00:   INDUCTION LOG MEDIUM
 CALD.IN     45 280 60 00:   CALIPER
 GRD .GAPI   45 310 01 00:   GAMMA RAY FROM DENSITY LOG
 RHOB.G/C3   45 350 01 00:   BULK DENSITY
 DPHI.DEC    45 890 12 00:   DENSITY POROSITY SANDSTONE
 CORR.G/C3   45 356 01 00:   DENSITY CORRECTION
~PARAMETER INFORMATION
#MNEM.UNIT          VALUE    DESCRIPTION
#----------   ------------   ------------------------------
 PD  .                 GL:   PERMANENT DATUM
 EPD .F              5312:   ELEVATION PERMANENT DATUM
 LMF .                 KB:   LOG MEASURED FROM
 DAPD.F                 4:   FEET ABOVE PERMANENT DATUM
 DMF .                 KB:   DRILLING MEASURED FROM
 EKB .F              5316:   KELLING BUSHING
 EGL .F              5312:   GROUND LEVEL
 DATE.            1-13-79:   RUN DATE
 RUN .                  1:   RUN NUMBER
 DD  .F              1167:   DEPTH DRILLER
 DL  .F              1154:   DEPTH LOGGER
 BLI .F              1152:   BOTTOM LOG INTERVAL
 TLI .F                50:   TOP LOG INTERVAL
 CS  .IN            8.625:   CASING SIZE
 CBD .F                40:   CASING BOTTOM DRILLER
 CBL .F                60:   CASING BOTTOM LOGGER
 BS  .IN            7.875:   BIT SIZE
 BSD .F              1167:   BIT SIZE AT DEPTH
 DFT .            KCL MUD:   DRILLING FLUID TYPE
 DFD .                8.8:   DRILLING FLUID DENSITY
 DFV .                 42:   DRILLING FLUID VISCOSITY
 DFPH.                8.2:   DRILLING FLUID PH
 DFL .                7.7:   DRILLING FLUID LOSS
 MSS .                PIT:   MUD SAMPLE SOURCE
 RMS .OHMM            .29:   RESISTIVITY MUD SAMPLE
 MST .F                40:   MUD SAMPLE TEMPERATURE
 RMF .OHMM            .19:   RESISTIVITY MUD FILTRATE SAMPLE
 MFST.F                40:   MUD FILTRATE SAMPLE TEMPERATURE
 RMC .OHMM            .87:   RESISTIVITY MUD CAKE
 MCST.F                40:   MUD CAKE SAMPLE TEMPERATURE
 MFSS.           MEASURED:   MUD FILTRATE SAMPLE SOURCE
 MCSS.           MEASURED:   MUD CAKE SAMPLE SOURCE
 RMB .OHMM           .119:   RESISTIVITY MUD AT BHT
 BHT .F                97:   BOTTOM HOLE TEMPERATURE
 TCS .HRS              30:   TIME CURCULATED STOPPED
 MRT .F                97:   MAXIMUM RECORDED TEMPERATURE
 LUN .               8611:   LOGGING UNIT NUMBER
 LUL .             CASPER:   LOGGING UNIT LOCATION
 ENGI.            BENTSEN:   RECORDING ENGINEER
 WITN.              AMEND:   WITNESSED BY
 CLNT.            A2DTECH:   CLIENT CODE
 ORIG.       2", 5" PRINT:   ORIGIN OF DATA
 UWI .       490251073800:   UNIQUE WELL ID
 DICO. A2D Technologies, Inc.:   DIGITIZING COMPANY
~OTHER INFORMATION
~A   DEPT      SPR       SGRD        ILD        ILM       CALD        GRD       RHOB       DPHI       CORR   
# ...
  488.0000   -33.6238     5.5841     4.7604     4.8546     7.9007   109.4892     2.4435     0.1392    -0.0254
  488.5000   -33.5039     5.0296     4.9438     4.9293     7.8991   111.8437     2.4414     0.1399    -0.0281
  489.0000   -33.4990     5.2904     4.9654     5.0048     7.8974   110.6694     2.4399     0.1406    -0.0239
  489.5000   -33.4998     5.7803     4.9868     5.0797     7.8957   108.9767     2.4415     0.1390    -0.0165
  490.0000   -33.4997     5.8856     4.9207     5.0684     7.8941   112.5204     2.4487     0.1351    -0.0029
  490.5000   -33.5966     5.9361     4.8566     5.0574     7.8924   117.3078     2.4558     0.1313     0.0103
  491.0000   -33.7820     5.7463     4.7934     5.0463     7.8907   118.5572     2.4524     0.1364     0.0179
  491.5000   -33.9677     5.5731     4.7309     5.0353     7.8891   116.5333     2.4393     0.1437     0.0179
  492.0000   -34.1541     5.4052     4.5950     4.9716     7.8874   115.0271     2.4279     0.1510     0.0179
  492.5000   -34.3401     5.2423     4.4446     4.8954     7.8857   116.2117     2.4166     0.1584     0.0179
  493.0000   -34.5048     5.1046     4.2417     4.8203     7.8845   117.2844     2.4116     0.1593     0.0128
  493.5000   -34.5007     4.9734     3.9229     4.7464     7.8668   116.0733     2.4247     0.1498     0.0039
  494.0000   -34.5003     4.8455     3.6291     4.6736     7.8446   108.5594     2.4542     0.1264    -0.0029
  494.5000   -34.4986     4.7210     3.4135     4.5612     7.8239   109.7018     2.4985     0.1036     0.0060
  495.0000   -34.4211     4.5640     3.2505     4.2643     7.8620   108.8473     2.5197     0.0962     0.0154
  495.5000   -34.2567     4.3022     3.0972     3.9867     7.9152   110.5018     2.5025     0.0989     0.0179
  496.0000   -34.0941     3.7858     3.0018     3.7272     7.9040   112.6497     2.4900     0.1078     0.0060
  496.5000   -33.9455     3.2970     2.9742     3.5771     7.8652   113.3169     2.4773     0.1200    -0.0056
  497.0000   -33.1510     2.8140     3.1713     3.7383     7.8737   111.4293     2.4740     0.1213    -0.0017
  497.5000   -32.4439     3.4887     3.3211     4.0128     7.8832   111.3023     2.4760     0.1198     0.0025
  498.0000   -32.2634     4.8263     3.4780     4.3074     7.8743   112.7658     2.4781     0.1186     0.0067
  498.5000   -32.0804     6.0634     3.6423     4.6319     7.8186   112.7105     2.4776     0.1191     0.0109
  499.0000   -31.8978     6.3392     3.8876     4.8826     7.7635   107.8331     2.4726     0.1198     0.0151
  499.5000   -31.7145     6.2072     4.2045     5.1539     7.7369   109.8379     2.4735     0.1226     0.0180
  500.0000   -31.5311     6.0428     4.5473     5.4403     7.8337   113.3729     2.4630     0.1303     0.0163
  500.5000   -31.3362     5.8827     4.9180     5.5674     7.8828   116.5766     2.4417     0.1380     0.0120
  501.0000   -31.5521     5.7803     5.3189     5.6785     7.8821   116.1484     2.4164     0.1561     0.0076
  501.5000   -31.8928     6.0963     5.4187     5.7272     7.8817   118.2759     2.3914     0.1744     0.0031
  502.0000   -32.2369     6.3392     5.3938     5.6788     7.8808   120.8072     2.3680     0.1864    -0.0014
  502.5000   -32.5964     6.3979     5.3715     5.6437     7.8800   122.4233     2.3791     0.1765     0.0001
  503.0000   -33.0434     6.2490     5.0469     5.6089     7.8792   119.5739     2.3935     0.1670     0.0006
  503.5000   -33.4840     6.1473     4.6928     5.5753     7.8784   112.2003     2.4210     0.1456    -0.0069
  504.0000   -33.9247     6.0478     4.3625     5.3020     7.8776   105.0766     2.4644     0.1094     0.0008
  504.5000   -34.3658     5.9438     4.0555     4.9410     7.8768   104.2899     2.4904     0.1108     0.0117
  505.0000   -34.8165     5.3947     3.7700     4.6047     7.8760   106.3746     2.4887     0.1132     0.0106
  505.5000   -34.9015     4.6976     3.5045     4.2915     7.8752   107.6882     2.4924     0.1112     0.0065
  506.0000   -34.9017     3.9857     3.2578     3.9996     7.8744   107.5001     2.4915     0.1096     0.0022
  506.5000   -34.8427     3.3824     3.0794     3.7276     7.8736   110.2021     2.4912     0.1105     0.0027
  507.0000   -34.5867     2.8707     3.0577     3.5443     7.8728   113.2740     2.4938     0.1097     0.0038
  507.5000   -33.8983     2.4054     3.0295     3.5443     7.8720   112.5564     2.4957     0.1089     0.0049
  508.0000   -33.4191     3.1690     3.1119     3.9002     7.8712   112.8386     2.4944     0.1082     0.0059
  508.5000   -33.2436     4.6269     3.2287     4.1955     7.8704   114.0903     2.4905     0.1102     0.0070
  509.0000   -33.0771     5.4326     3.3508     4.3881     7.8696   113.1804     2.4859     0.1138     0.0079
  509.5000   -32.9110     5.1852     3.5040     4.5538     7.8688   110.2493     2.4815     0.1172     0.0064
  510.0000   -32.7441     5.0331     3.7657     4.7257     7.8680   111.8051     2.4794     0.1186     0.0049
  510.5000   -32.5768     4.9868     4.0470     4.9041     7.8672   113.9335     2.4743     0.1195     0.0041
  511.0000   -32.4130     5.2055     4.3492     5.0899     7.8664   111.6298     2.4733     0.1204     0.0072
  511.5000   -32.3570     5.4154     4.6741     5.2806     7.8656   111.4891     2.4752     0.1214     0.0106
  512.0000   -32.5423     5.6337     5.0331     5.3712     7.8647   111.4714     2.4597     0.1296     0.0088
  512.5000   -32.7233     5.8609     5.0486     5.3707     7.8639   110.6905     2.4363     0.1434     0.0032
  513.0000   -32.9049     5.9977     5.0645     5.2242     7.8629   112.9175     2.4189     0.1581     0.0052
  513.5000   -33.0862     5.9375     5.0797     5.1225     7.8619   115.8207     2.4034     0.1628     0.0094
  514.0000   -33.2674     5.8443     4.8680     5.0227     7.8608   117.8179     2.4101     0.1586     0.0139
  514.5000   -33.4505     5.7529     4.6756     4.9249     7.8598   113.0762     2.4240     0.1505     0.0102
  515.0000   -33.7883     5.3820     4.4904     4.8291     7.8588   109.4415     2.4346     0.1430     0.0049
  515.5000   -34.1879     4.9385     4.3127     4.7353     7.8577   110.6882     2.4288     0.1473     0.0002
  516.0000   -34.5875     4.7619     4.1421     4.6427     7.8567   111.1227     2.4165     0.1579     0.0019
  516.5000   -34.9307     5.0854     3.9782     4.5241     7.8557   110.2296     2.3986     0.1678     0.0038
  517.0000   -35.0450     5.1743     3.8208     4.2365     7.8547   112.0786     2.3809     0.1778     0.0057
  517.5000   -35.1632     4.0743     3.6696     3.8869     7.8536   115.1605     2.3644     0.1877     0.0060
  518.0000   -35.2824     3.4510     3.5244     3.9070     7.8526   115.3138     2.3554     0.1924     0.0066
  518.5000   -35.4012     3.0861     3.3850     3.9364     7.8515   113.9955     2.3495     0.1958     0.0073
  519.0000   -35.4797     3.9965     3.2510     3.9660     7.8505   116.5966     2.3435     0.1992     0.0078
  519.5000   -35.3201     4.6748     3.1224     3.9960     7.8495   119.3149     2.3373     0.2028    -0.0006
  520.0000   -35.1637     4.5865     2.9989     3.8303     7.8484   120.3875     2.3496     0.1972    -0.0096
  520.5000   -35.0079     4.2841     2.8802     3.6702     7.8474   114.8838     2.3953     0.1679    -0.0084
  521.0000   -34.8525     3.8222     2.7662     3.5168     7.8464   111.1027     2.4412     0.1367    -0.0030
  521.5000   -34.6972     3.4488     2.6567     3.3698     7.8454   115.0141     2.5031     0.1039     0.0025
  522.0000   -34.5476     3.4655     2.5517     3.2290     7.8442   118.8134     2.4913     0.1128     0.0079
  522.5000   -33.9358     3.4794     2.4507     3.0941     7.8240   117.1774     2.4775     0.1190     0.0132
  523.0000   -33.1748     3.0558     2.4277     2.9648     7.8011   114.5171     2.4743     0.1202     0.0140
  523.5000   -32.4110     2.7311     2.4277     2.8637     7.7782   116.3968     2.4713     0.1226     0.0140
  524.0000   -31.6480     2.4408     2.5524     3.0676     7.7554   118.9197     2.4632     0.1276     0.0140
