~VERSION INFORMATION
 VERS.                2.0:   CWLS LOG ASCII STANDARD - VERSION 2.0
 WRAP.                 NO:   ONE LINE PER DEPTH STEP
~WELL INFORMATION
#MNEM.UNIT      DATA TYPE    INFORMATION
#----------   ------------   ------------------------------
 STRT.F           24.0000:   START DEPTH
 STOP.F          690.0000:   STOP DEPTH
 STEP.F            0.5000:   STEP LENGTH
 NULL.          -999.2500:   NO VALUE
 COMP. DEPARTMENT OF ENERGY:   COMPANY
 WELL.     STX 2 #24-15-2:   WELL
 FLD .             TEAPOT:   FIELD
 LOC .       S2 T38N R78W:   LOCATION
 CNTY.            NATRONA:   COUNTY
 STAT.            WYOMING:   STATE
 CTRY. UNITED STATES OF AMERICA:   COUNTRY
 SRVC.           Gearhart:   SERVICE COMPANY
 DATE.        23-DEC-1987:   LOGDATE
 API .       490251116800:   API NUMBER
~CURVE INFORMATION
#MNEM.UNIT       API CODE    CURVE DESCRIPTION
#----------   ------------   ------------------------------
 DEPT.F                  :   
 GRR .GAPI   07 310 01 00:   GAMMA RAY
 RILD.OHMM   07 120 46 00:   INDUCTION LOG DEEP
 RILM.OHMM   07 120 44 00:   INDUCTION LOG MEDIUM
 RLL .OHMM   07 220 01 00:   LATEROLOG-1 RES.
~PARAMETER INFORMATION
#MNEM.UNIT          VALUE    DESCRIPTION
#----------   ------------   ------------------------------
 PD  .                 GL:   PERMANENT DATUM
 LMF .                 KB:   LOG MEASURED FROM
 DMF .                 KB:   DRILLING MEASURED FROM
 DATE.        03-SEP-1987:   RUN DATE
 RUN .                  1:   RUN NUMBER
 DL  .F               692:   DEPTH LOGGER
 BLI .F               690:   BOTTOM LOG INTERVAL
 CS  .IN            8.625:   CASING SIZE
 CBD .F                48:   CASING BOTTOM DRILLER
 CBL .F                48:   CASING BOTTOM LOGGER
 BS  .IN            7.875:   BIT SIZE
 DFT .                MUD:   DRILLING FLUID TYPE
 TCS .HRS            0600:   TIME CURCULATED STOPPED
 TLAB.HRS            0751:   TIME LOGGER AT BOTTOM
 MRT .F                80:   MAXIMUM RECORDED TEMPERATURE
 LUN .               7597:   LOGGING UNIT NUMBER
 LUL .           GILLETTE:   LOGGING UNIT LOCATION
 ENGI.         WEATHERMON:   RECORDING ENGINEER
 WITN.             STRONG:   WITNESSED BY
 CLNT.            A2DTECH:   CLIENT CODE
 ORIG.           5" PRINT:   ORIGIN OF DATA
 UWI .       490251116800:   UNIQUE WELL ID
 DICO. A2D Technologies, Inc.:   DIGITIZING COMPANY
~OTHER INFORMATION
~A   DEPT       GRR      RILD       RILM        RLL   
# ...
  316.0000    87.1486     9.0351     8.9584    10.1050
  316.5000    87.4702     9.0382     8.9606    10.1078
  317.0000    88.6972     9.0414     8.9621    10.1105
  317.5000    89.9242     9.0445     8.9640     9.9730
  318.0000    89.9390     9.0476     8.9659     9.8386
  318.5000    88.3364     9.0508     8.9678     9.7055
  319.0000    86.0331     9.0544     8.9696     9.7081
  319.5000    84.2298     9.0575     8.9715     9.7108
  320.0000    82.1234     9.0602     8.9737     9.7134
  320.5000    81.8316     9.0634     8.9755     9.7161
  321.0000    82.1532     9.0668     8.9774     9.7188
  321.5000    83.6832     9.0699     8.9792     9.6540
  322.0000    85.5162     9.0730     8.9184     9.5898
  322.5000    87.6523     9.0133     8.9207     9.3951
  323.0000    87.7090     9.0164     8.7384     9.2679
  323.5000    87.3788     8.8950     8.5598     9.1424
  324.0000    87.6970     8.6527     8.2118     8.9562
  324.5000    88.6484     8.4144     7.6619     8.7130
  325.0000    89.2424     8.1920     7.3504     8.3014
  325.5000    88.3513     8.0818     7.1464     8.0201
  326.0000    88.0594     8.0852     7.1023     7.8561
  326.5000    89.2901     8.0880     7.2538     7.8043
  327.0000    90.5171     8.2611     7.4081     7.9158
  327.5000    90.2289     8.3795     7.5658     8.2571
  328.0000    89.6340     8.4408     7.6199     8.4641
  328.5000    89.9557     8.3845     7.6749     8.6116
  329.0000    90.8796     8.3293     7.6764     8.6745
  329.5000    92.1066     8.1611     7.7315     8.6769
  330.0000    93.6366     7.9954     7.7871     8.6578
  330.5000    94.8697     7.8878     7.8977     8.6212
  331.0000    96.6970     7.8906     8.0099     8.5638
  331.5000    96.0565     7.8933     8.0674     8.5664
  332.0000    94.3059     7.9354     8.0658     8.6285
  332.5000    92.8056     8.0098     8.0148     8.7750
  333.0000    91.3053     8.1246     8.0169     8.8939
  333.5000    89.5020     8.1841     8.0744     9.0034
  334.0000    87.0926     8.1865     8.1891     9.0687
  334.5000    84.9862     8.1897     8.2478     9.0712
  335.0000    83.4860     8.1357     8.3072     9.0067
  335.5000    82.2850     8.0815     8.2509     8.9466
  336.0000    85.3339     8.0283     8.2530     8.8914
  336.5000    90.1972     8.0876     8.2547     8.8939
  337.0000    93.5475     8.1469     8.1992     8.8967
  337.5000    92.6263     8.1496     8.1441     8.9612
  338.0000    92.0600     8.1524     8.0893     8.9813
  338.5000    92.3816     8.0988     8.0349     9.0284
  339.0000    93.0026     8.0454     8.0930     8.9685
  339.5000    93.0174     8.0489     8.1272     8.9710
  340.0000    92.7255     8.0516     8.2097     8.8934
  340.5000    92.7441     8.1105     8.2686     8.8519
  341.0000    92.1492     8.1133     8.2703     8.7930
  341.5000    90.3496     8.1161     8.2147     8.7955
  342.0000    90.3645     8.1751     8.2164     8.7979
  342.5000    91.8945     8.1209     8.2181     8.8008
  343.0000    94.6366     8.1244     8.1628     8.7417
  343.5000    95.8636     8.1271     8.1645     8.6835
  344.0000    93.7334     8.0735     8.1096     8.6861
  344.5000    92.5600     8.1327     8.1113     8.6280
  345.0000    92.8816     8.1355     8.1133     8.6310
  345.5000    93.5026     8.1382     8.1150     8.6333
  346.0000    94.1235     8.0287     8.0600     8.6132
  346.5000    94.4414     7.9759     8.0621     8.4598
  347.0000    94.7593     7.9234     8.0079     8.3453
  347.5000    95.0772     7.9820     7.9536     8.2897
  348.0000    95.3951     7.9847     7.8458     8.2920
  348.5000    95.4099     8.0431     7.5793     8.3522
  349.0000    94.8188     8.0459     7.4244     8.3550
  349.5000    93.3185     8.0486     7.2727     8.3572
  350.0000    87.8813     7.9403     7.2238     8.3016
  350.5000    85.4718     7.7792     7.1873     8.3039
  351.0000    87.6079     7.4642     7.0787     8.3062
  351.5000    92.1682     7.2621     6.6512     8.2503
  352.0000    96.7285     7.0656     6.1565     7.7526
  352.5000    95.2281     6.8735     5.9135     7.1341
  353.0000    93.1218     6.7778     5.7931     6.9404
  353.5000    91.0154     6.6905     5.7946     6.8941
  354.0000    89.8181     6.7400     5.9183     6.8961
  354.5000    91.0454     6.8366     6.2585     6.8980
  355.0000    91.3629     7.0806     6.5268     7.0485
  355.5000    89.8663     7.3334     6.7594     7.3618
  356.0000    88.0629     7.7014     6.9038     7.8789
  356.5000    87.7710     7.9211     7.1003     7.9914
  357.0000    89.9108     8.0346     7.2017     7.9382
  357.5000    90.8347     8.0374     7.2544     7.9957
  358.0000    89.3344     8.0961     7.3070     8.0537
  358.5000    88.4364     8.0989     7.3089     8.0559
  359.0000    89.3640     7.9795     7.3109     8.0579
  359.5000    90.8940     7.9822     7.2618     8.0602
  360.0000    93.0707     7.9843     7.2139     8.0628
  360.5000    95.2596     7.9865     7.1659     8.0650
  361.0000    94.2755     7.9887     7.2178     8.0113
  361.5000    94.8964     7.9355     7.2701     7.9580
  362.0000    96.7295     7.8827     7.3229     7.9044
  362.5000    97.6534     7.7761     7.2746     7.8518
  363.0000    98.5773     7.6714     7.1761     7.7460
  363.5000    99.5012     7.5676     6.9328     7.6944
  364.0000   100.4251     7.4136     6.5596     7.5882
  364.5000   102.5612     7.1625     6.0784     7.2685
  365.0000   103.4851     6.9199     5.5547     6.7017
  365.5000   101.6697     6.5023     5.0761     6.2100
  366.0000    97.6282     5.8976     4.9383     5.9167
  366.5000    92.9272     5.7812     4.8377     5.7560
  367.0000    91.4269     5.7428     4.9413     5.8382
  367.5000    91.4417     5.8251     5.1891     6.3038
  368.0000    91.4566     6.1596     5.4493     6.7594
  368.5000    90.8653     6.6968     5.8026     7.1479
  369.0000    90.5734     7.1805     6.3532     7.4547
  369.5000    92.4102     7.4362     6.7651     7.7257
  370.0000    93.3341     7.6478     6.9096     7.9959
  370.5000    93.3489     7.7569     7.0082     8.1100
  371.0000    91.5455     7.8131     7.0590     8.1122
  371.5000    89.1181     7.8153     7.1102     8.1144
  372.0000    88.2419     7.8179     7.2121     8.1166
  372.5000    90.3816     7.8745     7.3661     8.1188
  373.0000    93.4268     7.9868     7.5234     8.1777
  373.5000    94.0440     8.1007     7.6308     8.2944
  374.0000    92.5473     8.2163     7.7937     8.4715
  374.5000    91.0470     8.2758     7.8502     8.5966
  375.0000    89.5467     8.2876     7.9071     8.7152
  375.5000    89.2548     8.3961     7.9092     8.7180
  376.0000    90.1824     8.4873     7.9114     8.7204
  376.5000    91.7124     8.5813     7.9136     8.6617
  377.0000    93.8565     8.6397     8.0270     8.6647
  377.5000    95.0754     8.5824     8.0852     8.6670
  378.0000    92.3667     8.5254     8.0874     8.7299
  378.5000    89.9572     8.4098     8.0896     8.7931
  379.0000    88.7562     8.4127     8.1482     8.7955
  379.5000    89.3808     8.3565     8.1504     8.7979
  380.0000    92.1229     8.4171     8.2095     8.8004
  380.5000    93.6529     8.4194     8.2117     8.7417
  381.0000    93.9708     8.3635     8.1571     8.6240
  381.5000    91.8644     8.3606     8.1594     8.5660
  382.0000    90.0611     8.2875     8.1049     8.4506
  382.5000    88.8636     8.1898     8.0510     8.3937
  383.0000    90.1233     8.0873     7.9976     8.2600
  383.5000    93.2212     8.0335     7.9441     8.1120
  384.0000    95.5786     7.9249     7.8366     7.9467
  384.5000    94.3813     7.8716     7.7305     7.7848
  385.0000    94.3962     7.7119     7.6263     7.6742
  385.5000    95.9261     7.5549     7.4710     7.5230
  386.0000    98.0622     7.3499     7.3134     7.3187
  386.5000    98.9861     7.1946     6.9735     7.1204
  387.0000    99.3040     6.7915     6.5981     6.9266
  387.5000    99.6218     6.1837     6.1141     6.7389
  388.0000    99.3333     5.7304     5.6263     6.5559
  388.5000    98.1363     5.2008     5.2865     6.3337
