~VERSION INFORMATION
 VERS.                2.0:   CWLS LOG ASCII STANDARD - VERSION 2.0
 WRAP.                 NO:   ONE LINE PER DEPTH STEP
~WELL INFORMATION
#MNEM.UNIT      DATA TYPE    INFORMATION
#----------   ------------   ------------------------------
 STRT.F            1.0000:   START DEPTH
 STOP.F          508.0000:   STOP DEPTH
 STEP.F            0.1000:   STEP LENGTH
 NULL.          -999.2500:   NO VALUE
 COMP.       F D SERV INC:   COMPANY
 WELL. NAVAL PETROLEUM RESERVE 3 SX-1 #83-4-10:   WELL
 FLD .             TEAPOT:   FIELD
 LOC .      S10 T38N R78W:   LOCATION
 CNTY.            NATRONA:   COUNTY
 STAT.            WYOMING:   STATE
 CTRY. UNITED STATES OF AMERICA:   COUNTRY
 SRVC.     Atlas Wireline:   SERVICE COMPANY
 DATE.        26-JAN-1993:   LOGDATE
 API .       490252258300:   API NUMBER
~CURVE INFORMATION
#MNEM.UNIT       API CODE    CURVE DESCRIPTION
#----------   ------------   ------------------------------
 DEPT.F                  :   
 GRR .GAPI   07 310 01 00:   GAMMA RAY
 RILD.OHMM   07 120 46 00:   INDUCTION LOG DEEP RESISTIVITY
 RILM.OHMM   07 120 44 00:   INDUCTION LOG MEDIUM RESISTIVITY
~PARAMETER INFORMATION
#MNEM.UNIT          VALUE    DESCRIPTION
#----------   ------------   ------------------------------
 PD  .                 GL:   PERMANENT DATUM
 EPD .F              5152:   ELEVATION PERMANENT DATUM
 LMF .                 KB:   LOG MEASURED FROM
 DAPD.F                10:   FEET ABOVE PERMANENT DATUM
 DMF .                 KB:   DRILLING MEASURED FROM
 EKB .F              5162:   KELLING BUSHING
 EDF .F              5161:   DRILLING FLOOR
 EGL .F              5152:   GROUND LEVEL
 DATE.        26-JAN-1993:   RUN DATE
 RUN .                  1:   RUN NUMBER
 DD  .F               515:   DEPTH DRILLER
 DL  .F               516:   DEPTH LOGGER
 BLI .F               508:   BOTTOM LOG INTERVAL
 CS  .IN            8.625:   CASING SIZE
 CBD .F                55:   CASING BOTTOM DRILLER
 CBL .F                55:   CASING BOTTOM LOGGER
 BS  .IN            7.875:   BIT SIZE
 BSD .F               515:   BIT SIZE AT DEPTH
 DFT .                AIR:   DRILLING FLUID TYPE
 MRT .F                63:   MAXIMUM RECORDED TEMPERATURE
 LUN .           HL- 6274:   LOGGING UNIT NUMBER
 LUL .             CASPER:   LOGGING UNIT LOCATION
 ENGI.       P. RASMUSSEN:   RECORDING ENGINEER
 WITN.          G. STRONG:   WITNESSED BY
 CLNT.            A2DTECH:   CLIENT CODE
 ORIG.           5" PRINT:   ORIGIN OF DATA
 UWI .       490252258300:   UNIQUE WELL ID
 DICO. A2D Technologies, Inc.:   DIGITIZING COMPANY
~OTHER INFORMATION
~A    DEPT     GRR       RILD       RILM   
# ...
  164.8000   141.6337     7.7129     7.7701
  164.9000   141.6296     7.7127     7.7501
  165.0000   140.7429     7.7125     7.7339
  165.1000   139.7079     7.7123     7.7335
  165.2000   138.9413     7.7121     7.7330
  165.3000   138.3312     7.7119     7.7326
  165.4000   137.5541     7.6910     7.7322
  165.5000   136.7892     7.6582     7.7318
  165.6000   136.7850     7.6580     7.7313
  165.7000   136.7819     7.6578     7.7309
  165.8000   136.7783     7.6576     7.7305
  165.9000   136.9064     7.6574     7.7300
  166.0000   137.1607     7.6848     7.7296
  166.1000   137.4599     7.7102     7.7292
  166.2000   137.9687     7.7099     7.7288
  166.3000   137.9645     7.7097     7.7283
  166.4000   138.3936     7.7095     7.7279
  166.5000   138.5602     7.7093     7.7284
  166.6000   138.6859     7.7091     7.7807
  166.7000   138.8542     7.7089     7.7803
  166.8000   138.8506     7.7281     7.7799
  166.9000   138.8470     7.7738     7.7794
  167.0000   138.2403     7.8158     7.7952
  167.1000   137.5964     7.8155     7.8412
  167.2000   136.9896     7.8153     7.8866
  167.3000   136.2164     7.8151     7.8861
  167.4000   135.1815     7.8417     7.8858
  167.5000   134.1467     7.8881     7.9173
  167.6000   133.0988     7.9234     7.9640
  167.7000   132.1909     7.9232     7.9944
  167.8000   131.5542     7.9230     7.9940
  167.9000   131.2807     7.9652     7.9935
  168.0000   131.2771     8.0123     8.0486
  168.1000   131.3546     8.0328     8.0886
  168.2000   131.6844     8.0514     8.1037
  168.3000   132.4710     8.0990     8.1032
  168.4000   133.6716     8.1442     8.1193
  168.5000   134.5040     8.1439     8.1587
  168.6000   135.5317     8.1437     8.1582
  168.7000   136.3153     8.1782     8.2143
  168.8000   136.8273     8.2266     8.2139
  168.9000   137.3040     8.2566     8.2135
  169.0000   137.5661     8.2564     8.2378
  169.1000   137.8631     8.2582     8.2697
  169.2000   137.8602     8.3133     8.2776
  169.3000   138.0197     8.3131     8.3262
  169.4000   138.1542     8.3476     8.3257
  169.5000   138.2269     8.3704     8.3253
  169.6000   138.4487     8.3701     8.3248
  169.7000   138.4444     8.3699     8.3492
  169.8000   138.4410     8.3697     8.3817
  169.9000   138.4373     8.3694     8.3896
  170.0000   138.4337     8.3692     8.4390
  170.1000   138.4301     8.4032     8.4385
  170.2000   138.5743     8.4269     8.4381
  170.3000   139.0257     8.4267     8.4376
  170.4000   139.0215     8.4264     8.4372
  170.5000   139.2631     8.4262     8.4367
  170.6000   139.1140     8.4259     8.4362
  170.7000   139.0108     8.4257     8.4358
  170.8000   138.8923     8.4255     8.4352
  170.9000   138.6309     8.4002     8.4348
  171.0000   138.3976     8.3669     8.4344
  171.1000   138.3938     8.3585     8.4339
  171.2000   138.1478     8.3087     8.4334
  171.3000   137.8863     8.3084     8.4330
  171.4000   138.0729     8.2676     8.4325
  171.5000   138.5527     8.2507     8.3738
  171.6000   139.0326     8.2504     8.3734
  171.7000   139.5124     8.2346     8.3729
  171.8000   139.9922     8.1930     8.3724
  171.9000   140.4720     8.1928     8.3560
  172.0000   141.1566     8.1925     8.3137
  172.1000   142.1313     8.1530     8.3133
  172.2000   142.9012     8.1356     8.3127
  172.3000   143.7718     8.1354     8.3124
  172.4000   144.2168     8.1351     8.3119
  172.5000   144.7289     8.1349     8.2875
  172.6000   144.6916     8.1347     8.2536
  172.7000   144.1723     8.1345     8.2458
  172.8000   143.5519     8.1342     8.1958
  172.9000   142.5314     8.1038     8.1952
  173.0000   141.9393     8.0777     8.1949
  173.1000   141.4928     8.0774     8.1944
  173.2000   140.7951     8.0714     8.1706
  173.3000   140.1530     8.0212     8.1369
  173.4000   139.6337     8.0210     8.1294
  173.5000   139.1626     8.0208     8.0799
  173.6000   138.9060     8.0206     8.0794
  173.7000   138.9019     8.0204     8.0790
  173.8000   138.8988     8.0201     8.0786
  173.9000   139.0711     8.0199     8.0781
  174.0000   139.3253     8.0197     8.0777
  174.1000   139.4904     7.9751     8.0703
  174.2000   139.5784     7.9639     8.0210
  174.3000   140.0856     7.9637     8.0205
  174.4000   140.0813     7.9635     7.9818
  174.5000   140.5120     7.9632     7.9643
  174.6000   141.0241     7.9630     7.9639
  174.7000   141.2759     7.9628     7.9635
  174.8000   141.4458     7.9626     7.9630
  174.9000   141.9578     7.9624     7.9626
  175.0000   142.4699     7.9621     7.9621
  175.1000   143.0681     7.9619     7.9617
  175.2000   143.4940     7.9734     7.9613
  175.3000   143.6638     8.0168     7.9608
  175.4000   143.9156     8.0166     7.9604
  175.5000   144.4277     8.0164     7.9599
  175.6000   144.9397     8.0161     7.9595
  175.7000   145.4566     8.0159     7.9590
  175.8000   146.0548     8.0157     7.9966
  175.9000   146.2639     8.0155     8.0135
  176.0000   146.5181     8.0153     8.0353
  176.1000   146.6470     8.0150     8.0683
  176.2000   146.6434     8.0574     8.0678
  176.3000   146.6012     8.0703     8.0674
  176.4000   146.3349     8.0701     8.0669
  176.5000   146.0294     8.0883     8.0665
  176.6000   145.6072     8.1257     8.0963
  176.7000   145.0880     8.1255     8.1216
  176.8000   144.5687     8.1252     8.1212
  176.9000   143.9698     8.1250     8.1269
  177.0000   143.1927     8.1248     8.1767
  177.1000   142.3939     8.1246     8.1763
  177.2000   141.4860     8.1243     8.1758
  177.3000   141.0687     8.1241     8.1754
  177.4000   140.5494     8.1239     8.1749
  177.5000   140.1506     8.1236     8.1745
  177.6000   139.8121     8.1234     8.1740
  177.7000   139.2928     8.1232     8.1735
  177.8000   138.7541     8.1230     8.1731
  177.9000   138.7506     8.1228     8.1726
  178.0000   138.5422     8.1225     8.1722
  178.1000   138.2807     8.1223     8.1717
  178.2000   138.1373     8.1221     8.1713
  178.3000   138.1337     8.1219     8.1708
  178.4000   138.1301     8.1544     8.1704
  178.5000   138.1263     8.1778     8.1699
  178.6000   138.1229     8.1776     8.1695
  178.7000   138.1193     8.1774     8.1690
  178.8000   138.1157     8.1772     8.1686
  178.9000   138.1121     8.1769     8.1681
  179.0000   138.1084     8.1767     8.1677
  179.1000   138.0759     8.1765     8.1672
  179.2000   137.7998     8.1763     8.1668
  179.3000   137.7964     8.1760     8.1663
  179.4000   137.7928     8.1758     8.1659
  179.5000   137.6325     8.1756     8.1654
  179.6000   137.4843     8.1753     8.1649
  179.7000   137.4807     8.1751     8.1645
  179.8000   137.4771     8.1749     8.1640
  179.9000   137.4733     8.1515     8.1636
  180.0000   137.4699     8.1180     8.1631
  180.1000   137.4663     8.1178     8.1627
  180.2000   137.4626     8.1176     8.1515
  180.3000   137.4590     8.1173     8.1270
  180.4000   137.4554     8.1171     8.1050
  180.5000   137.4518     8.1169     8.1046
  180.6000   137.4479     8.0944     8.1041
  180.7000   137.4446     8.0605     8.1037
  180.8000   137.0506     8.0541     8.1032
  180.9000   136.5313     8.0044     8.1028
  181.0000   135.9036     8.0042     8.1023
  181.1000   135.2566     8.0039     8.0968
  181.2000   134.9301     8.0037     8.0455
  181.3000   133.8081     7.9822     8.0451
  181.4000   132.8603     7.9480     8.0446
  181.5000   132.0181     7.9425     8.0442
  181.6000   131.5397     7.8927     8.0437
  181.7000   131.1723     7.8925     8.0433
  181.8000   130.7783     7.8923     8.0428
  181.9000   130.7554     7.8921     8.0424
  182.0000   130.4695     7.8919     7.9975
  182.1000   130.4663     7.8917     7.9860
  182.2000   130.2723     7.8869     7.9573
  182.3000   130.1578     7.8367     7.9300
  182.4000   130.1542     7.8365     7.9296
  182.5000   130.1506     7.8363     7.9291
  182.6000   130.1470     7.8088     7.9287
  182.7000   130.1430     7.7818     7.8847
  182.8000   130.1398     7.7816     7.8731
  182.9000   130.3241     7.7814     7.8450
