~VERSION INFORMATION
 VERS.                2.0:   CWLS LOG ASCII STANDARD - VERSION 2.0
 WRAP.                 NO:   ONE LINE PER DEPTH STEP
~WELL INFORMATION
#MNEM.UNIT      DATA TYPE    INFORMATION
#----------   ------------   ------------------------------
 STRT.F           28.0000:   START DEPTH
 STOP.F          856.0000:   STOP DEPTH
 STEP.F            0.5000:   STEP LENGTH
 NULL.          -999.2500:   NO VALUE
 COMP. FENIX & SCISSON INC:   COMPANY
 WELL. NPR 3  76 SX #76-27:   WELL
 FLD .             TEAPOT:   FIELD
 LOC .      S27 T39N R78W:   LOCATION
 CNTY.            NATRONA:   COUNTY
 STAT.            WYOMING:   STATE
 CTRY. UNITED STATES OF AMERICA:   COUNTRY
 SRVC.            Unknown:   SERVICE COMPANY
 DATE.        06-SEP-1978:   LOGDATE
 API .       490251069600:   API NUMBER
~CURVE INFORMATION
#MNEM.UNIT       API CODE    CURVE DESCRIPTION
#----------   ------------   ------------------------------
 DEPT.F                  :   
 SPR .MV     05 010 01 00:   SPONTANEOUS POTENTIAL FROM RES.
 SN  .OHMM   05 040 16 00:   SHORT NORMAL 16"
 ILD .OHMM   05 120 46 00:   INDUCTION LOG DEEP
 NPHI.DEC    42 890 03 00:   NEUTRON POROSITY SANDSTONE
 GRD .GAPI   45 310 01 00:   GAMMA RAY FROM DENSITY LOG
 CALD.IN     45 280 60 00:   CALIPER
 RHOB.G/C3   45 350 01 00:   BULK DENSITY
 DPHI.DEC    45 890 12 00:   DENSITY POROSITY SANDSTONE
 CORR.G/C3   45 356 01 00:   DENSITY CORRECTION
~PARAMETER INFORMATION
#MNEM.UNIT          VALUE    DESCRIPTION
#----------   ------------   ------------------------------
 PD  .                 GL:   PERMANENT DATUM
 EPD .F              5062:   ELEVATION PERMANENT DATUM
 LMF .                 KB:   LOG MEASURED FROM
 DAPD.F                 4:   FEET ABOVE PERMANENT DATUM
 DMF .                 KB:   DRILLING MEASURED FROM
 EKB .F              5066:   KELLING BUSHING
 EGL .F              5062:   GROUND LEVEL
 DATE.             9-6-78:   RUN DATE
 RUN .                  1:   RUN NUMBER
 DD  .F               865:   DEPTH DRILLER
 DL  .F               857:   DEPTH LOGGER
 BLI .F               851:   BOTTOM LOG INTERVAL
 TLI .F                40:   TOP LOG INTERVAL
 CS  .IN            8.625:   CASING SIZE
 CBD .F                43:   CASING BOTTOM DRILLER
 CBL .F                43:   CASING BOTTOM LOGGER
 BS  .IN            7.875:   BIT SIZE
 BSD .F               865:   BIT SIZE AT DEPTH
 DFT .                KCL:   DRILLING FLUID TYPE
 DFD .                8.4:   DRILLING FLUID DENSITY
 DFV .                 40:   DRILLING FLUID VISCOSITY
 DFPH.                  9:   DRILLING FLUID PH
 DFL .                  6:   DRILLING FLUID LOSS
 MSS .           FLOWLINE:   MUD SAMPLE SOURCE
 RMS .OHMM            .14:   RESISTIVITY MUD SAMPLE
 MST .F                84:   MUD SAMPLE TEMPERATURE
 RMF .OHMM             .1:   RESISTIVITY MUD FILTRATE SAMPLE
 MFST.F                94:   MUD FILTRATE SAMPLE TEMPERATURE
 RMC .OHMM            .18:   RESISTIVITY MUD CAKE
 MCST.F                92:   MUD CAKE SAMPLE TEMPERATURE
 MFSS.               MEAS:   MUD FILTRATE SAMPLE SOURCE
 MCSS.               MEAS:   MUD CAKE SAMPLE SOURCE
 RMB .OHMM           .145:   RESISTIVITY MUD AT BHT
 BHT .F                82:   BOTTOM HOLE TEMPERATURE
 TCS .HRS               3:   TIME CURCULATED STOPPED
 MRT .F                82:   MAXIMUM RECORDED TEMPERATURE
 LUN .               2958:   LOGGING UNIT NUMBER
 LUL .               CASP:   LOGGING UNIT LOCATION
 ENGI.           REYNOLDS:   RECORDING ENGINEER
 WITN.           MCGINLEY:   WITNESSED BY
 CLNT.            A2DTECH:   CLIENT CODE
 ORIG.           5" PRINT:   ORIGIN OF DATA
 UWI .       490251069600:   UNIQUE WELL ID
 DICO. A2D Technologies, Inc.:   DIGITIZING COMPANY
~OTHER INFORMATION
~A   DEPT      SPR         SN        ILD       NPHI         GRD      CALD       RHOB       DPHI       CORR   
# ...
  685.0000   -33.2077    11.7137    14.9807     0.3715    67.6138     7.3360     2.3959     0.1729     0.0050
  685.5000   -33.9071    11.7263    14.8439     0.3715    66.4257     7.3502     2.3999     0.1712     0.0072
  686.0000   -34.4824    11.7388    14.8453     0.3778    64.9842     7.3860     2.4006     0.1691     0.0083
  686.5000   -35.0594    11.7514    14.8437     0.3811    64.7340     7.4286     2.4012     0.1722     0.0115
  687.0000   -35.2686    11.7640    14.8439     0.3780    65.9825     7.4711     2.4019     0.1769     0.0165
  687.5000   -35.1008    11.7765    14.8439     0.3661    67.1528     7.5142     2.3981     0.1857     0.0194
  688.0000   -34.9093    11.7892    14.8439     0.3543    66.4431     7.5458     2.3884     0.1954     0.0234
  688.5000   -34.7204    11.8018    14.8439     0.3535    64.6607     7.5849     2.3733     0.2034     0.0289
  689.0000   -34.5390    11.6591    14.8439     0.3662    62.8704     7.6244     2.3577     0.2098     0.0309
  689.5000   -33.8820    11.5194    14.8441     0.3881    61.1126     7.6308     2.3493     0.2050     0.0309
  690.0000   -33.0986    11.3813    14.8448     0.4100    60.1701     7.5879     2.3426     0.1998     0.0309
  690.5000   -32.3118    11.2448    14.8450     0.4168    63.7034     7.5422     2.3402     0.2018     0.0309
  691.0000   -31.5287    11.1100    14.7155     0.4145    66.7133     7.4966     2.3486     0.2009     0.0321
  691.5000   -30.8820    10.9767    14.5900     0.4092    68.4892     7.4511     2.3547     0.1983     0.0389
  692.0000   -30.2411    10.8452    14.4660     0.4036    67.0148     7.4056     2.3520     0.1892     0.0463
  692.5000   -29.5890    10.6690    14.3432     0.3998    64.8593     7.3599     2.3514     0.1687     0.0468
  693.0000   -29.5977    10.7022    14.1784     0.4002    63.5998     7.3165     2.3769     0.1488     0.0433
  693.5000   -29.9882    10.7542    14.5806     0.3978    62.3472     7.3135     2.4037     0.1642     0.0406
  694.0000   -30.3864    10.8064    15.1600     0.3772    61.1077     7.3122     2.4290     0.1797     0.0409
  694.5000   -30.7428    10.8589    15.7624     0.3553    63.9738     7.3107     2.4289     0.1942     0.0423
  695.0000   -31.0750    10.9117    16.1363     0.3444    67.9642     7.3091     2.3954     0.1934     0.0429
  695.5000   -31.3999    10.9648    16.2700     0.3367    67.7113     7.3076     2.3666     0.1919     0.0428
  696.0000   -32.0802    11.0182    15.9879     0.3332    67.3579     7.3060     2.3645     0.1902     0.0428
  696.5000   -32.8987    11.0677    15.7271     0.3364    67.3097     7.3045     2.3704     0.1884     0.0430
  697.0000   -33.6478    11.0677    15.5406     0.3641    67.3205     7.3029     2.3760     0.1865     0.0474
  697.5000   -40.3387    11.0141    15.5920     0.3966    67.2268     7.3014     2.3709     0.1813     0.0518
  698.0000   -45.9468    10.9779    15.6400     0.4038    65.4772     7.2998     2.3730     0.1810     0.0562
  698.5000   -29.4790    10.9418    15.6838     0.4073    63.7203     7.2982     2.3854     0.1835     0.0568
  699.0000   -31.0100    10.9058    15.0678     0.4098    64.7346     7.2965     2.3854     0.1811     0.0577
  699.5000   -31.1123    10.8699    14.5229     0.3981    64.2505     7.2966     2.3820     0.1784     0.0588
  700.0000   -31.4685    10.8341    14.0468     0.3847    63.0969     7.3160     2.3790     0.1757     0.0599
  700.5000   -32.1543    10.7986    13.9813     0.3751    65.1154     7.3350     2.3841     0.1754     0.0608
  701.0000   -32.8280    10.7668    13.9206     0.3751    67.5926     7.3538     2.3899     0.1816     0.0575
  701.5000   -33.3289    10.8060    14.1209     0.3755    68.7444     7.3727     2.3952     0.1878     0.0546
  702.0000   -33.3861    10.8483    14.6929     0.3808    68.4768     7.3915     2.3922     0.1940     0.0572
  702.5000   -33.4579    10.8908    15.2881     0.3938    66.6480     7.4103     2.3789     0.1987     0.0641
  703.0000   -33.7419    10.9335    15.7094     0.4139    64.7272     7.4299     2.3653     0.1986     0.0721
  703.5000   -34.4586    10.9763    15.8720     0.4277    65.4536     7.4377     2.3576     0.1918     0.0828
  704.0000   -34.5468    11.0193    15.9838     0.4294    65.3406     7.4490     2.3546     0.1846     0.0866
  704.5000   -34.6017    11.0624    16.0098     0.4289    64.0034     7.4537     2.3602     0.1774     0.0875
  705.0000   -34.6598    11.1057    16.0351     0.4159    64.1356     7.4509     2.3742     0.1720     0.0888
  705.5000   -34.6741    11.1492    16.0609     0.3958    64.3568     7.4423     2.3883     0.1703     0.0828
  706.0000   -34.6588    11.1928    16.0863     0.3758    64.8473     7.4337     2.4004     0.1727     0.0759
  706.5000   -34.6430    11.2366    16.1215     0.3559    66.7830     7.4252     2.4019     0.1783     0.0709
  707.0000   -34.6271    11.2806    15.9157     0.3551    68.3790     7.4167     2.3993     0.1768     0.0706
  707.5000   -34.6113    11.3248    15.5962     0.3601    66.6493     7.4081     2.3948     0.1755     0.0671
  708.0000   -34.5955    11.3691    15.2828     0.3772    64.8467     7.3997     2.3930     0.1851     0.0429
  708.5000   -34.5797    11.4136    15.1029     0.3944    64.5990     7.3944     2.3902     0.1949     0.0187
  709.0000   -34.5639    11.4583    15.0700     0.4115    64.3675     7.3988     2.3749     0.2026     0.0111
  709.5000   -34.5481    11.4812    15.0367     0.4201    65.0045     7.4059     2.3621     0.1961     0.0050
  710.0000   -34.5323    11.4629    15.0036     0.4271    65.6635     7.4130     2.3534     0.1918     0.0029
  710.5000   -34.5158    11.4485    14.9807     0.4337    66.9059     7.4201     2.3575     0.1902     0.0044
  711.0000   -34.4979    11.4342    15.1108     0.4337    68.4262     7.4271     2.3682     0.1890     0.0096
  711.5000   -34.5035    11.4199    15.2112     0.4227    69.8593     7.4343     2.3717     0.1830     0.0133
  712.0000   -34.8565    11.4056    15.3122     0.4158    70.0939     7.4478     2.3709     0.1762     0.0146
  712.5000   -35.2041    11.3912    15.4138     0.4089    67.2797     7.4963     2.3802     0.1760     0.0144
  713.0000   -35.5496    11.3757    15.5162     0.4054    67.6540     7.5458     2.3927     0.1771     0.0115
  713.5000   -35.8970    11.3904    15.5537     0.4038    68.2477     7.5912     2.3971     0.1742     0.0099
  714.0000   -36.2480    11.4285    15.5709     0.4097    67.0331     7.6072     2.3955     0.1689     0.0090
  714.5000   -36.2669    11.4669    15.5880     0.4153    65.9367     7.6240     2.3961     0.1673     0.0090
  715.0000   -36.2675    11.5053    15.6052     0.4138    65.9295     7.6409     2.4054     0.1678     0.0090
  715.5000   -36.4318    11.5438    15.6225     0.4052    66.5785     7.6579     2.4120     0.1683     0.0090
  716.0000   -36.9372    11.5825    15.6396     0.3967    67.8982     7.6749     2.4108     0.1663     0.0090
  716.5000   -37.4351    11.6213    15.6570     0.3878    69.9418     7.6919     2.4095     0.1640     0.0090
  717.0000   -37.5880    11.6602    15.6742     0.3882    72.0164     7.7089     2.4088     0.1621     0.0090
  717.5000   -38.2259    11.6992    15.7261     0.3969    72.7320     7.7266     2.4118     0.1636     0.0090
  718.0000   -39.0861    11.7384    15.8214     0.4032    71.7438     7.7295     2.4159     0.1651     0.0085
  718.5000   -39.2694    11.7777    15.9173     0.4072    70.7495     7.7254     2.4179     0.1655     0.0065
  719.0000   -39.4657    11.8172    16.0138     0.4083    69.7519     7.7212     2.4146     0.1655     0.0050
  719.5000   -39.6666    11.8567    16.1109     0.4071    68.7238     7.7170     2.4113     0.1651     0.0050
  720.0000   -39.9845    11.8964    16.2085     0.4001    68.8028     7.7129     2.4109     0.1556     0.0050
  720.5000   -40.8169    11.9363    16.3067     0.3932    69.1120     7.7110     2.4125     0.1454     0.0049
  721.0000   -41.5893    11.9762    16.4056     0.3878    68.2952     7.7110     2.4279     0.1412     0.0048
