~VERSION INFORMATION
 VERS.                2.0:   CWLS LOG ASCII STANDARD - VERSION 2.0
 WRAP.                 NO:   ONE LINE PER DEPTH STEP
~WELL INFORMATION
#MNEM.UNIT      DATA TYPE    INFORMATION
#----------   ------------   ------------------------------
 STRT.F           34.0000:   START DEPTH
 STOP.F          458.0000:   STOP DEPTH
 STEP.F            0.5000:   STEP LENGTH
 NULL.          -999.2500:   NO VALUE
 COMP. FENIX & SCISSON INC:   COMPANY
 WELL.    42 SX 3FO #42-3:   WELL
 FLD .             TEAPOT:   FIELD
 LOC .       S3 T38N R78W:   LOCATION
 CNTY.            NATRONA:   COUNTY
 STAT.            WYOMING:   STATE
 CTRY. UNITED STATES OF AMERICA:   COUNTRY
 SRVC.              Welex:   SERVICE COMPANY
 DATE.        29-JUN-1980:   LOGDATE
 API .       490251081500:   API NUMBER
~CURVE INFORMATION
#MNEM.UNIT       API CODE    CURVE DESCRIPTION
#----------   ------------   ------------------------------
 DEPT.F                  :   
 RHOB.G/C3   45 350 01 00:   BULK DENSITY
 CORR.G/C3   45 356 01 00:   DENSITY CORRECTION
 DPHI.DEC    45 890 12 00:   DENSITY POROSITY SANDSTONE
 GRD .GAPI   45 310 01 00:   GAMMA RAY FROM DENSITY LOG
 CALD.IN     45 280 60 00:   CALIPER
~PARAMETER INFORMATION
#MNEM.UNIT          VALUE    DESCRIPTION
#----------   ------------   ------------------------------
 PD  .                 GL:   PERMANENT DATUM
 EPD .F              5162:   ELEVATION PERMANENT DATUM
 LMF .                 KB:   LOG MEASURED FROM
 DAPD.F                 5:   FEET ABOVE PERMANENT DATUM
 DMF .                 KB:   DRILLING MEASURED FROM
 EKB .F              5167:   KELLING BUSHING
 EGL .F              5162:   GROUND LEVEL
 DATE.            6-29-80:   RUN DATE
 RUN .                  1:   RUN NUMBER
 DD  .F               470:   DEPTH DRILLER
 DL  .F               460:   DEPTH LOGGER
 BLI .F               458:   BOTTOM LOG INTERVAL
 TLI .F                46:   TOP LOG INTERVAL
 CS  .IN                7:   CASING SIZE
 BS  .IN             6.25:   BIT SIZE
 BSD .F               470:   BIT SIZE AT DEPTH
 DFT .        AIR DRILLED:   DRILLING FLUID TYPE
 BHT .F                73:   BOTTOM HOLE TEMPERATURE
 TCS .HRS               2:   TIME CURCULATED STOPPED
 MRT .F                73:   MAXIMUM RECORDED TEMPERATURE
 ENGI.            TOTHILL:   RECORDING ENGINEER
 WITN.              AMEND:   WITNESSED BY
 CLNT.            A2DTECH:   CLIENT CODE
 ORIG.           5" PRINT:   ORIGIN OF DATA
 UWI .       490251081500:   UNIQUE WELL ID
 DICO. A2D Technologies, Inc.:   DIGITIZING COMPANY
~OTHER INFORMATION
~A   DEPT       RHOB      CORR      DPHI         GRD        CALD 
# ...
  156.0000     2.4591     0.1206     0.1369    99.4862     6.4079
  156.5000     2.4504     0.1160     0.1397    98.0287     6.4135
  157.0000     2.4574     0.1249     0.1377    98.7349     6.4191
  157.5000     2.4560     0.1244     0.1457   100.8325     6.4247
  158.0000     2.4384     0.1079     0.1544   102.3397     6.4303
  158.5000     2.4206     0.0973     0.1586   103.3635     6.4306
  159.0000     2.4257     0.0981     0.1480   104.3542     6.4264
  159.5000     2.4456     0.1035     0.1380   104.9644     6.4223
  160.0000     2.4659     0.1084     0.1336   103.8109     6.4180
  160.5000     2.4734     0.1121     0.1368   101.9325     6.4135
  161.0000     2.4520     0.0937     0.1434   100.0639     6.4262
  161.5000     2.4424     0.0964     0.1406    98.4264     6.4440
  162.0000     2.4525     0.1007     0.1360    97.3146     6.4620
  162.5000     2.4632     0.1010     0.1318    96.7450     6.4800
  163.0000     2.4676     0.0982     0.1300    96.6413     6.4979
  163.5000     2.4717     0.0953     0.1301    97.7847     6.5092
  164.0000     2.4676     0.0888     0.1335    99.0052     6.4794
  164.5000     2.4630     0.0811     0.1370    99.4449     6.4500
  165.0000     2.4547     0.0736     0.1396    98.3381     6.4207
  165.5000     2.4503     0.0750     0.1317    98.2334     6.3915
  166.0000     2.4732     0.0938     0.1234   100.0548     6.3627
  166.5000     2.4914     0.1119     0.1164   100.5982     6.3354
  167.0000     2.4930     0.1120     0.1203    99.2889     6.3131
  167.5000     2.4859     0.1111     0.1273    99.1320     6.3210
  168.0000     2.4690     0.1099     0.1344   101.1552     6.3284
  168.5000     2.4581     0.1057     0.1447   102.4564     6.3357
  169.0000     2.4421     0.0951     0.1553   101.7216     6.3429
  169.5000     2.4198     0.0827     0.1661   100.7933     6.3502
  170.0000     2.3966     0.0716     0.1808   101.8601     6.3575
  170.5000     2.3722     0.0624     0.1921   103.0889     6.3648
  171.0000     2.3561     0.0652     0.1958   100.1392     6.3720
  171.5000     2.3560     0.0682     0.1973    98.0450     6.3793
  172.0000     2.3504     0.0603     0.2022    97.4491     6.3866
  172.5000     2.3416     0.0496     0.2037    98.1953     6.3939
  173.0000     2.3495     0.0387     0.1929   100.6363     6.4012
  173.5000     2.3753     0.0436     0.1700   103.4447     6.4084
  174.0000     2.4010     0.0597     0.1568   106.5042     6.4133
  174.5000     2.4265     0.0780     0.1472   109.6471     6.4144
  175.0000     2.4457     0.0945     0.1400   111.7430     6.4155
  175.5000     2.4552     0.1027     0.1345   113.0244     6.4166
  176.0000     2.4666     0.1112     0.1289   111.5215     6.4177
  176.5000     2.4779     0.1094     0.1256   110.6313     6.4188
  177.0000     2.4796     0.1054     0.1327   110.6493     6.4199
  177.5000     2.4587     0.1014     0.1377   110.0894     6.4210
  178.0000     2.4505     0.0956     0.1406   109.1944     6.4221
  178.5000     2.4441     0.0894     0.1421   108.8909     6.4232
  179.0000     2.4469     0.0861     0.1356   108.6988     6.4243
  179.5000     2.4713     0.0956     0.1243   109.0407     6.4254
  180.0000     2.5037     0.1113     0.1088   109.6780     6.4265
  180.5000     2.5061     0.1363     0.1131   110.3075     6.4276
  181.0000     2.4984     0.1226     0.1202   111.5397     6.4287
  181.5000     2.4779     0.1084     0.1273   112.8597     6.4298
  182.0000     2.4621     0.0940     0.1312   112.5005     6.4310
  182.5000     2.4759     0.1032     0.1220   111.4539     6.4320
  183.0000     2.4898     0.1245     0.1180   109.2736     6.4258
  183.5000     2.4916     0.1287     0.1202   106.8934     6.3899
  184.0000     2.4848     0.1287     0.1227   105.1664     6.3549
  184.5000     2.4781     0.1266     0.1252   103.7976     6.3200
  185.0000     2.4718     0.1135     0.1264   102.4428     6.2849
  185.5000     2.4693     0.1006     0.1277   102.4237     6.2810
  186.0000     2.4702     0.0891     0.1284   104.3459     6.2999
  186.5000     2.4709     0.0954     0.1236   106.2244     6.3189
  187.0000     2.4805     0.1021     0.1192   107.9963     6.3379
  187.5000     2.4983     0.1094     0.1102   109.5273     6.3569
  188.0000     2.5159     0.1309     0.1016   110.6957     6.3759
  188.5000     2.5334     0.1442     0.0931   107.6368     6.3950
  189.0000     2.5438     0.1442     0.0880   104.9816     6.4124
  189.5000     2.5284     0.1323     0.1016   103.1538     6.4165
  190.0000     2.4960     0.1044     0.1222   100.1189     6.4206
  190.5000     2.4661     0.0845     0.1320    98.2924     6.4248
  191.0000     2.4591     0.0782     0.1362    99.9129     6.4291
  191.5000     2.4530     0.0722     0.1388   103.6333     6.4320
  192.0000     2.4590     0.0873     0.1328   106.0664     6.4130
  192.5000     2.4707     0.1042     0.1392   106.7552     6.3939
  193.0000     2.4496     0.1164     0.1457   105.2292     6.3748
  193.5000     2.4355     0.1047     0.1631   103.8197     6.3824
  194.0000     2.4061     0.0903     0.1795   104.7598     6.3936
  194.5000     2.3686     0.0711     0.1914   105.8478     6.4048
  195.0000     2.3629     0.0751     0.1980   106.8508     6.4159
  195.5000     2.3567     0.0787     0.2053   105.8671     6.4271
  196.0000     2.3369     0.0786     0.2157   104.7671     6.4329
  196.5000     2.3121     0.0743     0.2259   104.3527     6.4329
  197.0000     2.2930     0.0710     0.2362   102.8261     6.4330
  197.5000     2.2837     0.0794     0.2394   100.8400     6.4327
  198.0000     2.2766     0.0876     0.2403    98.8284     6.4218
  198.5000     2.2811     0.0959     0.2412    96.8537     6.3754
  199.0000     2.2892     0.0899     0.2296    97.9703     6.3584
  199.5000     2.3120     0.0823     0.2152   102.2937     6.3702
  200.0000     2.3359     0.0757     0.1994   106.5987     6.3818
  200.5000     2.3606     0.0700     0.1945   110.4044     6.3934
  201.0000     2.3699     0.0641     0.1891   112.8051     6.4051
  201.5000     2.3673     0.0476     0.1801   113.9416     6.4168
  202.0000     2.3839     0.0472     0.1675   112.9550     6.4284
  202.5000     2.4182     0.0481     0.1576   112.8681     6.4402
  203.0000     2.4270     0.0562     0.1532   114.0923     6.4516
  203.5000     2.4347     0.0667     0.1481   116.3001     6.4455
  204.0000     2.4484     0.0774     0.1420   117.7116     6.4371
  204.5000     2.4509     0.0838     0.1435   116.0691     6.4329
  205.0000     2.4445     0.0864     0.1450   114.2727     6.4329
  205.5000     2.4399     0.0802     0.1448   112.6913     6.4329
  206.0000     2.4455     0.0819     0.1416   113.0062     6.4329
  206.5000     2.4526     0.0864     0.1432   114.4870     6.4329
  207.0000     2.4420     0.0818     0.1496   114.4722     6.4329
  207.5000     2.4218     0.0693     0.1613   115.8874     6.4329
  208.0000     2.4005     0.0566     0.1774   118.1273     6.4329
  208.5000     2.3779     0.0434     0.1913   120.3877     6.4330
  209.0000     2.3548     0.0420     0.1918   122.6482     6.4291
  209.5000     2.3585     0.0438     0.1903   124.7207     6.3936
  210.0000     2.3701     0.0545     0.1845   125.2958     6.3579
  210.5000     2.3929     0.0676     0.1772   121.7961     6.3327
  211.0000     2.4019     0.0766     0.1695   115.3568     6.3350
  211.5000     2.4073     0.0827     0.1607   108.8585     6.3368
  212.0000     2.4277     0.0955     0.1462   104.4141     6.3386
  212.5000     2.4525     0.1082     0.1317   105.4728     6.3404
  213.0000     2.4752     0.1135     0.1229   107.2443     6.3422
  213.5000     2.4923     0.1185     0.1160   108.7529     6.3439
  214.0000     2.4967     0.1172     0.1108   112.1465     6.3457
  214.5000     2.4981     0.1027     0.1165   116.1940     6.3475
  215.0000     2.4917     0.1029     0.1246   119.3770     6.3493
  215.5000     2.4732     0.0907     0.1364   120.5414     6.3510
  216.0000     2.4483     0.0741     0.1442   119.5531     6.3544
  216.5000     2.4263     0.0572     0.1522   118.7698     6.3710
