~VERSION INFORMATION
 VERS.                2.0:   CWLS LOG ASCII STANDARD - VERSION 2.0
 WRAP.                 NO:   ONE LINE PER DEPTH STEP
~WELL INFORMATION
#MNEM.UNIT      DATA TYPE    INFORMATION
#----------   ------------   ------------------------------
 STRT.F           12.0000:   START DEPTH
 STOP.F          563.5000:   STOP DEPTH
 STEP.F            0.5000:   STEP LENGTH
 NULL.          -999.2500:   NO VALUE
 COMP.       F D SERV INC:   COMPANY
 WELL. N P R 3 SX-3 #52-3:   WELL
 FLD .             TEAPOT:   FIELD
 LOC .       S3 T38N R78W:   LOCATION
 CNTY.            NATRONA:   COUNTY
 STAT.            WYOMING:   STATE
 CTRY. UNITED STATES OF AMERICA:   COUNTRY
 SRVC.     Atlas Wireline:   SERVICE COMPANY
 DATE.        27-APR-1992:   LOGDATE
 API .       490252252000:   API NUMBER
~CURVE INFORMATION
#MNEM.UNIT       API CODE    CURVE DESCRIPTION
#----------   ------------   ------------------------------
 DEPT.F                  :   
 PORZ.DEC    45 890 12 00:   DENSITY POROSITY
 CNC .DEC    42 890 03 00:   NEUTRON POROSITY SANDSTONE
 CALD.IN     45 280 60 00:   CALIPER FROM DENSITY
 GRD .GAPI   45 310 01 00:   GAMMA RAY FROM DENSITY LOG
 ZCOR.G/C3   45 356 01 00:   DENSITY CORRECTION
 ZDEN.G/C3   45 350 01 00:   BULK DENSITY
 RILD.OHMM   07 120 46 00:   INDUCTION LOG DEEP RESISTIVITY
 RILM.OHMM   07 120 44 00:   INDUCTION LOG MEDIUM RESISTIVITY
 RFOC.OHMM   07 220 04 00:   RESISTIVITY FOCUSED LOG
~PARAMETER INFORMATION
#MNEM.UNIT          VALUE    DESCRIPTION
#----------   ------------   ------------------------------
 PD  .                 GL:   PERMANENT DATUM
 EPD .F              5145:   ELEVATION PERMANENT DATUM
 LMF .                 KB:   LOG MEASURED FROM
 DAPD.F                 5:   FEET ABOVE PERMANENT DATUM
 DMF .                 KB:   DRILLING MEASURED FROM
 EKB .F              5150:   KELLING BUSHING
 EDF .F              5149:   DRILLING FLOOR
 EGL .F              5145:   GROUND LEVEL
 DATE.        27-APR-1992:   RUN DATE
 RUN .                  1:   RUN NUMBER
 DD  .F               565:   DEPTH DRILLER
 DL  .F               565:   DEPTH LOGGER
 BLI .F               563:   BOTTOM LOG INTERVAL
 CS  .IN            8.625:   CASING SIZE
 CBD .F                48:   CASING BOTTOM DRILLER
 CBL .F                51:   CASING BOTTOM LOGGER
 BS  .IN            7.875:   BIT SIZE
 BSD .F               565:   BIT SIZE AT DEPTH
 DFT .              WATER:   DRILLING FLUID TYPE
 TCS .HRS            0200:   TIME CURCULATED STOPPED
 MRT .F                88:   MAXIMUM RECORDED TEMPERATURE
 LUN .           HL- 6274:   LOGGING UNIT NUMBER
 LUL .             CASPER:   LOGGING UNIT LOCATION
 ENGI.             RAUTIO:   RECORDING ENGINEER
 WITN.        GARY STRONG:   WITNESSED BY
 CLNT.            A2DTECH:   CLIENT CODE
 ORIG.           5" PRINT:   ORIGIN OF DATA
 UWI .       490252252000:   UNIQUE WELL ID
 DICO. A2D Technologies, Inc.:   DIGITIZING COMPANY
~OTHER INFORMATION
~A   DEPT     PORZ        CNC       CALD        GRD       ZCOR       ZDEN       RILD       RILM       RFOC   
# ...
   85.0000     0.1452    -0.0206     8.2084   140.9286     0.0380     2.4177     8.9384     8.8965   120.8151
   85.5000     0.1434    -0.0206     8.2082   143.0272     0.0350     2.4328     8.8788     8.8342   116.7040
   86.0000     0.1358    -0.0206     8.2081   143.3295     0.0290     2.4441     8.7592     8.7116    93.4682
   86.5000     0.1270    -0.0206     8.2079   138.2426     0.0260     2.4433     8.5810     8.4720    71.8052
   87.0000     0.1252    -0.0203     8.2078   122.5210     0.0320     2.4433     8.4649     8.3544    53.2815
   87.5000     0.1258    -0.0194     8.1926   113.6981     0.0305     2.4418     8.2354     8.1814    35.3815
   88.0000     0.1261    -0.0133     8.1925   113.4009     0.0290     2.4366     7.9567     7.9015    27.7531
   88.5000     0.1261     0.0385     8.1774   115.7997     0.0353     2.4253     7.5705     7.4221    20.4512
   89.0000     0.1272     0.1471     8.1622   117.8984     0.0789     2.3997     7.0753     7.0130    18.0508
   89.5000     0.1296     0.2355     8.1456   119.3983     0.1317     2.3432     7.0775     6.9227    16.6097
   90.0000     0.1453     0.3746     8.1169   120.9182     0.1256     2.3387     7.0792     6.9705    15.3900
   90.5000     0.1858     0.4135     8.1318   121.7999     0.0759     2.3458     7.1303     7.0673    13.8698
   91.0000     0.1882     0.4198     8.2216   119.4076     0.0472     2.3681     7.2317     7.1160    13.1217
   91.5000     0.1855     0.4216     8.3564   115.5183     0.0488     2.3982     7.4420     7.2665    12.5873
   92.0000     0.1746     0.4216     8.4462   109.8325     0.0503     2.4404     7.5957     7.4691    12.5886
   92.5000     0.1517     0.4171     8.4628   108.6377     0.0397     2.4705     7.7037     7.6789    12.5897
   93.0000     0.1255     0.4041     8.4908   108.6407     0.0262     2.4750     7.9224     8.0050    12.7667
   93.5000     0.1068     0.3914     8.4907   108.0455     0.0292     2.4751     8.3186     8.2299    12.9465
   94.0000     0.1041     0.3751     8.5056   105.3537     0.0353     2.4788     8.6742     8.6392    12.4195
   94.5000     0.1044     0.3649     8.5054   102.0632     0.0458     2.4841     8.7369     8.7593    12.5070
   95.0000     0.1022     0.3619     8.5202    99.0721     0.0474     2.4939     8.6785     8.8197    12.5952
   95.5000     0.0968     0.3613     8.5351   100.2726     0.0352     2.4954     8.6812     8.6971    12.5962
   96.0000     0.0934     0.3588     8.5499   102.3872     0.0248     2.4879     8.8047     8.6362    12.4236
   96.5000     0.0979     0.3474     8.5647   104.4706     0.0187     2.4834     8.8069     8.5163    11.6725
   97.0000     0.1006     0.3462     8.5796   105.6711     0.0203     2.4826     8.7482     8.5156    10.9666
   97.5000     0.1015     0.3541     8.5944   105.9734     0.0233     2.4819     8.7505     8.5149    10.7413
   98.0000     0.1024     0.3745     8.5793   105.6769     0.0278     2.4811     8.7531     8.5140    10.6679
   98.5000     0.1029     0.3799     8.5642   105.0810     0.0309     2.4796     8.7553     8.5133    10.8181
   99.0000     0.1035     0.3802     8.5190   105.0838     0.0339     2.4751     8.7575     8.5126    10.8190
   99.5000     0.1059     0.3781     8.3989   105.3868     0.0354     2.4721     8.7597     8.5712    10.6710
  100.0000     0.1077     0.3730     8.2957   106.2683     0.0355     2.4706     8.7619     8.5705    10.3794
  100.5000     0.1058     0.3687     8.2036   110.1863     0.0365     2.4752     8.8813     8.7347    10.4668
  101.0000     0.1041     0.3651     8.2033   115.2819     0.0386     2.4767     9.1922     8.8734    10.5218
  101.5000     0.1021     0.3630     8.2030   116.7846     0.0297     2.4790     9.3836     8.9352    10.5937
  102.0000     0.0995     0.3600     8.1877   113.7565     0.0085     2.4828     9.3805     8.9975    10.5186
  102.5000     0.0953     0.3578     8.1874   106.3185     0.0116     2.4890     9.3780     9.0602    10.5172
  103.0000     0.0926     0.3591     8.1871   103.6296     0.0177     2.4957     9.3755     9.1234    10.5158
  103.5000     0.0938     0.3609     8.1868   105.4318     0.0208     2.4987     9.3076     9.1234    10.6792
  104.0000     0.0965     0.3596     8.1865   108.1321     0.0224     2.4935     9.3705     9.1234    11.1133
  104.5000     0.0971     0.3587     8.1862   106.9403     0.0224     2.4912     9.3026     9.0602    10.8072
  105.0000     0.0953     0.3596     8.2009   103.3134     0.0240     2.4898     9.1720     9.0602    10.4372
  105.5000     0.0983     0.3631     8.2005   102.4607     0.0241     2.4875     9.1696     9.0567     9.8721
  106.0000     0.1040     0.3686     8.2003   103.9649     0.0241     2.4740     9.1672     8.9975     9.8025
  106.5000     0.1088     0.3734     8.2150   107.2641     0.0242     2.4665     9.1008     9.0602     9.9382
  107.0000     0.1103     0.3777     8.2147   108.7668     0.0227     2.4680     9.0983     8.9975    10.0061
  107.5000     0.1076     0.3764     8.2144   109.0719     0.0243     2.4718     9.0959     8.9975    10.0741
  108.0000     0.1058     0.3740     8.2291   109.0778     0.0259     2.4726     9.0935     8.9975    10.1429
  108.5000     0.1058     0.3759     8.2287   108.1867     0.0320     2.4734     9.0911     8.9352    10.0714
  109.0000     0.1049     0.3815     8.2135   108.4918     0.0350     2.4750     9.0887     8.8734     9.9313
  109.5000     0.1021     0.3876     8.2132   109.3958     0.0305     2.4795     9.0228     8.8734     9.8612
  110.0000     0.0964     0.3894     8.2129   111.1979     0.0276     2.4923     8.8962     8.8120     9.7914
  110.5000     0.0925     0.3839     8.1976   113.5988     0.0307     2.4954     8.8323     8.8120     9.7901
  111.0000     0.0910     0.3830     8.1972   116.0000     0.0368     2.4954     8.8920     8.8120     9.7211
  111.5000     0.0923     0.3849     8.1970   115.1088     0.0338     2.4924     8.9515     8.8734     9.5195
  112.0000     0.0964     0.3893     8.2117   112.4199     0.0279     2.4879     8.9486     8.8120     9.4973
  112.5000     0.1009     0.3905     8.2114   107.3358     0.0309     2.4818     8.8837     8.7510     9.8530
  113.0000     0.1012     0.3875     8.2111   107.0419     0.0340     2.4827     8.8200     8.6904     9.9203
  113.5000     0.0994     0.3844     8.2108   107.3473     0.0401     2.4873     8.7567     8.6302     9.9187
  114.0000     0.0973     0.3796     8.2104   107.3545     0.0492     2.4873     8.7544     8.6302     9.7130
  114.5000     0.0970     0.3710     8.2102   107.3602     0.0432     2.4873     8.7520     8.6302     9.1871
  115.0000     0.0976     0.3648     8.2099   107.6653     0.0388     2.4866     8.7497     8.6904     9.1224
  115.5000     0.0985     0.3630     8.2096   108.5693     0.0434     2.4866     8.7468     8.6904     9.1212
  116.0000     0.0988     0.3627     8.2093   109.2455     0.0464     2.4852     8.7445     8.6904     8.9942
  116.5000     0.0997     0.3614     8.2090   105.2555     0.0495     2.4837     8.6817     8.6904     8.9305
  117.0000     0.1021     0.3575     8.1937   103.7961     0.0405     2.4814     8.6794     8.6904     8.8676
  117.5000     0.1051     0.3560     8.1934   105.3003     0.0248     2.4762     8.5576     8.6302     9.0529
  118.0000     0.1035     0.3614     8.1931   112.4916     0.0180     2.4777     8.4962     8.5112     9.1786
  118.5000     0.0975     0.3710     8.1928   113.6950     0.0211     2.4846     8.3184     8.2780     8.9879
  119.0000     0.0942     0.3795     8.1925   114.2995     0.0257     2.4892     8.3162     8.2207     8.8628
  119.5000     0.0933     0.3783     8.1921   115.5589     0.0333     2.4929     8.3140     8.2207     8.6187
  120.0000     0.0900     0.3683     8.1919   117.9052     0.0333     2.4989     8.3118     8.2207     8.4988
  120.5000     0.0858     0.3677     8.1916   117.6102     0.0241     2.5073     8.3096     8.2780     8.4389
  121.0000     0.0864     0.3782     8.1913   116.7191     0.0184     2.5080     8.3652     8.3357     8.3794
