~VERSION INFORMATION
 VERS.                2.0:   CWLS LOG ASCII STANDARD - VERSION 2.0
 WRAP.                 NO:   ONE LINE PER DEPTH STEP
~WELL INFORMATION
#MNEM.UNIT      DATA TYPE    INFORMATION
#----------   ------------   ------------------------------
 STRT.F            0.1000:   START DEPTH
 STOP.F          550.8000:   STOP DEPTH
 STEP.F            0.1000:   STEP LENGTH
 NULL.          -999.2500:   NO VALUE
 COMP.       F D SERV INC:   COMPANY
 WELL.  82-1 SX 10 #82-10:   WELL
 FLD .             TEAPOT:   FIELD
 LOC .      S10 T38N R78W:   LOCATION
 CNTY.            NATRONA:   COUNTY
 STAT.            WYOMING:   STATE
 CTRY. UNITED STATES OF AMERICA:   COUNTRY
 SRVC.     Atlas Wireline:   SERVICE COMPANY
 DATE.        11-DEC-1992:   LOGDATE
 API .       490252257600:   API NUMBER
~CURVE INFORMATION
#MNEM.UNIT       API CODE    CURVE DESCRIPTION
#----------   ------------   ------------------------------
 DEPT.F                  :   
 GRR .GAPI   07 310 01 00:   GAMMA RAY
 RILD.OHMM   07 120 46 00:   INDUCTION LOG DEEP RESISTIVITY
 RILM.OHMM   07 120 44 00:   INDUCTION LOG MEDIUM RESISTIVITY
~PARAMETER INFORMATION
#MNEM.UNIT          VALUE    DESCRIPTION
#----------   ------------   ------------------------------
 PD  .                 GL:   PERMANENT DATUM
 EPD .F              5136:   ELEVATION PERMANENT DATUM
 LMF .                 KB:   LOG MEASURED FROM
 DAPD.F                10:   FEET ABOVE PERMANENT DATUM
 DMF .                 KB:   DRILLING MEASURED FROM
 EKB .F              5146:   KELLING BUSHING
 EDF .F              5145:   DRILLING FLOOR
 EGL .F              5136:   GROUND LEVEL
 DATE.        11-DEC-1992:   RUN DATE
 RUN .                  1:   RUN NUMBER
 DD  .F               560:   DEPTH DRILLER
 DL  .F               560:   DEPTH LOGGER
 BLI .F               551:   BOTTOM LOG INTERVAL
 CS  .IN            8.625:   CASING SIZE
 CBD .F                53:   CASING BOTTOM DRILLER
 CBL .F                54:   CASING BOTTOM LOGGER
 BS  .IN            7.875:   BIT SIZE
 BSD .F               560:   BIT SIZE AT DEPTH
 DFT .           AIR FOAM:   DRILLING FLUID TYPE
 BHT .F                60:   BOTTOM HOLE TEMPERATURE
 MRT .F                60:   MAXIMUM RECORDED TEMPERATURE
 LUN .           HL- 6274:   LOGGING UNIT NUMBER
 LUL .             CASPER:   LOGGING UNIT LOCATION
 ENGI.       P. RASMUSSEN:   RECORDING ENGINEER
 WITN.          G. STRONG:   WITNESSED BY
 CLNT.            A2DTECH:   CLIENT CODE
 ORIG.           5" PRINT:   ORIGIN OF DATA
 UWI .       490252257600:   UNIQUE WELL ID
 DICO. A2D Technologies, Inc.:   DIGITIZING COMPANY
~OTHER INFORMATION
~A    DEPT      GRR      RILD       RILM   
# ...
  109.3000   127.7075     8.0628     7.9629
  109.4000   128.3693     8.0627     7.9628
  109.5000   129.3173     8.0626     7.9627
  109.6000   130.3450     8.0624     7.9626
  109.7000   131.2824     8.0623     7.9625
  109.8000   132.1468     8.0277     7.9624
  109.9000   133.4318     8.0065     7.9623
  110.0000   134.9171     8.0064     7.9621
  110.1000   135.5675     8.0063     7.9620
  110.2000   136.3380     8.0062     7.9619
  110.3000   137.1086     8.0060     7.9381
  110.4000   137.7925     7.9639     7.9068
  110.5000   138.3058     7.9506     7.8989
  110.6000   138.8199     7.9505     7.8521
  110.7000   139.1192     7.9504     7.7979
  110.8000   139.3315     7.9502     7.7978
  110.9000   139.4177     7.9478     7.7674
  111.0000   139.5428     7.8951     7.7439
  111.1000   139.7989     7.8950     7.7438
  111.2000   140.0549     7.8949     7.7437
  111.3000   140.3152     7.8692     7.7435
  111.4000   140.6145     7.8402     7.7434
  111.5000   140.8231     7.8401     7.7062
  111.6000   141.0791     7.8400     7.6899
  111.7000   141.2126     7.8399     7.6682
  111.8000   141.2114     7.8398     7.6367
  111.9000   141.1747     7.8397     7.6366
  112.0000   140.9082     7.8143     7.6365
  112.1000   140.6579     7.7854     7.5927
  112.2000   139.9880     7.7756     7.5836
  112.3000   139.0528     7.7314     7.5835
  112.4000   138.1414     7.7313     7.5628
  112.5000   137.3684     7.7312     7.5311
  112.6000   136.4688     7.6987     7.5255
  112.7000   134.5840     7.6777     7.4789
  112.8000   133.6012     7.6775     7.4368
  112.9000   132.7729     7.6681     7.3929
  113.0000   132.1584     7.6209     7.3492
  113.1000   131.7576     7.5194     7.3250
  113.2000   131.5705     7.4805     7.3129
  113.3000   131.5693     7.4673     7.2651
  113.4000   131.5681     7.4435     7.1743
  113.5000   131.5669     7.3993     7.1742
  113.6000   131.7638     7.3555     7.1416
  113.7000   131.8653     7.3118     7.1246
  113.8000   131.8641     7.2628     7.1245
  113.9000   131.8629     7.2627     7.1244
  114.0000   131.8617     7.2325     7.1243
  114.1000   131.8604     7.2123     7.1242
  114.2000   131.8592     7.1967     7.1241
  114.3000   131.6638     7.1624     7.1240
  114.4000   131.4053     7.1623     7.1239
  114.5000   131.1469     7.1622     7.1238
  114.6000   130.8247     7.1621     7.1237
  114.7000   130.3292     7.1620     7.1236
  114.8000   130.0474     7.1619     7.1235
  114.9000   129.5783     7.1618     7.1234
  115.0000   129.2531     7.1700     7.1233
  115.1000   128.8477     7.2114     7.1232
  115.2000   128.4355     7.2112     7.1231
  115.3000   128.2370     7.2111     7.1230
  115.4000   128.2522     7.2110     7.1229
  115.5000   128.5352     7.2109     7.1228
  115.6000   128.5341     7.2108     7.1227
  115.7000   128.7196     7.2107     7.1226
  115.8000   129.1188     7.2106     7.1225
  115.9000   129.7318     7.2105     7.1224
  116.0000   130.5584     7.2104     7.1223
  116.1000   131.5609     7.2103     7.1222
  116.2000   132.1358     7.2102     7.1221
  116.3000   133.0402     7.2101     7.1406
  116.4000   133.3365     7.2101     7.1617
  116.5000   133.3353     7.2099     7.1712
  116.6000   133.4300     7.2098     7.1711
  116.7000   133.6337     7.2098     7.1710
  116.8000   133.6325     7.2097     7.1724
  116.9000   133.6311     7.2096     7.2206
  117.0000   133.6301     7.2095     7.2576
  117.1000   133.6289     7.2094     7.2705
  117.2000   133.6277     7.2093     7.2704
  117.3000   133.6265     7.2091     7.2703
  117.4000   133.5768     7.2273     7.2702
  117.5000   133.3233     7.2486     7.2709
  117.6000   133.3219     7.2589     7.3204
  117.7000   133.3209     7.2588     7.3203
  117.8000   133.3197     7.2587     7.3202
  117.9000   133.3185     7.2586     7.3424
  118.0000   133.3173     7.2585     7.3708
  118.1000   133.3161     7.2584     7.3783
  118.2000   133.3149     7.2876     7.4218
  118.3000   133.3135     7.3087     7.4217
  118.4000   133.3125     7.3086     7.4584
  118.5000   133.3113     7.3085     7.4730
  118.6000   133.3101     7.3087     7.4729
  118.7000   133.3089     7.3590     7.4728
  118.8000   133.3077     7.3590     7.4726
  118.9000   133.3064     7.3589     7.4725
  119.0000   133.3050     7.3809     7.5243
  119.1000   133.3040     7.4098     7.5242
  119.2000   133.3029     7.4097     7.5532
  119.3000   133.3017     7.4096     7.5762
  119.4000   133.3004     7.4610     7.5902
  119.5000   133.2993     7.4609     7.6286
  119.6000   133.2980     7.4905     7.6284
  119.7000   133.5974     7.5125     7.6812
  119.8000   133.8037     7.5124     7.6812
  119.9000   134.2236     7.5198     7.6810
  120.0000   134.4962     7.5644     7.7023
  120.1000   134.5718     7.6168     7.7341
  120.2000   134.7947     7.6168     7.7340
  120.3000   134.7933     7.6468     7.7339
  120.4000   134.7922     7.6695     7.7779
  120.5000   134.3840     7.6845     7.7874
  120.6000   133.8683     7.7376     7.7873
  120.7000   133.4691     7.8301     7.8081
  120.8000   133.0647     7.8300     7.8411
  120.9000   132.3212     7.8686     7.8463
  121.0000   131.7774     7.8842     7.8953
  121.1000   131.0466     7.8841     7.8951
  121.2000   130.4734     7.8840     7.9314
  121.3000   129.8015     7.8914     7.9497
  121.4000   129.1412     7.9386     7.9496
  121.5000   128.6255     7.9384     7.9495
  121.6000   128.1355     7.9384     7.9541
  121.7000   127.8592     7.9693     8.0044
  121.8000   128.0974     8.0166     8.0043
  121.9000   128.5494     8.0487     8.0042
  122.0000   128.9103     8.0486     8.0041
  122.1000   129.1663     8.0485     8.0040
  122.2000   129.4223     8.1043     8.0039
  122.3000   129.6784     8.1042     8.0038
  122.4000   129.9560     8.1356     8.0036
  122.5000   130.1905     8.1603     8.0035
  122.6000   130.4465     8.1757     8.0034
  122.7000   130.7026     8.2168     8.0033
  122.8000   130.8535     8.2167     8.0032
  122.9000   130.9754     8.2165     8.0031
  123.0000   131.4887     8.2164     8.0030
  123.1000   132.0528     8.2163     8.0029
  123.2000   132.9789     8.2162     8.0028
  123.3000   133.6301     8.2008     8.0027
  123.4000   134.4329     8.1593     8.0025
  123.5000   135.2582     8.1592     8.0024
  123.6000   135.7714     8.1590     8.0023
  123.7000   136.2847     8.1590     8.0022
  123.8000   136.8564     8.1277     8.0021
  123.9000   137.5392     8.1024     8.0020
  124.0000   137.9409     8.1023     8.0019
  124.1000   137.7740     8.1022     7.9759
  124.2000   137.2583     8.1021     7.9465
  124.3000   136.7426     8.1020     7.9464
  124.4000   136.2166     8.1019     7.9463
  124.5000   135.3442     8.1018     7.9462
  124.6000   135.1190     8.1016     7.9461
  124.7000   134.6799     8.1015     7.9460
  124.8000   134.1642     8.1014     7.9710
  124.9000   133.6485     8.1013     8.0009
  125.0000   133.1328     8.1012     8.0008
  125.1000   132.6304     8.1011     8.0007
  125.2000   132.6290     8.1010     8.0005
  125.3000   132.6280     8.1009     8.0004
  125.4000   132.9805     8.1007     8.0003
  125.5000   133.2271     8.1006     8.0002
  125.6000   133.4055     8.1005     8.0001
  125.7000   134.0577     8.0445     7.9915
  125.8000   135.3371     8.0444     7.9448
  125.9000   136.2296     8.0443     7.9446
  126.0000   136.6616     8.0442     7.9445
  126.1000   136.8289     8.0441     7.9444
  126.2000   136.8277     8.0439     7.9443
  126.3000   136.8265     8.0438     7.9442
  126.4000   136.8253     8.0437     7.9441
  126.5000   136.8241     8.0436     7.9440
  126.6000   136.5219     8.0435     7.8891
  126.7000   136.7336     8.0434     7.8890
  126.8000   136.8204     8.0433     7.8889
  126.9000   137.0707     8.0432     7.8888
  127.0000   137.5018     8.0430     7.8887
  127.1000   137.7965     8.0429     7.8886
  127.2000   138.3194     8.0428     7.8885
  127.3000   138.9195     8.0427     7.8884
  127.4000   139.1274     8.0426     7.8883
