~VERSION INFORMATION
 VERS.                2.0:   CWLS LOG ASCII STANDARD - VERSION 2.0
 WRAP.                 NO:   ONE LINE PER DEPTH STEP
~WELL INFORMATION
#MNEM.UNIT      DATA TYPE    INFORMATION
#----------   ------------   ------------------------------
 STRT.F            0.0000:   START DEPTH
 STOP.F          890.0000:   STOP DEPTH
 STEP.F            0.1000:   STEP LENGTH
 NULL.          -999.2500:   NO VALUE
 COMP.   FLUOR DANIEL INC:   COMPANY
 WELL.   35-1 X 14 #35-14:   WELL
 FLD .             TEAPOT:   FIELD
 LOC .      S14 T38N R78W:   LOCATION
 CNTY.            NATRONA:   COUNTY
 STAT.            WYOMING:   STATE
 CTRY. UNITED STATES OF AMERICA:   COUNTRY
 SRVC.      Western Atlas:   SERVICE COMPANY
 DATE.        23-JUL-1995:   LOGDATE
 API .       490252273300:   API NUMBER
~CURVE INFORMATION
#MNEM.UNIT       API CODE    CURVE DESCRIPTION
#----------   ------------   ------------------------------
 DEPT.F                  :   
 RILM.OHMM   07 120 44 00:   RESITIVITY LONG MEDIUM
 RILD.OHMM   07 120 46 00:   INDUCTION LOG DEEP RESISTIVITY
 GRR .GAPI   07 310 01 00:   GAMMA RAY
~PARAMETER INFORMATION
#MNEM.UNIT          VALUE    DESCRIPTION
#----------   ------------   ------------------------------
 PD  .                 GL:   PERMANENT DATUM
 EPD .F              5238:   ELEVATION PERMANENT DATUM
 LMF .                 KB:   LOG MEASURED FROM
 DAPD.F                10:   FEET ABOVE PERMANENT DATUM
 DMF .                 KB:   DRILLING MEASURED FROM
 EKB .F              5248:   KELLING BUSHING
 EDF .F              5247:   DRILLING FLOOR
 EGL .F              5238:   GROUND LEVEL
 DATE.        23-JUL-1995:   RUN DATE
 RUN .                  1:   RUN NUMBER
 DD  .F               898:   DEPTH DRILLER
 DL  .F               898:   DEPTH LOGGER
 BLI .F               890:   BOTTOM LOG INTERVAL
 CS  .IN            9.625:   CASING SIZE
 CBD .F                78:   CASING BOTTOM DRILLER
 CBL .F                80:   CASING BOTTOM LOGGER
 BS  .IN             8.75:   BIT SIZE
 BSD .F               898:   BIT SIZE AT DEPTH
 DFT .                AIR:   DRILLING FLUID TYPE
 MRT .F                94:   MAXIMUM RECORDED TEMPERATURE
 LUN .            HL 6530:   LOGGING UNIT NUMBER
 LUL .             CASPER:   LOGGING UNIT LOCATION
 ENGI.       VERRN RAUTIO:   RECORDING ENGINEER
 WITN.        GARY STRONG:   WITNESSED BY
 CLNT.            A2DTECH:   CLIENT CODE
 ORIG.           5" PRINT:   ORIGIN OF DATA
 UWI .       490252273300:   UNIQUE WELL ID
 DICO. A2D Technologies, Inc.:   DIGITIZING COMPANY
~OTHER INFORMATION
~A    DEPT    RILM       RILD         GRR  
# ...
  655.2000    12.9187    12.8968    92.2393
  655.3000    12.9888    12.9703    92.2411
  655.4000    13.0109    12.9895    92.2430
  655.5000    13.0120    13.0356    92.2447
  655.6000    13.0131    13.0829    92.2465
  655.7000    13.0141    13.1011    92.2483
  655.8000    13.0152    13.1770    92.2502
  655.9000    13.1073    13.1787    92.2010
  656.0000    13.1082    13.1800    91.9476
  656.1000    13.1093    13.1814    91.6517
  656.2000    13.1104    13.1829    91.6532
  656.3000    13.1311    13.1843    91.6550
  656.4000    13.2040    13.1858    91.6568
  656.5000    13.2053    13.1874    91.6586
  656.6000    13.2062    13.1887    91.7097
  656.7000    13.2073    13.1902    92.2666
  656.8000    13.2085    13.1917    92.5011
  656.9000    13.2096    13.1931    92.9440
  657.0000    13.2107    13.1946    93.7342
  657.1000    13.2118    13.1961    94.5726
  657.2000    13.2129    13.1978    95.6397
  657.3000    13.2140    13.1990    98.4624
  657.4000    13.2151    13.2005    99.4409
  657.5000    13.2162    13.2019   100.2568
  657.6000    13.2173    13.2034   100.4883
  657.7000    13.2147    13.2049   100.9219
  657.8000    13.1281    13.2065   101.2935
  657.9000    13.1290    13.2078   101.3806
  658.0000    13.1301    13.2093   101.0636
  658.1000    13.1280    13.2107   100.2531
  658.2000    13.1227    13.2122    99.5494
  658.3000    13.1175    13.2137    98.6076
  658.4000    13.1122    13.2151    97.8675
  658.5000    13.1069    13.1254    97.3627
  658.6000    13.1053    13.1266    96.8575
  658.7000    13.1060    13.1202    96.3220
  658.8000    13.1067    13.1096    96.0846
  658.9000    13.1075    13.0986    96.0187
  659.0000    13.1083    13.0996    96.1550
  659.1000    13.1089    13.1007    96.3196
  659.2000    13.0595    13.1018    96.2820
  659.3000    13.0196    13.1029    96.0163
  659.4000    13.0203    13.1040    96.0157
  659.5000    13.0210    13.1051    95.8258
  659.6000    13.0218    13.1064    95.5730
  659.7000    12.9549    13.0452    95.2307
  659.8000    12.9330    13.0176    94.7654
  659.9000    12.9337    13.0187    94.5021
  660.0000    12.9105    13.0018    94.2598
  660.1000    12.8454    12.9307    94.0070
  660.2000    12.8463    12.9320    93.8961
  660.3000    12.8470    12.9329    93.8955
  660.4000    12.8477    12.8843    93.8949
  660.5000    12.8484    12.8455    93.8942
  660.6000    12.8222    12.8466    93.8937
  660.7000    12.7607    12.8477    93.8931
  660.8000    12.7615    12.8489    93.8924
  660.9000    12.7622    12.8498    93.8918
  661.0000    12.7629    12.8509    93.8912
  661.1000    12.7637    12.8520    93.8906
  661.2000    12.7644    12.8530    93.8900
  661.3000    12.7809    12.8633    93.8894
  661.4000    12.8548    12.9449    93.8888
  661.5000    12.8557    12.9459    93.8882
  661.6000    12.8563    12.9469    93.8876
  661.7000    12.8570    12.9480    93.8870
  661.8000    12.8577    12.9491    93.8864
  661.9000    12.8584    12.9624    93.8858
  662.0000    12.8591    13.0416    93.8852
  662.1000    12.8599    13.0426    93.7855
  662.2000    12.9262    13.0437    93.5327
  662.3000    12.9510    13.0448    93.2792
  662.4000    12.9517    13.0757    93.2786
  662.5000    12.9524    13.1379    92.8752
  662.6000    12.9531    13.1390    92.3703
  662.7000    12.9539    13.1403    91.9667
  662.8000    13.0240    13.2037    91.6624
  662.9000    13.0457    13.2339    91.1591
  663.0000    13.0464    13.2350    90.8579
  663.1000    13.0471    13.2361    90.6536
  663.2000    13.0593    13.2406    90.2469
  663.3000    13.1396    13.3307    89.8459
  663.4000    13.1403    13.3317    89.6471
  663.5000    13.2000    13.3328    89.6465
  663.6000    13.2780    13.3703    89.6458
  663.7000    13.3265    13.4280    89.6453
  663.8000    13.3422    13.4356    89.6447
  663.9000    13.4209    13.5239    89.7505
  664.0000    13.4218    13.5249    90.0585
  664.1000    13.4860    13.5812    90.5556
  664.2000    13.5657    13.6215    90.8506
  664.3000    13.6119    13.6476    91.2674
  664.4000    13.6314    13.7187    91.7712
  664.5000    13.7083    13.7199    92.1662
  664.6000    13.7092    13.7955    92.4176
  664.7000    13.7783    13.8178    92.6693
  664.8000    13.8063    13.8629    92.9618
  664.9000    13.8450    13.9164    93.1724
  665.0000    13.9041    13.9176    93.2628
  665.1000    13.9049    13.9188    93.3734
  665.2000    13.9057    13.9199    93.6250
  665.3000    13.9793    13.9211    93.8765
  665.4000    14.0042    13.9696    94.1667
  665.5000    14.0050    14.0204    94.1662
  665.6000    14.0058    14.0216    94.3291
  665.7000    14.0065    14.0228    94.4671
  665.8000    14.0074    14.0242    94.4665
  665.9000    14.0081    14.0251    94.4659
  666.0000    14.0089    14.0263    94.4652
  666.1000    14.0097    14.0275    94.4647
  666.2000    14.0104    14.0286    94.4641
  666.3000    13.9972    14.0298    94.3474
  666.4000    13.9150    14.0310    94.1607
  666.5000    13.9157    14.0321    94.1440
  666.6000    13.9165    14.0333    93.8573
  666.7000    13.9173    14.0345    93.6384
  666.8000    13.9122    14.0358    93.3857
  666.9000    13.8987    13.9654    93.2514
  667.0000    13.8852    13.9408    93.1823
  667.1000    13.8717    13.9420    92.9480
  667.2000    13.8582    13.9431    92.9474
  667.3000    13.8447    13.9443    92.7261
  667.4000    13.8312    13.9456    92.6441
  667.5000    13.8270    13.8726    92.5227
  667.6000    13.8278    13.8512    92.3408
  667.7000    13.8067    13.8098    92.3193
  667.8000    13.7270    13.7307    92.0374
  667.9000    13.6392    13.6634    92.2600
  668.0000    13.5693    13.6648    92.3384
  668.1000    13.4912    13.5903    92.4610
  668.2000    13.4531    13.5125    92.6393
  668.3000    13.4538    13.4351    92.6621
  668.4000    13.4449    13.3582    92.9401
  668.5000    13.3622    13.2956    93.1652
  668.6000    13.2904    13.2969    93.2411
  668.7000    13.2710    13.2980    93.4919
  668.8000    13.2294    13.2375    93.9956
  668.9000    13.1806    13.2082    94.5251
  669.0000    13.1685    13.1776    95.3534
  669.1000    13.0907    13.1189    95.8089
  669.2000    13.0914    13.1179    96.4906
  669.3000    13.0922    13.0305    97.1184
  669.4000    13.0478    13.0314    97.6221
  669.5000    13.0029    12.9838    98.0976
  669.6000    12.9878    12.9433    98.3709
  669.7000    12.9129    12.9444    98.8311
  669.8000    12.8257    12.9405    99.1544
  669.9000    12.8263    12.8571    99.2755
  670.0000    12.7796    12.7928    99.1944
  670.1000    12.7059    12.7195    98.8801
  670.2000    12.6327    12.6828    98.0652
  670.3000    12.5599    12.6619    97.1331
  670.4000    12.4781    12.5970    96.6727
  670.5000    12.4787    12.5982    96.4199
  670.6000    12.4302    12.5324    96.1671
  670.7000    12.3586    12.4607    95.9475
  670.8000    12.2873    12.4274    96.2489
  670.9000    12.2238    12.4043    96.2483
  671.0000    12.2246    12.3332    96.2477
  671.1000    12.1604    12.2591    96.2471
  671.2000    12.0903    12.2601    96.2465
  671.3000    12.0578    12.2611    96.2459
  671.4000    12.0347    12.2218    96.2453
  671.5000    11.9755    12.1783    96.2447
  671.6000    11.9763    12.1664    96.2441
  671.7000    11.9104    12.0960    96.2435
  671.8000    11.8946    12.0970    96.2429
  671.9000    11.8557    12.0421    96.1667
  672.0000    11.8136    11.9731    95.6374
  672.1000    11.8142    11.9331    95.6369
  672.2000    11.8149    11.9341    95.4461
  672.3000    11.7338    11.9350    95.0531
  672.4000    11.7343    11.8536    94.6384
  672.5000    11.7350    11.8544    94.3453
  672.6000    11.7356    11.8554    93.8211
  672.7000    11.7363    11.8254    93.8205
  672.8000    11.7369    11.7753    93.8199
  672.9000    11.7377    11.7763    93.8193
  673.0000    11.7383    11.7774    93.8187
  673.1000    11.7389    11.7783    93.8181
  673.2000    11.7396    11.7792    93.8175
  673.3000    11.7402    11.7802    93.8169
