~VERSION INFORMATION
 VERS.                2.0:   CWLS LOG ASCII STANDARD - VERSION 2.0
 WRAP.                 NO:   ONE LINE PER DEPTH STEP
~WELL INFORMATION
#MNEM.UNIT      DATA TYPE    INFORMATION
#----------   ------------   ------------------------------
 STRT.F          432.0000:   START DEPTH
 STOP.F         1258.0000:   STOP DEPTH
 STEP.F            0.5000:   STEP LENGTH
 NULL.          -999.2500:   NO VALUE
 COMP. FENIX & SCISSON INC:   COMPANY
 WELL.   12 SHX 34 #12-34:   WELL
 FLD .            WILDCAT:   FIELD
 LOC .      S34 T39N R78W:   LOCATION
 CNTY.            NATRONA:   COUNTY
 STAT.            WYOMING:   STATE
 CTRY. UNITED STATES OF AMERICA:   COUNTRY
 SRVC.              Welex:   SERVICE COMPANY
 DATE.        23-APR-1979:   LOGDATE
 API .       490251078200:   API NUMBER
~CURVE INFORMATION
#MNEM.UNIT       API CODE    CURVE DESCRIPTION
#----------   ------------   ------------------------------
 DEPT.F                  :   
 CALD.IN     45 280 60 00:   CALIPER
 GRD .GAPI   45 310 01 00:   GAMMA RAY FROM DENSITY LOG
 RHOB.G/C3   45 350 01 00:   BULK DENSITY
 DPHI.DEC    45 890 12 00:   DENSITY POROSITY SANDSTONE
 CORR.G/C3   45 356 01 00:   DENSITY CORRECTION
~PARAMETER INFORMATION
#MNEM.UNIT          VALUE    DESCRIPTION
#----------   ------------   ------------------------------
 PD  .                 GL:   PERMANENT DATUM
 EPD .F              5092:   ELEVATION PERMANENT DATUM
 LMF .                 KB:   LOG MEASURED FROM
 DAPD.F                10:   FEET ABOVE PERMANENT DATUM
 DMF .                 KB:   DRILLING MEASURED FROM
 EKB .F              5102:   KELLING BUSHING
 EGL .F              5092:   GROUND LEVEL
 DATE.            4-23-79:   RUN DATE
 RUN .                  1:   RUN NUMBER
 DD  .F              1260:   DEPTH DRILLER
 DL  .F              1260:   DEPTH LOGGER
 BLI .F              1258:   BOTTOM LOG INTERVAL
 TLI .F               446:   TOP LOG INTERVAL
 CS  .IN            9.625:   CASING SIZE
 CBD .F               440:   CASING BOTTOM DRILLER
 BS  .IN            8.375:   BIT SIZE
 BSD .F              1260:   BIT SIZE AT DEPTH
 DFT .                OIL:   DRILLING FLUID TYPE
 DFD .                8.7:   DRILLING FLUID DENSITY
 TCS .HRS               1:   TIME CURCULATED STOPPED
 ENGI.               REIN:   RECORDING ENGINEER
 WITN.              AMEND:   WITNESSED BY
 CLNT.            A2DTECH:   CLIENT CODE
 ORIG.           5" PRINT:   ORIGIN OF DATA
 UWI .       490251078200:   UNIQUE WELL ID
 DICO. A2D Technologies, Inc.:   DIGITIZING COMPANY
~OTHER INFORMATION
~A   DEPT     CALD         GRD      RHOB       DPHI       CORR   
# ...
  676.0000     8.6188    81.6500     2.5013     0.0308     0.0390
  676.5000     8.6233    80.2309     2.5026     0.0286     0.0684
  677.0000     8.6277    78.7688     2.5080     0.0277     0.0980
  677.5000     8.6321    78.3603     2.5085     0.0269     0.1113
  678.0000     8.6366    82.3168     2.5048     0.0248     0.1121
  678.5000     8.6410    86.3916     2.5055     0.0221     0.1094
  679.0000     8.6454    90.4359     2.5284     0.0193     0.0874
  679.5000     8.6499    90.6267     2.5126     0.0224     0.0654
  680.0000     8.6543    84.6663     2.5007     0.0257     0.0435
  680.5000     8.6587    82.0106     2.5096     0.0278     0.0214
  681.0000     8.6597    84.3769     2.5182     0.0261     0.0112
  681.5000     8.6578    88.8122     2.5067     0.0238     0.0113
  682.0000     8.6559    90.0289     2.5028     0.0221     0.0192
  682.5000     8.6539    83.6746     2.5304     0.0163     0.0253
  683.0000     8.6519    78.9499     2.5393     0.0092     0.0251
  683.5000     8.6500    80.5996     2.5327     0.0142     0.0273
  684.0000     8.6480    83.3117     2.5187     0.0210     0.0458
  684.5000     8.6460    85.8005     2.5046     0.0277     0.0780
  685.0000     8.6441    85.0888     2.4905     0.0345     0.1057
  685.5000     8.6423    84.0329     2.4764     0.0413     0.0959
  686.0000     8.6503    83.1438     2.4622     0.0480     0.0877
  686.5000     8.6736    84.0314     2.4586     0.0544     0.0856
  687.0000     8.6968    84.3214     2.4680     0.0535     0.0912
  687.5000     8.7200    84.0429     2.4803     0.0501     0.0977
  688.0000     8.7395    83.7427     2.4928     0.0423     0.1037
  688.5000     8.7305    83.5385     2.5011     0.0345     0.0597
  689.0000     8.7200    84.9987     2.4991     0.0314     0.0199
  689.5000     8.7096    86.4829     2.4910     0.0345     0.0135
  690.0000     8.6992    87.9575     2.4858     0.0379     0.0171
  690.5000     8.6888    89.4357     2.4901     0.0386     0.0206
  691.0000     8.6784    90.9025     2.5068     0.0334     0.0241
  691.5000     8.6680    91.4518     2.5232     0.0264     0.0286
  692.0000     8.6576    89.3969     2.5399     0.0154     0.0333
  692.5000     8.6472    87.3608     2.5448     0.0104     0.0344
  693.0000     8.6413    86.4150     2.5251     0.0203     0.0274
  693.5000     8.6412    89.5552     2.5082     0.0294     0.0184
  694.0000     8.6472    81.5404     2.4915     0.0328     0.0093
  694.5000     8.6553    84.1533     2.4823     0.0419     0.0002
  695.0000     8.6634    88.0620     2.4907     0.0415    -0.0002
  695.5000     8.6718    89.9669     2.4992     0.0357     0.0250
  696.0000     8.6807    86.6724     2.4895     0.0337     0.0494
  696.5000     8.7014    82.7549     2.4762     0.0413     0.0714
  697.0000     8.6991    82.2182     2.4815     0.0475     0.0758
  697.5000     8.6936    83.2306     2.4887     0.0425     0.0772
  698.0000     8.6885    81.4128     2.4960     0.0376     0.0797
  698.5000     8.6834    80.8607     2.5013     0.0367     0.0855
  699.0000     8.6783    82.4946     2.4948     0.0395     0.0934
  699.5000     8.6733    84.4313     2.4880     0.0369     0.0952
  700.0000     8.6682    80.8395     2.4964     0.0334     0.0666
  700.5000     8.6631    81.9509     2.5066     0.0339     0.0386
  701.0000     8.6580    83.0524     2.4930     0.0399     0.0103
  701.5000     8.6529    83.3938     2.4797     0.0382     0.0029
  702.0000     8.6478    81.1376     2.4704     0.0428     0.0029
  702.5000     8.6425    78.7288     2.4814     0.0476     0.0088
  703.0000     8.6410    79.2072     2.4951     0.0411     0.0170
  703.5000     8.6386    80.5995     2.5010     0.0345     0.0253
  704.0000     8.6362    79.2124     2.5046     0.0279     0.0328
  704.5000     8.6339    76.6437     2.5177     0.0213     0.0389
  705.0000     8.6315    74.1337     2.5324     0.0169     0.0794
  705.5000     8.6291    73.8912     2.5472     0.0073     0.1181
  706.0000     8.6267    76.4586     2.5619    -0.0043     0.1424
  706.5000     8.6244    79.1586     2.5704    -0.0189     0.1422
  707.0000     8.6219    81.8526     2.5630    -0.0251     0.1352
  707.5000     8.6297    84.5449     2.5453    -0.0074     0.1248
  708.0000     8.6442    86.9654     2.5285     0.0095     0.0893
  708.5000     8.6592    87.6031     2.5119     0.0223     0.0336
  709.0000     8.6460    87.5359     2.4952     0.0349     0.0068
  709.5000     8.6284    86.6503     2.4785     0.0435    -0.0015
  710.0000     8.6107    85.7872     2.4717     0.0477    -0.0092
  710.5000     8.5932    84.9277     2.4662     0.0519    -0.0049
  711.0000     8.5756    84.0831     2.4619     0.0543    -0.0010
  711.5000     8.5632    83.9596     2.4597     0.0556    -0.0050
  712.0000     8.5809    85.7223     2.4573     0.0568    -0.0141
  712.5000     8.6002    87.4316     2.4568     0.0580    -0.0234
  713.0000     8.6195    88.0821     2.4568     0.0584    -0.0255
  713.5000     8.6387    84.6209     2.4568     0.0576     0.0058
  714.0000     8.6580    81.6201     2.4568     0.0560     0.0553
  714.5000     8.6773    82.7281     2.4595     0.0536     0.0686
  715.0000     8.6970    84.0222     2.4651     0.0508     0.0772
  715.5000     8.6916    83.0118     2.4767     0.0473     0.0946
  716.0000     8.6816    80.9700     2.4895     0.0426     0.1008
  716.5000     8.6716    79.6939     2.5023     0.0380     0.0893
  717.0000     8.6616    80.1491     2.5151     0.0330     0.0939
  717.5000     8.6517    82.7912     2.5279     0.0213     0.1060
  718.0000     8.6417    85.9285     2.5315     0.0156     0.1220
  718.5000     8.6317    89.0398     2.5190     0.0186     0.0167
  719.0000     8.6217    90.8459     2.5090     0.0222     0.0225
  719.5000     8.6117    89.2123     2.5057     0.0257     0.0287
  720.0000     8.6026    87.5363     2.5206     0.0250     0.0349
  720.5000     8.6086    85.8500     2.5141     0.0225     0.0373
  721.0000     8.6217    84.1379     2.5064     0.0272     0.0311
  721.5000     8.6347    84.7551     2.4987     0.0302     0.0219
  722.0000     8.6478    87.4540     2.4910     0.0355     0.0146
  722.5000     8.6608    90.0824     2.4834     0.0419     0.0175
  723.0000     8.6739    91.4762     2.4789     0.0433     0.0251
  723.5000     8.6871    89.7029     2.4810     0.0435     0.0316
  724.0000     8.6988    87.9847     2.4857     0.0424     0.0282
  724.5000     8.7353    86.4061     2.4904     0.0386     0.0195
  725.0000     8.7365    87.7029     2.4948     0.0349     0.0105
  725.5000     8.7257    89.2458     2.4903     0.0314     0.0083
  726.0000     8.7155    89.8077     2.4766     0.0392     0.0340
  726.5000     8.7053    89.2377     2.4629     0.0483     0.0648
  727.0000     8.6952    88.6604     2.4569     0.0561     0.0715
  727.5000     8.6850    88.1010     2.4601     0.0548     0.0721
  728.0000     8.6748    90.2955     2.4747     0.0475     0.0818
  728.5000     8.6646    93.0079     2.4895     0.0403     0.0938
  729.0000     8.6545    91.7540     2.5043     0.0331     0.1020
  729.5000     8.6443    90.1828     2.5193     0.0261     0.0969
  730.0000     8.6342    89.9175     2.5239     0.0189     0.0918
  730.5000     8.6231    96.4231     2.5115     0.0251     0.0979
  731.0000     8.6078    92.7646     2.5051     0.0277     0.1081
  731.5000     8.6278    91.2345     2.5002     0.0309     0.1008
  732.0000     8.6539    88.1730     2.4831     0.0361     0.0890
  732.5000     8.6794    84.5848     2.4927     0.0398     0.0772
  733.0000     8.7004    85.5832     2.5086     0.0338     0.0559
  733.5000     8.6979    87.1691     2.5247     0.0240     0.0349
  734.0000     8.6880    88.7978     2.5391     0.0145     0.0150
  734.5000     8.6785    90.4279     2.5361     0.0100     0.0149
  735.0000     8.6689    90.5285     2.5174     0.0209     0.0160
  735.5000     8.6594    91.0214     2.4991     0.0290     0.0459
  736.0000     8.6498    91.7270     2.4968     0.0346     0.1028
  736.5000     8.6403    90.8622     2.4991     0.0262     0.1063
