~VERSION INFORMATION
 VERS.                2.0:   CWLS LOG ASCII STANDARD - VERSION 2.0
 WRAP.                 NO:   ONE LINE PER DEPTH STEP
~WELL INFORMATION
#MNEM.UNIT      DATA TYPE    INFORMATION
#----------   ------------   ------------------------------
 STRT.F           20.0000:   START DEPTH
 STOP.F          468.0000:   STOP DEPTH
 STEP.F            0.1000:   STEP LENGTH
 NULL.          -999.2500:   NO VALUE
 COMP. LAWRENCE/ALLISON INC:   COMPANY
 WELL.    63-51 SX #10-10:   WELL
 FLD .             TEAPOT:   FIELD
 LOC .      S10 T38N R78W:   LOCATION
 CNTY.            NATRONA:   COUNTY
 STAT.            WYOMING:   STATE
 CTRY. UNITED STATES OF AMERICA:   COUNTRY
 SRVC.           Gearhart:   SERVICE COMPANY
 DATE.        01-OCT-1988:   LOGDATE
 API .       490251125100:   API NUMBER
~CURVE INFORMATION
#MNEM.UNIT       API CODE    CURVE DESCRIPTION
#----------   ------------   ------------------------------
 DEPT.F                  :   
 GRR .GAPI   07 310 01 00:   GAMMA RAY
 RILD.OHMM   07 120 46 00:   INDUCTION LOG DEEP RESISTIVITY
 RILM.OHMM   07 120 44 00:   INDUCTION LOG MEDIUM RESISTIVITY
~PARAMETER INFORMATION
#MNEM.UNIT          VALUE    DESCRIPTION
#----------   ------------   ------------------------------
 PD  .                 GL:   PERMANENT DATUM
 EPD .F              5157:   ELEVATION PERMANENT DATUM
 LMF .                 KB:   LOG MEASURED FROM
 DAPD.F                 5:   FEET ABOVE PERMANENT DATUM
 DMF .                 KB:   DRILLING MEASURED FROM
 EKB .F              5162:   KELLING BUSHING
 EGL .F              5157:   GROUND LEVEL
 DATE.        01-OCT-1988:   RUN DATE
 RUN .                  1:   RUN NUMBER
 DD  .F               475:   DEPTH DRILLER
 DL  .F               476:   DEPTH LOGGER
 BLI .F               468:   BOTTOM LOG INTERVAL
 TLI .F                20:   TOP LOG INTERVAL
 CS  .IN            9.625:   CASING SIZE
 CBD .F                45:   CASING BOTTOM DRILLER
 CBL .F                46:   CASING BOTTOM LOGGER
 BS  .IN             7.87:   BIT SIZE
 BSD .F               475:   BIT SIZE AT DEPTH
 TLAB.HRS            1630:   TIME LOGGER AT BOTTOM
 MRT .F                75:   MAXIMUM RECORDED TEMPERATURE
 LUN .               7597:   LOGGING UNIT NUMBER
 LUL .           GILLETTE:   LOGGING UNIT LOCATION
 ENGI.              BENCK:   RECORDING ENGINEER
 WITN.             STRONG:   WITNESSED BY
 CLNT.            A2DTECH:   CLIENT CODE
 ORIG.           5" PRINT:   ORIGIN OF DATA
 UWI .       490251125100:   UNIQUE WELL ID
 DICO. A2D Technologies, Inc.:   DIGITIZING COMPANY
~OTHER INFORMATION
~A   DEPT       GRR      RILD       RILM   
# ...
   38.2000    77.9915  -999.2500  -999.2500
   38.3000    77.8107  -999.2500  -999.2500
   38.4000    77.8138  -999.2500  -999.2500
   38.5000    77.5742  -999.2500  -999.2500
   38.6000    77.3333  -999.2500  -999.2500
   38.7000    77.2122  -999.2500  -999.2500
   38.8000    77.2152  -999.2500  -999.2500
   38.9000    77.2184  -999.2500  -999.2500
   39.0000    76.9804  -999.2500  -999.2500
   39.1000    76.7396  -999.2500  -999.2500
   39.2000    76.6168  -999.2500  -999.2500
   39.3000    76.5632  -999.2500  -999.2500
   39.4000    76.3176  -999.2500  -999.2500
   39.5000    76.0814  -999.2500  -999.2500
   39.6000    76.0183  -999.2500  -999.2500
   39.7000    76.0213  -999.2500  -999.2500
   39.8000    75.9695  -999.2500  -999.2500
   39.9000    75.7222  -999.2500  -999.2500
   40.0000    75.4876  -999.2500  -999.2500
   40.1000    75.2468  -999.2500  -999.2500
   40.2000    75.1206  -999.2500  -999.2500
   40.3000    75.0705  -999.2500  -999.2500
   40.4000    74.8215  -999.2500  -999.2500
   40.5000    74.8244  -999.2500  -999.2500
   40.6000    74.6531  -999.2500  -999.2500
   40.7000    74.4123  -999.2500  -999.2500
   40.8000    74.2229  -999.2500  -999.2500
   40.9000    74.2261  -999.2500  -999.2500
   41.0000    73.9949  -999.2500  -999.2500
   41.1000    73.9268  -999.2500  -999.2500
   41.2000    74.2634  -999.2500  -999.2500
   41.3000    75.0480  -999.2500  -999.2500
   41.4000    76.0734  -999.2500  -999.2500
   41.5000    77.0060  -999.2500  -999.2500
   41.6000    77.7991  -999.2500  -999.2500
   41.7000    78.5130  -999.2500  -999.2500
   41.8000    79.2269  -999.2500  -999.2500
   41.9000    79.9409  -999.2500  -999.2500
   42.0000    80.6548  -999.2500  -999.2500
   42.1000    81.3687  -999.2500  -999.2500
   42.2000    82.0827  -999.2500  -999.2500
   42.3000    82.7966  -999.2500  -999.2500
   42.4000    83.5106  -999.2500  -999.2500
   42.5000    84.2245  -999.2500  -999.2500
   42.6000    84.9384  -999.2500  -999.2500
   42.7000    85.6524  -999.2500  -999.2500
   42.8000    86.3663  -999.2500  -999.2500
   42.9000    87.0802  -999.2500  -999.2500
   43.0000    87.7489  -999.2500  -999.2500
   43.1000    88.0341  -999.2500  -999.2500
   43.2000    88.2430  -999.2500  -999.2500
   43.3000    88.3450  -999.2500  -999.2500
   43.4000    88.3481  -999.2500  -999.2500
   43.5000    88.3731  -999.2500  -999.2500
   43.6000    88.6600  -999.2500  -999.2500
   43.7000    88.6626  -999.2500  -999.2500
   43.8000    88.8088  -999.2500  -999.2500
   43.9000    88.9740  -999.2500  -999.2500
   44.0000    88.9568  -999.2500  -999.2500
   44.1000    88.6753  -999.2500  -999.2500
   44.2000    88.2721  -999.2500  -999.2500
   44.3000    87.7873  -999.2500  -999.2500
   44.4000    87.4626  -999.2500  -999.2500
   44.5000    87.5213  -999.2500  -999.2500
   44.6000    88.3853  -999.2500  -999.2500
   44.7000    89.5951  -999.2500  -999.2500
   44.8000    91.3409  -999.2500  -999.2500
   44.9000    93.1388  -999.2500  -999.2500
   45.0000    94.6404  -999.2500  -999.2500
   45.1000    96.9502  -999.2500  -999.2500
   45.2000    97.9502  -999.2500  -999.2500
   45.3000    99.5868  -999.2500  -999.2500
   45.4000   101.7713  -999.2500  -999.2500
   45.5000   104.4242  -999.2500  -999.2500
   45.6000   106.5560  -999.2500  -999.2500
   45.7000   108.6879  -999.2500  -999.2500
   45.8000   110.8196  -999.2500  -999.2500
   45.9000   112.9514  -999.2500  -999.2500
   46.0000   115.0833     1.9569    14.4285
   46.1000   117.2150     1.9294    11.5020
   46.2000   119.3469     1.9480     8.6028
   46.3000   121.4787     1.9819     7.2770
   46.4000   123.8599     2.0237     6.2489
   46.5000   124.7240     2.0655     5.4812
   46.6000   125.5491     2.1073     4.9036
   46.7000   126.1915     2.1824     4.4205
   46.8000   126.7135     2.2999     3.8893
   46.9000   127.5393     2.4348     3.6316
   47.0000   127.7556     2.6522     3.3986
   47.1000   128.0027     2.9028     3.2528
   47.2000   128.0678     3.4670     3.1648
   47.3000   127.8270     4.3203     3.1036
   47.4000   127.5546     5.1736     3.0884
   47.5000   127.3452     6.0269     3.0817
   47.6000   126.9535     6.8802     3.0816
   47.7000   126.5581     7.7334     3.0864
   47.8000   126.2894     8.6712     3.1252
   47.9000   125.7378     9.9034     3.2909
   48.0000   125.5301    11.2710     3.6150
   48.1000   125.2892    12.6385     4.0111
   48.2000   125.1359    14.0061     4.4072
   48.3000   125.1650    15.3737     4.8033
   48.4000   125.4478    16.7413     5.2403
   48.5000   125.4504    18.1088     5.9893
   48.6000   125.4534    18.8928     6.7383
   48.7000   125.5423    18.8114     7.4872
   48.8000   125.7893    18.0606     8.2362
   48.9000   126.0737    16.5301     8.9852
   49.0000   126.2833    14.9765     9.7342
   49.1000   126.3847    13.5534    10.4832
   49.2000   126.3878    12.3471    11.3438
   49.3000   126.3682    11.3909    12.1463
   49.4000   126.0890    10.4660    13.0894
   49.5000   125.6811     9.9101    14.0325
   49.6000   125.0523     9.5550    14.9756
   49.7000   124.3237     9.3019    15.9187
   49.8000   123.5741     9.0985    16.8617
   49.9000   122.4402     8.9773    16.8789
   50.0000   121.7378     8.9350    16.4041
   50.1000   120.8967     8.9138    15.9293
   50.2000   120.0000     8.9135    15.4545
   50.3000   120.0000     8.9187    14.9797
   50.4000   119.8290     8.9761    14.5048
   50.5000   119.6947     9.0652    14.0300
   50.6000   119.7476     9.1687    13.5552
   50.7000   120.0000     9.2734    13.0804
   50.8000   120.2402     9.3874    12.6044
   50.9000   120.6678     9.5634    12.1274
   51.0000   120.9160     9.7639    11.6505
   51.1000   120.9791     9.9503    11.1735
   51.2000   121.2214    10.1215    10.6966
   51.3000   121.2214    10.2953    10.2196
   51.4000   121.0300    10.4809     9.7373
   51.5000   120.6513    10.7693     9.2807
   51.6000   120.1586    11.1720     9.0476
   51.7000   119.6804    11.5937     8.9123
   51.8000   119.3893    11.9953     8.7933
   51.9000   118.9861    12.4137     8.6937
   52.0000   118.6360    12.6977     8.6112
   52.1000   118.2229    12.9341     8.6109
   52.2000   117.5085    13.1566     8.5655
   52.3000   116.9466    13.3617     8.5499
   52.4000   116.3112    13.5192     8.5497
   52.5000   115.8779    13.8308     8.5494
   52.6000   115.6316    14.1496     8.5492
   52.7000   115.3853    14.3832     8.5490
   52.8000   115.1145    14.4952     8.5487
   52.9000   114.8927    14.4887     8.5485
   53.0000   114.8092    14.3923     8.5483
   53.1000   114.8092    14.3238     8.5481
   53.2000   114.8092    14.1467     8.5970
   53.3000   114.8092    13.9066     8.6458
   53.4000   115.0411    13.6702     8.7211
   53.5000   115.2875    13.4097     8.8500
   53.6000   115.6478    13.2109     9.0556
   53.7000   116.1953    13.0336     9.3665
   53.8000   116.9466    12.8856     9.5857
   53.9000   117.4311    12.7393     9.8295
   54.0000   118.1069    12.5827    10.0359
   54.1000   118.5974    12.4518    10.2025
   54.2000   118.9087    12.3105    10.3362
   54.3000   119.3955    12.1708    10.4876
   54.4000   119.6417    12.0461    10.6305
   54.5000   119.8880    11.9744    10.7517
   54.6000   120.1343    11.8443    10.8659
   54.7000   120.3053    11.7578    10.9342
   54.8000   120.3053    11.7226    10.9896
   54.9000   120.3053    11.7222    11.0519
   55.0000   119.8982    11.7219    11.1409
   55.1000   119.6947    11.7216    11.2456
   55.2000   119.5238    11.7213    11.2452
   55.3000   119.0313    11.7209    11.3048
   55.4000   118.4733    11.7206    11.3689
   55.5000   118.2595    11.7258    11.4039
   55.6000   117.8587    11.8865    11.4175
   55.7000   117.3661    11.9407    11.4838
   55.8000   116.8732    12.0085    11.5474
   55.9000   116.3359    12.0767    11.5644
   56.0000   115.8882    12.1511    11.5640
   56.1000   115.3955    12.3117    11.5806
   56.2000   114.9027    12.3707    11.6452
   56.3000   114.4102    12.4410    11.6449
