~VERSION INFORMATION
 VERS.                2.0:   CWLS LOG ASCII STANDARD - VERSION 2.0
 WRAP.                 NO:   ONE LINE PER DEPTH STEP
~WELL INFORMATION
#MNEM.UNIT      DATA TYPE    INFORMATION
#----------   ------------   ------------------------------
 STRT.F            2.0000:   START DEPTH
 STOP.F          500.0000:   STOP DEPTH
 STEP.F            0.1000:   STEP LENGTH
 NULL.          -999.2500:   NO VALUE
 COMP.   FLUOR DANIEL INC:   COMPANY
 WELL.   73-5 X 10 #73-10:   WELL
 FLD .             TEAPOT:   FIELD
 LOC .      S10 T38N R78W:   LOCATION
 CNTY.            NATRONA:   COUNTY
 STAT.            WYOMING:   STATE
 CTRY. UNITED STATES OF AMERICA:   COUNTRY
 SRVC.      Western Atlas:   SERVICE COMPANY
 DATE.        07-JUN-1995:   LOGDATE
 API .       490252271400:   API NUMBER
~CURVE INFORMATION
#MNEM.UNIT       API CODE    CURVE DESCRIPTION
#----------   ------------   ------------------------------
 DEPT.F                  :   
 GRR .GAPI   07 310 01 00:   GAMMA RAY
 RILD.OHMM   07 120 46 00:   INDUCTION LOG DEEP RESISTIVITY
 RILM.OHMM   07 120 44 00:   RESITIVITY LONG MEDIUM
~PARAMETER INFORMATION
#MNEM.UNIT          VALUE    DESCRIPTION
#----------   ------------   ------------------------------
 PD  .                 GL:   PERMANENT DATUM
 EPD .F              5175:   ELEVATION PERMANENT DATUM
 LMF .                 KB:   LOG MEASURED FROM
 DAPD.F                10:   FEET ABOVE PERMANENT DATUM
 DMF .                 KB:   DRILLING MEASURED FROM
 EKB .F              5185:   KELLING BUSHING
 EDF .F              5184:   DRILLING FLOOR
 EGL .F              5175:   GROUND LEVEL
 DATE.        07-JUN-1995:   RUN DATE
 RUN .                  1:   RUN NUMBER
 DD  .F               511:   DEPTH DRILLER
 DL  .F               508:   DEPTH LOGGER
 BLI .F               500:   BOTTOM LOG INTERVAL
 TLI .F                96:   TOP LOG INTERVAL
 CS  .IN            9.625:   CASING SIZE
 CBD .F                96:   CASING BOTTOM DRILLER
 CBL .F                96:   CASING BOTTOM LOGGER
 BS  .IN             8.75:   BIT SIZE
 BSD .F               511:   BIT SIZE AT DEPTH
 DFT .                AIR:   DRILLING FLUID TYPE
 MRT .F               116:   MAXIMUM RECORDED TEMPERATURE
 LUN .            HL 6530:   LOGGING UNIT NUMBER
 LUL .             CASPER:   LOGGING UNIT LOCATION
 ENGI.        VERN RAUTIO:   RECORDING ENGINEER
 WITN.        GARY STRONG:   WITNESSED BY
 CLNT.            A2DTECH:   CLIENT CODE
 ORIG.           5" PRINT:   ORIGIN OF DATA
 UWI .       490252271400:   UNIQUE WELL ID
 DICO. A2D Technologies, Inc.:   DIGITIZING COMPANY
~OTHER INFORMATION
~A    DEPT       GRR     RILD       RILM   
# ...
  329.6000   101.4433    20.4911    20.2916
  329.7000   102.2707    20.4911    20.2919
  329.8000   102.7382    20.4911    20.2922
  329.9000   103.0120    20.4911    20.2925
  330.0000   103.2329    20.4911    20.2928
  330.1000   103.4803    20.4911    20.2435
  330.2000   103.7277    20.4911    20.1534
  330.3000   103.8562    20.4911    20.1537
  330.4000   103.6033    20.4911    20.1539
  330.5000   103.0120    20.4911    20.1542
  330.6000   102.2152    20.4911    20.1545
  330.7000   101.2256    20.4911    20.1548
  330.8000   100.3277    20.4911    20.1551
  330.9000    99.6611    20.4911    20.1554
  331.0000    99.3976    20.4911    20.1556
  331.1000    99.1662    20.4911    20.1559
  331.2000    98.9189    20.4911    20.1562
  331.3000    98.9189    20.4911    20.1564
  331.4000    99.1662    20.4911    20.1567
  331.5000    99.4137    20.4911    20.1571
  331.6000    99.6988    20.4911    20.1573
  331.7000    99.9085    20.4911    20.1576
  331.8000   100.1558    20.4350    20.1578
  331.9000   100.5052    20.3495    20.1581
  332.0000   100.9518    20.3495    20.1584
  332.1000   101.2048    20.3495    20.0520
  332.2000   101.4466    20.3495    20.0199
  332.3000   101.6940    20.3495    20.0202
  332.4000   101.8072    20.3034    20.0205
  332.5000   101.8072    20.2090    20.0208
  332.6000   101.8072    20.2090    20.0211
  332.7000   101.8072    20.2090    20.0213
  332.8000   101.8072    20.1230    20.0216
  332.9000   101.9735    20.0694    20.0219
  333.0000   102.1084    20.0334    20.0222
  333.1000   102.1671    19.9308    20.0224
  333.2000   102.4144    19.9308    19.9130
  333.3000   102.7108    19.8309    19.8849
  333.4000   102.7108    19.7932    19.8852
  333.5000   102.8554    19.7426    19.8855
  333.6000   103.0120    19.6565    19.8857
  333.7000   103.0120    19.6565    19.8860
  333.8000   103.0120    19.6565    19.7877
  333.9000   103.0120    19.5672    19.7494
  334.0000   103.0120    19.5207    19.7497
  334.1000   103.0120    19.5207    19.7254
  334.2000   103.0120    19.5207    19.6140
  334.3000   103.0120    19.5207    19.6143
  334.4000   103.0120    19.4172    19.6146
  334.5000   102.8032    19.3859    19.5522
  334.6000   102.5558    19.3859    19.4799
  334.7000   102.3084    19.3859    19.4661
  334.8000   102.0137    19.3784    19.3461
  334.9000   101.5060    19.2520    19.3463
  335.0000   101.0241    19.2520    19.3466
  335.1000   100.5294    19.1826    19.2952
  335.2000   100.0346    19.1191    19.2137
  335.3000    99.6988    19.1191    19.2102
  335.4000    99.6988    19.1191    19.0818
  335.5000    99.6988    19.1191    19.0820
  335.6000    99.4795    19.1191    19.0823
  335.7000    99.3976    19.1191    19.0416
  335.8000    99.3976    19.1191    18.9512
  335.9000    99.3976    19.1191    18.9515
  336.0000    99.3976    19.1191    18.9517
  336.1000    99.3976    19.1191    18.8744
  336.2000    99.3976    19.1191    18.8216
  336.3000    99.3976    19.1191    18.8218
  336.4000    99.3976    19.1191    18.8148
  336.5000    99.3615    19.1191    18.6926
  336.6000    99.0964    19.1191    18.6928
  336.7000    98.6369    19.1191    18.6263
  336.8000    98.1421    19.1191    18.5644
  336.9000    97.6474    19.1191    18.5443
  337.0000    97.2209    19.1006    18.4369
  337.1000    96.9880    18.9870    18.4372
  337.2000    96.9880    18.9870    18.4374
  337.3000    96.9880    18.9076    18.4377
  337.4000    96.9880    18.8559    18.4045
  337.5000    96.9880    18.8559    18.3110
  337.6000    96.9880    18.8465    18.3113
  337.7000    96.9880    18.7257    18.3115
  337.8000    96.9880    18.6331    18.2429
  337.9000    96.9880    18.5963    18.1858
  338.0000    97.1205    18.5501    18.1860
  338.1000    97.2892    18.4447    18.1853
  338.2000    97.3141    18.3399    18.0827
  338.3000    97.5904    18.2357    18.0614
  338.4000    98.0273    18.1322    18.0616
  338.5000    98.3574    18.0292    18.0257
  338.6000    98.6048    17.9268    17.9375
  338.7000    98.9093    17.8109    17.9378
  338.8000    99.4008    17.5934    17.9381
  338.9000    99.6482    17.5013    17.8675
  339.0000    99.6988    17.4019    17.8148
  339.1000    99.8418    17.3030    17.7888
  339.2000   100.0892    17.2047    17.6882
  339.3000   100.3365    17.1069    17.5708
  339.4000   100.6024    16.9942    17.5710
  339.5000   100.8314    16.9132    17.5110
  339.6000   100.9036    16.8768    17.4503
  339.7000   101.0249    16.8379    17.4339
  339.8000   101.2048    16.7422    17.3304
  339.9000   101.2048    16.6445    17.3307
  340.0000   101.2048    16.5526    17.2592
  340.1000   100.9976    16.5295    17.1617
  340.2000   100.9036    16.5295    17.0932
  340.3000   100.8040    16.5295    17.0861
  340.4000   100.5566    16.5195    16.9758
  340.5000   100.3012    16.4154    16.9760
  340.6000   100.0618    16.4154    16.9149
  340.7000    99.6290    16.4154    16.8594
  340.8000    99.2659    16.4154    16.8596
  340.9000    98.9405    16.4154    16.8599
  341.0000    98.4458    16.4154    16.7663
  341.1000    97.8916    16.4154    16.7441
  341.2000    97.2386    16.4154    16.6926
  341.3000    96.6603    16.4154    16.6291
  341.4000    96.1655    16.4154    16.6191
  341.5000    95.6144    16.4154    16.5149
  341.6000    94.8723    16.4154    16.5151
  341.7000    94.1302    16.4154    16.4525
  341.8000    93.7799    16.4154    16.4016
  341.9000    93.5325    16.3680    16.3801
  342.0000    93.3735    16.3020    16.2890
  342.1000    93.3390    16.3020    16.2892
  342.2000    93.0723    16.3020    16.2159
  342.3000    93.0723    16.3020    16.1773
  342.4000    92.8980    16.3020    16.1445
  342.5000    92.7711    16.3020    16.0662
  342.6000    92.7044    16.3020    16.0665
  342.7000    92.4699    16.3020    16.0667
  342.8000    92.4699    16.3020    16.0669
  342.9000    92.4699    16.2302    16.0229
  343.0000    92.6225    16.1894    15.9565
  343.1000    92.7711    16.1894    15.9567
  343.2000    92.7711    16.1778    15.9570
  343.3000    92.7711    16.0776    15.8821
  343.4000    93.0097    16.0776    15.8474
  343.5000    93.2570    16.0143    15.8123
  343.6000    93.5044    15.9666    15.7385
  343.7000    93.6747    15.9666    15.7387
  343.8000    93.6747    15.9626    15.6537
  343.9000    93.6747    15.8563    15.6306
  344.0000    93.6747    15.8563    15.6309
  344.1000    93.6747    15.8013    15.6044
  344.2000    93.6747    15.7468    15.5235
  344.3000    93.6193    15.7309    15.5237
  344.4000    93.3719    15.6381    15.5239
  344.5000    93.1245    15.6381    15.4674
  344.6000    92.6819    15.5719    15.3800
  344.7000    92.3285    15.5301    15.3112
  344.8000    92.0811    15.5301    15.3114
  344.9000    91.8338    15.5217    15.2258
  345.0000    91.5663    15.4228    15.2062
  345.1000    91.5663    15.3459    15.2064
  345.2000    91.3927    15.3163    15.1779
  345.3000    91.2651    15.2776    15.1020
  345.4000    91.2651    15.2105    15.1022
  345.5000    91.2771    15.2105    15.1024
  345.6000    91.5663    15.2105    15.0446
  345.7000    91.5663    15.1418    14.9987
  345.8000    91.7181    15.1055    14.9784
  345.9000    91.9655    15.1055    14.8957
  346.0000    92.2128    15.0929    14.8959
  346.1000    92.4699    15.0011    14.8282
  346.2000    92.7076    15.0011    14.7936
  346.3000    92.7711    14.9404    14.7938
  346.4000    92.9012    14.8975    14.7815
  346.5000    93.1486    14.8975    14.6922
  346.6000    93.3735    14.8922    14.6924
  346.7000    93.3735    14.7946    14.6333
  346.8000    93.5896    14.7946    14.5914
  346.9000    93.6747    14.7946    14.5689
  347.0000    93.6747    14.7599    14.4912
  347.1000    93.6747    14.6925    14.4915
  347.2000    93.6747    14.6925    14.4229
  347.3000    93.6747    14.6925    14.3919
  347.4000    93.6747    14.6287    14.3594
  347.5000    93.6747    14.5910    14.2930
  347.6000    93.7615    14.5636    14.2932
  347.7000    93.9759    14.4902    14.2154
