~VERSION INFORMATION
 VERS.                2.0:   CWLS LOG ASCII STANDARD - VERSION 2.0
 WRAP.                 NO:   ONE LINE PER DEPTH STEP
~WELL INFORMATION
#MNEM.UNIT      DATA TYPE    INFORMATION
#----------   ------------   ------------------------------
 STRT.F          598.0000:   START DEPTH
 STOP.F         2552.0000:   STOP DEPTH
 STEP.F            0.5000:   STEP LENGTH
 NULL.          -999.2500:   NO VALUE
 COMP. FENIX & SCISSON INC:   COMPANY
 WELL.     15-SHX-2 #15-2:   WELL
 FLD .             TEAPOT:   FIELD
 LOC .       S2 T38N R78W:   LOCATION
 CNTY.            NATRONA:   COUNTY
 STAT.            WYOMING:   STATE
 CTRY. UNITED STATES OF AMERICA:   COUNTRY
 SRVC.              Welex:   SERVICE COMPANY
 DATE.        03-JUN-1979:   LOGDATE
 API .       490251002100:   API NUMBER
~CURVE INFORMATION
#MNEM.UNIT       API CODE    CURVE DESCRIPTION
#----------   ------------   ------------------------------
 DEPT.F                  :   
 CALD.IN     45 280 60 00:   CALIPER
 GRD .GAPI   45 310 01 00:   GAMMA RAY FROM DENSITY LOG
 RHOB.G/C3   45 350 01 00:   BULK DENSITY
 DPHI.DEC    45 890 12 00:   DENSITY POROSITY SANDSTONE
 CORR.G/C3   45 356 01 00:   DENSITY CORRECTION
~PARAMETER INFORMATION
#MNEM.UNIT          VALUE    DESCRIPTION
#----------   ------------   ------------------------------
 PD  .                 GL:   PERMANENT DATUM
 EPD .F              5118:   ELEVATION PERMANENT DATUM
 LMF .                 KB:   LOG MEASURED FROM
 DAPD.F                10:   FEET ABOVE PERMANENT DATUM
 DMF .                 KB:   DRILLING MEASURED FROM
 EKB .F              5128:   KELLING BUSHING
 EGL .F              5118:   GROUND LEVEL
 DATE.             6-3-79:   RUN DATE
 RUN .                  1:   RUN NUMBER
 DD  .F              2569:   DEPTH DRILLER
 DL  .F              2554:   DEPTH LOGGER
 BLI .F              2552:   BOTTOM LOG INTERVAL
 TLI .F               622:   TOP LOG INTERVAL
 CS  .IN            9.625:   CASING SIZE
 CBD .F               622:   CASING BOTTOM DRILLER
 BS  .IN             8.75:   BIT SIZE
 BSD .F              2569:   BIT SIZE AT DEPTH
 DFT .        AIR DRILLED:   DRILLING FLUID TYPE
 TCS .HRS             2.5:   TIME CURCULATED STOPPED
 MRT .F               124:   MAXIMUM RECORDED TEMPERATURE
 ENGI.               REIN:   RECORDING ENGINEER
 WITN.              AMEND:   WITNESSED BY
 CLNT.            A2DTECH:   CLIENT CODE
 ORIG.           5" PRINT:   ORIGIN OF DATA
 UWI .       490251002100:   UNIQUE WELL ID
 DICO. A2D Technologies, Inc.:   DIGITIZING COMPANY
~OTHER INFORMATION
~A   DEPT     CALD         GRD      RHOB       DPHI       CORR   
# ...
 2489.0000     8.7364   104.8968     2.5789    -0.0179     0.0161
 2489.5000     8.7357   103.3849     2.5714    -0.0137     0.0108
 2490.0000     8.7351   101.8903     2.5603    -0.0058     0.0055
 2490.5000     8.7344   100.4016     2.5456     0.0025     0.0010
 2491.0000     8.7337    99.5285     2.5303     0.0109    -0.0010
 2491.5000     8.7330    98.7359     2.5167     0.0194    -0.0004
 2492.0000     8.7323    97.9146     2.5216     0.0212     0.0007
 2492.5000     8.7317    98.5396     2.5223     0.0188     0.0018
 2493.0000     8.7310   100.4679     2.5192     0.0193     0.0030
 2493.5000     8.7303   101.7620     2.5189     0.0203     0.0030
 2494.0000     8.7296   101.1326     2.5263     0.0183     0.0027
 2494.5000     8.7289    99.9162     2.5248     0.0206     0.0019
 2495.0000     8.7283    98.9790     2.5188     0.0243     0.0011
 2495.5000     8.7276    98.4397     2.5125     0.0275     0.0003
 2496.0000     8.7269    97.2450     2.5109     0.0271    -0.0004
 2496.5000     8.7262    95.4152     2.5150     0.0251    -0.0009
 2497.0000     8.7256    93.5853     2.5206     0.0227    -0.0002
 2497.5000     8.7249    91.7732     2.5263     0.0155     0.0005
 2498.0000     8.7242    92.9594     2.5256     0.0174     0.0010
 2498.5000     8.7235    95.7392     2.5189     0.0211     0.0012
 2499.0000     8.7228    98.4288     2.5128     0.0252     0.0031
 2499.5000     8.7222    97.1721     2.5151     0.0212     0.0049
 2500.0000     8.7215   100.4420     2.5259     0.0144     0.0067
 2500.5000     8.7208    95.6683     2.5361     0.0079     0.0094
 2501.0000     8.7201    95.7988     2.5437     0.0063     0.0121
 2501.5000     8.7195    97.7415     2.5492     0.0031     0.0149
 2502.0000     8.7061   100.1271     2.5548    -0.0009     0.0159
 2502.5000     8.6803   102.5145     2.5473    -0.0005     0.0177
 2503.0000     8.6546   104.8982     2.5319     0.0104     0.0190
 2503.5000     8.6288   107.2597     2.5167     0.0192     0.0176
 2504.0000     8.6030   109.2530     2.5022     0.0279     0.0129
 2504.5000     8.5776   109.4855     2.4901     0.0367     0.0082
 2505.0000     8.5615   107.6346     2.4779     0.0455     0.0036
 2505.5000     8.5685   105.5724     2.4655     0.0542    -0.0011
 2506.0000     8.5750   103.4362     2.4648     0.0588    -0.0058
 2506.5000     8.5816   102.4285     2.4651     0.0588    -0.0091
 2507.0000     8.5882   102.3270     2.4703     0.0571    -0.0087
 2507.5000     8.5948   101.8163     2.4814     0.0510    -0.0065
 2508.0000     8.6014   101.0147     2.4942     0.0470    -0.0043
 2508.5000     8.6080   107.8823     2.5070     0.0350    -0.0020
 2509.0000     8.6146   107.9891     2.5248     0.0201     0.0002
 2509.5000     8.6212   105.6965     2.5473     0.0051     0.0024
 2510.0000     8.6278   103.1804     2.5628    -0.0079     0.0046
 2510.5000     8.6344   102.7892     2.5648    -0.0073     0.0074
 2511.0000     8.6410   104.1636     2.5559    -0.0020     0.0087
 2511.5000     8.6475   102.8867     2.5454     0.0072     0.0070
 2512.0000     8.6541   101.2113     2.5281     0.0176     0.0053
 2512.5000     8.6607   102.0000     2.5107     0.0279     0.0035
 2513.0000     8.6673   102.7335     2.4949     0.0387     0.0017
 2513.5000     8.6739   102.3524     2.4938     0.0387    -0.0011
 2514.0000     8.6805    99.7157     2.4942     0.0361    -0.0019
 2514.5000     8.6871    97.1197     2.5016     0.0345    -0.0030
 2515.0000     8.6937    94.5002     2.4997     0.0383    -0.0030
 2515.5000     8.6994    92.9222     2.4978     0.0379    -0.0030
 2516.0000     8.6971    95.9839     2.5057     0.0289    -0.0030
 2516.5000     8.6942    95.3939     2.5101     0.0261    -0.0030
 2517.0000     8.6913    93.2098     2.5107     0.0295    -0.0027
 2517.5000     8.6885    90.9850     2.5134     0.0253    -0.0008
 2518.0000     8.6856    88.7461     2.5286     0.0187     0.0010
 2518.5000     8.6828    86.6407     2.5440     0.0121     0.0029
 2519.0000     8.6799    88.7426     2.5464     0.0059     0.0047
 2519.5000     8.6771    88.2463     2.5478     0.0028     0.0066
 2520.0000     8.6742    88.3545     2.5582    -0.0015     0.0084
 2520.5000     8.6714    90.3553     2.5686    -0.0068     0.0103
 2521.0000     8.6685    88.5513     2.5772    -0.0122     0.0122
 2521.5000     8.6657    86.8511     2.5785    -0.0169     0.0140
 2522.0000     8.6628    86.8429     2.5726    -0.0177     0.0159
 2522.5000     8.6600    88.7226     2.5618    -0.0106     0.0170
 2523.0000     8.6571    90.6935     2.5549    -0.0074     0.0170
 2523.5000     8.6543    92.8392     2.5627    -0.0099     0.0170
 2524.0000     8.6514    95.2866     2.5695    -0.0125     0.0170
 2524.5000     8.6486    97.7289     2.5752    -0.0153     0.0170
 2525.0000     8.6457   100.2025     2.5752    -0.0153     0.0170
 2525.5000     8.6427   101.0435     2.5699    -0.0114     0.0161
 2526.0000     8.6392    98.3803     2.5647    -0.0075     0.0146
 2526.5000     8.6724    97.2547     2.5595    -0.0036     0.0131
 2527.0000     8.6755    98.7230     2.5543     0.0002     0.0116
 2527.5000     8.6712    98.3783     2.5491     0.0039     0.0101
 2528.0000     8.6666    97.7539     2.5441     0.0076     0.0086
 2528.5000     8.6620    97.1280     2.5398     0.0090     0.0071
 2529.0000     8.6577    96.5009     2.5361     0.0099     0.0056
 2529.5000     8.6537    95.8643     2.5278     0.0133     0.0050
 2530.0000     8.6497    95.7976     2.5182     0.0187     0.0056
 2530.5000     8.6457    96.6910     2.5214     0.0207     0.0063
 2531.0000     8.6417    97.6243     2.5268     0.0153     0.0070
 2531.5000     8.6377    98.7931     2.5317     0.0119     0.0077
 2532.0000     8.6337   102.0642     2.5252     0.0158     0.0084
 2532.5000     8.6298   105.3223     2.5183     0.0205     0.0091
 2533.0000     8.6258   112.3041     2.5114     0.0251     0.0098
 2533.5000     8.6218   126.2810     2.5058     0.0287     0.0105
 2534.0000     8.6178   133.4917     2.5227     0.0252     0.0110
 2534.5000     8.6138   135.5533     2.5379     0.0137     0.0113
 2535.0000     8.6098   134.8955     2.5454     0.0021     0.0115
 2535.5000     8.6058   136.0181     2.5531    -0.0009     0.0117
 2536.0000     8.6018   134.4576     2.5488     0.0015     0.0120
 2536.5000     8.5978   132.8356     2.5425     0.0059     0.0122
 2537.0000     8.5938   131.3309     2.5362     0.0107     0.0125
 2537.5000     8.5898   131.4425     2.5300     0.0149     0.0127
 2538.0000     8.5859   134.4416     2.5240     0.0173     0.0130
 2538.5000     8.5817   137.3983     2.5179     0.0211     0.0130
 2539.0000     8.5808   140.8611     2.5149     0.0250     0.0129
 2539.5000     8.5092   144.3389     2.5173     0.0255     0.0173
 2540.0000     8.4046   144.9064     2.5276     0.0185     0.0219
 2540.5000     8.2990   140.5325     2.5350     0.0099     0.0266
 2541.0000     8.2070   139.1030     2.5310     0.0123     0.0313
 2541.5000     8.1471   139.3486     2.5270     0.0143     0.0360
 2542.0000     8.0450   137.2471     2.5230     0.0182     0.0407
 2542.5000     7.8033   134.9522     2.5137     0.0239     0.0455
 2543.0000     7.5683   132.7619     2.4983     0.0363     0.0471
 2543.5000     7.3319   132.2227     2.4830     0.0495     0.0426
 2544.0000     7.0956   133.4749     2.4425     0.0596     0.0376
 2544.5000     6.8591   136.1613     2.4548     0.0600     0.0351
 2545.0000     6.6215   137.3148     2.4649     0.0588     0.0365
 2545.5000     6.4705   137.7708     2.4749     0.0452     0.0370
 2546.0000     6.3882   131.3588     2.4797     0.0486     0.0427
 2546.5000     6.3636   129.8951     2.4720     0.0538     0.0471
 2547.0000     6.3524   130.3058     2.4650     0.0547     0.0517
 2547.5000     6.4113  -999.2500     2.4535     0.0671     0.0529
 2548.0000     6.4708  -999.2500     2.4208     0.0839     0.0523
 2548.5000     6.4881  -999.2500     2.3889     0.1043     0.0492
 2549.0000     6.4902  -999.2500     2.3578     0.1250     0.0462
 2549.5000     6.4294  -999.2500     2.3360     0.1436     0.0435
