~VERSION INFORMATION
 VERS.                2.0:   CWLS LOG ASCII STANDARD - VERSION 2.0
 WRAP.                 NO:   ONE LINE PER DEPTH STEP
~WELL INFORMATION
#MNEM.UNIT      DATA TYPE    INFORMATION
#----------   ------------   ------------------------------
 STRT.F            6.0000:   START DEPTH
 STOP.F          522.0000:   STOP DEPTH
 STEP.F            0.5000:   STEP LENGTH
 NULL.          -999.2500:   NO VALUE
 COMP.       F D SERV INC:   COMPANY
 WELL.    88-7 SX-3 #88-3:   WELL
 FLD .             TEAPOT:   FIELD
 LOC .       S3 T38N R78W:   LOCATION
 CNTY.            NATRONA:   COUNTY
 STAT.            WYOMING:   STATE
 CTRY. UNITED STATES OF AMERICA:   COUNTRY
 SRVC.      Western Atlas:   SERVICE COMPANY
 DATE.        30-NOV-1992:   LOGDATE
 API .       490252254100:   API NUMBER
~CURVE INFORMATION
#MNEM.UNIT       API CODE    CURVE DESCRIPTION
#----------   ------------   ------------------------------
 DEPT.F                  :   
 GRR .GAPI   07 310 01 00:   GAMMA RAY
 RILD.OHMM   07 120 46 00:   INDUCTION LOG DEEP RESISTIVITY
 RILM.OHMM   07 120 44 00:   INDUCTION LOG MEDIUM RESISTIVITY
 C13 .IN     45 280 13 00:   CALIPER 13
 ZCOR.G/C3   45 356 01 00:   DENSITY CORRECTION
 ZDEN.G/C3   45 350 01 00:   BULK DENSITY
 PORZ.DEC    45 890 00 00:   DENSITY POROSITY
 NPHI.DEC    42 890 03 00:   NEUTRON POROSITY SANDSTONE
~PARAMETER INFORMATION
#MNEM.UNIT          VALUE    DESCRIPTION
#----------   ------------   ------------------------------
 PD  .                 GL:   PERMANENT DATUM
 EPD .F              5155:   ELEVATION PERMANENT DATUM
 LMF .                 KB:   LOG MEASURED FROM
 DAPD.F                10:   FEET ABOVE PERMANENT DATUM
 DMF .                 KB:   DRILLING MEASURED FROM
 EKB .F              5165:   KELLING BUSHING
 EDF .F              5164:   DRILLING FLOOR
 EGL .F              5155:   GROUND LEVEL
 DATE.        30-NOV-1992:   RUN DATE
 RUN .                  1:   RUN NUMBER
 DD  .F               525:   DEPTH DRILLER
 DL  .F               525:   DEPTH LOGGER
 BLI .F               516:   BOTTOM LOG INTERVAL
 TLI .F                 6:   TOP LOG INTERVAL
 CS  .IN            8.625:   CASING SIZE
 CBD .F                95:   CASING BOTTOM DRILLER
 CBL .F                98:   CASING BOTTOM LOGGER
 BS  .IN            7.875:   BIT SIZE
 BSD .F               525:   BIT SIZE AT DEPTH
 DFT .           AIR FOAM:   DRILLING FLUID TYPE
 MRT .F                68:   MAXIMUM RECORDED TEMPERATURE
 LUN .           HL- 6774:   LOGGING UNIT NUMBER
 LUL .             CASPER:   LOGGING UNIT LOCATION
 ENGI.             RAUTIO:   RECORDING ENGINEER
 WITN.          BOB SYLER:   WITNESSED BY
 CLNT.            A2DTECH:   CLIENT CODE
 ORIG.           5" PRINT:   ORIGIN OF DATA
 UWI .       490252254100:   UNIQUE WELL ID
 DICO. A2D Technologies, Inc.:   DIGITIZING COMPANY
~OTHER INFORMATION
~A    DEPT     GRR       RILD       RILM        C13       ZCOR       ZDEN       PORZ       NPHI   
# ...
  330.0000    75.9878    34.6585    37.1199     8.6000    -0.0107     2.2404     0.3243     0.2088
  330.5000    67.7812    35.8841    37.3738     8.5975    -0.0108     2.1543     0.3347     0.2025
  331.0000    63.8298    36.8946    36.5908     8.5954    -0.0003     2.1000     0.3247     0.2116
  331.5000    65.9574    37.1491    35.8260     8.5933     0.0162     2.1121     0.3039     0.2237
  332.0000    72.3404    35.8692    34.8334     8.5913     0.0327     2.1663     0.2787     0.2316
  332.5000    80.2432    33.2146    33.8684     8.5892     0.0537     2.2077     0.2445     0.2366
  333.0000    85.7143    30.7564    33.1605     8.5872     0.0777     2.2786     0.2218     0.2448
  333.5000    89.0629    30.1161    33.1536     8.6154     0.0405     2.3140     0.1976     0.2529
  334.0000    89.3617    30.9632    33.1466     8.6444     0.0157     2.3290     0.2049     0.2511
  334.5000    84.3566    31.8352    33.3988     8.6411     0.0141     2.2761     0.2307     0.2463
  335.0000    81.4083    32.9609    34.0701     8.6390     0.0351     2.2256     0.2564     0.2420
  335.5000    81.7629    33.8891    35.0246     8.6218     0.0531     2.2082     0.2691     0.2402
  336.0000    82.3708    34.8499    35.5109     8.6046     0.0576     2.2089     0.2660     0.2421
  336.5000    82.3708    35.5938    35.7520     8.6026     0.0379     2.2079     0.2700     0.2388
  337.0000    82.0669    36.1007    35.4944     8.5853     0.0362     2.2020     0.2712     0.2325
  337.5000    86.9301    35.9821    34.7525     8.5984     0.0660     2.2132     0.2643     0.2346
  338.0000    91.4894    33.6291    31.5141     8.5964     0.0738     2.2381     0.2513     0.2464
  338.5000    93.0091    32.0216    29.1815     8.5791     0.0375     2.2765     0.2162     0.2501
  339.0000    92.4012    30.9194    27.9801     8.5923     0.0344     2.3126     0.2028     0.2477
  339.5000    92.7052    30.2748    27.9743     8.6048     0.0328     2.3246     0.1962     0.2459
  340.0000    92.4012    30.0601    27.9685     8.6028     0.0222     2.3336     0.1901     0.2450
  340.5000    90.2736    29.8470    27.9628     8.6007     0.0176     2.3253     0.1992     0.2465
  341.0000    88.4498    29.2247    27.9570     8.5987     0.0099     2.2920     0.2105     0.2445
  341.5000    89.0578    28.2188    27.3726     8.5966     0.0038     2.2701     0.2350     0.2387
  342.0000    91.7933    27.0581    25.8823     8.5945     0.0112     2.2557     0.2412     0.2372
  342.5000    95.4407    25.9451    24.4731     8.5924     0.0458     2.2624     0.2308     0.2460
  343.0000    97.5684    25.0521    23.1406     8.5899     0.0412     2.3092     0.2039     0.2506
  343.5000    99.7063    24.1898    22.3406     8.6030     0.0366     2.3544     0.1742     0.2506
  344.0000   102.1479    23.1948    21.8660     8.6010     0.0335     2.3913     0.1523     0.2507
  344.5000   103.0395    22.5532    21.2527     8.5989     0.0274     2.4108     0.1448     0.2510
  345.0000   101.0639    21.7770    20.6807     8.5969     0.0213     2.4055     0.1540     0.2549
  345.5000    99.0881    21.4722    20.2475     8.6099     0.0151     2.3851     0.1660     0.2559
  346.0000    99.3921    21.1717    20.1027     8.6230     0.0074     2.3692     0.1748     0.2583
  346.5000   100.3040    21.1688    20.0985     8.6209     0.0044     2.3578     0.1776     0.2620
  347.0000    99.0881    21.1659    20.0944     8.6184     0.0043     2.3555     0.1770     0.2644
  347.5000    97.8723    21.1629    20.0902     8.6320     0.0042     2.3600     0.1758     0.2675
  348.0000    97.8723    21.1600    20.0861     8.5991     0.0086     2.3607     0.1758     0.2706
  348.5000    97.5684    21.0093    20.0819     8.5819     0.0131     2.3575     0.1785     0.2730
  349.0000    96.9605    21.0064    20.0778     8.5799     0.0160     2.3510     0.1831     0.2724
  349.5000    97.5684    21.0035    20.0736     8.5627     0.0189     2.3485     0.1825     0.2718
  350.0000    98.9664    21.1775    20.0697     8.5152     0.0204     2.3514     0.1795     0.2697
  350.5000    99.3921    21.5874    20.2038     8.4203     0.0203     2.3529     0.1795     0.2670
  351.0000    97.8723    21.8833    20.6251     8.4050     0.0202     2.3543     0.1795     0.2610
  351.5000    98.1763    22.0308    20.7652     8.4181     0.0171     2.3543     0.1783     0.2595
  352.0000   101.2158    22.1758    20.9047     8.4155     0.0140     2.3542     0.1795     0.2622
  352.5000   102.4316    22.1678    21.0452     8.4134     0.0124     2.3512     0.1856     0.2638
  353.0000   101.5198    22.1602    21.0379     8.4114     0.0047     2.3413     0.1888     0.2629
  353.5000   100.3040    22.3077    20.7409     8.4093     0.0016     2.3360     0.1912     0.2599
  354.0000   100.0000    22.3000    20.4480     8.4224     0.0015     2.3359     0.1912     0.2587
  354.5000   101.5198    22.4484    20.3004     8.4203     0.0014     2.3366     0.1903     0.2575
  355.0000   102.7356    22.4404    20.2948     8.4178     0.0074     2.3374     0.1879     0.2554
  355.5000   104.2553    22.2487    20.4313     8.4314     0.0058     2.3418     0.1849     0.2548
  356.0000   106.3830    21.8060    20.4256     8.4288    -0.0003     2.3478     0.1841     0.2570
  356.5000   102.4316    21.3470    20.5628     8.4268    -0.0004     2.3440     0.1850     0.2588
  357.0000    99.6960    21.0439    20.5570     8.4247     0.0010     2.3386     0.1890     0.2580
  357.5000   100.0101    20.7451    20.4085     8.4379     0.0039     2.3310     0.1929     0.2568
  358.0000   100.0000    20.4506    19.9546     8.4509     0.0068     2.3287     0.1924     0.2541
  358.5000   100.3425    20.1602    19.5604     8.4488     0.0128     2.3415     0.1842     0.2544
  359.0000   102.8937    19.8740    19.5550     8.4463     0.0172     2.3545     0.1758     0.2553
  359.5000   105.1672    19.8671    19.5497     8.4442     0.0126     2.3658     0.1710     0.2569
  360.0000   106.3830    19.5850    18.7435     8.4422     0.0125     2.3665     0.1746     0.2578
  360.5000   103.0395    18.9070    18.2230     8.4401     0.0155     2.3564     0.1795     0.2578
  361.0000   102.7356    18.6386    17.9657     8.4537     0.0184     2.3536     0.1801     0.2575
  361.5000   103.9514    18.6321    17.9608     8.4511     0.0243     2.3543     0.1783     0.2579
  362.0000   103.6474    18.6257    18.2080     8.4642     0.0303     2.3603     0.1717     0.2588
  362.5000   101.2158    18.6193    18.3303     8.4621     0.0121     2.3693     0.1693     0.2588
  363.0000   100.0000    18.7434    18.4548     8.4444     0.0014     2.3685     0.1723     0.2588
  363.5000   102.7356    18.8680    18.7088     8.4424    -0.0034     2.3617     0.1799     0.2578
  364.0000   105.4711    19.1265    18.9652     8.4403    -0.0063     2.3496     0.1872     0.2531
  364.5000   105.4711    19.2538    19.0925     8.4383    -0.0015     2.3413     0.1917     0.2526
  365.0000   105.1672    19.2470    18.9545     8.4362     0.0019     2.3345     0.1917     0.2532
  365.5000   104.8632    19.2403    18.6869     8.4342     0.0053     2.3352     0.1875     0.2523
  366.0000   106.3830    18.9459    18.1679     8.4312     0.0109     2.3404     0.1800     0.2520
  366.5000   106.7254    18.4373    17.7868     8.4273     0.0224     2.3479     0.1761     0.2524
  367.0000   105.1672    18.0491    17.6225     8.4233     0.0313     2.3592     0.1713     0.2533
  367.5000   103.9514    17.7929    17.1669     8.4372     0.0403     2.3682     0.1647     0.2548
  368.0000   105.1834    17.6631    17.0430     8.4358     0.0462     2.3772     0.1569     0.2570
  368.5000   108.8693    17.6570    16.9199     8.4341     0.0385     2.3885     0.1551     0.2579
  369.0000   110.3343    17.7745    17.1528     8.4328     0.0278     2.3930     0.1527     0.2573
  369.5000   107.7629    18.0180    17.6330     8.4314     0.0292     2.3953     0.1494     0.2550
  370.0000   102.7356    18.2650    18.0008     8.4301     0.0366     2.3992     0.1171     0.2434
