~VERSION INFORMATION
 VERS.                2.0:   CWLS LOG ASCII STANDARD - VERSION 2.0
 WRAP.                 NO:   ONE LINE PER DEPTH STEP
~WELL INFORMATION
#MNEM.UNIT      DATA TYPE    INFORMATION
#----------   ------------   ------------------------------
 STRT.F            0.0000:   START DEPTH
 STOP.F          404.0000:   STOP DEPTH
 STEP.F            0.1000:   STEP LENGTH
 NULL.          -999.2500:   NO VALUE
 COMP.   FLUOR DANIEL INC:   COMPANY
 WELL.   62-1 X 10 #62-10:   WELL
 FLD .             TEAPOT:   FIELD
 LOC .      S10 T38N R78W:   LOCATION
 CNTY.            NATRONA:   COUNTY
 STAT.            WYOMING:   STATE
 CTRY. UNITED STATES OF AMERICA:   COUNTRY
 SRVC.      Western Atlas:   SERVICE COMPANY
 DATE.        29-MAR-1995:   LOGDATE
 API .       490252270300:   API NUMBER
~CURVE INFORMATION
#MNEM.UNIT       API CODE    CURVE DESCRIPTION
#----------   ------------   ------------------------------
 DEPT.F                  :   
 GRR .GAPI   07 310 01 00:   GAMMA RAY
 RILD.OHMM   07 120 46 00:   INDUCTION LOG DEEP RESISTIVITY
 RILM.OHMM   07 120 44 00:   RESITIVITY LONG MEDIUM
~PARAMETER INFORMATION
#MNEM.UNIT          VALUE    DESCRIPTION
#----------   ------------   ------------------------------
 PD  .                 GL:   PERMANENT DATUM
 EPD .F              5160:   ELEVATION PERMANENT DATUM
 LMF .                 KB:   LOG MEASURED FROM
 DAPD.F                10:   FEET ABOVE PERMANENT DATUM
 DMF .                 KB:   DRILLING MEASURED FROM
 EKB .F              5170:   KELLING BUSHING
 EDF .F              5169:   DRILLING FLOOR
 EGL .F              5160:   GROUND LEVEL
 DATE.        29-MAR-1995:   RUN DATE
 RUN .                  1:   RUN NUMBER
 DD  .F               455:   DEPTH DRILLER
 DL  .F               416:   DEPTH LOGGER
 BLI .F               408:   BOTTOM LOG INTERVAL
 TLI .F                95:   TOP LOG INTERVAL
 CS  .IN            9.625:   CASING SIZE
 CBD .F                95:   CASING BOTTOM DRILLER
 CBL .F                95:   CASING BOTTOM LOGGER
 BS  .IN             8.75:   BIT SIZE
 BSD .F               455:   BIT SIZE AT DEPTH
 DFT .                AIR:   DRILLING FLUID TYPE
 MRT .F               204:   MAXIMUM RECORDED TEMPERATURE
 LUN .            HL 6530:   LOGGING UNIT NUMBER
 LUL .             CASPER:   LOGGING UNIT LOCATION
 ENGI.        VERN RAUTIO:   RECORDING ENGINEER
 WITN.        GARY STRONG:   WITNESSED BY
 CLNT.            A2DTECH:   CLIENT CODE
 ORIG.           5" PRINT:   ORIGIN OF DATA
 UWI .       490252270300:   UNIQUE WELL ID
 DICO. A2D Technologies, Inc.:   DIGITIZING COMPANY
~OTHER INFORMATION
~A    DEPT      GRR      RILD       RILM   
# ...
  254.8000    76.3778     4.8770     5.1139
  254.9000    76.1512     4.9638     5.1850
  255.0000    75.7165     5.0520     5.2357
  255.1000    75.2077     5.1471     5.3180
  255.2000    74.6112     5.2704     5.3977
  255.3000    73.9294     5.3814     5.4708
  255.4000    73.6700     5.4589     5.5611
  255.5000    72.9231     5.5354     5.5963
  255.6000    71.9565     5.6157     5.6886
  255.7000    70.9378     5.7155     5.7645
  255.8000    69.9190     5.8198     5.8327
  255.9000    69.0256     5.9723     5.8883
  256.0000    68.5329     6.1002     5.9302
  256.1000    68.2487     6.1926     6.0003
  256.2000    68.0253     6.2659     6.0824
  256.3000    68.1271     6.3399     6.1127
  256.4000    68.3833     6.4083     6.1729
  256.5000    68.6396     6.4465     6.2281
  256.6000    68.8957     6.4465     6.2761
  256.7000    69.1608     6.4772     6.3457
  256.8000    69.4082     6.4915     6.3852
  256.9000    69.4649     6.4915     6.3852
  257.0000    69.6189     6.4915     6.4140
  257.1000    69.7689     6.4915     6.4297
  257.2000    69.7701     6.4915     6.4297
  257.3000    69.7713     6.4915     6.4381
  257.4000    69.7727     6.4643     6.4745
  257.5000    69.5525     6.4465     6.4297
  257.6000    69.2987     6.4333     6.4297
  257.7000    68.7892     6.3956     6.4297
  257.8000    68.0254     6.3576     6.4108
  257.9000    67.2960     6.3136     6.3852
  258.0000    66.7633     6.2543     6.3799
  258.1000    66.5215     6.2038     6.3410
  258.2000    66.2676     6.1675     6.3053
  258.3000    66.0138     6.1406     6.2683
  258.4000    65.8630     6.1379     6.2316
  258.5000    65.8643     6.0981     6.2104
  258.6000    65.8752     6.0662     6.1929
  258.7000    66.1685     6.0306     6.1226
  258.8000    66.1695     5.9953     6.0824
  258.9000    66.3421     5.9602     6.0510
  259.0000    66.5983     5.9195     5.9909
  259.1000    66.7765     5.8492     5.9389
  259.2000    66.8404     5.8087     5.9041
  259.3000    67.3823     5.7274     5.8640
  259.4000    67.8629     5.6478     5.7939
  259.5000    68.1810     5.5818     5.7607
  259.6000    68.5836     5.5165     5.7269
  259.7000    69.0949     5.4520     5.6933
  259.8000    69.6060     5.3814     5.6455
  259.9000    70.1108     5.3533     5.5878
  260.0000    70.4074     5.3219     5.5525
  260.1000    70.8381     5.2908     5.4810
  260.2000    71.3492     5.2704     5.4521
  260.3000    71.7390     5.2704     5.4202
  260.4000    72.0701     5.2704     5.4054
  260.5000    72.5812     5.2704     5.4169
  260.6000    73.1295     5.2704     5.4431
  260.7000    73.6037     5.2896     5.4431
  260.8000    74.1149     5.3071     5.4810
  260.9000    74.4828     5.3071     5.4810
  261.0000    74.8356     5.3094     5.5016
  261.1000    75.3469     5.3441     5.5341
  261.2000    75.8581     5.3441     5.5667
  261.3000    76.4563     5.3441     5.6027
  261.4000    76.8805     5.3607     5.6745
  261.5000    77.5567     5.3814     5.7052
  261.6000    78.3228     5.3865     5.7639
  261.7000    79.0890     5.4189     5.8321
  261.8000    79.8304     5.4502     5.8880
  261.9000    80.3850     5.4823     5.9296
  262.0000    81.0859     5.4947     5.9997
  262.1000    81.4789     5.5087     6.0824
  262.2000    81.5952     5.5412     6.1426
  262.3000    81.5964     5.5716     6.2153
  262.4000    81.5976     5.5716     6.2888
  262.5000    81.5988     5.6007     6.3632
  262.6000    81.2986     5.6337     6.4429
  262.7000    81.2995     5.6495     6.5650
  262.8000    80.9774     5.6608     6.6376
  262.9000    80.5836     5.6942     6.7162
  263.0000    80.2614     5.7285     6.7957
  263.1000    79.7744     5.7615     6.8761
  263.2000    79.4957     5.7955     6.9486
  263.3000    79.4968     5.8296     6.9909
  263.4000    79.3146     5.8789     7.0858
  263.5000    79.1976     5.9397     7.1215
  263.6000    79.1988     5.9723     7.1635
  263.7000    79.1565     5.9723     7.2268
  263.8000    78.8996     5.9723     7.2988
  263.9000    78.2977     5.9723     7.3360
  264.0000    77.8884     5.9723     7.3360
  264.1000    77.2211     5.9723     7.3360
  264.2000    76.6810     5.9723     7.2698
  264.3000    76.4923     5.9723     7.2098
  264.4000    76.4935     5.9723     7.1675
  264.5000    76.4949     5.9723     7.1158
  264.6000    76.4959     5.9723     7.0347
  264.7000    76.4971     5.9723     6.9881
  264.8000    76.6319     5.9723     6.9170
  264.9000    76.8881     5.9723     6.8361
  265.0000    77.1442     5.9723     6.7764
  265.1000    77.4070     5.9723     6.7107
  265.2000    77.6567     5.9723     6.5990
  265.3000    77.7110     5.9723     6.5196
  265.4000    77.7122     5.9723     6.4456
  265.5000    77.7134     5.9723     6.3999
  265.6000    77.7146     5.9723     6.3397
  265.7000    77.7158     5.9723     6.2655
  265.8000    77.7172     5.9723     6.2104
  265.9000    77.7183     5.9723     6.2078
  266.0000    77.7195     5.9723     6.1674
  266.1000    77.7207     5.9638     6.1998
  266.2000    77.8056     5.9310     6.2104
  266.3000    78.0987     5.9310     6.2104
  266.4000    78.6293     5.9004     6.2104
  266.5000    79.1212     5.8899     6.2166
  266.6000    79.6324     5.8899     6.2536
  266.7000    80.1435     5.8784     6.2536
  266.8000    80.5494     5.8492     6.2835
  266.9000    80.7469     5.8492     6.2972
  267.0000    80.7602     5.8492     6.3138
  267.1000    81.0511     5.8492     6.3511
  267.2000    81.0522     5.8492     6.3852
  267.3000    81.0534     5.8492     6.3852
  267.4000    80.9275     5.8492     6.4194
  267.5000    80.6737     5.8492     6.4573
  267.6000    80.3522     5.8492     6.5165
  267.7000    79.5500     5.8492     6.5650
  267.8000    78.0986     5.8492     6.5722
  267.9000    76.1785     5.8492     6.6110
  268.0000    74.1396     5.8492     6.6567
  268.1000    72.2032     5.8543     6.6892
  268.2000    70.4195     5.8899     6.7287
  268.3000    68.6974     5.9235     6.7684
  268.4000    68.6988     5.9310     6.7968
  268.5000    68.6999     5.9521     6.8010
  268.6000    69.0422     5.9723     6.8441
  268.7000    69.6773     5.9807     6.8815
  268.8000    70.3662     6.0139     6.9221
  268.9000    70.9079     6.0139     6.9398
  269.0000    71.7225     6.0450     6.9556
  269.1000    72.2015     6.0806     6.9966
  269.2000    72.7127     6.1164     7.0378
  269.3000    73.3696     6.1406     7.0858
  269.4000    73.9379     6.1459     7.0858
  269.5000    74.2464     6.1834     7.0858
  269.6000    74.7575     6.2185     7.0858
  269.7000    75.3510     6.2841     7.0858
  269.8000    75.5660     6.3359     7.0806
  269.9000    75.9895     6.3733     7.0368
  270.0000    76.5007     6.4108     7.0368
  270.1000    77.0121     6.4486     7.0053
  270.2000    77.4958     6.4915     6.9642
  270.3000    77.7714     6.4915     6.9398
  270.4000    78.2440     6.5179     6.9307
  270.5000    78.9443     6.5563     6.8900
  270.6000    79.7104     6.5823     6.8441
  270.7000    80.3809     6.5823     6.8095
  270.8000    80.8922     6.5823     6.7696
  270.9000    81.4009     6.5452     6.7101
  271.0000    81.7016     6.5367     6.6316
  271.1000    81.9134     6.5138     6.5540
  271.2000    82.1696     6.4599     6.4745
  271.3000    82.3083     6.3844     6.4017
  271.4000    82.3095     6.3079     6.2980
  271.5000    82.3349     6.1834     6.1879
  271.6000    82.6137     6.0895     6.0946
  271.7000    82.6148     5.9593     6.0148
  271.8000    82.8018     5.8551     5.9095
  271.9000    83.1973     5.7759     5.7939
  272.0000    83.8009     5.6748     5.7048
  272.1000    84.6129     5.5716     5.6051
  272.2000    85.6374     5.5092     5.5071
  272.3000    86.8455     5.4448     5.4214
  272.4000    87.2615     5.3812     5.3530
  272.5000    87.7727     5.3312     5.2574
  272.6000    88.1697     5.2857     5.2211
  272.7000    88.3584     5.1962     5.1481
  272.8000    88.3596     5.1617     5.0949
  272.9000    88.3609     5.1094     5.0520
