~VERSION INFORMATION
 VERS.                2.0:   CWLS LOG ASCII STANDARD - VERSION 2.0
 WRAP.                 NO:   ONE LINE PER DEPTH STEP
~WELL INFORMATION
#MNEM.UNIT      DATA TYPE    INFORMATION
#----------   ------------   ------------------------------
 STRT.F           20.0000:   START DEPTH
 STOP.F          565.0000:   STOP DEPTH
 STEP.F            0.5000:   STEP LENGTH
 NULL.          -999.2500:   NO VALUE
 COMP. FENIX & SCISSON INC:   COMPANY
 WELL.     NPR-3 #12-SX-3:   WELL
 FLD .        TEAPOT DOME:   FIELD
 LOC .       S3 T38N R78W:   LOCATION
 CNTY.            NATRONA:   COUNTY
 STAT.            WYOMING:   STATE
 CTRY. UNITED STATES OF AMERICA:   COUNTRY
 SRVC.           BIRDWELL:   SERVICE COMPANY
 DATE.        29-JUL-1978:   LOGDATE
 API .       490251067000:   API NUMBER
~CURVE INFORMATION
#MNEM.UNIT       API CODE    CURVE DESCRIPTION
#----------   ------------   ------------------------------
 DEPT.F                  :   
 SPR .MV     05 010 01 00:   SPONTANEOUS POTENTIAL FROM RES.
 SN  .OHMM   05 040 16 00:   SHORT NORMAL 16"
 IL  .OHMM   05 120 00 00:   INDUCTION LOG
 GRD .GAPI   45 310 01 00:   GAMMA RAY FROM DENSITY LOG
 CALD.IN     45 280 60 00:   CALIPER
 CORR.G/C3   45 356 01 00:   DENSITY CORRECTION
 RHOB.G/C3   45 350 01 00:   BULK DENSITY
 DPHI.DEC    45 890 12 00:   DENSITY POROSITY SANDSTONE
~PARAMETER INFORMATION
#MNEM.UNIT          VALUE    DESCRIPTION
#----------   ------------   ------------------------------
 PD  .                 GL:   PERMANENT DATUM
 EPD .F              5191:   ELEVATION PERMANENT DATUM
 LMF .                 KB:   LOG MEASURED FROM
 DAPD.F                 4:   FEET ABOVE PERMANENT DATUM
 DMF .                 KB:   DRILLING MEASURED FROM
 EKB .F              5195:   KELLING BUSHING
 EGL .F              5191:   GROUND LEVEL
 DATE.            7-29-78:   RUN DATE
 RUN .                  1:   RUN NUMBER
 DD  .F               565:   DEPTH DRILLER
 DL  .F               571:   DEPTH LOGGER
 BLI .F               565:   BOTTOM LOG INTERVAL
 TLI .F                40:   TOP LOG INTERVAL
 CS  .IN            8.625:   CASING SIZE
 CBD .F                40:   CASING BOTTOM DRILLER
 CBL .F                40:   CASING BOTTOM LOGGER
 BS  .IN            7.875:   BIT SIZE
 BSD .F               565:   BIT SIZE AT DEPTH
 DFT .                KCL:   DRILLING FLUID TYPE
 DFD .                8.6:   DRILLING FLUID DENSITY
 DFV .                 31:   DRILLING FLUID VISCOSITY
 DFPH.                  9:   DRILLING FLUID PH
 RMS .OHMM            .32:   RESISTIVITY MUD SAMPLE
 MST .F                70:   MUD SAMPLE TEMPERATURE
 TCS .HRS               1:   TIME CURCULATED STOPPED
 LUN .               2958:   LOGGING UNIT NUMBER
 LUL .               CASP:   LOGGING UNIT LOCATION
 ENGI.              HONEA:   RECORDING ENGINEER
 WITN.              AMEND:   WITNESSED BY
 CLNT.            A2DTECH:   CLIENT CODE
 ORIG.           5" PRINT:   ORIGIN OF DATA
 UWI .       490251067000:   UNIQUE WELL ID
 DICO. A2D Technologies, Inc.:   DIGITIZING COMPANY
~OTHER INFORMATION
~A   DEPT      SPR         SN         IL         GRD      CALD       CORR       RHOB       DPHI   
# ...
  303.5000   -32.0769     9.0746     7.2715    86.5028     7.6028     0.0311     2.4593     0.1286
  304.0000   -32.1113     9.1211     7.2804    85.5308     7.6020     0.0270     2.4733     0.1303
  304.5000   -32.1457     9.1643     7.2894    82.4457     7.6012     0.0229     2.4706     0.1339
  305.0000   -32.1656     9.2789     7.2955    79.4244     7.6005     0.0197     2.4656     0.1376
  305.5000   -32.1686     9.2980     7.3607    77.1255     7.5997     0.0184     2.4604     0.1404
  306.0000   -32.1188     9.3234     7.6849    78.3642     7.5989     0.0216     2.4483     0.1418
  306.5000   -31.8086     9.3479     7.8885    81.0225     7.5982     0.0246     2.4413     0.1349
  307.0000   -31.6114     9.3723     7.9256    83.6227     7.5974     0.0275     2.4597     0.1292
  307.5000   -31.4216     9.3969     7.8441    84.1153     7.5966     0.0255     2.4602     0.1259
  308.0000   -31.2318     9.4215     7.7809    84.0028     7.5958     0.0173     2.4751     0.1218
  308.5000   -31.0417     9.4415     7.7809    83.4911     7.5951     0.0094     2.4976     0.1169
  309.0000   -30.8515     9.4415     7.8111    82.2660     7.5948     0.0100     2.4974     0.1322
  309.5000   -30.6618     9.4425     7.8881    80.9032     7.5977     0.0283     2.4576     0.1288
  310.0000   -30.4704     9.4441     7.9658    80.1371     7.6005     0.0399     2.4743     0.1247
  310.5000   -30.3532     9.3547     7.9989    80.0552     7.6034     0.0397     2.4693     0.1205
  311.0000   -30.1493     9.3547     7.8807    81.2900     7.6062     0.0397     2.4827     0.1188
  311.5000   -30.2910     9.1190     7.7302    85.4698     7.6091     0.0420     2.4818     0.1145
  312.0000   -30.6285     8.6902     7.5827    83.5857     7.6119     0.0457     2.4919     0.1086
  312.5000   -31.0821     8.7203     7.4307    81.2287     7.6147     0.0479     2.5022     0.1028
  313.0000   -31.6110     8.7749     7.2951    79.7960     7.6176     0.0404     2.5193     0.0974
  313.5000   -32.1412     8.8298     7.2817    79.2068     7.6204     0.0317     2.5319     0.1022
  314.0000   -32.6716     8.8851     7.2426    79.8192     7.6233     0.0240     2.5276     0.1252
  314.5000   -33.2030     8.9337     7.2037    80.9656     7.6261     0.0222     2.4934     0.1365
  315.0000   -33.7325     8.7203     7.1619    86.0263     7.6290     0.0229     2.4643     0.1384
  315.5000   -34.1816     8.4743     6.9151    87.4228     7.6318     0.0236     2.4569     0.1403
  316.0000   -34.1569     8.2353     6.6563    85.5200     7.6331     0.0269     2.4522     0.1408
  316.5000   -34.3962     7.9706     6.4484    83.1364     7.6249     0.0333     2.4407     0.1411
  317.0000   -34.4206     7.6431     6.2865    80.7719     7.6167     0.0395     2.4477     0.1411
  317.5000   -34.4612     7.3290     6.1286    80.5325     7.6085     0.0398     2.4488     0.1411
  318.0000   -34.5006     7.0279     5.9747    81.0523     7.6003     0.0395     2.4408     0.1594
  318.5000   -34.5397     6.7391     5.7947    82.2140     7.5921     0.0391     2.4270     0.1734
  319.0000   -34.5789     6.2976     5.4345    82.9560     7.5838     0.0387     2.3842     0.1869
  319.5000   -34.6180     5.7195     5.1408    82.0137     7.5757     0.0382     2.3864     0.1887
  320.0000   -34.6572     5.1945     4.1438    81.4609     7.5839     0.0378     2.3603     0.1909
  320.5000   -34.6964     4.7176     3.3853    84.9194     7.6274     0.0377     2.3521     0.2071
  321.0000   -34.7356     4.2838     3.0523    86.9190     7.6691     0.0427     2.3200     0.2255
  321.5000   -34.7715     3.7574     2.9010    85.9838     7.6793     0.0498     2.2885     0.2457
  322.0000   -34.7710     3.7223     2.7992    80.5614     7.6852     0.0571     2.2572     0.2547
  322.5000   -34.7068     3.7242     2.7229    77.7888     7.6911     0.0643     2.2278     0.2632
  323.0000   -34.1860     3.7242     2.7229    77.7932     7.6971     0.0671     2.2169     0.2553
  323.5000   -33.6610     3.9078     2.7229    77.8428     7.7031     0.0641     2.2155     0.2288
  324.0000   -33.1335     4.0809     2.7871    77.8955     7.7085     0.0610     2.2829     0.2007
  324.5000   -32.5932     4.0854     2.8545    78.0065     7.6978     0.0871     2.3616     0.1712
  325.0000   -32.5610     4.4619     3.2797    79.5147     7.7260     0.0951     2.3449     0.1489
  325.5000   -32.5642     4.9790     3.7744    82.5745     7.7524     0.0590     2.3898     0.1418
  326.0000   -32.5651     5.5572     4.3414    85.1154     7.7845     0.0415     2.4234     0.1364
  326.5000   -32.5651     6.2025     4.8413    85.0374     7.5395     0.0411     2.4473     0.1360
  327.0000   -32.5651     6.7101     5.1381    84.9397     7.5224     0.0402     2.4674     0.1374
  327.5000   -32.5652     7.2053     5.4357    86.6153     7.5115     0.0392     2.4594     0.1387
  328.0000   -32.5651     7.4307     5.7193    88.8524     7.4988     0.0382     2.4547     0.1400
  328.5000   -32.5649     7.4310     5.8986    90.8600     7.4950     0.0383     2.4501     0.1386
  329.0000   -32.5520     7.4310     5.9893    90.2829     7.4916     0.0501     2.4485     0.1366
  329.5000   -32.5237     7.4212     6.0121    89.5934     7.4878     0.0535     2.4538     0.1328
  330.0000   -32.4957     7.3942     5.9689    89.0768     7.4840     0.0496     2.4669     0.1292
  330.5000   -32.4676     7.3671     5.9238    89.2912     7.4802     0.0455     2.4726     0.1371
  331.0000   -32.4395     7.3403     5.8794    89.6742     7.4764     0.0449     2.4596     0.1440
  331.5000   -32.4114     7.3148     5.8467    89.2140     7.4726     0.0468     2.4582     0.1487
  332.0000   -32.3833     7.2927     5.7046    88.7942     7.4688     0.0487     2.4322     0.1511
  332.5000   -32.3551     7.2254     5.5819    88.2081     7.4650     0.0506     2.4305     0.1582
  333.0000   -32.3270     7.0072     5.4619    87.6445     7.4610     0.0526     2.4169     0.1662
  333.5000   -32.2989     6.8135     5.3444    87.0719     7.4567     0.0582     2.4083     0.1740
  334.0000   -32.2708     6.6281     5.2295    89.6748     7.4341     0.0688     2.3902     0.1758
  334.5000   -32.2427     6.4660     5.1170    93.5709     7.4298     0.0623     2.3761     0.1629
  335.0000   -32.2145     6.4125     5.0069    96.5312     7.4223     0.0574     2.3997     0.1635
  335.5000   -32.1865     6.4580     4.8992    94.4876     7.4144     0.0639     2.4023     0.1634
  336.0000   -32.1638     6.5004     4.8644    89.0029     7.4065     0.0718     2.3992     0.1596
  336.5000   -32.1643     6.5922     4.8644    82.6043     7.3986     0.0698     2.4104     0.1482
  337.0000   -32.1643     6.7949     4.9330    78.3265     7.3907     0.0645     2.4411     0.1348
  337.5000   -32.1643     7.0154     5.0937    79.6435     7.3828     0.0591     2.4419     0.1308
  338.0000   -32.1643     7.2431     5.2934    88.0527     7.3749     0.0539     2.4723     0.1285
  338.5000   -32.1643     7.4781     5.4908    93.5762     7.3669     0.0544     2.4708     0.1299
  339.0000   -32.1643     7.7208     5.6956    93.6587     7.3592     0.0565     2.4708     0.1313
  339.5000   -32.1643     7.9714     5.9081    93.7093     7.3335     0.0628     2.4705     0.1328
  340.0000   -32.1643     8.2300     6.1284    91.0886     7.2965     0.0759     2.4491     0.1291
  340.5000   -32.1643     8.4971     6.3570    88.7466     7.2593     0.0836     2.4580     0.1257
  341.0000   -32.1643     8.7725     6.5941    88.1091     7.2218     0.0795     2.4689     0.1254
  341.5000   -32.1643     8.7705     6.8396    89.7432     7.2161     0.0734     2.4739     0.1252
  342.0000   -32.1643     8.7079     6.8396    91.2105     7.2206     0.0674     2.4797     0.1249
  342.5000   -32.1643     8.6019     6.8396    86.9702     7.2654     0.0605     2.4753     0.1246
  343.0000   -32.1643     8.4980     6.8396    87.0259     7.2997     0.0387     2.4772     0.1244
  343.5000   -32.1643     8.3955     6.8396    88.7171     7.3333     0.0193     2.4876     0.1324
