~VERSION INFORMATION
 VERS.                2.0:   CWLS LOG ASCII STANDARD - VERSION 2.0
 WRAP.                 NO:   ONE LINE PER DEPTH STEP
~WELL INFORMATION
#MNEM.UNIT      DATA TYPE    INFORMATION
#----------   ------------   ------------------------------
 STRT.F           10.0000:   START DEPTH
 STOP.F          756.0000:   STOP DEPTH
 STEP.F            0.1000:   STEP LENGTH
 NULL.          -999.2500:   NO VALUE
 COMP. BROWN JOHN E&C INC:   COMPANY
 WELL. N P R 3 SHX- #31-1-X-14:   WELL
 FLD .             TEAPOT:   FIELD
 LOC .      S14 T38N R78W:   LOCATION
 CNTY.            NATRONA:   COUNTY
 STAT.            WYOMING:   STATE
 CTRY. UNITED STATES OF AMERICA:   COUNTRY
 SRVC.     Atlas Wireline:   SERVICE COMPANY
 DATE.        07-JAN-1992:   LOGDATE
 API .       490252249700:   API NUMBER
~CURVE INFORMATION
#MNEM.UNIT       API CODE    CURVE DESCRIPTION
#----------   ------------   ------------------------------
 DEPT.F                  :   
 GRR .GAPI   07 310 01 00:   GAMMA RAY
 RFOC.OHMM   07 220 04 00:   RESISTIVITY FOCUSED LOG RES.
 RILD.OHMM   07 120 46 00:   INDUCTION LOG DEEP RESISTIVITY
 RILM.OHMM   07 120 44 00:   INDUCTION LOG MEDIUM  RESISTIVITY
~PARAMETER INFORMATION
#MNEM.UNIT          VALUE    DESCRIPTION
#----------   ------------   ------------------------------
 PD  .                 GL:   PERMANENT DATUM
 EPD .F              5210:   ELEVATION PERMANENT DATUM
 LMF .                 KB:   LOG MEASURED FROM
 DAPD.F                10:   FEET ABOVE PERMANENT DATUM
 DMF .                 KB:   DRILLING MEASURED FROM
 EKB .F              5220:   KELLING BUSHING
 EDF .F              5219:   DRILLING FLOOR
 EGL .F              5210:   GROUND LEVEL
 DATE.        07-JAN-1992:   RUN DATE
 RUN .                  1:   RUN NUMBER
 DD  .F               762:   DEPTH DRILLER
 DL  .F               760:   DEPTH LOGGER
 BLI .F               758:   BOTTOM LOG INTERVAL
 CS  .IN            9.625:   CASING SIZE
 CBD .F                48:   CASING BOTTOM DRILLER
 CBL .F                50:   CASING BOTTOM LOGGER
 BS  .IN             8.75:   BIT SIZE
 BSD .F               762:   BIT SIZE AT DEPTH
 DFT .    FORMATION FLUID:   DRILLING FLUID TYPE
 MRT .F                90:   MAXIMUM RECORDED TEMPERATURE
 LUN .            HL-6274:   LOGGING UNIT NUMBER
 LUL .             CASPER:   LOGGING UNIT LOCATION
 ENGI.             RAUTIC:   RECORDING ENGINEER
 WITN.        GARY STRONG:   WITNESSED BY
 CLNT.            A2DTECH:   CLIENT CODE
 ORIG.           5" PRINT:   ORIGIN OF DATA
 UWI .       490252249700:   UNIQUE WELL ID
 DICO. A2D Technologies, Inc.:   DIGITIZING COMPANY
~OTHER INFORMATION
~A   DEPT       GRR      RFOC       RILD       RILM   
# ...
  462.6000   108.0580     7.9404     6.8334     6.9584
  462.7000   108.3113     7.9409     6.8338     6.9588
  462.8000   108.5647     7.9788     6.8342     7.0069
  462.9000   108.8393     7.9973     6.8346     7.0069
  463.0000   108.4924     8.0172     6.8350     7.0069
  463.1000   108.1140     8.0542     6.8354     7.0243
  463.2000   107.6690     8.0557     6.8357     7.0557
  463.3000   107.1640     8.1115     6.8361     7.0557
  463.4000   106.6932     8.1119     6.8578     7.0557
  463.5000   106.4260     8.1422     6.8845     7.0905
  463.6000   105.9512     8.1695     6.8849     7.1049
  463.7000   106.8411     8.1700     6.8853     7.1049
  463.8000   106.8447     8.1704     6.9238     7.1049
  463.9000   106.9547     8.1710     6.9646     7.1077
  464.0000   107.2668     8.1714     6.9829     7.1544
  464.1000   107.7748     8.1718     6.9980     7.1544
  464.2000   108.3704     8.1723     7.0392     7.1544
  464.3000   108.7907     8.1850     7.0818     7.1544
  464.4000   109.2987     8.2304     7.0822     7.1665
  464.5000   109.8066     8.2309     7.1147     7.2043
  464.6000   110.3147     8.2313     7.1566     7.2043
  464.7000   110.8137     8.2317     7.1987     7.2043
  464.8000   111.1112     8.2322     7.2330     7.2043
  464.9000   111.5363     8.2327     7.2335     7.2043
  465.0000   112.0443     8.2331     7.2844     7.2177
  465.1000   112.5523     8.2336     7.3531     7.2545
  465.2000   113.0602     8.2340     7.3871     7.2545
  465.3000   113.5682     8.2345     7.4052     7.2939
  465.4000   114.1540     8.2586     7.4488     7.3051
  465.5000   114.5842     8.2930     7.4918     7.3282
  465.6000   114.9285     8.2935     7.4923     7.3560
  465.7000   115.1842     8.2940     7.5287     7.3625
  465.8000   115.3764     8.2944     7.5453     7.4073
  465.9000   115.3801     8.2949     7.5457     7.4073
  466.0000   115.3842     8.2953     7.5461     7.4403
  466.1000   115.3873     8.2958     7.5446     7.4589
  466.2000   115.2250     8.3020     7.4948     7.4753
  466.3000   114.8604     8.3548     7.4951     7.5109
  466.4000   114.3596     8.3553     7.4671     7.5109
  466.5000   113.8591     8.3912     7.4639     7.5109
  466.6000   113.2911     8.4146     7.4964     7.5456
  466.7000   112.6392     8.4315     7.4968     7.5632
  466.8000   112.0547     8.4745     7.4972     7.5632
  466.9000   111.5540     8.4750     7.4976     7.5725
  467.0000   111.0534     8.4754     7.4980     7.6159
  467.1000   110.5341     8.5128     7.4984     7.6159
  467.2000   109.6875     8.5357     7.4989     7.6159
  467.3000   109.0284     8.5361     7.4993     7.6438
  467.4000   108.2756     8.5366     7.4997     7.6690
  467.5000   107.8852     8.5371     7.5001     7.6690
  467.6000   107.8179     8.5376     7.5005     7.6710
  467.7000   107.5900     8.5380     7.5009     7.7225
  467.8000   107.5944     8.5385     7.5014     7.7225
  467.9000   107.5976     8.5390     7.5018     7.7225
  468.0000   107.6012     8.5395     7.5022     7.7225
  468.1000   107.6048     8.5400     7.5026     7.7225
  468.2000   107.6818     8.5404     7.5030     7.7225
  468.3000   107.9142     8.5409     7.5034     7.7225
  468.4000   107.9182     8.5414     7.5039     7.7621
  468.5000   108.1471     8.5419     7.5043     7.7763
  468.6000   108.5785     8.5423     7.5047     7.7763
  468.7000   108.9608     8.5428     7.5051     7.7763
  468.8000   109.2923     8.5434     7.5055     7.7763
  468.9000   109.8515     8.5839     7.5060     7.7763
  469.0000   110.9611     8.6652     7.5064     7.7763
  469.1000   111.6483     8.7885     7.5139     7.7763
  469.2000   112.4084     8.9214     7.5596     7.7763
  469.3000   113.0405     8.9740     7.5600     7.7763
  469.4000   113.4703     9.0365     7.5604     7.7763
  469.5000   113.7544     9.0369     7.5608     7.7763
  469.6000   114.3061     9.0374     7.5613     7.7763
  469.7000   114.0790     9.0154     7.5617     7.7763
  469.8000   113.8305     8.9756     7.5621     7.7516
  469.9000   113.5819     8.9761     7.6063     7.7225
  470.0000   113.1722     8.9767     7.6157     7.7225
  470.1000   112.4193     8.9333     7.6161     7.7225
  470.2000   111.6087     8.9152     7.6165     7.7225
  470.3000   110.6806     8.8925     7.6264     7.7225
  470.4000   109.6755     8.8543     7.6705     7.7225
  470.5000   108.8036     8.8548     7.6710     7.7054
  470.6000   108.1338     8.8553     7.7081     7.6690
  470.7000   107.6331     8.8115     7.7253     7.6690
  470.8000   107.0987     8.7947     7.7257     7.6690
  470.9000   106.6316     8.7952     7.7262     7.6690
  471.0000   106.3162     8.7957     7.7284     7.6690
  471.1000   106.2030     8.7962     7.7810     7.6508
  471.2000   106.2066     8.7967     7.7814     7.6159
  471.3000   106.2813     8.7972     7.7818     7.6159
  471.4000   106.8183     8.7977     7.7822     7.6159
  471.5000   107.5346     8.7981     7.7827     7.6159
  471.6000   108.4824     8.7986     7.7831     7.6159
  471.7000   109.3571     8.7991     7.7836     7.6159
  471.8000   110.2929     8.7997     7.7840     7.6051
  471.9000   111.5195     8.8001     7.7540     7.5632
  472.0000   112.5802     8.7647     7.7309     7.5632
  472.1000   113.3041     8.7399     7.7313     7.5632
  472.2000   113.8739     8.7404     7.7318     7.5632
  472.3000   114.2417     8.7409     7.7322     7.5427
  472.4000   114.4975     8.7414     7.7326     7.5109
  472.5000   114.7130     8.7419     7.7330     7.5074
  472.6000   114.7168     8.7424     7.7110     7.4589
  472.7000   114.4777     8.7429     7.6803     7.4589
  472.8000   114.0366     8.7267     7.6808     7.4589
  472.9000   113.5359     8.6830     7.6812     7.4374
  473.0000   112.8499     8.6836     7.6408     7.4073
  473.1000   111.8449     8.6841     7.6288     7.4073
  473.2000   110.8110     8.6845     7.6293     7.4073
  473.3000   110.3247     8.6850     7.6151     7.4073
  473.4000   110.2139     8.6680     7.5713     7.4073
  473.5000   110.2175     8.6181     7.5252     7.4073
  473.6000   110.2212     8.5662     7.5256     7.4073
  473.7000   110.2248     8.5191     7.5260     7.4073
  473.8000   110.2285     8.5076     7.5264     7.4073
  473.9000   110.7267     8.4803     7.5424     7.4073
  474.0000   111.0373     8.4315     7.5939     7.4073
  474.1000   111.5879     8.3829     7.6863     7.4073
  474.2000   112.2505     8.3334     7.7300     7.4073
  474.3000   112.7585     8.2867     7.8105     7.4073
  474.4000   113.2713     8.2764     7.8496     7.4073
  474.5000   113.7745     8.2489     7.8674     7.4073
  474.6000   113.8828     8.2198     7.9052     7.3739
  474.7000   114.0362     8.2203     7.9057     7.3560
  474.8000   114.1921     8.2207     7.9061     7.3394
  474.9000   114.1958     8.2212     7.8702     7.3051
  475.0000   114.1994     8.2216     7.8522     7.3051
  475.1000   114.2037     8.2221     7.8343     7.3051
  475.2000   114.0044     8.2421     7.7987     7.3051
  475.3000   113.6036     8.2806     7.7991     7.2792
  475.4000   113.2052     8.2810     7.7456     7.2545
  475.5000   112.8521     8.2816     7.7093     7.2451
  475.6000   112.0992     8.3215     7.6927     7.2043
  475.7000   111.2043     8.3404     7.6742     7.2043
  475.8000   110.3887     8.3408     7.6301     7.1694
  475.9000   109.5384     8.3413     7.5878     7.1279
  476.0000   108.8902     8.3417     7.5883     7.1049
  476.1000   108.4443     8.3423     7.5517     7.0945
  476.2000   108.1957     8.3427     7.5083     7.0557
  476.3000   107.9028     8.3122     7.4847     7.0557
  476.4000   107.9057     8.2856     7.4741     7.0204
  476.5000   107.9094     8.2861     7.4337     7.0069
  476.6000   107.9130     8.2866     7.4341     6.9876
  476.7000   107.8594     8.2871     7.3603     6.9471
  476.8000   107.6180     8.2463     7.3038     6.9068
  476.9000   107.6224     8.2304     7.2819     6.8624
  477.0000   107.6254     8.2087     7.2705     6.8269
  477.1000   107.6290     8.1741     7.2253     6.7600
