~VERSION INFORMATION
 VERS.                2.0:   CWLS LOG ASCII STANDARD - VERSION 2.0
 WRAP.                 NO:   ONE LINE PER DEPTH STEP
~WELL INFORMATION
#MNEM.UNIT      DATA TYPE    INFORMATION
#----------   ------------   ------------------------------
 STRT.F           32.0000:   START DEPTH
 STOP.F          517.0000:   STOP DEPTH
 STEP.F            0.5000:   STEP LENGTH
 NULL.          -999.2500:   NO VALUE
 COMP.    FENIX & SCISSON:   COMPANY
 WELL.        NPR #75-S-3:   WELL
 FLD .             TEAPOT:   FIELD
 LOC .       S3 T38N R78W:   LOCATION
 CNTY.            NATRONA:   COUNTY
 STAT.            WYOMING:   STATE
 CTRY. UNITED STATES OF AMERICA:   COUNTRY
 SRVC.              Welex:   SERVICE COMPANY
 DATE.        08-MAR-1977:   LOGDATE
 API .       490251030900:   API NUMBER
~CURVE INFORMATION
#MNEM.UNIT       API CODE    CURVE DESCRIPTION
#----------   ------------   ------------------------------
 DEPT.F                  :   
 SPR .MV     07 010 01 00:   SPONTANEOUS POTENTIAL
 ILD .OHMM   07 120 46 00:   INDUCTION LOG DEEP RES
 ILM .OHMM   07 120 44 00:   INDUCTION LOG MEDIUM RES
 SGRD.OHMM   07 220 05 00:   SHALLOW  GUARD RESISTIVITY
 CALD.IN     45 280 60 00:   CALIPER FROM DENSITY
 GRD .GAPI   45 310 01 00:   GAMMA RAY FROM DENSITY LOG
 CORR.G/C3   45 356 01 00:   DENSITY CORRECTION
 DPHI.DEC    45 890 12 00:   DENSITY POROSITY SANDSTONE
 RHOB.G/C3   45 350 01 00:   BULK DENSITY
~PARAMETER INFORMATION
#MNEM.UNIT          VALUE    DESCRIPTION
#----------   ------------   ------------------------------
 PD  .                 GL:   PERMANENT DATUM
 EPD .F              5141:   ELEVATION PERMANENT DATUM
 LMF .                 GL:   LOG MEASURED FROM
 DMF .                 GL:   DRILLING MEASURED FROM
 EGL .F              5141:   GROUND LEVEL
 DATE.         03-08-1977:   RUN DATE
 RUN .                  1:   RUN NUMBER
 DD  .F               521:   DEPTH DRILLER
 DL  .F               521:   DEPTH LOGGER
 BLI .F               519:   BOTTOM LOG INTERVAL
 TLI .F                35:   TOP LOG INTERVAL
 CS  .IN            8.625:   CASING SIZE
 CBD .F                40:   CASING BOTTOM DRILLER
 CBL .F                42:   CASING BOTTOM LOGGER
 BS  .IN            7.875:   BIT SIZE
 BSD .F               521:   BIT SIZE AT DEPTH
 DFT .            KCL MUD:   DRILLING FLUID TYPE
 DFD .                8.5:   DRILLING FLUID DENSITY
 DFV .                 32:   DRILLING FLUID VISCOSITY
 DFPH.                  8:   DRILLING FLUID PH
 DFL .                8.5:   DRILLING FLUID LOSS
 MSS .            MUD PIT:   MUD SAMPLE SOURCE
 RMS .OHMM            .65:   RESISTIVITY MUD SAMPLE
 MST .F                53:   MUD SAMPLE TEMPERATURE
 RMF .OHMM            .51:   RESISTIVITY MUD FILTRATE SAMPLE
 MFST.F                58:   MUD FILTRATE SAMPLE TEMPERATURE
 RMC .OHMM            .67:   RESISTIVITY MUD CAKE
 MCST.F                54:   MUD CAKE SAMPLE TEMPERATURE
 MFSS.           FANN KIT:   MUD FILTRATE SAMPLE SOURCE
 MCSS.           FANN KIT:   MUD CAKE SAMPLE SOURCE
 RMB .OHMM            .53:   RESISTIVITY MUD AT BHT
 BHT .F                64:   BOTTOM HOLE TEMPERATURE
 TCS .HRS             1.5:   TIME CURCULATED STOPPED
 MRT .F                64:   MAXIMUM RECORDED TEMPERATURE
 LUN .               8611:   LOGGING UNIT NUMBER
 LUL .           GILLETTE:   LOGGING UNIT LOCATION
 ENGI.               DOAK:   RECORDING ENGINEER
 WITN.           S. BURKE:   WITNESSED BY
 CLNT.            A2DTECH:   CLIENT CODE
 ORIG.           5" PRINT:   ORIGIN OF DATA
 UWI .       490251030900:   UNIQUE WELL ID
 DICO. A2D Technologies, Inc.:   DIGITIZING COMPANY
~OTHER INFORMATION
~A   DEPT      SPR        ILD        ILM       SGRD       CALD        GRD        CORR        DPHI       RHOB 
# ...
   68.5000    -2.9755     8.1185     9.4412  -999.2500     7.9804   138.1686     0.0555     0.1042     2.4803
   69.0000    -7.5289     8.1218     9.5100  -999.2500     7.9819   137.1500     0.0557     0.1123     2.4675
   69.5000   -12.9683     8.1814     9.5792  -999.2500     7.9834   135.2425     0.0558     0.1168     2.4548
   70.0000   -17.0823     8.1848     9.5825  -999.2500     7.9850   132.2980     0.0545     0.1101     2.4707
   70.5000   -20.4599     8.1881     9.5858  -999.2500     7.9865   129.9460     0.0547     0.1022     2.4858
   71.0000   -24.7212     8.1915     9.5222  -999.2500     7.9880   129.3719     0.0533     0.0971     2.4926
   71.5000   -30.1607     8.1949     9.3956  -999.2500     7.9896   127.6125     0.0535     0.0922     2.4957
   72.0000   -34.1274     8.1983     9.2690  -999.2500     7.9911   119.1865     0.0536     0.0901     2.4957
   72.5000   -36.6213     8.2024     9.1449  -999.2500     7.9926   118.3115     0.0522     0.0916     2.4898
   73.0000   -38.3789     8.2058     9.0225  -999.2500     7.9941   119.9642     0.0540     0.0943     2.4846
   73.5000   -39.6947     8.2091     8.9635  -999.2500     7.9957   120.5752     0.0541     0.0973     2.4831
   74.0000   -39.9819     8.2125     8.9673  -999.2500     7.9972   118.3714     0.0527     0.0990     2.4841
   74.5000   -39.9698     8.2159     9.0326  -999.2500     7.9987   116.0195     0.0529     0.0958     2.4895
   75.0000   -40.4019     8.2193     9.1614  -999.2500     8.0002   114.2601     0.0531     0.0908     2.4969
   75.5000   -40.5419     8.1653     9.2281  -999.2500     8.0018   112.6490     0.0532     0.0881     2.5015
   76.0000   -40.5297     8.1695     9.2953  -999.2500     8.0033   111.3341     0.0549     0.0848     2.5068
   76.5000   -40.3727     8.1729     9.4933  -999.2500     8.0048   110.6117     0.0551     0.0823     2.5098
   77.0000   -40.2157     8.1762     9.5624  -999.2500     8.0063   110.1857     0.0552     0.0805     2.5114
   77.5000   -40.5005     8.1796     9.5656  -999.2500     8.0079   110.2042     0.0554     0.0790     2.5130
   78.0000   -41.2272     8.1267     9.5689  -999.2500     8.0094   112.2967     0.0541     0.0789     2.5130
   78.5000   -41.6593     8.0179     9.5055  -999.2500     8.0109   115.4263     0.0527     0.0792     2.5131
   79.0000   -42.0914     7.9661     9.4433  -999.2500     8.0125   116.7780     0.0529     0.0804     2.5117
   79.5000   -42.0815     7.8610     9.4473  -999.2500     8.0140   117.3891     0.0500     0.0818     2.5087
   80.0000   -42.0717     7.8094     9.5161  -999.2500     8.0155   117.2593     0.0487     0.0836     2.5043
   80.5000   -42.2095     7.7590     9.5194  -999.2500     8.0170   116.6852     0.0503     0.0860     2.4991
   81.0000   -42.1993     7.7630     9.5887  -999.2500     8.0178   110.9152     0.0535     0.0893     2.4931
   81.5000   -42.3373     7.7662     9.5920  -999.2500     8.0170   111.5751     0.0568     0.0946     2.4857
   82.0000   -42.3252     7.7152     9.5953  -999.2500     8.0162   115.5846     0.0615     0.0991     2.4834
   82.5000   -42.3154     7.7191     9.5323  -999.2500     8.0155   117.3811     0.0631     0.0907     2.4941
   83.0000   -42.4530     7.7223     9.5357  -999.2500     8.0147   118.7161     0.0633     0.0894     2.4994
   83.5000   -42.5905     7.7789     9.5390  -999.2500     8.0139   119.3297     0.0604     0.0900     2.4994
   84.0000   -42.5808     7.7821     9.4765  -999.2500     8.0131   120.5881     0.0545     0.0912     2.4890
   84.5000   -42.5711     7.7317     9.3497  -999.2500     8.0123   122.8192     0.0531     0.0930     2.4928
   85.0000   -42.5614     7.7885     9.2885  -999.2500     8.0116   123.8148     0.0533     0.0950     2.4937
   85.5000   -42.5517     7.7381     9.2917  -999.2500     8.0108   123.3881     0.0550     0.0974     2.4862
   86.0000   -42.5419     7.7414     9.2309  -999.2500     8.0100   123.6108     0.0552     0.0947     2.4824
   86.5000   -42.5322     7.6385     9.2341  1713.3921     8.0092   125.8000     0.0553     0.0910     2.4908
   87.0000   -42.5225     7.5891     9.2373  1250.2782     8.0084   127.0036     0.0570     0.0886     2.4962
   87.5000   -42.5128     7.3858     9.1716    25.1251     8.0077   127.1702     0.0587     0.0874     2.4999
   88.0000   -42.5030     7.2376     9.1168    18.8093     8.0069   126.7396     0.0589     0.0877     2.5007
   88.5000   -42.3460     7.4430     9.1200    18.3091     8.0061   127.0589     0.0590     0.0892     2.4999
   89.0000   -42.0418     7.6059     9.1233    17.3364     8.0053   128.4107     0.0607     0.0909     2.4994
   89.5000   -41.8848     7.8175     9.1264    17.7116     8.0045   129.4662     0.0624     0.0885     2.5002
   90.0000   -41.4332     7.8207     9.3208    17.3601     8.0037   128.5957     0.0625     0.0836     2.5018
   90.5000   -40.6871     7.8326     9.3240    16.8955     8.0030   126.5401     0.0642     0.0821     2.5033
   91.0000   -40.8247     7.8813     9.5225    17.6227     8.0022   124.6326     0.0659     0.0818     2.5056
   91.5000   -42.4358     7.8852     9.5919    16.6756     8.0014   122.5770     0.0676     0.0814     2.5095
   92.0000   -42.8735     7.8885     9.5291    17.5066     8.0006   121.1139     0.0692     0.0787     2.5163
   92.5000   -43.0046     7.9463     9.4015    18.0027     7.9998   119.6509     0.0726     0.0751     2.5291
   93.0000   -42.9946     8.0046     9.2114    17.2491     7.9991   118.7804     0.0773     0.0693     2.5367
   93.5000   -43.1325     8.0632     9.0867    13.5786     7.9983   118.2063     0.0836     0.0651     2.5375
   94.0000   -43.1203     8.1224     8.9051    12.3878     7.9975   118.9654     0.0820     0.0653     2.5346
   94.5000   -43.1106     8.2385     8.9082    13.5869     7.9967   119.7246     0.0731     0.0674     2.5271
   95.0000   -43.2481     8.2989     9.0353    15.7105     7.9959   119.8866     0.0642     0.0767     2.5159
   95.5000   -43.2384     8.3023     9.1011    16.4920     7.9952   119.3171     0.0568     0.0909     2.5009
   96.0000   -43.2477     8.3057     9.1767    15.6131     7.9944   117.5577     0.0509     0.1013     2.4732
   96.5000   -43.2330     8.2088     9.2341    15.0889     7.9936   117.2753     0.0450     0.1124     2.4575
   97.0000   -43.2183     8.1583     9.3014    14.7835     7.9928   118.4835     0.0436     0.1181     2.4523
   97.5000   -43.2036     8.1081     9.2403    14.7899     7.9920   119.3908     0.0438     0.1174     2.4576
   98.0000   -43.1890     8.0596     9.1799    14.5922     7.9913   117.1870     0.0440     0.1132     2.4667
   98.5000   -43.1743     7.9551     9.1198    14.1022     7.9905   115.1314     0.0442     0.1147     2.4592
   99.0000   -43.1596     7.9061     9.1388    13.7230     7.9897   114.8489     0.0443     0.1194     2.4442
   99.5000   -43.2926     7.8575     8.8963    13.7277     7.9889   116.3535     0.0445     0.1278     2.4300
  100.0000   -43.2816     7.8105     8.6602    14.3502     7.9881   117.7838     0.0446     0.1206     2.4436
  100.5000   -43.3110     7.7182     8.6674    14.6846     7.9874   119.6465     0.0441     0.1157     2.4610
  101.0000   -43.3354     7.6098     8.8558    15.3013     7.9867   120.2519     0.0436     0.1154     2.4625
  101.5000   -43.3599     7.5099     8.9244    14.6889     7.9860   120.1126     0.0450     0.1207     2.4496
  102.0000   -43.3843     7.3127     8.9318    14.0041     7.9852   119.3769     0.0406     0.1247     2.4406
  102.5000   -43.4088     7.2667     8.6365    13.6302     7.9845   117.8865     0.0392     0.1267     2.4384
  103.0000   -43.4333     7.2223     8.2937    13.3581     7.9838   116.9034     0.0348     0.1243     2.4400
  103.5000   -43.4577     7.2791     8.1868    13.0914     7.9831   118.2932     0.0320     0.1222     2.4453
  104.0000   -43.3180     7.4367     8.2504    13.0065     7.9823   119.7798     0.0306     0.1209     2.4461
  104.5000   -43.3047     7.5978     8.4880    12.9251     7.9816   120.8179     0.0308     0.1205     2.4455
