~VERSION INFORMATION
 VERS.                2.0:   CWLS LOG ASCII STANDARD - VERSION 2.0
 WRAP.                 NO:   ONE LINE PER DEPTH STEP
~WELL INFORMATION
#MNEM.UNIT      DATA TYPE    INFORMATION
#----------   ------------   ------------------------------
 STRT.F          390.0000:   START DEPTH
 STOP.F         2628.0000:   STOP DEPTH
 STEP.F            0.5000:   STEP LENGTH
 NULL.          -999.2500:   NO VALUE
 COMP. FENIX & SCISSON INC:   COMPANY
 WELL.    25 SHX 11 #3-11:   WELL
 FLD .             TEAPOT:   FIELD
 LOC .      S11 T38N R78W:   LOCATION
 CNTY.            NATRONA:   COUNTY
 STAT.            WYOMING:   STATE
 CTRY. UNITED STATES OF AMERICA:   COUNTRY
 SRVC.              Welex:   SERVICE COMPANY
 DATE.        15-MAY-1980:   LOGDATE
 API .       490251081900:   API NUMBER
~CURVE INFORMATION
#MNEM.UNIT       API CODE    CURVE DESCRIPTION
#----------   ------------   ------------------------------
 DEPT.F                  :   
 CALD.IN     45 280 60 00:   CALIPER
 GRD .GAPI   45 310 01 00:   GAMMA RAY FROM DENSITY LOG
 RHOB.G/C3   45 350 01 00:   BULK DENSITY
 DPHI.DEC    45 890 12 00:   DENSITY POROSITY SANDSTONE
 CORR.G/C3   45 356 01 00:   DENSITY CORRECTION
~PARAMETER INFORMATION
#MNEM.UNIT          VALUE    DESCRIPTION
#----------   ------------   ------------------------------
 PD  .                 GL:   PERMANENT DATUM
 EPD .F              5163:   ELEVATION PERMANENT DATUM
 LMF .                 KB:   LOG MEASURED FROM
 DAPD.F                10:   FEET ABOVE PERMANENT DATUM
 DMF .                 KB:   DRILLING MEASURED FROM
 EKB .F              5173:   KELLING BUSHING
 EGL .F              5163:   GROUND LEVEL
 DATE.            5-15-80:   RUN DATE
 RUN .                  1:   RUN NUMBER
 DD  .F              2625:   DEPTH DRILLER
 DL  .F              2630:   DEPTH LOGGER
 BLI .F              2628:   BOTTOM LOG INTERVAL
 TLI .F               400:   TOP LOG INTERVAL
 CS  .IN            9.625:   CASING SIZE
 CBD .F               645:   CASING BOTTOM DRILLER
 BS  .IN             8.75:   BIT SIZE
 BSD .F              2625:   BIT SIZE AT DEPTH
 DFT .        AIR DRILLED:   DRILLING FLUID TYPE
 TCS .HRS               2:   TIME CURCULATED STOPPED
 MRT .F               116:   MAXIMUM RECORDED TEMPERATURE
 ENGI.            BENTSEN:   RECORDING ENGINEER
 WITN.           DINSMORE:   WITNESSED BY
 CLNT.            A2DTECH:   CLIENT CODE
 ORIG.           5" PRINT:   ORIGIN OF DATA
 UWI .       490251081900:   UNIQUE WELL ID
 DICO. A2D Technologies, Inc.:   DIGITIZING COMPANY
~OTHER INFORMATION
~A   DEPT     CALD         GRD      RHOB       DPHI       CORR   
# ...
 2037.0000     8.8194   110.5010     2.4394     0.0734     0.0396
 2037.5000     8.8118   109.8794     2.4224     0.0846     0.0181
 2038.0000     8.8043   109.7000     2.3831     0.0999    -0.0069
 2038.5000     8.7986   110.4224     2.3757     0.1083    -0.0109
 2039.0000     8.8045   111.1608     2.3897     0.1026    -0.0043
 2039.5000     8.8102   110.4585     2.3925     0.1002    -0.0084
 2040.0000     8.8159   109.3774     2.3945     0.0990    -0.0022
 2040.5000     8.8181   109.5890     2.4104     0.0875     0.0093
 2041.0000     8.8182   110.7495     2.4351     0.0734     0.0319
 2041.5000     8.8182   111.6530     2.4605     0.0594     0.0540
 2042.0000     8.8180   112.7088     2.4662     0.0514     0.0560
 2042.5000     8.8186   113.2351     2.4393     0.0652     0.0426
 2043.0000     8.7767   113.4598     2.4474     0.0692     0.0383
 2043.5000     8.7496   113.6802     2.4601     0.0581     0.0506
 2044.0000     8.7813   113.7109     2.4720     0.0498     0.0618
 2044.5000     8.8133   113.4703     2.4709     0.0490     0.0558
 2045.0000     8.8186   112.8910     2.4639     0.0536     0.0487
 2045.5000     8.8182   112.3239     2.4685     0.0526     0.0501
 2046.0000     8.8266   112.0166     2.4563     0.0601     0.0440
 2046.5000     8.8384   112.6550     2.4385     0.0723     0.0268
 2047.0000     8.8400   113.1085     2.4264     0.0810     0.0164
 2047.5000     8.7848   113.6255     2.4023     0.0898     0.0052
 2048.0000     8.7226   114.3845     2.4056     0.0929     0.0019
 2048.5000     8.6610   115.1408     2.4120     0.0865     0.0125
 2049.0000     8.6170   115.0165     2.4005     0.0966     0.0092
 2049.5000     8.6151   114.0843     2.3974     0.0936     0.0035
 2050.0000     8.6527   113.1836     2.4057     0.0908     0.0079
 2050.5000     8.6899   112.2812     2.4015     0.0929     0.0140
 2051.0000     8.7118   112.4968     2.4062     0.0929     0.0198
 2051.5000     8.6837   112.1757     2.3982     0.0967     0.0119
 2052.0000     8.7453   111.4945     2.3923     0.0986     0.0037
 2052.5000     8.8196   111.3216     2.4016     0.0957     0.0053
 2053.0000     8.8178   112.0769     2.3960     0.0972     0.0072
 2053.5000     8.8377   112.8378     2.3941     0.0990    -0.0003
 2054.0000     8.8282   113.5918     2.4039     0.0932     0.0036
 2054.5000     8.8044   114.2639     2.4136     0.0877     0.0060
 2055.0000     8.7806   114.9388     2.4144     0.0869     0.0049
 2055.5000     8.7587   115.3022     2.4234     0.0796     0.0086
 2056.0000     8.7742   116.5367     2.4202     0.0811     0.0102
 2056.5000     8.7912   117.5546     2.4226     0.0821     0.0076
 2057.0000     8.8078   118.6739     2.4170     0.0829     0.0051
 2057.5000     8.8184   119.7878     2.4109     0.0859     0.0027
 2058.0000     8.8183   120.6801     2.4219     0.0878     0.0075
 2058.5000     8.8177   119.1886     2.4388     0.0779     0.0256
 2059.0000     8.7900   120.0369     2.4556     0.0641     0.0436
 2059.5000     8.7103   117.4025     2.4744     0.0502     0.0614
 2060.0000     8.6802   114.8063     2.4773     0.0462     0.0727
 2060.5000     8.7547   112.2004     2.4540     0.0587     0.0546
 2061.0000     8.8200   111.0031     2.4332     0.0762     0.0330
 2061.5000     8.8185   110.9819     2.4048     0.0939     0.0115
 2062.0000     8.8182   110.5434     2.3810     0.1058    -0.0047
 2062.5000     8.8182   109.6947     2.3716     0.1111    -0.0114
 2063.0000     8.8182   108.8433     2.3679     0.1147    -0.0149
 2063.5000     8.8182   107.9887     2.3794     0.1086    -0.0086
 2064.0000     8.8182   107.1405     2.3910     0.1013    -0.0014
 2064.5000     8.8181   107.0427     2.4026     0.0941     0.0058
 2065.0000     8.8174   106.6611     2.4102     0.0889     0.0130
 2065.5000     8.8534   106.4263     2.4167     0.0858     0.0203
 2066.0000     8.8388   106.4331     2.4116     0.0837     0.0175
 2066.5000     8.8160   106.7702     2.4025     0.0923     0.0106
 2067.0000     8.8572   107.5643     2.4004     0.0934     0.0089
 2067.5000     8.8640   108.3533     2.4115     0.0896     0.0176
 2068.0000     8.8947   109.1405     2.4254     0.0811     0.0275
 2068.5000     8.8740   109.7851     2.4450     0.0699     0.0388
 2069.0000     8.8433   109.5857     2.4646     0.0561     0.0558
 2069.5000     8.8179   109.2784     2.4842     0.0424     0.0727
 2070.0000     8.8194   109.1831     2.5035     0.0286     0.0896
 2070.5000     8.7986   110.0091     2.5043     0.0272     0.0987
 2071.0000     8.8001   110.8875     2.4736     0.0441     0.0761
 2071.5000     8.8128   111.7600     2.4486     0.0641     0.0470
 2072.0000     8.8174   112.5293     2.4350     0.0750     0.0382
 2072.5000     8.7752   112.1293     2.4215     0.0813     0.0295
 2073.0000     8.7274   112.1424     2.4156     0.0849     0.0289
 2073.5000     8.7378   112.9058     2.4282     0.0780     0.0363
 2074.0000     8.7578   113.6734     2.4383     0.0713     0.0435
 2074.5000     8.7697   113.4572     2.4410     0.0684     0.0474
 2075.0000     8.7832   112.5543     2.4389     0.0663     0.0443
 2075.5000     8.7964   111.6682     2.4469     0.0693     0.0457
 2076.0000     8.7981   110.7665     2.4315     0.0736     0.0345
 2076.5000     8.8078   111.5087     2.4315     0.0696     0.0367
 2077.0000     8.8507   111.1835     2.4565     0.0626     0.0481
 2077.5000     8.8921   110.6019     2.4503     0.0603     0.0542
 2078.0000     8.9335   111.5601     2.4441     0.0683     0.0436
 2078.5000     8.9413   111.2557     2.4460     0.0663     0.0529
 2079.0000     8.8750   110.9261     2.4401     0.0694     0.0494
 2079.5000     8.9494   110.6572     2.4353     0.0720     0.0518
 2080.0000     8.9778   111.2557     2.4613     0.0596     0.0710
 2080.5000     8.9408   111.9464     2.4720     0.0494     0.0862
 2081.0000     8.9020   112.3099     2.4579     0.0590     0.0718
 2081.5000     8.8634   111.1656     2.4467     0.0656     0.0613
 2082.0000     8.8248   110.0514     2.4445     0.0660     0.0609
 2082.5000     8.7853   108.9500     2.4457     0.0684     0.0610
 2083.0000     8.7778   108.2346     2.4439     0.0683     0.0566
 2083.5000     8.7781   108.2671     2.4424     0.0688     0.0551
 2084.0000     8.7569   109.0509     2.4318     0.0743     0.0499
 2084.5000     8.7297   109.8923     2.4129     0.0849     0.0297
 2085.0000     8.7235   110.7207     2.4210     0.0804     0.0187
 2085.5000     8.7417   111.3009     2.4344     0.0727     0.0256
 2086.0000     8.7580   110.8677     2.4356     0.0708     0.0280
 2086.5000     8.7572   110.4201     2.4373     0.0752     0.0304
 2087.0000     8.7535   110.9321     2.4497     0.0658     0.0419
 2087.5000     8.7497   111.4387     2.4491     0.0619     0.0533
 2088.0000     8.7460   111.8895     2.4359     0.0712     0.0522
 2088.5000     8.7423   111.8921     2.4225     0.0793     0.0423
 2089.0000     8.7382   111.8733     2.4091     0.0874     0.0290
 2089.5000     8.7561   112.6809     2.4029     0.0903     0.0235
 2090.0000     8.7830   112.7690     2.4121     0.0888     0.0268
 2090.5000     8.7982   113.9510     2.4225     0.0778     0.0294
 2091.0000     8.7914   115.2212     2.4307     0.0763     0.0400
 2091.5000     8.7838   116.4142     2.4224     0.0815     0.0289
 2092.0000     8.7795   116.4441     2.4045     0.0896     0.0164
 2092.5000     8.7889   117.3880     2.3950     0.0958     0.0077
 2093.0000     8.7981   119.0499     2.4103     0.0881     0.0145
 2093.5000     8.8072   120.6655     2.4042     0.0934     0.0127
 2094.0000     8.8166   121.3535     2.4019     0.0925     0.0107
 2094.5000     8.8122   120.7604     2.4024     0.0901     0.0236
 2095.0000     8.8022   122.2169     2.3966     0.0996     0.0183
 2095.5000     8.7922   122.3068     2.3754     0.1091     0.0065
 2096.0000     8.7822   122.0243     2.3928     0.1022     0.0082
 2096.5000     8.7716   123.1156     2.4086     0.0878     0.0260
 2097.0000     8.7604   124.0126     2.4244     0.0791     0.0366
 2097.5000     8.7492   123.4313     2.4303     0.0759     0.0468
