~VERSION INFORMATION
 VERS.                2.0:   CWLS LOG ASCII STANDARD - VERSION 2.0
 WRAP.                 NO:   ONE LINE PER DEPTH STEP
~WELL INFORMATION
#MNEM.UNIT      DATA TYPE    INFORMATION
#----------   ------------   ------------------------------
 STRT.F            0.0000:   START DEPTH
 STOP.F          448.0000:   STOP DEPTH
 STEP.F            0.5000:   STEP LENGTH
 NULL.          -999.2500:   NO VALUE
 COMP.       F D SERV INC:   COMPANY
 WELL.  65-1 SX-10 #65-10:   WELL
 FLD .             TEAPOT:   FIELD
 LOC .      S10 T38N R78W:   LOCATION
 CNTY.            NATRONA:   COUNTY
 STAT.            WYOMING:   STATE
 CTRY. UNITED STATES OF AMERICA:   COUNTRY
 SRVC.     Atlas Wireline:   SERVICE COMPANY
 DATE.        09-APR-1992:   LOGDATE
 API .       490252252700:   API NUMBER
~CURVE INFORMATION
#MNEM.UNIT       API CODE    CURVE DESCRIPTION
#----------   ------------   ------------------------------
 DEPT.F                  :   
 GRR .GAPI   07 310 01 00:   GAMMA RAY
 SPR .MV     07 010 01 00:   SPONTANEOUS POTENTIAL
 RILD.OHMM   07 120 46 00:   INDUCTION LOG DEEP RESISTIVITY
 RILM.OHMM   07 120 44 00:   INDUCTION LOG MEDIUM RESISTIVITY
 RFOC.OHMM   07 220 04 00:   RESISTIVITY FOCUSED LOG
~PARAMETER INFORMATION
#MNEM.UNIT          VALUE    DESCRIPTION
#----------   ------------   ------------------------------
 PD  .                 GL:   PERMANENT DATUM
 EPD .F              5192:   ELEVATION PERMANENT DATUM
 LMF .                 KB:   LOG MEASURED FROM
 DAPD.F                10:   FEET ABOVE PERMANENT DATUM
 DMF .                 KB:   DRILLING MEASURED FROM
 EKB .F              5202:   KELLING BUSHING
 EDF .F              5201:   DRILLING FLOOR
 EGL .F              5192:   GROUND LEVEL
 DATE.        09-APR-1992:   RUN DATE
 RUN .                  1:   RUN NUMBER
 DD  .F               450:   DEPTH DRILLER
 DL  .F               450:   DEPTH LOGGER
 BLI .F               448:   BOTTOM LOG INTERVAL
 CS  .IN            8.625:   CASING SIZE
 CBD .F               133:   CASING BOTTOM DRILLER
 CBL .F               135:   CASING BOTTOM LOGGER
 BS  .IN            7.875:   BIT SIZE
 BSD .F               450:   BIT SIZE AT DEPTH
 DFT .          CHEM. GEL:   DRILLING FLUID TYPE
 DFD .               12.7:   DRILLING FLUID DENSITY
 DFV .                 47:   DRILLING FLUID VISCOSITY
 DFPH.                  9:   DRILLING FLUID PH
 DFL .                9.2:   DRILLING FLUID LOSS
 MSS .            MUDTANK:   MUD SAMPLE SOURCE
 RMS .OHMM           3.14:   RESISTIVITY MUD SAMPLE
 MST .F                75:   MUD SAMPLE TEMPERATURE
 RMF .OHMM           1.79:   RESISTIVITY MUD FILTRATE SAMPLE
 MFST.F                75:   MUD FILTRATE SAMPLE TEMPERATURE
 RMC .OHMM           4.47:   RESISTIVITY MUD CAKE
 MCST.F                75:   MUD CAKE SAMPLE TEMPERATURE
 MFSS.               MEAS:   MUD FILTRATE SAMPLE SOURCE
 MCSS.               MEAS:   MUD CAKE SAMPLE SOURCE
 RMB .OHMM           2.14:   RESISTIVITY MUD AT BHT
 BHT .F               110:   BOTTOM HOLE TEMPERATURE
 TCS .HRS               2:   TIME CURCULATED STOPPED
 MRT .F               110:   MAXIMUM RECORDED TEMPERATURE
 LUN .            HL-6274:   LOGGING UNIT NUMBER
 LUL .             CASPER:   LOGGING UNIT LOCATION
 ENGI.             RAUTIO:   RECORDING ENGINEER
 WITN.        GARY STRONG:   WITNESSED BY
 CLNT.            A2DTECH:   CLIENT CODE
 ORIG.           5" PRINT:   ORIGIN OF DATA
 UWI .       490252252700:   UNIQUE WELL ID
 DICO. A2D Technologies, Inc.:   DIGITIZING COMPANY
~OTHER INFORMATION
~A    DEPT     GRR        SPR       RILD       RILM       RFOC   
# ...
  122.0000    57.4730  -999.2500  -999.2500  -999.2500  -999.2500
  122.5000    55.6484  -999.2500  -999.2500  -999.2500  -999.2500
  123.0000    54.7301  -999.2500  -999.2500  -999.2500  -999.2500
  123.5000    54.1139  -999.2500  -999.2500  -999.2500  -999.2500
  124.0000    54.4041  -999.2500  -999.2500  -999.2500  -999.2500
  124.5000    53.7879  -999.2500  -999.2500  -999.2500  -999.2500
  125.0000    54.3802  -999.2500  -999.2500  -999.2500  -999.2500
  125.5000    54.4059  -999.2500  -999.2500  -999.2500  -999.2500
  126.0000    52.5436  -999.2500  -999.2500  -999.2500  -999.2500
  126.5000    50.1147  -999.2500  -999.2500  -999.2500  -999.2500
  127.0000    50.1027  -999.2500  -999.2500  -999.2500  -999.2500
  127.5000    51.2992  -999.2500  -999.2500  -999.2500  -999.2500
  128.0000    52.4958  -999.2500  -999.2500  -999.2500  -999.2500
  128.5000    51.7965  -999.2500  -999.2500  -999.2500  -999.2500
  129.0000    50.9064  -999.2500  -999.2500  -999.2500  -999.2500
  129.5000    49.7379  -999.2500  -999.2500  -999.2500  -999.2500
  130.0000    49.4238  -999.2500  -999.2500  -999.2500  -999.2500
  130.5000    48.8076  -999.2500  -999.2500  -999.2500  -999.2500
  131.0000    47.5872  -999.2500  -999.2500  -999.2500  -999.2500
  131.5000    47.5752  -999.2500  -999.2500  -999.2500  -999.2500
  132.0000    48.1705  -999.2500  -999.2500  -999.2500  -999.2500
  132.5000    45.7386  -999.2500  -999.2500  -999.2500  -999.2500
  133.0000    40.8928  -999.2500  -999.2500  -999.2500  -999.2500
  133.5000    37.8597  -999.2500  -999.2500  -999.2500  -999.2500
  134.0000    36.6423  -999.2500  -999.2500  -999.2500  -999.2500
  134.5000    44.7845  -999.2500  -999.2500  -999.2500  -999.2500
  135.0000    51.1169  -999.2500  -999.2500  -999.2500  -999.2500
  135.5000    55.3346   -67.3219     0.8422     9.6523     2.5233
  136.0000    57.7395   -71.1103     1.3351     2.8629     3.7016
  136.5000    59.5403   -70.9711     2.3837     2.7639     4.2536
  137.0000    59.5283   -70.5329    14.6602     3.1114     4.6549
  137.5000    58.6100   -70.2397  3510.0208     3.8624     5.1657
  138.0000    58.2960   -70.5567  9939.7549     4.2346     5.6530
  138.5000    66.7583   -71.1729 10075.4941     4.6681     6.0582
  139.0000    79.7925   -71.7890    36.5592     5.0195     6.2263
  139.5000    84.2961   -71.6499    18.8149     5.3940     6.3112
  140.0000    85.1763   -69.8491     6.2783     5.5841     6.4853
  140.5000    85.0705   -67.5952     5.7307     6.0705     6.6189
  141.0000    84.8103   -65.6194     5.8962     6.7862     6.6616
  141.5000    86.0038   -63.8426     7.0116     7.6929     6.8004
  142.0000    88.1067   -63.8550     7.6218     8.5999     6.8429
  142.5000    89.6083   -63.8695     7.8896     8.9660     6.8870
  143.0000    90.8018   -63.8814     7.6155     8.7161     6.9799
  143.5000    89.5814   -64.0444     7.4026     8.2402     6.8306
  144.0000    85.9441   -64.8116     7.1454     7.6823     6.7323
  144.5000    84.1194   -65.1256     7.1425     7.1622     6.7286
  145.0000    83.8054   -65.4397     7.1904     6.9630     6.8194
  145.5000    84.0985   -65.9048     7.3389     7.0099     6.9598
  146.0000    83.7814   -66.5209     7.5967     7.1065     7.2029
  146.5000    84.0716   -66.9860     7.9743     7.2550     7.1989
  147.0000    83.4554   -66.8469     8.0269     7.4072     7.1450
  147.5000    81.9329   -66.5537     8.1365     7.5612     6.9930
  148.0000    80.1082   -66.5686     8.0765     7.5591     6.9891
  148.5000    80.7009   -67.0337     8.1298     7.5569     6.9852
  149.0000    82.1991   -67.1967     8.1834     7.5019     6.9806
  149.5000    82.1872   -67.5107     8.1942     7.4998     6.9282
  150.0000    82.1752   -67.6737     8.2370     7.4363     6.9244
  150.5000    86.4264   -67.6858     8.2862     7.3171     6.8247
  151.0000    87.6178   -67.6979     8.2239     7.2321     6.7735
  151.5000    87.5955   -67.7341     8.1053     7.1344     6.7698
  152.0000    86.0716   -68.0265     7.9328     7.0335     6.6723
  152.5000    84.2465   -68.4916     7.7640     6.9336     6.5762
  153.0000    82.1201   -68.9567     7.6520     6.8356     6.5726
  153.5000    79.9938   -69.5729     7.3338     6.6920     6.3440
  154.0000    79.3736   -69.5848     6.9312     6.5515     6.2091
  154.5000    82.4016   -69.5967     6.6895     6.1938     6.1047
  155.0000    87.2289   -69.6086     6.3667     5.8557     5.9473
  155.5000    90.8514   -69.6206     5.6299     5.5360     5.3533
  156.0000    92.2538   -69.3304     4.5306     5.0896     4.8524
  156.5000    88.9182   -69.6444     3.8426     4.3031     4.6835
  157.0000    85.5871   -69.6563     3.2703     3.6129     4.5521
  157.5000    83.7620   -69.6683     2.8821     3.2300     4.3026
  158.0000    84.6477   -69.6802     2.6489     2.7309     3.9273
  158.5000    85.2367   -69.5411     2.5210     2.4077     3.4378
  159.0000    80.3951   -68.8138     2.4674     2.2604     2.9884
  159.5000    74.9556   -68.2304     2.4833     2.2580     2.4058
  160.0000    65.9015   -67.4959     2.5172     2.3070     2.4725
  160.5000    60.7632   -66.4593     2.5868     2.3883     2.6870
  161.0000    61.0465   -66.6312     2.7340     2.5613     3.0877
  161.5000    64.9443   -66.9541     3.0345     2.8283     3.8312
  162.0000    74.2637   -66.9749     3.5122     3.2357     3.9101
  162.5000    83.8844   -66.6884     3.6351     3.7474     3.9952
  163.0000    84.1722   -66.4071     4.1628     4.2576     4.3366
  163.5000    84.1014   -65.8288     4.7866     4.6609     4.9827
  164.0000    85.0356   -65.2447     5.1822     5.0316     5.4910
  164.5000    87.4274   -64.6616     5.5156     5.2454     6.0091
  165.0000    90.7227   -64.0785     5.7889     5.5067     6.3950
  165.5000    91.9097   -63.4951     5.9506     5.6615     6.4822
  166.0000    90.9237   -64.1208     6.0310     5.8203     6.3880
  166.5000    87.6566   -64.5993     5.9849     5.9418     6.2522
  167.0000    88.6265   -64.9222     5.9400     5.8166     5.8276
  167.5000    91.4005   -65.3910     5.8135     5.6945     6.0734
  168.0000    93.9243   -64.6617     5.5717     5.4593     6.2856
  168.5000    92.7016   -64.2242     5.3028     5.0897     6.2821
  169.0000    93.8885   -64.4012     5.0118     4.7784     5.8555
  169.5000    96.8827   -64.8752     4.7367     4.4861     4.4893
  170.0000   100.4792   -65.5002     4.7011     4.3310     4.5817
  170.5000    98.0517   -65.5210     4.7315     4.3601     4.8760
  171.0000    94.1182   -65.5418     4.7998     4.4512     5.1530
  171.5000    91.6907   -65.4116     4.9625     4.6403     5.1501
  172.0000    90.7692   -65.1303     5.1004     4.8075     5.2989
  172.5000    90.7513   -64.6979     5.2421     5.0502     5.4399
  173.0000    93.1431   -64.5676     5.4255     5.2683     5.5908
  173.5000    95.5348   -64.5891     5.6153     5.5965     5.7450
  174.0000    96.7262   -64.6144     5.8525     5.9164     5.9044
  174.5000    91.8846   -64.1821     6.0573     6.1250     6.0690
  175.0000    89.4571   -63.4476     6.2265     6.2972     6.3684
  175.5000    88.8368   -62.8641     6.3994     6.5187     6.6370
  176.0000    88.5177   -62.1297     6.5314     6.7957     7.1625
  176.5000    90.9095   -61.5410     6.6652     6.9862     7.5696
  177.0000    91.7952   -61.7181     6.7554     7.0825     7.7806
  177.5000    92.9822   -61.7389     6.8946     7.1807     7.7212
  178.0000    92.5782   -61.7597     6.8428     7.1282     7.5571
  178.5000    89.3313   -61.7805     6.7850     7.0274     7.3965
  179.0000    88.1084   -61.8013     6.6926     6.9766     7.2899
  179.5000    88.0869   -61.8221     6.5502     6.8301     7.1345
  180.0000    87.7678   -61.6918     6.4107     6.7335     6.9801
  180.5000    86.5451   -61.4105     6.3183     6.6383     6.8827
  181.0000    85.3224   -61.6032     6.1407     6.4537     6.7363
  181.5000    86.5094   -61.7594     6.0100     6.2739     6.5466
  182.0000    90.1059   -62.3845     5.8412     6.0148     6.2311
  182.5000    90.6949   -62.5563     5.7168     5.7664     6.0986
