~VERSION INFORMATION
 VERS.                2.0:   CWLS LOG ASCII STANDARD - VERSION 2.0
 WRAP.                 NO:   ONE LINE PER DEPTH STEP
~WELL INFORMATION
#MNEM.UNIT      DATA TYPE    INFORMATION
#----------   ------------   ------------------------------
 STRT.F         1782.5000:   START DEPTH
 STOP.F         2209.5000:   STOP DEPTH
 STEP.F            0.5000:   STEP LENGTH
 NULL.          -999.2500:   NO VALUE
 COMP. BROWN JOHN E&C INC:   COMPANY
 WELL. NPR 3 SHX-28 #66-28:   WELL
 FLD .             TEAPOT:   FIELD
 LOC .      S28 T39N R78W:   LOCATION
 CNTY.            NATRONA:   COUNTY
 STAT.            WYOMING:   STATE
 CTRY. UNITED STATES OF AMERICA:   COUNTRY
 SRVC.            Unknown:   SERVICE COMPANY
 DATE.        11-OCT-1991:   LOGDATE
 API .       490251105600:   API NUMBER
~CURVE INFORMATION
#MNEM.UNIT       API CODE    CURVE DESCRIPTION
#----------   ------------   ------------------------------
 DEPT.F                  :   
 ROP .MIN/FT 91 810 01 00:   RATE OF DRILLING PENETRATION
 TGAS.UNITS  91 830 01 00:   TOTAL GAS FROM HOTWIRE
~PARAMETER INFORMATION
#MNEM.UNIT          VALUE    DESCRIPTION
#----------   ------------   ------------------------------
 EKB .F              5068:   KELLING BUSHING
 EGL .F              5058:   GROUND LEVEL
 DATE.           10-11-91:   RUN DATE
 DD  .F              2210:   DEPTH DRILLER
 BLI .F              2210:   BOTTOM LOG INTERVAL
 TLI .F              1780:   TOP LOG INTERVAL
 CS  .IN            8.625:   CASING SIZE
 CBD .F               480:   CASING BOTTOM DRILLER
 ENGI.               HUSK:   RECORDING ENGINEER
 WITN.              TOWER:   WITNESSED BY
 CLNT.            A2DTECH:   CLIENT CODE
 ORIG.           5" PRINT:   ORIGIN OF DATA
 UWI .       490251105600:   UNIQUE WELL ID
 DICO. A2D Technologies, Inc.:   DIGITIZING COMPANY
~OTHER INFORMATION
~A  DEPT         ROP      TGAS  
# ...
 1904.0000     0.9656     8.5719
 1904.5000     0.9658     8.5714
 1905.0000     0.9660     8.5710
 1905.5000     0.9016     8.5706
 1906.0000     0.7835     8.5702
 1906.5000     0.6869     8.5698
 1907.0000     0.5581     8.5694
 1907.5000     0.4292     8.5689
 1908.0000     0.3864     8.5685
 1908.5000     0.4296     8.5681
 1909.0000     0.4943     8.5677
 1909.5000     0.5805     8.5673
 1910.0000     0.6452     8.5669
 1910.5000     0.6991     8.5664
 1911.0000     0.7531     8.5660
 1911.5000     0.8178     8.5656
 1912.0000     0.8825     8.5652
 1912.5000     0.8934     8.5648
 1913.0000     0.8828     8.5644
 1913.5000     0.8185     8.5639
 1914.0000     0.7971     8.5635
 1914.5000     0.7973     8.5631
 1915.0000     0.7975     8.5627
 1915.5000     0.7977     8.5623
 1916.0000     0.8194     8.5618
 1916.5000     0.8303     8.5614
 1917.0000     0.8520     8.5610
 1917.5000     0.8737     8.5606
 1918.0000     0.9061     8.5602
 1918.5000     0.9063     8.5598
 1919.0000     0.9065     8.5593
 1919.5000     0.8637     8.5589
 1920.0000     0.8208     8.5586
 1920.5000     0.7994     8.5588
 1921.0000     0.7997     8.5589
 1921.5000     0.7999     8.5591
 1922.0000     0.8000     8.5592
 1922.5000     0.8110     8.5594
 1923.0000     0.8434     8.5596
 1923.5000     0.8758     8.5597
 1924.0000     0.8868     8.5599
 1924.5000     0.9084     8.5600
 1925.0000     0.9086     8.5602
 1925.5000     0.9088     8.5603
 1926.0000     0.9090     8.5605
 1926.5000     0.8554     8.5607
 1927.0000     0.8018     8.5608
 1927.5000     0.8020     8.5610
 1928.0000     0.8022     8.5611
 1928.5000     0.8024     8.5613
 1929.0000     0.8563     8.5615
 1929.5000     0.9103     8.5616
 1930.0000     0.9211     8.5618
 1930.5000     0.8676     8.5619
 1931.0000     0.8462     8.5621
 1931.5000     0.8034     8.5623
 1932.0000     0.7714     8.5624
 1932.5000     0.7285     8.5626
 1933.0000     0.6856     8.5627
 1933.5000     0.6429     8.5629
 1934.0000     0.6215     8.5631
 1934.5000     0.6755     8.5632
 1935.0000     0.7187     8.5634
 1935.5000     0.7726     8.5635
 1936.0000     0.8158     8.5637
 1936.5000     0.8267     8.5638
 1937.0000     0.8377     8.5640
 1937.5000     0.8486     8.5642
 1938.0000     0.8488     8.5643
 1938.5000     0.8597     8.5645
 1939.0000     0.8599     8.5646
 1939.5000     0.8601     8.5648
 1940.0000     0.8602     8.5650
 1940.5000     0.8712     8.6266
 1941.0000     0.9144     8.7076
 1941.5000     0.9575     8.7886
 1942.0000     1.0007     8.8696
 1942.5000     0.9076     8.9506
 1943.0000     0.8280     9.0316
 1943.5000     0.7742     9.1126
 1944.0000     0.6882     9.1936
 1944.5000     0.6667     9.2746
 1945.0000     0.6667     9.3556
 1945.5000     0.7312     9.4366
 1946.0000     0.7957     9.5176
 1946.5000     0.7312     9.5986
 1947.0000     0.6667     9.6796
 1947.5000     0.6022     9.7606
 1948.0000     0.6129     9.8416
 1948.5000     0.6452     9.9226
 1949.0000     0.6774    10.0036
 1949.5000     0.6882    10.0846
 1950.0000     0.6452    10.1656
 1950.5000     0.5484    10.2466
 1951.0000     0.4301    10.3276
 1951.5000     0.3226    10.4086
 1952.0000     0.3226    10.4896
 1952.5000     0.4086    10.5706
 1953.0000     0.4731    10.6516
 1953.5000     0.5161    10.7326
 1954.0000     0.5376    10.8136
 1954.5000     0.4839    10.8946
 1955.0000     0.4301    10.9756
 1955.5000     0.4086    11.0566
 1956.0000     0.4086    11.1376
 1956.5000     0.3978    11.2186
 1957.0000     0.3871    11.2996
 1957.5000     0.3871    11.3806
 1958.0000     0.3763    11.4616
 1958.5000     0.3763    11.5426
 1959.0000     0.3871    11.6237
 1959.5000     0.3978    11.7047
 1960.0000     0.4301    11.7923
 1960.5000     0.4839    11.8168
 1961.0000     0.5806    11.8435
 1961.5000     0.6774    11.8701
 1962.0000     0.7527    11.8968
 1962.5000     0.7312    11.9235
 1963.0000     0.6882    11.9502
 1963.5000     0.6022    11.9768
 1964.0000     0.6237    12.0035
 1964.5000     0.6344    12.0302
 1965.0000     0.6452    12.0569
 1965.5000     0.6667    12.0835
 1966.0000     0.6667    12.1102
 1966.5000     0.5806    12.1369
 1967.0000     0.5161    12.1636
 1967.5000     0.4516    12.1902
 1968.0000     0.4946    12.2169
 1968.5000     0.5914    12.2436
 1969.0000     0.6667    12.2703
 1969.5000     0.7419    12.2970
 1970.0000     0.7742    12.3236
 1970.5000     0.7742    12.3503
 1971.0000     0.7742    12.3770
 1971.5000     0.7742    12.4037
 1972.0000     0.7742    12.4303
 1972.5000     0.7742    12.4570
 1973.0000     0.8090    12.4837
 1973.5000     0.8543    12.5104
 1974.0000     0.8995    12.5370
 1974.5000     0.8639    12.5637
 1975.0000     0.7900    12.5904
 1975.5000     0.7097    12.6171
 1976.0000     0.7097    12.6437
 1976.5000     0.7097    12.6704
 1977.0000     0.7097    12.6971
 1977.5000     0.7097    12.7238
 1978.0000     0.7097    12.7504
 1978.5000     0.7097    12.7771
 1979.0000     0.7097    12.8038
 1979.5000     0.7097    12.8305
 1980.0000     0.7097    12.8571
 1980.5000     0.6681    12.7769
 1981.0000     0.6158    12.6968
 1981.5000     0.5636    12.6166
 1982.0000     0.5256    12.5364
 1982.5000     0.5213    12.4562
 1983.0000     0.5169    12.3760
 1983.5000     0.5126    12.2958
 1984.0000     0.5083    12.2156
 1984.5000     0.4930    12.1354
 1985.0000     0.4557    12.0552
 1985.5000     0.4184    11.9750
 1986.0000     0.3871    11.8948
 1986.5000     0.4487    11.8146
 1987.0000     0.5019    11.7344
 1987.5000     0.5551    11.6542
 1988.0000     0.6083    11.5740
 1988.5000     0.6615    11.4938
 1989.0000     0.7204    11.4136
 1989.5000     0.7204    11.3334
 1990.0000     0.7204    11.2532
 1990.5000     0.7204    11.1730
 1991.0000     0.7204    11.0928
 1991.5000     0.7204    11.0126
 1992.0000     0.7204    10.9324
 1992.5000     0.6877    10.8523
 1993.0000     0.6354    10.7721
 1993.5000     0.5831    10.6919
 1994.0000     0.5308    10.6117
 1994.5000     0.5180    10.5315
 1995.0000     0.5205    10.4513
 1995.5000     0.5230    10.3711
 1996.0000     0.5256    10.2909
 1996.5000     0.5092    10.2107
 1997.0000     0.4729    10.1305
 1997.5000     0.4367    10.0503
 1998.0000     0.4004     9.9701
 1998.5000     0.3840     9.8899
 1999.0000     0.4066     9.8097
 1999.5000     0.4293     9.7295
 2000.0000     0.4427     9.6429
 2000.5000     0.4463     9.6676
 2001.0000     0.4500     9.6946
 2001.5000     0.4874     9.7215
 2002.0000     0.5515     9.7485
 2002.5000     0.6237     9.7754
 2003.0000     0.5552     9.8024
 2003.5000     0.4767     9.8293
 2004.0000     0.4175     9.8563
 2004.5000     0.4105     9.8832
 2005.0000     0.4722     9.9102
 2005.5000     0.5603     9.9371
 2006.0000     0.6484     9.9641
 2006.5000     0.7312     9.9910
 2007.0000     0.7284    10.0180
 2007.5000     0.7258    10.0449
 2008.0000     0.7233    10.0719
 2008.5000     0.7204    10.0988
 2009.0000     0.6775    10.1258
 2009.5000     0.6303    10.1527
 2010.0000     0.5831    10.1797
 2010.5000     0.5591    10.2066
 2011.0000     0.5591    10.2335
 2011.5000     0.5591    10.2605
 2012.0000     0.5591    10.2874
 2012.5000     0.5251    10.3144
 2013.0000     0.4841    10.3413
 2013.5000     0.4431    10.3683
 2014.0000     0.4021    10.3952
 2014.5000     0.3656    10.4222
 2015.0000     0.4349    10.4491
 2015.5000     0.4974    10.4761
 2016.0000     0.5599    10.5030
 2016.5000     0.5930    10.5300
 2017.0000     0.5961    10.5569
 2017.5000     0.5993    10.5839
 2018.0000     0.6061    10.6108
 2018.5000     0.6447    10.6378
 2019.0000     0.6833    10.6647
 2019.5000     0.7218    10.6917
 2020.0000     0.7634    10.7229
 2020.5000     0.7687    10.8030
 2021.0000     0.7744    10.8832
 2021.5000     0.7800    10.9633
 2022.0000     0.7849    11.0435
 2022.5000     0.7192    11.1236
 2023.0000     0.6612    11.2038
 2023.5000     0.6032    11.2839
 2024.0000     0.5740    11.3640
 2024.5000     0.5835    11.4442
 2025.0000     0.5931    11.5243
