~VERSION INFORMATION
 VERS.                2.0:   CWLS LOG ASCII STANDARD - VERSION 2.0
 WRAP.                 NO:   ONE LINE PER DEPTH STEP
~WELL INFORMATION
#MNEM.UNIT      DATA TYPE    INFORMATION
#----------   ------------   ------------------------------
 STRT.F          371.0000:   START DEPTH
 STOP.F         1998.0000:   STOP DEPTH
 STEP.F            0.5000:   STEP LENGTH
 NULL.          -999.2500:   NO VALUE
 COMP.       ANADARKO PET:   COMPANY
 WELL. StX-21 NPR #3 #17-21:   WELL
 FLD .             TEAPOT:   FIELD
 LOC .      S21 T39N R78W:   LOCATION
 CNTY.            NATRONA:   COUNTY
 STAT.            WYOMING:   STATE
 CTRY. UNITED STATES OF AMERICA:   COUNTRY
 SRVC.            Unknown:   SERVICE COMPANY
 DATE.        11-OCT-1994:   LOGDATE
 API .       490252266400:   API NUMBER
~CURVE INFORMATION
#MNEM.UNIT       API CODE    CURVE DESCRIPTION
#----------   ------------   ------------------------------
 DEPT.F                  :   
 ROP .MIN/FT 91 810 01 00:   RATE OF DRILLING PENETRATION
 TGAS.UNITS  91 830 01 00:   TOTAL GAS FROM HOTWIRE
~PARAMETER INFORMATION
#MNEM.UNIT          VALUE    DESCRIPTION
#----------   ------------   ------------------------------
 DATE.         10-11-1994:   RUN DATE
 RUN .                  1:   RUN NUMBER
 DD  .F              1997:   DEPTH DRILLER
 BLI .F              2000:   BOTTOM LOG INTERVAL
 TLI .F               360:   TOP LOG INTERVAL
 CS  .IN                7:   CASING SIZE
 CBD .F               344:   CASING BOTTOM DRILLER
 ENGI.   C. TOWER R. HUSK:   RECORDING ENGINEER
 CLNT.            A2DTECH:   CLIENT CODE
 ORIG.         2.5" PRINT:   ORIGIN OF DATA
 UWI .       490252266400:   UNIQUE WELL ID
 DICO. A2D Technologies, Inc.:   DIGITIZING COMPANY
~OTHER INFORMATION
~A   DEPT        ROP       TGAS 
  371.0000     0.7512     1.3798
  371.5000     0.7510     1.3816
  372.0000     0.7691     1.3835
  372.5000     0.7688     1.3853
  373.0000     0.7686     1.3872
  373.5000     0.7683     1.3890
  374.0000     0.7680     1.3909
  374.5000     0.7677     1.3931
  375.0000     0.7675     1.3949
  375.5000     0.7672     1.3967
  376.0000     0.7669     1.3985
  376.5000     0.7666     1.4003
  377.0000     1.0509     1.4021
  377.5000     1.0418     1.4039
  378.0000     1.0415     1.4058
  378.5000     1.3537     1.4076
  379.0000     1.3351     1.4096
  379.5000     1.3348     1.4114
  380.0000     1.3345     1.4132
  380.5000     1.5916     1.4151
  381.0000     1.5914     1.4169
  381.5000     1.5911     1.4191
  382.0000     1.5908     1.4209
  382.5000     1.5064     1.4227
  383.0000     1.3330     1.4244
  383.5000     1.3511     1.4262
  384.0000     1.3507     1.4281
  384.5000     1.3505     1.4300
  385.0000     0.8538     1.4320
  385.5000     0.8719     1.4337
  386.0000     0.8717     1.4355
  386.5000     0.5140     1.4374
  387.0000     0.5572     1.4393
  387.5000     0.6004     1.4411
  388.0000     0.6500     1.4431
  388.5000     0.6313     1.4448
  389.0000     0.6127     1.4467
  389.5000     0.6124     1.4486
  390.0000     0.5937     1.4504
  390.5000     0.5935     1.4523
  391.0000     0.5932     1.4544
  391.5000     0.5929     1.4560
  392.0000     0.5926     1.4579
  392.5000     0.5924     1.4598
  393.0000     0.5921     1.4616
  393.5000     0.5918     1.4634
  394.0000     0.5915     1.4653
  394.5000     0.5993     1.4671
  395.0000     0.6094     1.4691
  395.5000     0.6091     1.4709
  396.0000     0.6088     1.4727
  396.5000     0.5901     1.4746
  397.0000     0.5899     1.4764
  397.5000     0.5896     1.4786
  398.0000     0.5710     1.4802
  398.5000     0.8648     1.4820
  399.0000     0.8461     1.4840
  399.5000     0.8459     1.4861
  400.0000     0.7047     1.4879
  400.5000     0.5880     1.4897
  401.0000     0.5693     1.4915
  401.5000     0.5690     1.4932
  402.0000     0.5503     1.4950
  402.5000     0.5500     1.4969
  403.0000     0.5498     1.4990
  403.5000     0.5679     1.5008
  404.0000     0.5676     1.5026
  404.5000     0.5674     1.5043
  405.0000     0.5671     1.5062
  405.5000     0.5684     1.5081
  406.0000     0.5849     1.5099
  406.5000     0.5663     1.5118
  407.0000     0.5660     1.5136
  407.5000     0.5657     1.5155
  408.0000     0.5654     1.5174
  408.5000     0.8118     1.5192
  409.0000     0.9589     1.5214
  409.5000     0.9506     1.5232
  410.0000     0.9503     1.5248
  410.5000     0.9501     1.5267
  411.0000     0.9682     1.5286
  411.5000     1.0047     1.5307
  412.0000     1.0228     1.5322
  412.5000     1.0233     1.5341
  413.0000     0.8017     1.5360
  413.5000     0.8014     1.5378
  414.0000     0.8419     1.5397
  414.5000     0.9721     1.5415
  415.0000     0.9844     1.5434
  415.5000     1.0025     1.5452
  416.0000     0.9162     1.5474
  416.5000     0.8181     1.5490
  417.0000     0.8362     1.5508
  417.5000     0.8359     1.5527
  418.0000     0.8395     1.5545
  418.5000     0.8170     1.5564
  419.0000     0.8167     1.5583
  419.5000     0.8165     1.5601
  420.0000     0.7978     1.5620
  420.5000     1.0181     1.5638
  421.0000     1.0216     1.5657
  421.5000     1.0409     1.5676
  422.0000     1.0725     1.5694
  422.5000     1.0906     1.5713
  423.0000     1.0903     1.5731
  423.5000     1.0900     1.5750
  424.0000     1.0897     1.5769
  424.5000     1.0894     1.5787
  425.0000     1.0891     1.5806
  425.5000     1.0889     1.5827
  426.0000     1.0886     1.5843
  426.5000     1.0883     1.5862
  427.0000     1.0881     1.5880
  427.5000     1.0878     1.5899
  428.0000     1.0875     1.5917
  428.5000     1.0872     1.5936
  429.0000     1.0869     1.5955
  429.5000     1.0867     1.5973
  430.0000     1.0864     1.5992
  430.5000     1.0861     1.6010
  431.0000     1.0858     1.6029
  431.5000     1.0855     1.6048
  432.0000     1.0853     1.6066
  432.5000     1.0850     1.6085
  433.0000     1.0847     1.6103
  433.5000     0.8455     1.6122
  434.0000     0.8452     1.6144
  434.5000     0.7738     1.6159
  435.0000     0.4586     1.6178
  435.5000     0.4584     1.6196
  436.0000     0.4581     1.6215
  436.5000     0.4578     1.6233
  437.0000     0.4575     1.6254
  437.5000     0.4573     1.6272
  438.0000     0.4570     1.6289
  438.5000     0.4567     1.6308
  439.0000     0.4564     1.6326
  439.5000     0.4561     1.6345
  440.0000     0.4559     1.6365
  440.5000     0.4556     1.6382
  441.0000     0.4553     1.6401
  441.5000     0.4551     1.6419
  442.0000     0.4548     1.6438
  442.5000     0.4545     1.6457
  443.0000     0.4542     1.6475
  443.5000     0.4540     1.6496
  444.0000     0.4537     1.6512
  444.5000     0.4534     1.6531
  445.0000     0.4531     1.6550
  445.5000     0.4528     1.6568
  446.0000     0.4525     1.6587
  446.5000     0.4523     1.6605
  447.0000     0.4520     1.6625
  447.5000     0.4517     1.6643
  448.0000     0.4515     1.6664
  448.5000     0.4512     1.6680
  449.0000     0.4509     1.6698
  449.5000     0.4524     1.6721
  450.0000     0.4504     1.6736
  450.5000     0.4501     1.6756
  451.0000     0.4498     1.6774
  451.5000     0.4495     1.6792
  452.0000     0.4676     1.6810
  452.5000     0.4674     1.6829
  453.0000     0.4671     1.6847
  453.5000     0.4668     1.6866
  454.0000     0.4665     1.6884
  454.5000     0.4662     1.6903
  455.0000     0.4660     1.6921
  455.5000     0.4657     1.6940
  456.0000     0.4654     1.6959
  456.5000     0.4642     1.6978
  457.0000     0.4465     1.6996
  457.5000     0.4462     1.7014
  458.0000     0.4460     1.7033
  458.5000     0.4457     1.7052
  459.0000     0.4454     1.7073
  459.5000     0.4451     1.7089
  460.0000     0.4449     1.7107
  460.5000     0.4445     1.7126
  461.0000     0.4443     1.7145
  461.5000     0.4440     1.7163
  462.0000     0.4437     1.7182
  462.5000     0.4435     1.7200
  463.0000     0.4432     1.7219
  463.5000     0.4429     1.7238
  464.0000     0.4426     1.7256
  464.5000     0.4424     1.7275
  465.0000     0.4421     1.7293
  465.5000     0.4418     1.7313
  466.0000     0.4415     1.7333
  466.5000     0.4413     1.7349
  467.0000     0.4410     1.7368
  467.5000     0.4407     1.7386
  468.0000     0.4404     1.7405
  468.5000     0.4401     1.7424
  469.0000     0.4582     1.7442
  469.5000     0.4764     1.7461
  470.0000     0.5312     1.7480
  470.5000     0.5494     1.7501
  471.0000     0.5491     1.7517
  471.5000     0.5488     1.7535
  472.0000     0.5485     1.7554
  472.5000     0.5483     1.7572
  473.0000     0.5480     1.7591
  473.5000     0.5477     1.7610
  474.0000     0.5474     1.7628
  474.5000     0.5472     1.7647
  475.0000     0.5469     1.7665
  475.5000     0.5466     1.7684
  476.0000     0.5463     1.7702
  476.5000     0.5460     1.7721
  477.0000     0.5458     1.7740
  477.5000     0.5455     1.7758
  478.0000     0.5452     1.7777
  478.5000     0.5449     1.7795
  479.0000     0.5447     1.7814
  479.5000     0.5444     1.7833
  480.0000     0.5441     1.7851
  480.5000     0.5438     1.7870
  481.0000     0.5436     1.7890
  481.5000     0.5433     1.7907
  482.0000     0.5430     1.7926
  482.5000     0.5427     1.7944
  483.0000     0.5424     1.7963
  483.5000     0.5422     1.7981
  484.0000     0.5419     1.8000
  484.5000     0.5416     1.8019
  485.0000     0.5414     1.8037
  485.5000     0.5411     1.8056
  486.0000     0.5408     1.8075
  486.5000     0.5405     1.8093
  487.0000     0.5403     1.8112
  487.5000     0.5400     1.8130
  488.0000     0.5397     1.8149
  488.5000     0.5394     1.8168
  489.0000     0.5392     1.8186
  489.5000     0.5389     1.8205
  490.0000     0.5386     1.8223
  490.5000     0.5383     1.8242
  491.0000     0.5380     1.8263
  491.5000     0.5378     1.8281
  492.0000     0.5375     1.8299
