~VERSION INFORMATION
 VERS.                2.0:   CWLS LOG ASCII STANDARD - VERSION 2.0
 WRAP.                 NO:   ONE LINE PER DEPTH STEP
~WELL INFORMATION
#MNEM.UNIT      DATA TYPE    INFORMATION
#----------   ------------   ------------------------------
 STRT.F            5.0000:   START DEPTH
 STOP.F          640.0000:   STOP DEPTH
 STEP.F            0.5000:   STEP LENGTH
 NULL.          -999.2500:   NO VALUE
 COMP. BROWN JOHN E&C INC:   COMPANY
 WELL.     85-1 X 3 #85-3:   WELL
 FLD .             TEAPOT:   FIELD
 LOC .       S3 T38N R78W:   LOCATION
 CNTY.            NATRONA:   COUNTY
 STAT.            WYOMING:   STATE
 CTRY. UNITED STATES OF AMERICA:   COUNTRY
 SRVC.     Atlas Wireline:   SERVICE COMPANY
 DATE.        30-DEC-1991:   LOGDATE
 API .       490252249400:   API NUMBER
~CURVE INFORMATION
#MNEM.UNIT       API CODE    CURVE DESCRIPTION
#----------   ------------   ------------------------------
 DEPT.F                  :   
 GRR .GAPI   06 310 01 00:   GAMMA RAY FROM RESISTIVITY
 RFOC.OHMM   06 220 04 00:   RESISTIVITY FOCUSED LOG RES.
 RILD.OHMM   06 120 46 00:   DEEP INDUCTION RESISTIVITY
 RILM.OHMM   06 120 44 00:   INDUCTION LOG MEDIUM RESISTIVITY
 SPR .MV     06 010 01 00:   SPONTANEOUS POTENTIAL FROM RES.
 CALD.IN     45 280 60 00:   CALIPER FROM DENSITY LOG
 CORR.G/C3   45 356 01 00:   DENSITY CORRECTION
 DEN .G/C3   45 350 01 00:   COMPENSATED BULK DENSTIY
 PORD.DEC    45 890 12 00:   POROSITY DENSITY SANDSTONE
 CNC .DEC    42 890 03 00:   NEUTRON POROSITY SANDSTONE
~PARAMETER INFORMATION
#MNEM.UNIT          VALUE    DESCRIPTION
#----------   ------------   ------------------------------
 PD  .                 GL:   PERMANENT DATUM
 EPD .F              5156:   ELEVATION PERMANENT DATUM
 LMF .                 KB:   LOG MEASURED FROM
 DAPD.F                10:   FEET ABOVE PERMANENT DATUM
 DMF .                 KB:   DRILLING MEASURED FROM
 EKB .F              5166:   KELLING BUSHING
 EGL .F              5156:   GROUND LEVEL
 DATE.        30-DEC-1991:   RUN DATE
 RUN .                  1:   RUN NUMBER
 DD  .F               641:   DEPTH DRILLER
 DL  .F               642:   DEPTH LOGGER
 BLI .F               261:   BOTTOM LOG INTERVAL
 TLI .F               172:   TOP LOG INTERVAL
 CS  .IN            8.625:   CASING SIZE
 CBD .F               163:   CASING BOTTOM DRILLER
 CBL .F               172:   CASING BOTTOM LOGGER
 BS  .IN            7.875:   BIT SIZE
 BSD .F               641:   BIT SIZE AT DEPTH
 DFT .               CHEM:   DRILLING FLUID TYPE
 DFD .               17.1:   DRILLING FLUID DENSITY
 DFV .                 47:   DRILLING FLUID VISCOSITY
 DFPH.                9.0:   DRILLING FLUID PH
 DFL .                6.8:   DRILLING FLUID LOSS
 MSS .                PIT:   MUD SAMPLE SOURCE
 RMS .OHMM           1.40:   RESISTIVITY MUD SAMPLE
 MST .F               100:   MUD SAMPLE TEMPERATURE
 RMF .OHMM           1.12:   RESISTIVITY MUD FILTRATE SAMPLE
 MFST.F               100:   MUD FILTRATE SAMPLE TEMPERATURE
 RMC .OHMM           1.75:   RESISTIVITY MUD CAKE
 MCST.F               100:   MUD CAKE SAMPLE TEMPERATURE
 MFSS.               MEAS:   MUD FILTRATE SAMPLE SOURCE
 MCSS.               CALC:   MUD CAKE SAMPLE SOURCE
 RMB .OHMM           .536:   RESISTIVITY MUD AT BHT
 BHT .F               261:   BOTTOM HOLE TEMPERATURE
 TCS .HRS               4:   TIME CURCULATED STOPPED
 MRT .F               261:   MAXIMUM RECORDED TEMPERATURE
 LUN .            HL-6387:   LOGGING UNIT NUMBER
 LUL .          CASPER/WT:   LOGGING UNIT LOCATION
 ENGI.             ZIEGER:   RECORDING ENGINEER
 WITN.         LOFRENIERI:   WITNESSED BY
 CLNT.            A2DTECH:   CLIENT CODE
 ORIG.           5" PRINT:   ORIGIN OF DATA
 UWI .       490252249400:   UNIQUE WELL ID
 DICO. A2D Technologies, Inc.:   DIGITIZING COMPANY
~OTHER INFORMATION
~A    DEPT      GRR      RFOC       RILD       RILM        SPR       CALD       CORR        DEN       PORD        CNC   
# ...
  172.5000    84.0089     6.2806    10.1414    12.4443   -64.5698     9.6955    -0.0091     2.5008     0.1082     0.3144
  173.0000    84.6053     6.3246    10.7967    13.3436   -65.9308     9.7110    -0.0151     2.4856     0.1203     0.3095
  173.5000    84.2940     6.4583     8.5950    11.4447   -68.5002     9.7264    -0.0106     2.4721     0.1230     0.3065
  174.0000    86.4011     6.6876     6.7653     8.1171   -72.1270     9.7570    -0.0015     2.4713     0.1230     0.3059
  174.5000    88.2077     6.7816     6.7173     7.7430   -74.3944     9.7573     0.0095     2.4751     0.1206     0.3065
  175.0000    86.9887     6.7345     6.6698     7.9621   -76.3596     9.7879     0.0196     2.4841     0.1136     0.3083
  175.5000    85.4671     6.3688     6.6689     7.9068   -77.8716     9.8185     0.0181     2.4936     0.1085     0.3089
  176.0000    85.1557     6.1505     6.7149     7.4775   -78.7936     9.8507     0.0121     2.5000     0.1073     0.3086
  176.5000    85.7842     6.5950     6.7137     6.9736   -79.8387     9.8949     0.0016     2.4977     0.1149     0.3077
  177.0000    87.5566     7.3226     6.7598     6.8291   -80.5954     9.9103    -0.0137     2.4887     0.1218     0.3065
  177.5000    89.0607     7.9621     6.8536     6.8291   -81.5032     9.8955    -0.0271     2.4705     0.1249     0.3035
  178.0000    89.6593     7.7430     6.9006     6.8291   -82.5621     9.8806    -0.0090     2.4683     0.1242     0.3007
  178.5000    89.0432     7.1135     6.8996     6.7816   -83.3188     9.8506     0.0016     2.4732     0.1182     0.2998
  179.0000    88.7319     6.7345     6.8987     6.8291   -84.2266     9.8661     0.0062     2.4902     0.1119     0.2962
  179.5000    87.5128     6.6411     6.8978     6.8291   -85.1350     9.8815     0.0062     2.5076     0.0998     0.2938
  180.0000    86.5961     6.7345     6.9451     6.8769   -85.4582     9.9122     0.0028     2.5249     0.0922     0.2923
  180.5000    86.8902     6.9251     6.9442     6.8769   -85.7420     9.9428    -0.0149     2.5219     0.0943     0.2938
  181.0000    87.1818     7.0716     6.9432     6.8769   -86.3476     9.9734    -0.0270     2.5060     0.1070     0.3001
  181.5000    87.1730     7.0716     6.9421     6.9251   -87.2555     9.9888    -0.0073     2.4883     0.1158     0.3043
  182.0000    87.1643     6.9736     6.8929     6.9251   -88.4654     9.9891     0.0002     2.4834     0.1192     0.3092
  182.5000    87.7607     6.7345     6.7493     6.9251   -89.2221     9.9742     0.0002     2.4841     0.1180     0.3113
  183.0000    88.6636     6.5036     6.7015     6.8769   -89.6768     9.9442    -0.0028     2.4864     0.1155     0.3149
  183.5000    89.6066     6.5036     6.7006     6.8291   -90.1380     9.9294    -0.0043     2.4864     0.1146     0.3187
  184.0000    91.3631     6.6411     6.7222     6.8291   -90.4350     9.9145    -0.0073     2.4849     0.1150     0.3197
  184.5000    91.9595     6.8769     6.7548     6.7816   -90.4368     9.9149    -0.0133     2.4824     0.1159     0.3161
  185.0000    93.4636     6.8769     6.8395     6.8769   -90.2868     9.9152    -0.0178     2.4789     0.1174     0.3167
  185.5000    95.5728     6.7816     6.7908     6.8769   -89.0802     9.9458    -0.0161     2.4841     0.1156     0.3185
  186.0000    93.7486     6.5024     6.7427     6.8291   -84.2478     9.9612    -0.0117     2.4887     0.1135     0.3218
  186.5000    89.7822     6.5708     6.7592     6.7345   -75.6390     9.9918    -0.0072     2.4896     0.1138     0.3243
  187.0000    88.5874     6.8769     6.8017     6.6411   -68.2387    10.0073    -0.0042     2.4856     0.1144     0.3279
  187.5000    92.8125     6.7345     6.7400     6.5491   -66.5785    10.0076    -0.0026     2.4834     0.1147     0.3322
  188.0000    96.4346     6.4134     6.4157     6.5036   -67.1846     9.9927    -0.0026     2.4864     0.1138     0.3336
  188.5000    96.4258     6.3688     6.4172     6.5036   -68.0924     9.9931    -0.0011     2.4834     0.1138     0.3327
  189.0000    95.5093     6.4583     6.5062     6.5491   -69.6044     9.9934    -0.0041     2.4834     0.1141     0.3273
  189.5000    93.3826     6.6876     6.6431     6.5491   -70.3612     9.9937    -0.0041     2.4872     0.1123     0.3215
  190.0000    89.9647     6.9251     6.7352     6.5491   -71.1179     9.9788    -0.0056     2.4970     0.1020     0.3143
  190.5000    85.7986     6.7345     6.6411     6.5491   -71.8747     9.9488    -0.0056     2.5103     0.0945     0.3091
  191.0000    85.7898     6.6876     6.6402     6.6411   -72.1782     9.9339    -0.0117     2.5242     0.0890     0.3076
  191.5000    85.4785     6.9251     6.8753     6.7816   -72.1611     9.9343    -0.0176     2.5279     0.0896     0.3088
  192.0000    83.6543     7.2211     7.1250     7.1211   -71.5773     9.9346    -0.0206     2.5219     0.0978     0.3109
  192.5000    81.8301     7.3739     7.3178     7.3226   -71.1256     9.9349    -0.0176     2.5045     0.1108     0.3088
  193.0000    81.2162     7.4255     7.3683     7.3226   -70.8250     9.9199    -0.0145     2.4947     0.1132     0.3049
  193.5000    81.8689     7.1709     7.2145     7.1699   -70.5239     9.9052    -0.0115     2.4879     0.1139     0.3022
  194.0000    86.6428     6.9684     7.0642     7.0716   -70.2233     9.9055    -0.0055     2.4872     0.1145     0.3015
  194.5000    88.1469     6.8769     7.0142     7.0224   -69.7719     9.8881    -0.0024     2.4864     0.1145     0.3015
  195.0000    88.4429     6.8769     7.0133     7.0224   -69.4713     9.8757    -0.0009     2.4864     0.1142     0.3009
  195.5000    89.0371     6.9251     7.0614     6.9736   -69.1706     9.8761    -0.0009     2.4872     0.1139     0.3015
  196.0000    92.3567     6.9736     7.0602     6.9251   -69.0210     9.8764    -0.0009     2.4879     0.1139     0.3055
  196.5000    95.0711     7.0224     7.0592     6.9251   -69.0229     9.8767    -0.0040     2.4887     0.1139     0.3100
  197.0000    94.1180     7.0224     7.0583     6.9251   -69.1754     9.8770    -0.0084     2.4856     0.1145     0.3097
  197.5000    92.3282     7.0716     7.0083     7.0224   -69.1768     9.8773    -0.0099     2.4819     0.1154     0.3055
  198.0000    90.8066     7.0716     7.0073     7.0224   -69.1783     9.8776    -0.0068     2.4834     0.1169     0.3036
  198.5000    90.4953     6.9251     6.9577     6.9736   -69.3308     9.8779    -0.0038     2.4879     0.1166     0.3088
  199.0000    90.4865     6.8769     6.9056     6.9251   -69.6455     9.8782    -0.0038     2.4902     0.1145     0.3109
  199.5000    89.8726     7.0224     6.7173     6.8769   -70.2405     9.8785    -0.0070     2.4902     0.1133     0.3139
  200.0000    89.5613     7.2717     6.5774     6.7816   -70.5441     9.8788    -0.0053     2.4887     0.1133     0.3166
  200.5000    89.8991     7.3739     6.4404     6.6876   -70.6966     9.8791     0.0038     2.4856     0.1149     0.3200
  201.0000    91.0544     7.4255     6.3503     6.6411   -70.6980     9.8794     0.0068     2.4811     0.1173     0.3230
  201.5000    91.9556     7.2688     6.2615     6.4583   -70.6995     9.8634     0.0053     2.4773     0.1208     0.3257
  202.0000    92.8523     6.9251     6.2607     6.3688   -70.5499     9.8345    -0.0024     2.4781     0.1208     0.3284
  202.5000    93.1484     6.7345     6.3036     6.3688   -70.2492     9.8197    -0.0158     2.4982     0.1121     0.3299
  203.0000    93.1374     6.6876     6.3095     6.3688   -69.9486     9.8048    -0.0248     2.5159     0.1009     0.3232
  203.5000    92.0250     6.7345     6.3460     6.3688   -69.6479     9.7900    -0.0233     2.5219     0.0957     0.3127
  204.0000    88.4000     6.7816     6.4343     6.4583   -69.4984     9.7751    -0.0052     2.5181     0.0960     0.3078
  204.5000    84.1699     6.8585     6.5238     6.5036   -69.3488     9.7452     0.0024     2.5091     0.1010     0.3075
  205.0000    83.2678     6.9065     6.6145     6.5491   -69.1992     9.7455     0.0039     2.4977     0.1084     0.3111
  205.5000    85.6945     6.9065     6.6597     6.5950   -69.2010     9.7458    -0.0021     2.4851     0.1166     0.3142
