~VERSION INFORMATION
 VERS.                2.0:   CWLS LOG ASCII STANDARD - VERSION 2.0
 WRAP.                 NO:   ONE LINE PER DEPTH STEP
~WELL INFORMATION
#MNEM.UNIT      DATA TYPE    INFORMATION
#----------   ------------   ------------------------------
 STRT.F          598.0000:   START DEPTH
 STOP.F         2552.0000:   STOP DEPTH
 STEP.F            0.5000:   STEP LENGTH
 NULL.          -999.2500:   NO VALUE
 COMP. FENIX & SCISSON INC:   COMPANY
 WELL.     15-SHX-2 #15-2:   WELL
 FLD .             TEAPOT:   FIELD
 LOC .       S2 T38N R78W:   LOCATION
 CNTY.            NATRONA:   COUNTY
 STAT.            WYOMING:   STATE
 CTRY. UNITED STATES OF AMERICA:   COUNTRY
 SRVC.              Welex:   SERVICE COMPANY
 DATE.        03-JUN-1979:   LOGDATE
 API .       490251002100:   API NUMBER
~CURVE INFORMATION
#MNEM.UNIT       API CODE    CURVE DESCRIPTION
#----------   ------------   ------------------------------
 DEPT.F                  :   
 CALD.IN     45 280 60 00:   CALIPER
 GRD .GAPI   45 310 01 00:   GAMMA RAY FROM DENSITY LOG
 RHOB.G/C3   45 350 01 00:   BULK DENSITY
 DPHI.DEC    45 890 12 00:   DENSITY POROSITY SANDSTONE
 CORR.G/C3   45 356 01 00:   DENSITY CORRECTION
~PARAMETER INFORMATION
#MNEM.UNIT          VALUE    DESCRIPTION
#----------   ------------   ------------------------------
 PD  .                 GL:   PERMANENT DATUM
 EPD .F              5118:   ELEVATION PERMANENT DATUM
 LMF .                 KB:   LOG MEASURED FROM
 DAPD.F                10:   FEET ABOVE PERMANENT DATUM
 DMF .                 KB:   DRILLING MEASURED FROM
 EKB .F              5128:   KELLING BUSHING
 EGL .F              5118:   GROUND LEVEL
 DATE.             6-3-79:   RUN DATE
 RUN .                  1:   RUN NUMBER
 DD  .F              2569:   DEPTH DRILLER
 DL  .F              2554:   DEPTH LOGGER
 BLI .F              2552:   BOTTOM LOG INTERVAL
 TLI .F               622:   TOP LOG INTERVAL
 CS  .IN            9.625:   CASING SIZE
 CBD .F               622:   CASING BOTTOM DRILLER
 BS  .IN             8.75:   BIT SIZE
 BSD .F              2569:   BIT SIZE AT DEPTH
 DFT .        AIR DRILLED:   DRILLING FLUID TYPE
 TCS .HRS             2.5:   TIME CURCULATED STOPPED
 MRT .F               124:   MAXIMUM RECORDED TEMPERATURE
 ENGI.               REIN:   RECORDING ENGINEER
 WITN.              AMEND:   WITNESSED BY
 CLNT.            A2DTECH:   CLIENT CODE
 ORIG.           5" PRINT:   ORIGIN OF DATA
 UWI .       490251002100:   UNIQUE WELL ID
 DICO. A2D Technologies, Inc.:   DIGITIZING COMPANY
~OTHER INFORMATION
~A   DEPT     CALD         GRD      RHOB       DPHI       CORR   
# ...
 1208.0000     9.3369   104.7199     2.5390     0.0091     0.0050
 1208.5000     9.3337   104.5717     2.5434     0.0018     0.0050
 1209.0000     9.3304   103.3194     2.5481    -0.0009     0.0050
 1209.5000     9.3272   102.0692     2.5485     0.0048     0.0050
 1210.0000     9.3239   100.8151     2.5384     0.0097     0.0050
 1210.5000     9.3206    99.6231     2.5331     0.0121     0.0050
 1211.0000     9.3172    99.7128     2.5265     0.0157     0.0050
 1211.5000     9.3231   103.2327     2.5174     0.0191     0.0050
 1212.0000     9.3312   103.1861     2.5210     0.0163     0.0031
 1212.5000     9.3393   102.3671     2.5317     0.0115     0.0034
 1213.0000     9.3475   102.7354     2.5403     0.0079     0.0042
 1213.5000     9.3556   103.8205     2.5370     0.0079     0.0049
 1214.0000     9.3636   101.9831     2.5347     0.0108     0.0057
 1214.5000     9.3714    99.0815     2.5386     0.0095     0.0065
 1215.0000     9.3815    99.3308     2.5424     0.0039     0.0085
 1215.5000     9.3958   103.4878     2.5406     0.0072     0.0092
 1216.0000     9.3966   104.3760     2.5351     0.0103     0.0094
 1216.5000     9.4004   105.1923     2.5339     0.0111     0.0096
 1217.0000     9.4204   105.8378     2.5381     0.0115     0.0098
 1217.5000     9.4399   104.0054     2.5444     0.0054     0.0100
 1218.0000     9.4595   102.0772     2.5454     0.0038     0.0102
 1218.5000     9.4790   102.4892     2.5408     0.0063     0.0105
 1219.0000     9.4985   104.0509     2.5454     0.0046     0.0107
 1219.5000     9.5180   105.6505     2.5486     0.0052     0.0109
 1220.0000     9.5376   107.0194     2.5372     0.0136     0.0111
 1220.5000     9.5555   105.2925     2.5259     0.0219     0.0064
 1221.0000     9.5559   103.4822     2.5088     0.0302     0.0010
 1221.5000     9.5558   104.3645     2.4877     0.0379    -0.0044
 1222.0000     9.5558   106.0972     2.5016     0.0391    -0.0048
 1222.5000     9.5558   104.5344     2.5229     0.0219    -0.0008
 1223.0000     9.5558   105.5508     2.5351     0.0127     0.0031
 1223.5000     9.5557   103.8091     2.5397     0.0096     0.0070
 1224.0000     9.5560   101.7453     2.5473     0.0055     0.0090
 1224.5000     9.5460    99.6672     2.5541    -0.0025     0.0090
 1225.0000     9.5323    98.0784     2.5496     0.0006     0.0090
 1225.5000     9.5184    96.7443     2.5431     0.0041     0.0092
 1226.0000     9.5045    96.4088     2.5431     0.0038     0.0109
 1226.5000     9.4906    98.8580     2.5536    -0.0012     0.0127
 1227.0000     9.4767   101.7590     2.5654    -0.0081     0.0144
 1227.5000     9.4628   104.3841     2.5757    -0.0151     0.0162
 1228.0000     9.4489   106.0003     2.5809    -0.0198     0.0170
 1228.5000     9.4350   106.9613     2.5637    -0.0077     0.0170
 1229.0000     9.4212   102.9256     2.5447     0.0030     0.0142
 1229.5000     9.4073    98.7726     2.5257     0.0138     0.0112
 1230.0000     9.3934    98.1677     2.5077     0.0245     0.0082
 1230.5000     9.3795    99.0879     2.5034     0.0315     0.0051
 1231.0000     9.3657   100.0637     2.5115     0.0288     0.0050
 1231.5000     9.3564   100.1891     2.5208     0.0231     0.0045
 1232.0000     9.3567    97.1202     2.5294     0.0174     0.0039
 1232.5000     9.3507    93.7420     2.5382     0.0117     0.0033
 1233.0000     9.3431    91.2811     2.5451     0.0060     0.0009
 1233.5000     9.3354    89.4376     2.5508     0.0004     0.0010
 1234.0000     9.3277    90.1916     2.5582    -0.0045     0.0011
 1234.5000     9.3199    91.4167     2.5662    -0.0089     0.0060
 1235.0000     9.3222    92.1564     2.5795    -0.0173     0.0113
 1235.5000     9.3314    90.8093     2.5941    -0.0258     0.0165
 1236.0000     9.3407    89.3959     2.6062    -0.0344     0.0217
 1236.5000     9.3500    87.9605     2.6104    -0.0413     0.0269
 1237.0000     9.3593    87.7003     2.6059    -0.0358     0.0290
 1237.5000     9.3686    87.6826     2.5984    -0.0312     0.0290
 1238.0000     9.3779    87.0874     2.5889    -0.0248     0.0288
 1238.5000     9.3873    85.6921     2.5794    -0.0185     0.0234
 1239.0000     9.3959    87.0008     2.5699    -0.0112     0.0177
 1239.5000     9.3883    88.3964     2.5605    -0.0025     0.0121
 1240.0000     9.3800    89.2139     2.5527    -0.0017     0.0089
 1240.5000     9.3718    87.7690     2.5580    -0.0044     0.0090
 1241.0000     9.3637    88.5003     2.5638    -0.0071     0.0090
 1241.5000     9.3555    89.3044     2.5743    -0.0133     0.0093
 1242.0000     9.3473    90.0934     2.5854    -0.0213     0.0095
 1242.5000     9.3392    89.5076     2.5850    -0.0217     0.0099
 1243.0000     9.3310    87.4781     2.5825    -0.0215     0.0102
 1243.5000     9.3229    85.4577     2.5813    -0.0214     0.0104
 1244.0000     9.3182    83.4302     2.5801    -0.0197     0.0108
 1244.5000     9.3261    81.4241     2.5755    -0.0172     0.0110
 1245.0000     9.3337    82.1419     2.5742    -0.0149     0.0114
 1245.5000     9.3413    83.9118     2.5758    -0.0170     0.0116
 1246.0000     9.3488    84.1525     2.5776    -0.0190     0.0120
 1246.5000     9.3564    84.4706     2.5752    -0.0177     0.0122
 1247.0000     9.3639    85.6988     2.5711    -0.0143     0.0126
 1247.5000     9.3715    86.7169     2.5665    -0.0109     0.0128
 1248.0000     9.3790    85.7186     2.5540    -0.0037     0.0120
 1248.5000     9.3866    87.2287     2.5417     0.0040     0.0100
 1249.0000     9.3942    87.0214     2.5366     0.0083     0.0080
 1249.5000     9.3964    84.2138     2.5426     0.0079     0.0060
 1250.0000     9.3965    81.5270     2.5479     0.0067     0.0040
 1250.5000     9.3932    79.8952     2.5310     0.0089     0.0020
 1251.0000     9.3887    80.9421     2.5236     0.0162     0.0000
 1251.5000     9.3842    82.1627     2.5121     0.0236    -0.0009
 1252.0000     9.3797    83.3798     2.5034     0.0282     0.0003
 1252.5000     9.3757    84.5639     2.5139     0.0240     0.0015
 1253.0000     9.3729    84.6489     2.5272     0.0170     0.0028
 1253.5000     9.3702    83.8718     2.5406     0.0058     0.0040
 1254.0000     9.3674    84.3894     2.5523     0.0039     0.0052
 1254.5000     9.3647    85.6562     2.5459     0.0062     0.0064
 1255.0000     9.3619    83.3923     2.5357     0.0088     0.0059
 1255.5000     9.3592    81.0724     2.5254     0.0142     0.0037
 1256.0000     9.3564    79.8975     2.5152     0.0214     0.0014
 1256.5000     9.3537    83.3795     2.5061     0.0288    -0.0008
 1257.0000     9.3509    87.8928     2.5097     0.0301     0.0000
 1257.5000     9.3482    89.1122     2.5173     0.0254     0.0035
 1258.0000     9.3455    85.6223     2.5210     0.0204     0.0071
 1258.5000     9.3427    82.0819     2.5202     0.0203     0.0105
 1259.0000     9.3399    79.4313     2.5227     0.0190     0.0131
 1259.5000     9.3372    78.7540     2.5326     0.0146     0.0124
 1260.0000     9.3345    81.4121     2.5449     0.0062     0.0112
 1260.5000     9.3317    84.4086     2.5572    -0.0022     0.0088
 1261.0000     9.3290    87.4620     2.5694    -0.0106     0.0093
 1261.5000     9.3262    86.9621     2.5783    -0.0165     0.0124
 1262.0000     9.3235    85.5316     2.5732    -0.0163     0.0155
 1262.5000     9.3207    85.0763     2.5674    -0.0141     0.0170
 1263.0000     9.3180    82.3328     2.5689    -0.0114     0.0146
 1263.5000     9.3152    83.0304     2.5594    -0.0065     0.0111
 1264.0000     9.3125    85.0208     2.5362     0.0093     0.0076
 1264.5000     9.3097    86.9019     2.5196     0.0203     0.0041
 1265.0000     9.3070    87.0937     2.5232     0.0186     0.0010
 1265.5000     9.3042    87.8408     2.5277     0.0162     0.0021
 1266.0000     9.3015    88.8832     2.5322     0.0138     0.0034
 1266.5000     9.2987    89.7254     2.5367     0.0114     0.0047
 1267.0000     9.2968    89.3847     2.5381     0.0084     0.0060
 1267.5000     9.2968    88.9839     2.5407     0.0061     0.0073
 1268.0000     9.2968    89.9543     2.5440     0.0043     0.0086
 1268.5000     9.2968    91.4207     2.5409     0.0056     0.0083
