~VERSION INFORMATION
 VERS.                2.0:   CWLS LOG ASCII STANDARD - VERSION 2.0
 WRAP.                 NO:   ONE LINE PER DEPTH STEP
~WELL INFORMATION
#MNEM.UNIT      DATA TYPE    INFORMATION
#----------   ------------   ------------------------------
 STRT.F           21.0000:   START DEPTH
 STOP.F          484.0000:   STOP DEPTH
 STEP.F            0.5000:   STEP LENGTH
 NULL.          -999.2500:   NO VALUE
 COMP.       F D SERV INC:   COMPANY
 WELL. N P R 3 SX-3 #78-3:   WELL
 FLD .             TEAPOT:   FIELD
 LOC .       S3 T38N R78W:   LOCATION
 CNTY.            NATRONA:   COUNTY
 STAT.            WYOMING:   STATE
 CTRY. UNITED STATES OF AMERICA:   COUNTRY
 SRVC.     Atlas Wireline:   SERVICE COMPANY
 DATE.        04-DEC-1992:   LOGDATE
 API .       490252254500:   API NUMBER
~CURVE INFORMATION
#MNEM.UNIT       API CODE    CURVE DESCRIPTION
#----------   ------------   ------------------------------
 DEPT.F                  :   
 DPHI.DEC    45 890 12 00:   DENSITY POROSITY SANDSTONE
 NPHI.DEC    42 890 03 00:   NEUTRON POROSITY SANDSTONE
 C13 .IN     45 280 13 00:   CALIPER 1 - 3
 GRD .GAPI   45 310 01 00:   GAMMA RAY FROM DENSITY LOG
 ZCOR.G/C3   45 356 01 00:   DENSITY CORRECTION
 ZDEN.G/C3   45 350 01 00:   BULK DENSITY
 RILD.OHMM   07 120 46 00:   INDUCTION LOG DEEP RESISTIVITY
 RILM.OHMM   07 120 44 00:   INDUCTION LOG MEDIUM RESISTIVITY
~PARAMETER INFORMATION
#MNEM.UNIT          VALUE    DESCRIPTION
#----------   ------------   ------------------------------
 PD  .                 GL:   PERMANENT DATUM
 EPD .F              5120:   ELEVATION PERMANENT DATUM
 LMF .                 KB:   LOG MEASURED FROM
 DAPD.F                10:   FEET ABOVE PERMANENT DATUM
 DMF .                 KB:   DRILLING MEASURED FROM
 EKB .F              5130:   KELLING BUSHING
 EDF .F              5129:   DRILLING FLOOR
 EGL .F              5120:   GROUND LEVEL
 DATE.        04-DEC-1992:   RUN DATE
 RUN .                  1:   RUN NUMBER
 DD  .F               488:   DEPTH DRILLER
 DL  .F               488:   DEPTH LOGGER
 BLI .F               479:   BOTTOM LOG INTERVAL
 CS  .IN            8.625:   CASING SIZE
 CBD .F                50:   CASING BOTTOM DRILLER
 CBL .F                54:   CASING BOTTOM LOGGER
 BS  .IN            7.875:   BIT SIZE
 BSD .F               488:   BIT SIZE AT DEPTH
 DFT .           AIR FOAM:   DRILLING FLUID TYPE
 MRT .F                66:   MAXIMUM RECORDED TEMPERATURE
 LUN .           HL- 6274:   LOGGING UNIT NUMBER
 LUL .             CASPER:   LOGGING UNIT LOCATION
 ENGI.             RAUTIO:   RECORDING ENGINEER
 WITN.        GARY STRONG:   WITNESSED BY
 CLNT.            A2DTECH:   CLIENT CODE
 ORIG.           5" PRINT:   ORIGIN OF DATA
 UWI .       490252254500:   UNIQUE WELL ID
 DICO. A2D Technologies, Inc.:   DIGITIZING COMPANY
~OTHER INFORMATION
~A   DEPT     DPHI       NPHI        C13        GRD       ZCOR       ZDEN       RILD       RILM   
# ...
  264.0000     0.1298     0.3805     7.9969   178.5697    -0.0085     2.4330     4.6506     4.2636
  264.5000     0.1535     0.4002     7.9962   180.9899    -0.0176     2.3928     4.6490     4.2330
  265.0000     0.1900     0.4030     7.9954   181.8490    -0.0147     2.3451     4.6474     4.2619
  265.5000     0.1987     0.3921     7.9947   178.5046     0.0155     2.3230     4.7112     4.5063
  266.0000     0.1919     0.3690     7.9939   173.9503     0.0306     2.3427     4.8438     4.8320
  266.5000     0.1499     0.3602     7.9930   170.6080     0.0093     2.4078     5.0545     5.1812
  267.0000     0.1317     0.3572     7.9923   166.9628     0.0032     2.4525     5.4299     5.6762
  267.5000     0.1154     0.3548     7.9915   166.3479     0.0107     2.4631     5.8822     6.0061
  268.0000     0.1102     0.3524     7.9908   170.2784     0.0137     2.4706     6.2180     6.2609
  268.5000     0.1075     0.3491     8.0054   173.6028     0.0031     2.4728     6.4818     6.3864
  269.0000     0.1072     0.3467     8.0045   174.2000    -0.0061     2.4736     6.7568     6.4300
  269.5000     0.1082     0.3446     8.0038   172.6130    -0.0031     2.4735     6.8501     6.3389
  270.0000     0.1073     0.3422     8.0182   169.6346     0.0135     2.4750     6.4752     6.2495
  270.5000     0.1079     0.3397     8.0175   168.4136     0.0240     2.4747     5.9944     5.8668
  271.0000     0.1112     0.3392     8.0167   169.3138     0.0237     2.4689     5.5881     5.2442
  271.5000     0.1143     0.3440     8.0158   169.6102     0.0193     2.4635     5.2095     4.6877
  272.0000     0.1195     0.3550     8.0151   169.2983     0.0087     2.4506     5.0290     4.4940
  272.5000     0.1380     0.3686     8.0143   171.7114    -0.0095     2.4240     4.9923     4.5248
  273.0000     0.1601     0.3792     8.0136   175.3389    -0.0141     2.3854     4.9558     4.5874
  273.5000     0.1666     0.3751     8.0128   176.8454     0.0024     2.3740     4.9196     4.7498
  274.0000     0.1544     0.3582     8.0121   175.6242     0.0266     2.3861     4.9520     4.9179
  274.5000     0.1386     0.3512     8.0417   175.0091     0.0282     2.4107     5.0551     5.1278
  275.0000     0.1280     0.3448     8.0713   175.9095     0.0159     2.4407     5.3065     5.3466
  275.5000     0.1179     0.3372     8.0554   172.2620     0.0143     2.4609     5.6095     5.6533
  276.0000     0.1086     0.3302     8.0241   166.1925     0.0173     2.4730     5.9713     5.9776
  276.5000     0.1047     0.3269     8.0234   160.7291     0.0112     2.4806     6.2683     6.3206
  277.0000     0.1031     0.3248     8.0075   158.5990     0.0020     2.4843     6.5342     6.6863
  277.5000     0.1005     0.3218     7.9916   160.7113     0.0080     2.4866     6.7641     6.9683
  278.0000     0.0987     0.3200     7.9757   164.9449     0.0216     2.4880     6.9533     7.0651
  278.5000     0.1000     0.3218     8.0054   165.2868     0.0291     2.4872     7.0487     7.1132
  279.0000     0.1039     0.3239     8.0045   164.3211     0.0366     2.4833     7.0956     7.1613
  279.5000     0.1070     0.3264     8.0341   165.2435     0.0395     2.4756     7.1429     7.1599
  280.0000     0.1058     0.3279     8.0334   167.9798     0.0332     2.4727     7.1404     7.1584
  280.5000     0.0976     0.3291     8.0148   167.0202     0.0195     2.4863     7.1880     7.1569
  281.0000     0.0915     0.3304     7.9862   165.4962     0.0182     2.4961     7.1849     7.1554
  281.5000     0.0900     0.3310     8.0008   165.1843     0.0287     2.5014     7.2841     7.1042
  282.0000     0.0937     0.3316     7.9999   166.3876     0.0226     2.4983     7.3840     7.2534
  282.5000     0.0986     0.3328     8.0145   168.8029     0.0150     2.4930     7.5371     7.4058
  283.0000     0.1025     0.3350     8.0290   172.1556     0.0210     2.4846     7.6947     7.5086
  283.5000     0.1062     0.3374     8.0586   174.3264     0.0255     2.4754     7.9092     7.6128
  284.0000     0.1089     0.3392     8.1032   176.0490     0.0163     2.4686     8.0739     7.6647
  284.5000     0.1077     0.3396     8.1484   173.9167     0.0057     2.4747     8.2427     7.7170
  285.0000     0.1026     0.3390     8.2119   171.7866     0.0168     2.4860     8.4143     7.7695
  285.5000     0.0965     0.3371     8.2679   171.4769     0.0373     2.4943     8.4697     7.8225
  286.0000     0.0941     0.3343     8.2518   174.1931     0.0478     2.4927     8.5858     7.8758
  286.5000     0.1009     0.3311     8.1903   174.7925     0.0523     2.4844     8.7657     7.9847
  287.0000     0.1080     0.3360     8.1594   173.2663     0.0492     2.4714     9.0155     8.5021
  287.5000     0.1147     0.3369     8.2040   172.6513     0.0446     2.4600     9.3484     8.6206
  288.0000     0.1190     0.3281     8.2792   172.3353     0.0552     2.4517     9.7215     8.8017
  288.5000     0.1178     0.3139     8.3847   169.1666     0.0702     2.4566    10.0643     9.0492
  289.0000     0.1075     0.3024     8.4446   163.2285     0.0808     2.4789    10.3450     9.5684
  289.5000     0.0951     0.2979     8.4135   159.2803     0.0776     2.4932    10.7089    10.0467
  290.0000     0.0912     0.2973     8.3519   155.3320     0.0655     2.4977    11.3202    10.5490
  290.5000     0.0921     0.3007     8.2753   156.5352     0.0579     2.4977    11.8832    11.6325
  291.0000     0.0906     0.3031     8.2594   157.1346     0.0563     2.4992    12.6497    12.4664
  291.5000     0.0888     0.3004     8.3042   156.5175     0.0593     2.5044    13.1864    13.3669
  292.0000     0.0925     0.2992     8.3340   154.6904     0.0668     2.4998    13.7459    14.2326
  292.5000     0.0955     0.2973     8.3484   151.0452     0.0788     2.4907    14.3291    15.3677
  293.0000     0.0877     0.2958     8.3171   144.3697     0.0863     2.4991    15.1472    16.3630
  293.5000     0.0722     0.2925     8.2253   129.6528     0.0711     2.5315    15.8001    17.3015
  294.0000     0.0701     0.2877     8.1016   122.5738     0.0209     2.5270    16.7193    18.2937
  294.5000     0.0932     0.2786     7.9938   114.9469    -0.1011     2.4898    17.8908    19.0745
  295.0000     0.1462     0.2656     7.9498   110.0895    -0.0970     2.3966    18.9122    19.7500
  295.5000     0.2438     0.2541     7.9490   107.3534    -0.0123     2.2428    19.8528    20.7567
  296.0000     0.2750     0.2480     7.9940   110.3748     0.0527     2.1836    20.8401    21.6628
  296.5000     0.2866     0.2477     8.0388   118.8508     0.0693     2.1796    21.5732    22.8616
  297.0000     0.2682     0.2484     8.0684   123.0843     0.0268     2.2079    22.4885    23.8372
  297.5000     0.2492     0.2476     8.0980   123.1212     0.0192     2.2442    23.2796    24.6814
  298.0000     0.2262     0.2355     8.1123   120.6423     0.0449     2.2842    24.2673    25.3776
  298.5000     0.1818     0.2293     8.1269   120.3304     0.0751     2.3357    25.2970    26.2764
  299.0000     0.1606     0.2311     8.1411   120.2788     0.0690     2.3842    27.3023    27.0184
  299.5000     0.1803     0.2402     8.1402   115.4619     0.0174     2.3803    28.2646    27.7795
  300.0000     0.2122     0.2469     8.1397   113.3341     0.0098     2.2780    29.0592    28.1666
  300.5000     0.2399     0.2503     8.1436   119.9862     0.0189     2.2280    29.6642    28.5592
  301.0000     0.2614     0.2518     8.1472   121.1894     0.0233     2.2151    29.6561    28.5552
  301.5000     0.2631     0.2521     8.1509   119.6594     0.0263     2.2196    29.4416    28.3525
  302.0000     0.2564     0.2497     8.1512   119.3445     0.0231     2.2264    28.6228    27.9551
  302.5000     0.2534     0.2503     8.1502   122.3630     0.0200     2.2325    27.6331    26.9915
  303.0000     0.2510     0.2526     8.1491   126.2905     0.0169     2.2376    26.1246    25.4967
  303.5000     0.2468     0.2576     8.1637   127.7938     0.0138     2.2437    24.3559    24.4238
  304.0000     0.2404     0.2602     8.1625   126.8404     0.0138     2.2580    23.1877    23.1348
