~VERSION INFORMATION
 VERS.                2.0:   CWLS LOG ASCII STANDARD - VERSION 2.0
 WRAP.                 NO:   ONE LINE PER DEPTH STEP
~WELL INFORMATION
#MNEM.UNIT      DATA TYPE    INFORMATION
#----------   ------------   ------------------------------
 STRT.F           40.0000:   START DEPTH
 STOP.F         3444.0000:   STOP DEPTH
 STEP.F            0.5000:   STEP LENGTH
 NULL.          -999.2500:   NO VALUE
 COMP.    FENIX & SCISSON:   COMPANY
 WELL.     13-A-10 #13-10:   WELL
 FLD .            WILDCAT:   FIELD
 LOC .      S10 T38N R78W:   LOCATION
 CNTY.            NATRONA:   COUNTY
 STAT.            WYOMING:   STATE
 CTRY. UNITED STATES OF AMERICA:   COUNTRY
 SRVC.       Schlumberger:   SERVICE COMPANY
 DATE.        08-JUL-1970:   LOGDATE
 API .       490251090300:   API NUMBER
~CURVE INFORMATION
#MNEM.UNIT       API CODE    CURVE DESCRIPTION
#----------   ------------   ------------------------------
 DEPT.F                  :   
 ASN .OHMM   05 041 16 00:   AMPLIFIED SHORT NORMAL 16"
 CILD.MMHO   05 110 46 00:   CONDUCTIVITY INDUCTION LOG DEEP
 ILD .OHMM   05 120 46 00:   INDUCTION LOG DEEP
 SPR .MV     05 010 01 00:   SPONTANEOUS POTENTIAL FROM RES.
 CALD.IN     45 280 60 00:   CALIPER FROM DENSITY
 CORR.G/C3   45 356 01 00:   DENSITY CORRECTION
 DPHI.DEC    45 890 12 00:   DENSITY POROSITY SANDSTONE
 RHOB.G/C3   45 350 01 00:   BULK DENSITY
~PARAMETER INFORMATION
#MNEM.UNIT          VALUE    DESCRIPTION
#----------   ------------   ------------------------------
 PD  .                 GL:   PERMANENT DATUM
 EPD .F              5295:   ELEVATION PERMANENT DATUM
 LMF .                 KB:   LOG MEASURED FROM
 DAPD.F                10:   FEET ABOVE PERMANENT DATUM
 DMF .                 KB:   DRILLING MEASURED FROM
 EKB .F              5305:   KELLING BUSHING
 EGL .F              5295:   GROUND LEVEL
 DATE.        08-JUL-1970:   RUN DATE
 RUN .                  3:   RUN NUMBER
 DD  .F              3450:   DEPTH DRILLER
 DL  .F              3444:   DEPTH LOGGER
 BLI .F              3443:   BOTTOM LOG INTERVAL
 TLI .F              2950:   TOP LOG INTERVAL
 CS  .IN            10.75:   CASING SIZE
 CBD .F               842:   CASING BOTTOM DRILLER
 BS  .IN                9:   BIT SIZE
 BSD .F              3450:   BIT SIZE AT DEPTH
 DFT .      FRESH GEL MUD:   DRILLING FLUID TYPE
 DFD .               10.4:   DRILLING FLUID DENSITY
 DFV .                 43:   DRILLING FLUID VISCOSITY
 DFPH.                7.6:   DRILLING FLUID PH
 DFL .                  8:   DRILLING FLUID LOSS
 MSS .           FLOWLINE:   MUD SAMPLE SOURCE
 RMS .OHMM              2:   RESISTIVITY MUD SAMPLE
 MST .F                85:   MUD SAMPLE TEMPERATURE
 RMF .OHMM            1.6:   RESISTIVITY MUD FILTRATE SAMPLE
 MFST.F                85:   MUD FILTRATE SAMPLE TEMPERATURE
 MFSS.               MEAS:   MUD FILTRATE SAMPLE SOURCE
 RMB .OHMM           1.49:   RESISTIVITY MUD AT BHT
 BHT .F               114:   BOTTOM HOLE TEMPERATURE
 TCS .HRS               3:   TIME CURCULATED STOPPED
 MRT .F               114:   MAXIMUM RECORDED TEMPERATURE
 LUN .               4507:   LOGGING UNIT NUMBER
 LUL .               CSPR:   LOGGING UNIT LOCATION
 ENGI.             TURNER:   RECORDING ENGINEER
 WITN.                MAY:   WITNESSED BY
 CLNT.            A2DTECH:   CLIENT CODE
 ORIG.     2.5", 5" PRINT:   ORIGIN OF DATA
 UWI .       490251090300:   UNIQUE WELL ID
 DICO. A2D Technologies, Inc.:   DIGITIZING COMPANY
~OTHER INFORMATION
~A   DEPT        ASN      CILD         ILD      SPR       CALD       CORR       DPHI       RHOB   
# ...
 2753.5000     3.0728   349.6474     2.7246   -31.4717    10.5321     0.0430     0.0874     2.5054
 2754.0000     3.0879   360.0376     2.7184   -31.4822    10.5470     0.0258     0.0877     2.5023
 2754.5000     3.1185   371.4656     2.7132   -31.4926    10.5619     0.0108     0.0931     2.4962
 2755.0000     3.1607   382.1198     2.7081   -31.5030    10.5617     0.0146     0.0838     2.5083
 2755.5000     3.1298   389.2336     2.7030   -31.5153    10.5616     0.0131     0.0775     2.5173
 2756.0000     3.0690   376.9427     2.6978   -31.5255    10.5614     0.0251     0.0754     2.5219
 2756.5000     3.0382   367.9520     2.6927   -31.5357    10.5613     0.0259     0.0760     2.5203
 2757.0000     3.0675   367.9812     2.6875   -31.5459    10.5611     0.0199     0.0970     2.4925
 2757.5000     3.0968   368.0105     2.8317   -31.5561    10.5610     0.0147     0.0964     2.4947
 2758.0000     3.1561   365.0635     2.8265   -31.5663    10.5458     0.0128     0.0922     2.5038
 2758.5000     3.2154   354.6761     2.8214   -31.2783    10.5456     0.0383     0.0814     2.5108
 2759.0000     3.2748   339.8244     2.9655   -31.2891    10.5444     0.0313     0.0863     2.5098
 2759.5000     3.3955   321.9965     2.9604   -31.2993    10.5386     0.0248     0.0865     2.5113
 2760.0000     3.5194   302.6805     3.1045   -31.3095    10.5328     0.0323     0.0835     2.5158
 2760.5000     3.7330   287.8288     3.2534   -31.3199    10.5268     0.0413     0.0668     2.5316
 2761.0000     4.0207   274.4652     3.5518   -31.3303    10.5280     0.0338     0.0589     2.5463
 2761.5000     4.4006   259.6135     3.8500   -31.3407    10.5413     0.0239     0.0538     2.5594
 2762.0000     4.7639   243.2428     4.1287   -31.3512    10.5108     0.0278     0.0489     2.5684
 2762.5000     4.9086   234.3129     4.2728   -31.3616    10.5105     0.0263     0.0505     2.5647
 2763.0000     5.0307   232.8029     4.4169   -31.3720    10.4952     0.0293     0.0517     2.5639
 2763.5000     4.9869   232.9464     4.4112   -31.3825    10.5249     0.0173     0.0526     2.5613
 2764.0000     4.7776   231.4859     4.3661   -31.3929    10.5398     0.0345     0.0649     2.5444
 2764.5000     4.6037   231.5179     4.2515   -31.4033    10.5093     0.0263     0.0766     2.5263
 2765.0000     4.5570   233.0357     4.2463   -31.4137    10.5693     0.0495     0.0751     2.5286
 2765.5000     4.6200   233.4408     4.2410   -31.5606    10.6593     0.0773     0.0706     2.5316
 2766.0000     4.8257   236.9234     4.2358   -31.7322    10.5686     0.0533     0.0742     2.5256
 2766.5000     5.0051   239.5562     4.4445   -31.7426    10.4479     0.0120     0.0772     2.5263
 2767.0000     5.1545   236.9851     4.5936   -31.7530    10.4174     0.0125     0.0703     2.5346
 2767.5000     5.2439   224.8973     4.7425   -31.7653    10.4473     0.0263     0.0589     2.5466
 2768.0000     5.2131   215.5760     4.8119   -32.0731    10.4771     0.0375     0.0538     2.5564
 2768.5000     5.0923   213.0978     4.9560   -32.0833    10.4015     0.0255     0.0622     2.5414
 2769.0000     5.0878   218.3825     4.8005   -32.3912    10.3560     0.0165     0.0661     2.5376
 2769.5000     5.2410   224.4696     4.6461   -32.4014    10.3557     0.0066     0.0592     2.5534
 2770.0000     5.2713   231.3960     4.3424   -32.4116    10.3705    -0.0015     0.0638     2.5451
 2770.5000     5.2388   242.2975     4.1880   -32.1235    10.3551    -0.0023     0.0667     2.5444
 2771.0000     4.9865   245.3029     4.0336   -32.1344    10.3699     0.0135     0.0673     2.5353
 2771.5000     4.6675   242.3560     4.0285   -31.8469    10.4147     0.0413     0.0679     2.5346
 2772.0000     4.7055   236.4328     4.1731   -31.5595    10.5048     0.0366     0.0824     2.5226
 2772.5000     4.8391   231.9978     4.3171   -31.5699    10.5497     0.0293     0.0815     2.5150
 2773.0000     5.0682   229.0509     4.6101   -31.2823    10.2783     0.0128     0.0779     2.5211
 2773.5000     5.4058   227.5892     4.7545   -31.2931    10.1726     0.0090     0.0731     2.5271
 2774.0000     5.7141   221.6689     5.0476   -31.0051    10.1572     0.0053     0.0689     2.5353
 2774.5000     5.8564   209.7934     5.1917   -31.0164    10.1720    -0.0015     0.0749     2.5271
 2775.0000     5.9359   197.9179     5.1866   -31.0268    10.2017     0.0105     0.0758     2.5233
 2775.5000     5.9966   189.0186     5.1813   -31.0372    10.2015     0.0308     0.0581     2.5603
 2776.0000     6.0420   183.0954     5.1763   -31.0476    10.2012     0.0586     0.0346     2.5932
 2776.5000     6.0713   183.1250     5.3204   -31.0580    10.2009     0.0135     0.0463     2.5798
 2777.0000     6.1305   184.6420     5.3150   -31.1924    10.2006     0.0090     0.0572     2.5549
 2777.5000     6.1297   181.5605     5.3097   -31.3765    10.2002     0.0165     0.0542     2.5594
 2778.0000     6.1891   178.5609     5.3045   -31.3869    10.2151     0.0203     0.0533     2.5617
 2778.5000     6.2784   174.3131     5.2993   -31.3974    10.2147     0.0173     0.0563     2.5564
 2779.0000     6.3378   172.8543     5.2940   -31.5814    10.2145     0.0225     0.0512     2.5625
 2779.5000     6.4271   171.3954     5.4388   -31.7177    10.2292     0.0248     0.0463     2.5692
 2780.0000     6.4565   171.8261     5.4328   -31.7279    10.2289     0.0203     0.0530     2.5677
 2780.5000     6.4256   175.3318     5.4276   -31.7381    10.2286     0.0263     0.0500     2.5647
 2781.0000     6.4249   180.9176     5.4224   -31.7483    10.2283     0.0323     0.0448     2.5774
 2781.5000     6.3340   186.5704     5.4172   -31.7585    10.2130     0.0428     0.0364     2.5866
 2782.0000     6.1189   193.5909     5.4119   -31.7687    10.2126     0.0335     0.0391     2.5842
 2782.5000     5.9067   197.5317     5.3320   -31.7789    10.2123     0.0263     0.0518     2.5707
 2783.0000     5.7189   199.8810     5.1726   -31.7891    10.2120     0.0180     0.0581     2.5564
 2783.5000     5.5803   198.4226     5.0977   -31.7993    10.2117     0.0390     0.0593     2.5466
 2784.0000     5.6464   198.4524     4.7930   -31.8095    10.2265     0.0345     0.0683     2.5406
 2784.5000     5.7152   202.3236     4.6386   -31.8199    10.2262     0.0075     0.0798     2.5173
 2785.0000     5.8168   208.9342     4.6335   -31.8054    10.2259     0.0068     0.0777     2.5256
 2785.5000     5.9378   213.4277     4.6283   -31.5425    10.2256     0.0185     0.0632     2.5579
 2786.0000     5.8102   216.4332     4.6232   -31.5535    10.2253     0.0375     0.0497     2.5639
 2786.5000     5.6087   216.4624     4.7673   -31.5640    10.2250     0.0225     0.0686     2.5331
 2787.0000     5.5150   212.0274     4.7622   -31.5744    10.2247     0.0458     0.0533     2.5526
 2787.5000     5.5143   207.5923     4.9067   -31.5848    10.2394     0.0699     0.0482     2.5654
 2788.0000     5.6493   200.1811     5.0507   -31.4960    10.2994     0.0173     0.0723     2.5233
 2788.5000     6.1132   195.7461     5.0453   -31.3061    10.3897     0.0308     0.0644     2.5421
 2789.0000     6.3527   185.3587     5.3386   -31.3184    10.2686     0.0083     0.0711     2.5293
 2789.5000     6.7424   177.9474     5.6320   -31.3288    10.1930    -0.0023     0.0738     2.5383
 2790.0000     7.1020   169.0481     5.7761   -31.3393    10.1927     0.0008     0.0635     2.5466
 2790.5000     7.2815   163.1191     5.9251   -31.6474    10.1925     0.0045     0.0608     2.5511
 2791.0000     7.2507   157.1477     6.0643   -31.6578    10.2072     0.0105     0.0545     2.5556
 2791.5000     7.2199   154.0429     6.0589   -31.9677    10.2220     0.0270     0.0515     2.5595
 2792.0000     7.1291   151.3080     6.0538   -31.9779    10.2066     0.0323     0.0353     2.5902
 2792.5000     7.0683   154.5268     6.0734   -31.9881    10.2063     0.0143     0.0434     2.5835
 2793.0000     6.9775   157.3215     6.1931   -31.9983    10.2060     0.0075     0.0573     2.5591
 2793.5000     7.0117   159.1541     6.1873   -32.0085    10.2057     0.0105     0.0518     2.5585
