~VERSION INFORMATION
 VERS.                2.0:   CWLS LOG ASCII STANDARD - VERSION 2.0
 WRAP.                 NO:   ONE LINE PER DEPTH STEP
~WELL INFORMATION
#MNEM.UNIT      DATA TYPE    INFORMATION
#----------   ------------   ------------------------------
 STRT.F           19.0000:   START DEPTH
 STOP.F         1200.0000:   STOP DEPTH
 STEP.F            0.5000:   STEP LENGTH
 NULL.          -999.2500:   NO VALUE
 COMP.       INTEX OIL CO:   COMPANY
 WELL.     NPR 3 #73 S-14:   WELL
 FLD .             TEAPOT:   FIELD
 LOC .      S14 T38N R78W:   LOCATION
 CNTY.            NATRONA:   COUNTY
 STAT.            WYOMING:   STATE
 CTRY. UNITED STATES OF AMERICA:   COUNTRY
 SRVC.       Schlumberger:   SERVICE COMPANY
 DATE.        24-AUG-1966:   LOGDATE
 API .       490250970900:   API NUMBER
~CURVE INFORMATION
#MNEM.UNIT       API CODE    CURVE DESCRIPTION
#----------   ------------   ------------------------------
 DEPT.F                  :   
 SPR .MV     05 010 01 00:   SPONTANEOUS POTENTIAL FROM RES.
 ILD .OHMM   05 120 46 00:   INDUCTION LOG DEEP
 ASN .OHMM   05 041 16 00:   AMPLIFIED SHORT NORMAL 16"
 CILD.MMHO   05 110 46 00:   CONDUCTIVITY INDUCTION LOG DEEP
 CALD.IN     45 280 60 00:   CALIPER
 GRD .GAPI   45 310 01 00:   GAMMA RAY FROM DENSITY LOG
 CORR.G/C3   45 356 01 00:   DENSITY CORRECTION
 RHOB.G/C3   45 350 01 00:   BULK DENSITY
 DPHI.DEC    45 890 12 00:   DENSITY POROSITY SANDSTONE
~PARAMETER INFORMATION
#MNEM.UNIT          VALUE    DESCRIPTION
#----------   ------------   ------------------------------
 PD  .                 GL:   PERMANENT DATUM
 EPD .F              5274:   ELEVATION PERMANENT DATUM
 LMF .                 KB:   LOG MEASURED FROM
 DAPD.F                 5:   FEET ABOVE PERMANENT DATUM
 DMF .                 KB:   DRILLING MEASURED FROM
 EKB .F              5279:   KELLING BUSHING
 EGL .F              5274:   GROUND LEVEL
 DATE.            8-24-66:   RUN DATE
 RUN .                  1:   RUN NUMBER
 DD  .F              1200:   DEPTH DRILLER
 DL  .F              1200:   DEPTH LOGGER
 BLI .F              1199:   BOTTOM LOG INTERVAL
 TLI .F                86:   TOP LOG INTERVAL
 CS  .IN            8.625:   CASING SIZE
 CBD .F                10:   CASING BOTTOM DRILLER
 BS  .IN             6.75:   BIT SIZE
 BSD .F              1200:   BIT SIZE AT DEPTH
 DFT .                GEL:   DRILLING FLUID TYPE
 DFD .               10.1:   DRILLING FLUID DENSITY
 DFV .                 60:   DRILLING FLUID VISCOSITY
 MSS .          FLOW LINE:   MUD SAMPLE SOURCE
 RMS .OHMM            1.8:   RESISTIVITY MUD SAMPLE
 MST .F                67:   MUD SAMPLE TEMPERATURE
 RMF .OHMM            1.4:   RESISTIVITY MUD FILTRATE SAMPLE
 MFST.F                77:   MUD FILTRATE SAMPLE TEMPERATURE
 MFSS.                  M:   MUD FILTRATE SAMPLE SOURCE
 RMB .OHMM            1.1:   RESISTIVITY MUD AT BHT
 BHT .F               112:   BOTTOM HOLE TEMPERATURE
 TCS .HRS               1:   TIME CURCULATED STOPPED
 MRT .F               112:   MAXIMUM RECORDED TEMPERATURE
 LUN .               4507:   LOGGING UNIT NUMBER
 LUL .               CSPR:   LOGGING UNIT LOCATION
 ENGI.            MANGOLD:   RECORDING ENGINEER
 WITN.                MAY:   WITNESSED BY
 CLNT.            A2DTECH:   CLIENT CODE
 ORIG.           5" PRINT:   ORIGIN OF DATA
 UWI .       490250970900:   UNIQUE WELL ID
 DICO. A2D Technologies, Inc.:   DIGITIZING COMPANY
~OTHER INFORMATION
~A   DEPT      SPR        ILD        ASN       CILD       CALD         GRD        CORR     RHOB       DPHI   
# ...
  712.5000   -50.7830     6.7240     7.5020   141.3220     7.2130    96.1560     0.0450     2.5460     0.0630
  713.0000   -50.6890     6.8130     7.5530   139.3680     7.2130   100.6330     0.0480     2.5530     0.0590
  713.5000   -50.5790     6.9250     7.6050   137.4140     7.2120    99.6630     0.0580     2.5480     0.0660
  714.0000   -50.5020     7.0340     7.6590   135.4610     7.2110    98.0960     0.0690     2.5360     0.0750
  714.5000   -50.3870     7.0530     7.7180   133.3670     7.2110    98.1490     0.0740     2.5240     0.0730
  715.0000   -50.1020     7.0380     7.7970   133.5350     7.2100    98.8880     0.0650     2.5060     0.0860
  715.5000   -49.7980     7.0460     7.9070   133.7170     7.2090    98.6820     0.0540     2.5090     0.0820
  716.0000   -49.5290     7.0470     7.9990   133.8990     7.2080    98.4200     0.0440     2.5190     0.0780
  716.5000   -49.2460     7.0380     8.0530   134.0810     7.2080    97.8600     0.0340     2.5280     0.0740
  717.0000   -48.9620     7.0520     8.1000   134.2630     7.2070    96.8600     0.0390     2.5320     0.0710
  717.5000   -48.6780     7.0370     8.1460   134.8760     7.2060    96.7470     0.0470     2.5230     0.0750
  718.0000   -48.4120     6.9460     8.2060   136.3640     7.2060    98.4000     0.0590     2.5150     0.0810
  718.5000   -48.0990     6.8460     8.2000   138.6130     7.2050   100.7220     0.0560     2.5060     0.0870
  719.0000   -47.8170     6.7460     8.0600   141.6900     7.2040   102.0970     0.0470     2.4960     0.0920
  719.5000   -47.6850     6.6490     7.8450   143.7600     7.2030   101.7330     0.0390     2.4900     0.0940
  720.0000   -47.6150     6.6250     7.6330   144.6390     7.2030   100.0400     0.0300     2.4930     0.0960
  720.5000   -47.6440     6.6220     7.4790   145.3550     7.2020    97.2230     0.0240     2.5140     0.0860
  721.0000   -47.7590     6.6010     7.3950   145.6210     7.2010    94.5780     0.0340     2.5340     0.0700
  721.5000   -47.8400     6.5910     7.3680   145.8450     7.2010    95.4970     0.0520     2.5290     0.0720
  722.0000   -47.9280     6.5780     7.3890   146.0700     7.1990    96.0240     0.0590     2.5470     0.0530
  722.5000   -48.0260     6.5610     7.4180   146.2940     7.2010    94.5380     0.0470     2.5640     0.0550
  723.0000   -48.1080     6.5500     7.4440   146.5190     7.1800    95.3360     0.0520     2.5510     0.0600
  723.5000   -48.2040     6.5550     7.4570   146.7430     7.1440   100.2240     0.0620     2.5370     0.0640
  724.0000   -48.2930     6.5800     7.4260   146.9680     7.1120    99.5330     0.0570     2.5190     0.0800
  724.5000   -48.3940     6.6060     7.3770   147.1920     7.0800    99.0070     0.0460     2.5030     0.0910
  725.0000   -48.5560     6.6300     7.3450   147.3530     7.0700    99.2270     0.0350     2.4860     0.1030
  725.5000   -48.7340     6.6560     7.3610   146.4370     7.0640    99.5890     0.0260     2.4820     0.0980
  726.0000   -48.9250     6.6810     7.4220   145.7250     7.0540   100.8170     0.0120     2.4790     0.1000
  726.5000   -49.1050     6.7060     7.4910   145.0120     7.0500   102.1770     0.0170     2.4780     0.1070
  727.0000   -49.0260     6.7320     7.5360   144.2990     7.0350   101.4480     0.0310     2.4870     0.1030
  727.5000   -48.6690     6.7560     7.5460   143.5860     7.0890   102.3990     0.0220     2.4970     0.0920
  728.0000   -48.3200     6.7820     7.5380   142.8730     7.1820   104.9830     0.0190     2.5070     0.0870
  728.5000   -47.9620     6.8060     7.5430   142.3580     7.2500   106.5650     0.0300     2.5160     0.0810
  729.0000   -47.6140     6.8320     7.5740   140.6740     7.2330   105.7310     0.0390     2.5290     0.0740
  729.5000   -47.5920     6.8730     7.6170   139.3560     7.2030   104.0000     0.0490     2.5250     0.0770
  730.0000   -47.8270     6.9270     7.6640   138.0370     7.1820   103.1870     0.0460     2.5080     0.0850
  730.5000   -48.0250     6.9810     7.7420   136.7180     7.1980   104.4100     0.0420     2.5070     0.0850
  731.0000   -48.2120     7.0340     7.8250   135.4000     7.2170   106.2550     0.0370     2.5030     0.0900
  731.5000   -48.4200     7.0880     7.8980   134.0810     7.2190   104.9280     0.0330     2.4900     0.1010
  732.0000   -48.5990     7.1410     7.9840   132.7620     7.2190    99.7680     0.0240     2.4880     0.0970
  732.5000   -48.8140     7.1950     8.0540   131.4440     7.2190   100.8480     0.0290     2.5200     0.0820
  733.0000   -48.9890     7.2480     8.0910   130.1250     7.2180   103.2260     0.0560     2.5360     0.0690
  733.5000   -49.0080     7.3020     8.1090   128.8060     7.2230   105.7130     0.0460     2.5190     0.0880
  734.0000   -48.9920     7.3560     8.1700   127.4880     7.2390   104.3910     0.0380     2.5030     0.0870
  734.5000   -49.0030     7.4070     8.3200   126.3740     7.2540   100.7820     0.0450     2.5120     0.0830
  735.0000   -48.9980     7.4650     8.4750   125.8760     7.2710    98.6240     0.0560     2.5060     0.0900
  735.5000   -49.0000     7.5130     8.6250   125.4460     7.2780   101.3050     0.0330     2.4900     0.0990
  736.0000   -49.0010     7.5440     8.7770   125.0150     7.2730   105.8480     0.0240     2.4800     0.1050
  736.5000   -49.0000     7.5870     8.8250   124.5840     7.2700   108.5610     0.0370     2.4870     0.0950
  737.0000   -49.0020     7.6280     8.7890   124.1540     7.2660   107.8230     0.0490     2.5010     0.0880
  737.5000   -48.9310     7.6690     8.7580   123.7230     7.2620   107.1640     0.0460     2.5150     0.0810
  738.0000   -48.7860     7.7110     8.7320   123.2930     7.2580   106.3390     0.0410     2.5170     0.0800
  738.5000   -48.6370     7.7450     8.6910   122.8620     7.2550   105.5450     0.0360     2.5160     0.0790
  739.0000   -48.4930     7.7990     8.6680   122.3780     7.2510   105.1030     0.0310     2.5170     0.0810
  739.5000   -48.3440     7.8310     8.7560   120.8690     7.2470   105.9360     0.0260     2.5150     0.0820
  740.0000   -48.1980     7.8540     8.9270   119.1440     7.2430   106.6080     0.0210     2.5080     0.0910
  740.5000   -48.0510     7.9670     9.0580   117.4200     7.2390   104.9450     0.0250     2.5040     0.0890
  741.0000   -47.9040     8.1010     9.1920   115.6950     7.2350   102.9350     0.0330     2.5140     0.0850
  741.5000   -47.7580     8.2050     9.3940   113.9710     7.2320   100.6210     0.0400     2.5270     0.0730
  742.0000   -47.6110     8.3260     9.5900   112.2470     7.2280   100.8790     0.0460     2.5340     0.0700
  742.5000   -47.4660     8.4420     9.7310   110.5220     7.2240   101.5680     0.0490     2.5300     0.0730
  743.0000   -47.3180     8.5550     9.8610   108.7980     7.2200   103.1560     0.0510     2.5340     0.0680
  743.5000   -47.1720     8.6750    10.0420   107.0730     7.2160   104.5880     0.0540     2.5420     0.0650
  744.0000   -47.0260     8.7600    10.2300   105.3950     7.2120   104.6540     0.0560     2.5350     0.0700
  744.5000   -46.8770     8.8080    10.3540   104.5620     7.2080   105.7040     0.0580     2.5250     0.0740
  745.0000   -46.7350     8.8550    10.4290   103.7500     7.2050   106.7040     0.0560     2.5240     0.0770
  745.5000   -46.5840     8.9020    10.5030   102.9390     7.2010   107.8930     0.0540     2.5200     0.0770
  746.0000   -46.4410     8.9480    10.6310   102.1270     7.1990   108.0760     0.0600     2.5300     0.0700
  746.5000   -46.3910     8.9980    10.7810   101.3990     7.2020   102.2740     0.0670     2.5470     0.0630
  747.0000   -46.3930     9.0390    10.9210   101.6680     7.2040    96.4550     0.0640     2.5410     0.0680
  747.5000   -46.3900     9.0950    11.0630   101.9120     7.2060    93.9170     0.0540     2.5280     0.0760
  748.0000   -46.3970     9.1370    11.1020   102.1560     7.2080    97.6710     0.0460     2.5170     0.0830
  748.5000   -46.3850     9.1070    11.0170   102.4010     7.2100   101.3470     0.0370     2.5060     0.0890
