~VERSION INFORMATION
 VERS.                2.0:   CWLS LOG ASCII STANDARD - VERSION 2.0
 WRAP.                 NO:   ONE LINE PER DEPTH STEP
~WELL INFORMATION
#MNEM.UNIT      DATA TYPE    INFORMATION
#----------   ------------   ------------------------------
 STRT.F           40.0000:   START DEPTH
 STOP.F          512.0000:   STOP DEPTH
 STEP.F            0.5000:   STEP LENGTH
 NULL.          -999.2500:   NO VALUE
 COMP. FENIX & SCISSON INC:   COMPANY
 WELL.    SX 3FO 55 #52-3:   WELL
 FLD .             TEAPOT:   FIELD
 LOC .       S3 T38N R78W:   LOCATION
 CNTY.            NATRONA:   COUNTY
 STAT.            WYOMING:   STATE
 CTRY. UNITED STATES OF AMERICA:   COUNTRY
 SRVC.              Welex:   SERVICE COMPANY
 DATE.        28-JUN-1980:   LOGDATE
 API .       490251081600:   API NUMBER
~CURVE INFORMATION
#MNEM.UNIT       API CODE    CURVE DESCRIPTION
#----------   ------------   ------------------------------
 DEPT.F                  :   
 GRD .GAPI   45 310 01 00:   GAMMA RAY FROM DENSITY LOG
 CALD.IN     45 280 60 00:   CALIPER
 RHOB.G/C3   45 350 01 00:   BULK DENSITY
 DPHI.DEC    45 890 12 00:   DENSITY POROSITY SANDSTONE
 CORR.G/C3   45 356 01 00:   DENSITY CORRECTION
~PARAMETER INFORMATION
#MNEM.UNIT          VALUE    DESCRIPTION
#----------   ------------   ------------------------------
 PD  .                 GL:   PERMANENT DATUM
 EPD .F              5161:   ELEVATION PERMANENT DATUM
 LMF .                 KB:   LOG MEASURED FROM
 DAPD.F                 5:   FEET ABOVE PERMANENT DATUM
 DMF .                 KB:   DRILLING MEASURED FROM
 EKB .F              5166:   KELLING BUSHING
 EGL .F              5161:   GROUND LEVEL
 DATE.            6-28-80:   RUN DATE
 RUN .                  1:   RUN NUMBER
 DD  .F               514:   DEPTH DRILLER
 DL  .F               514:   DEPTH LOGGER
 BLI .F               512:   BOTTOM LOG INTERVAL
 TLI .F                46:   TOP LOG INTERVAL
 CS  .IN                7:   CASING SIZE
 BS  .IN             6.25:   BIT SIZE
 BSD .F               514:   BIT SIZE AT DEPTH
 DFT .        AIR DRILLED:   DRILLING FLUID TYPE
 BHT .F                74:   BOTTOM HOLE TEMPERATURE
 TCS .HRS               2:   TIME CURCULATED STOPPED
 MRT .F                74:   MAXIMUM RECORDED TEMPERATURE
 ENGI.            TOTHILL:   RECORDING ENGINEER
 WITN.              AMEND:   WITNESSED BY
 CLNT.            A2DTECH:   CLIENT CODE
 ORIG.           5" PRINT:   ORIGIN OF DATA
 UWI .       490251081600:   UNIQUE WELL ID
 DICO. A2D Technologies, Inc.:   DIGITIZING COMPANY
~OTHER INFORMATION
~A   DEPT       GRD        CALD       RHOB       DPHI       CORR 
# ...
  345.0000    86.2650     6.3691     2.4574     0.1297     0.0528
  345.5000    87.0123     6.3678     2.4523     0.1313     0.0494
  346.0000    87.9163     6.3665     2.4554     0.1329     0.0459
  346.5000    88.6316     6.3652     2.4624     0.1273     0.0424
  347.0000    88.0805     6.3656     2.4604     0.1274     0.0389
  347.5000    87.5120     6.3676     2.4635     0.1268     0.0391
  348.0000    86.9259     6.3696     2.4750     0.1165     0.0436
  348.5000    87.2839     6.3716     2.4884     0.1123     0.0480
  349.0000    87.8091     6.3736     2.4870     0.1111     0.0519
  349.5000    88.3399     6.3755     2.4883     0.1103     0.0518
  350.0000    88.9206     6.3775     2.4853     0.1131     0.0423
  350.5000    89.7049     6.3795     2.4788     0.1178     0.0315
  351.0000    90.4807     6.3815     2.4722     0.1202     0.0216
  351.5000    91.2568     6.3835     2.4720     0.1212     0.0218
  352.0000    90.8777     6.3853     2.4730     0.1219     0.0252
  352.5000    90.4394     6.3868     2.4691     0.1236     0.0237
  353.0000    90.5640     6.3883     2.4647     0.1254     0.0207
  353.5000    92.1397     6.3898     2.4588     0.1272     0.0177
  354.0000    93.6282     6.3913     2.4585     0.1289     0.0146
  354.5000    94.7607     6.3929     2.4561     0.1313     0.0140
  355.0000    93.7081     6.3944     2.4525     0.1333     0.0139
  355.5000    92.6938     6.3959     2.4525     0.1333     0.0140
  356.0000    91.7210     6.3974     2.4476     0.1345     0.0140
  356.5000    91.8420     6.3990     2.4458     0.1361     0.0175
  357.0000    92.0954     6.4005     2.4525     0.1329     0.0267
  357.5000    91.8029     6.4020     2.4451     0.1363     0.0207
  358.0000    91.4481     6.4035     2.4315     0.1443     0.0120
  358.5000    91.0978     6.4028     2.4178     0.1524     0.0031
  359.0000    90.6686     6.3991     2.4183     0.1541     0.0004
  359.5000    90.9544     6.3955     2.4223     0.1510     0.0012
  360.0000    91.2528     6.3918     2.4233     0.1502     0.0019
  360.5000    90.9487     6.3882     2.4227     0.1498    -0.0009
  361.0000    90.5434     6.3846     2.4270     0.1494    -0.0036
  361.5000    90.1507     6.3809     2.4312     0.1462     0.0019
  362.0000    90.9477     6.3773     2.4409     0.1421     0.0087
  362.5000    91.9109     6.3736     2.4518     0.1346     0.0158
  363.0000    92.8774     6.3699     2.4513     0.1325     0.0113
  363.5000    93.8432     6.3663     2.4413     0.1382     0.0045
  364.0000    94.6713     6.3654     2.4296     0.1451    -0.0024
  364.5000    94.0312     6.3670     2.4220     0.1499    -0.0062
  365.0000    93.3220     6.3685     2.4232     0.1513    -0.0076
  365.5000    92.6118     6.3702     2.4199     0.1527    -0.0025
  366.0000    92.7234     6.3717     2.4182     0.1531     0.0024
  366.5000    93.4855     6.3733     2.4199     0.1524     0.0072
  367.0000    92.8043     6.3749     2.4159     0.1517     0.0119
  367.5000    91.8966     6.3765     2.4111     0.1570     0.0146
  368.0000    90.6099     6.3781     2.4113     0.1596     0.0090
  368.5000    89.2491     6.3797     2.3924     0.1694     0.0028
  369.0000    86.8000     6.3813     2.3727     0.1794    -0.0035
  369.5000    83.9839     6.3829     2.3532     0.1896    -0.0019
  370.0000    80.5660     6.3844     2.3365     0.2036     0.0076
  370.5000    77.1924     6.3845     2.3402     0.2016     0.0198
  371.0000    74.5389     6.3845     2.3485     0.1970     0.0320
  371.5000    72.4479     6.3845     2.3566     0.1925     0.0342
  372.0000    71.0267     6.3818     2.3656     0.1872     0.0345
  372.5000    71.1458     6.3779     2.3772     0.1808     0.0397
  373.0000    71.3462     6.3738     2.3888     0.1743     0.0437
  373.5000    71.1242     6.3698     2.4003     0.1684     0.0480
  374.0000    70.8367     6.3657     2.4037     0.1632     0.0518
  374.5000    70.5866     6.3646     2.4059     0.1589     0.0442
  375.0000    70.7543     6.3645     2.3958     0.1663     0.0353
  375.5000    70.9170     6.3645     2.3817     0.1739     0.0262
  376.0000    71.5904     6.3645     2.3691     0.1803     0.0273
  376.5000    73.4149     6.3645     2.3576     0.1908     0.0319
  377.0000    75.3050     6.3645     2.3530     0.1922     0.0355
  377.5000    76.6275     6.3645     2.3527     0.1936     0.0325
  378.0000    77.7013     6.3645     2.3573     0.1925     0.0314
  378.5000    78.7249     6.3646     2.3636     0.1890     0.0417
  379.0000    79.4581     6.3646     2.3627     0.1868     0.0408
  379.5000    80.1968     6.3642     2.3613     0.1870     0.0367
  380.0000    80.9345     6.3480     2.3597     0.1883     0.0326
  380.5000    81.5380     6.3487     2.3537     0.1909     0.0285
  381.0000    80.8150     6.3537     2.3519     0.1952     0.0245
  381.5000    80.0751     6.3588     2.3575     0.1929     0.0227
  382.0000    80.0522     6.3639     2.3626     0.1890     0.0245
  382.5000    80.6213     6.3690     2.3643     0.1851     0.0266
  383.0000    81.1914     6.3741     2.3750     0.1802     0.0294
  383.5000    81.7403     6.3792     2.3857     0.1752     0.0322
  384.0000    81.2704     6.3843     2.3964     0.1681     0.0350
  384.5000    80.7057     6.3895     2.4071     0.1624     0.0378
  385.0000    80.8748     6.3946     2.4139     0.1604     0.0413
  385.5000    81.3724     6.3997     2.4248     0.1537     0.0469
  386.0000    81.8654     6.4041     2.4282     0.1473     0.0472
  386.5000    80.9284     6.3988     2.4232     0.1499     0.0417
  387.0000    79.7839     6.3934     2.4183     0.1528     0.0360
  387.5000    78.7131     6.3881     2.4132     0.1560     0.0302
  388.0000    78.6571     6.3829     2.4073     0.1599     0.0274
  388.5000    78.8009     6.3776     2.3975     0.1653     0.0246
  389.0000    78.9537     6.3723     2.3792     0.1741     0.0219
  389.5000    79.6257     6.3670     2.3603     0.1831     0.0209
  390.0000    80.5977     6.3651     2.3610     0.1876     0.0244
  390.5000    81.5328     6.3670     2.3693     0.1845     0.0280
  391.0000    82.4060     6.3689     2.3773     0.1788     0.0375
  391.5000    82.6779     6.3707     2.3836     0.1737     0.0427
  392.0000    83.0188     6.3726     2.3887     0.1717     0.0452
  392.5000    83.5226     6.3745     2.3945     0.1683     0.0530
  393.0000    84.0726     6.3763     2.3993     0.1653     0.0550
  393.5000    84.6305     6.3782     2.3955     0.1670     0.0471
  394.0000    85.1896     6.3800     2.3918     0.1692     0.0394
  394.5000    85.7442     6.3819     2.3925     0.1699     0.0361
  395.0000    86.2878     6.3838     2.3937     0.1692     0.0337
  395.5000    86.7010     6.3844     2.3958     0.1676     0.0415
  396.0000    86.6540     6.3845     2.4011     0.1636     0.0506
  396.5000    86.6121     6.3847     2.3933     0.1676     0.0500
  397.0000    86.5655     6.3784     2.3789     0.1757     0.0411
  397.5000    86.5196     6.3713     2.3725     0.1805     0.0322
  398.0000    86.8272     6.3641     2.3672     0.1837     0.0241
  398.5000    87.2228     6.3569     2.3689     0.1850     0.0221
  399.0000    86.4506     6.3496     2.3733     0.1812     0.0241
  399.5000    85.2100     6.3449     2.3744     0.1784     0.0257
  400.0000    84.2227     6.3549     2.3699     0.1801     0.0242
  400.5000    83.9358     6.3645     2.3744     0.1815     0.0201
  401.0000    83.7207     6.3740     2.3681     0.1830     0.0166
  401.5000    83.7287     6.3834     2.3677     0.1844     0.0131
  402.0000    83.7058     6.3834     2.3676     0.1840     0.0110
  402.5000    83.2608     6.3822     2.3684     0.1814     0.0155
  403.0000    82.8401     6.3809     2.3840     0.1745     0.0201
  403.5000    82.7302     6.3797     2.3935     0.1684     0.0210
  404.0000    83.5560     6.3785     2.3977     0.1645     0.0205
  404.5000    84.1124     6.3772     2.4175     0.1546     0.0310
  405.0000    83.4435     6.3760     2.4330     0.1456     0.0408
  405.5000    82.8103     6.3748     2.4361     0.1437     0.0393
