~VERSION INFORMATION
 VERS.                2.0:   CWLS LOG ASCII STANDARD - VERSION 2.0
 WRAP.                 NO:   ONE LINE PER DEPTH STEP
~WELL INFORMATION
#MNEM.UNIT      DATA TYPE    INFORMATION
#----------   ------------   ------------------------------
 STRT.F          298.0000:   START DEPTH
 STOP.F         1126.0000:   STOP DEPTH
 STEP.F            0.5000:   STEP LENGTH
 NULL.          -999.2500:   NO VALUE
 COMP. BROWN JOHN E&C INC:   COMPANY
 WELL.   52 SHX 15 #52-15:   WELL
 FLD .             TEAPOT:   FIELD
 LOC .      S15 T38N R78W:   LOCATION
 CNTY.            NATRONA:   COUNTY
 STAT.            WYOMING:   STATE
 CTRY. UNITED STATES OF AMERICA:   COUNTRY
 SRVC.              Welex:   SERVICE COMPANY
 DATE.        09-AUG-1979:   LOGDATE
 API .       490251078900:   API NUMBER
~CURVE INFORMATION
#MNEM.UNIT       API CODE    CURVE DESCRIPTION
#----------   ------------   ------------------------------
 DEPT.F                  :   
 CALD.IN     45 280 60 00:   CALIPER
 GRD .GAPI   45 310 01 00:   GAMMA RAY FROM DENSITY LOG
 RHOB.G/C3   45 350 01 00:   BULK DENSITY
 CORR.G/C3   45 356 01 00:   DENSITY CORRECTION
 DPHI.DEC    45 890 12 00:   DENSITY POROSITY SANDSTONE
~PARAMETER INFORMATION
#MNEM.UNIT          VALUE    DESCRIPTION
#----------   ------------   ------------------------------
 PD  .                 GL:   PERMANENT DATUM
 EPD .F              5222:   ELEVATION PERMANENT DATUM
 LMF .                 KB:   LOG MEASURED FROM
 DAPD.F                10:   FEET ABOVE PERMANENT DATUM
 DMF .                 KB:   DRILLING MEASURED FROM
 EKB .F              5232:   KELLING BUSHING
 EGL .F              5222:   GROUND LEVEL
 DATE.             8-9-79:   RUN DATE
 RUN .                  1:   RUN NUMBER
 DD  .F              1130:   DEPTH DRILLER
 DL  .F              1128:   DEPTH LOGGER
 BLI .F              1126:   BOTTOM LOG INTERVAL
 TLI .F               300:   TOP LOG INTERVAL
 CS  .IN            9.625:   CASING SIZE
 CBD .F               676:   CASING BOTTOM DRILLER
 BS  .IN             8.75:   BIT SIZE
 BSD .F              1130:   BIT SIZE AT DEPTH
 DFT .                OIL:   DRILLING FLUID TYPE
 DFD .                9.1:   DRILLING FLUID DENSITY
 TCS .HRS             2.5:   TIME CURCULATED STOPPED
 MRT .F               102:   MAXIMUM RECORDED TEMPERATURE
 ENGI.               REIN:   RECORDING ENGINEER
 WITN.           DINSMORE:   WITNESSED BY
 CLNT.            A2DTECH:   CLIENT CODE
 ORIG.         2.5" PRINT:   ORIGIN OF DATA
 UWI .       490251078900:   UNIQUE WELL ID
 DICO. A2D Technologies, Inc.:   DIGITIZING COMPANY
~OTHER INFORMATION
~A   DEPT     CALD         GRD      RHOB       CORR       DPHI   
# ...
  786.0000     9.3549   102.9421     2.4940     0.0486     0.0400
  786.5000     9.3499   103.2415     2.4970     0.0486     0.0391
  787.0000     9.3449   103.5201     2.4999     0.0486     0.0371
  787.5000     9.3399   103.7473     2.5024     0.0486     0.0350
  788.0000     9.3350   103.9891     2.4990     0.0486     0.0358
  788.5000     9.3300   103.6976     2.4929     0.0486     0.0393
  789.0000     9.3250   103.3780     2.4887     0.0486     0.0425
  789.5000     9.3200   103.0904     2.4969     0.0486     0.0402
  790.0000     9.3149   102.8791     2.5026     0.0486     0.0355
  790.5000     9.3099   103.9044     2.5077     0.0486     0.0309
  791.0000     9.3049   104.8076     2.5116     0.0486     0.0272
  791.5000     9.3000   105.7716     2.5181     0.0486     0.0243
  792.0000     9.2949   106.7915     2.5241     0.0486     0.0177
  792.5000     9.2896   107.3458     2.5298     0.0486     0.0121
  793.0000     9.2896   106.8859     2.5231     0.0486     0.0130
  793.5000     9.3026   105.5505     2.5136     0.0486     0.0194
  794.0000     9.3153   104.1152     2.5089     0.0486     0.0267
  794.5000     9.3283   104.0462     2.5137     0.0486     0.0239
  795.0000     9.3413   104.0620     2.5176     0.0486     0.0211
  795.5000     9.3541   105.1331     2.5219     0.0486     0.0182
  796.0000     9.3670   106.2649     2.5238     0.0486     0.0154
  796.5000     9.3802   107.5639     2.5143     0.0486     0.0210
  797.0000     9.3926   107.6524     2.5110     0.0486     0.0259
  797.5000     9.4064   106.6286     2.5140     0.0486     0.0253
  798.0000     9.4072   106.2014     2.5169     0.0486     0.0245
  798.5000     9.4075   110.4284     2.5162     0.0486     0.0235
  799.0000     9.4072   110.7291     2.5092     0.0486     0.0285
  799.5000     9.4073   110.9236     2.5031     0.0486     0.0338
  800.0000     9.4073   109.1135     2.4965     0.0486     0.0369
  800.5000     9.4073   107.3881     2.4994     0.0486     0.0336
  801.0000     9.4073   105.3162     2.5040     0.0486     0.0308
  801.5000     9.4073   104.8217     2.5043     0.0486     0.0325
  802.0000     9.4073   104.7913     2.4991     0.0486     0.0362
  802.5000     9.4073   105.2619     2.4947     0.0486     0.0399
  803.0000     9.4073   106.1668     2.4903     0.0486     0.0437
  803.5000     9.4073   107.0910     2.4932     0.0486     0.0417
  804.0000     9.4073   106.9939     2.4965     0.0486     0.0396
  804.5000     9.4073   106.1360     2.4996     0.0486     0.0381
  805.0000     9.4073   105.3811     2.5020     0.0486     0.0364
  805.5000     9.4073   104.5079     2.5063     0.0486     0.0338
  806.0000     9.4073   104.8853     2.5139     0.0486     0.0275
  806.5000     9.4073   105.4410     2.5213     0.0486     0.0213
  807.0000     9.4073   105.3128     2.5289     0.0486     0.0150
  807.5000     9.4073   104.4796     2.5323     0.0486     0.0104
  808.0000     9.4073   103.7154     2.5347     0.0486     0.0080
  808.5000     9.4073   102.9650     2.5371     0.0486     0.0057
  809.0000     9.4073   102.2013     2.5373     0.0486     0.0041
  809.5000     9.4073   101.4197     2.5330     0.0486     0.0067
  810.0000     9.4073   101.1627     2.5287     0.0486     0.0117
  810.5000     9.4073   101.1985     2.5245     0.0486     0.0168
  811.0000     9.4073   101.5376     2.5206     0.0486     0.0188
  811.5000     9.4073   101.8460     2.5214     0.0486     0.0202
  812.0000     9.4072   102.1748     2.5219     0.0486     0.0205
  812.5000     9.4071   102.4821     2.5173     0.0486     0.0208
  813.0000     9.4055   102.8241     2.5128     0.0486     0.0211
  813.5000     9.4041   102.4737     2.5080     0.0486     0.0267
  814.0000     9.4027   101.8864     2.5055     0.0486     0.0318
  814.5000     9.4012   101.3156     2.5050     0.0486     0.0345
  815.0000     9.3998   100.6780     2.5042     0.0486     0.0340
  815.5000     9.3984   100.6090     2.5060     0.0486     0.0324
  816.0000     9.3969   101.5374     2.5084     0.0486     0.0305
  816.5000     9.3955   101.9859     2.5109     0.0486     0.0287
  817.0000     9.3941   101.1561     2.5129     0.0486     0.0267
  817.5000     9.3926   100.3965     2.5179     0.0486     0.0214
  818.0000     9.3912   100.4862     2.5260     0.0486     0.0159
  818.5000     9.3898   100.7449     2.5263     0.0486     0.0148
  819.0000     9.3883   100.3425     2.5217     0.0486     0.0165
  819.5000     9.3869    99.6013     2.5189     0.0486     0.0182
  820.0000     9.3855    98.7334     2.5168     0.0486     0.0199
  820.5000     9.3840    99.1136     2.5133     0.0486     0.0220
  821.0000     9.3826    99.8703     2.5091     0.0486     0.0247
  821.5000     9.3812   100.0332     2.5129     0.0486     0.0275
  822.0000     9.3797    99.7607     2.5194     0.0486     0.0220
  822.5000     9.3783    99.1237     2.5258     0.0486     0.0166
  823.0000     9.3768    97.5474     2.5318     0.0486     0.0105
  823.5000     9.3754    96.0067     2.5375     0.0486     0.0068
  824.0000     9.3739    94.4614     2.5410     0.0486     0.0026
  824.5000     9.3725    92.7919     2.5412     0.0486     0.0013
  825.0000     9.3712    92.6850     2.5418     0.0486     0.0022
  825.5000     9.3691    93.7533     2.5422     0.0486     0.0032
  826.0000     9.3685    94.7195     2.5454     0.0486     0.0011
  826.5000     9.3688    95.6134     2.5523     0.0486    -0.0037
  827.0000     9.4000    96.6692     2.5589     0.0486    -0.0085
  827.5000     9.4292    96.3875     2.5564     0.0486    -0.0154
  828.0000     9.4605    95.7386     2.5512     0.0486    -0.0073
  828.5000     9.4904    95.0535     2.5552     0.0486    -0.0092
  829.0000     9.5207    94.5765     2.5588     0.0486    -0.0142
  829.5000     9.5530    95.3608     2.5623     0.0486    -0.0162
  830.0000     9.5697    96.5251     2.5617     0.0486    -0.0137
  830.5000     9.5668    98.0392     2.5570     0.0487    -0.0114
  831.0000     9.5658    98.7139     2.5524     0.0487    -0.0089
  831.5000     9.5649    97.4025     2.5477     0.0487    -0.0045
  832.0000     9.5635    96.2000     2.5390     0.0488     0.0016
  832.5000     9.5624    96.2403     2.5291     0.0488     0.0102
  833.0000     9.5612    97.3093     2.5191     0.0489     0.0187
  833.5000     9.5600    98.2838     2.5087     0.0489     0.0272
  834.0000     9.5589    98.2719     2.5034     0.0489     0.0316
  834.5000     9.5577    97.1702     2.5022     0.0490     0.0335
  835.0000     9.5566    95.5708     2.5005     0.0490     0.0353
  835.5000     9.5554    95.1272     2.4994     0.0491     0.0364
  836.0000     9.5543    94.6270     2.5045     0.0491     0.0331
  836.5000     9.5532    94.1378     2.5129     0.0491     0.0276
  837.0000     9.5520    92.5701     2.5217     0.0492     0.0220
  837.5000     9.5508    91.5546     2.5212     0.0492     0.0170
  838.0000     9.5497    92.8580     2.5203     0.0493     0.0189
  838.5000     9.5486    94.1106     2.5187     0.0493     0.0206
  839.0000     9.5474    94.1234     2.5198     0.0493     0.0193
  839.5000     9.5463    92.4088     2.5245     0.0494     0.0171
  840.0000     9.5451    92.5809     2.5288     0.0494     0.0149
  840.5000     9.5440    94.6136     2.5314     0.0494     0.0126
  841.0000     9.5428    95.2649     2.5330     0.0495     0.0104
  841.5000     9.5417    95.9337     2.5341     0.0495     0.0072
  842.0000     9.5405    97.3909     2.5381     0.0496     0.0037
  842.5000     9.5394    98.8726     2.5459     0.0496     0.0002
  843.0000     9.5382    99.8878     2.5488     0.0496    -0.0041
  843.5000     9.5371    99.6607     2.5425     0.0497     0.0003
  844.0000     9.5360    99.1356     2.5349     0.0497     0.0056
  844.5000     9.5348    98.3722     2.5272     0.0498     0.0110
  845.0000     9.5337    97.6769     2.5197     0.0498     0.0163
  845.5000     9.5326    97.1507     2.5120     0.0498     0.0216
  846.0000     9.5314    97.0742     2.5109     0.0499     0.0269
  846.5000     9.5303    97.5694     2.5121     0.0499     0.0279
