~VERSION INFORMATION
 VERS.                2.0:   CWLS LOG ASCII STANDARD - VERSION 2.0
 WRAP.                 NO:   ONE LINE PER DEPTH STEP
~WELL INFORMATION
#MNEM.UNIT      DATA TYPE    INFORMATION
#----------   ------------   ------------------------------
 STRT.F           28.5000:   START DEPTH
 STOP.F          516.0000:   STOP DEPTH
 STEP.F            0.5000:   STEP LENGTH
 NULL.          -999.2500:   NO VALUE
 COMP. FENIX & SCISSON INC:   COMPANY
 WELL.         SX 3 #54-3:   WELL
 FLD .            WILDCAT:   FIELD
 LOC .       S3 T38N R78W:   LOCATION
 CNTY.            NATRONA:   COUNTY
 STAT.            WYOMING:   STATE
 CTRY. UNITED STATES OF AMERICA:   COUNTRY
 SRVC.            Unknown:   SERVICE COMPANY
 DATE.        22-SEP-1978:   LOGDATE
 API .       490251069000:   API NUMBER
~CURVE INFORMATION
#MNEM.UNIT       API CODE    CURVE DESCRIPTION
#----------   ------------   ------------------------------
 DEPT.F                  :   
 SPR .MV     05 010 01 00:   SPONTANEOUS POTENTIAL FROM RES.
 ILD .OHMM   05 120 46 00:   INDUCTION LOG DEEP
 SN  .OHMM   05 040 16 00:   SHORT NORMAL 16"
 CALD.IN     45 280 60 00:   CALIPER
 GRD .GAPI   45 310 01 00:   GAMMA RAY FROM DENSITY LOG
 CORR.G/C3   45 356 01 00:   DENSITY CORRECTION
 DEN .G/C3   45 350 01 00:   COMPENSATED BULK DENSTIY
 DPHI.DEC    45 890 12 00:   DENSITY POROSITY SANDSTONE
~PARAMETER INFORMATION
#MNEM.UNIT          VALUE    DESCRIPTION
#----------   ------------   ------------------------------
 PD  .                 GL:   PERMANENT DATUM
 EPD .F              5168:   ELEVATION PERMANENT DATUM
 LMF .                 KB:   LOG MEASURED FROM
 DAPD.F                 4:   FEET ABOVE PERMANENT DATUM
 DMF .                 KB:   DRILLING MEASURED FROM
 EKB .F              5172:   KELLING BUSHING
 EGL .F              5168:   GROUND LEVEL
 DATE.            9-22-78:   RUN DATE
 RUN .                  1:   RUN NUMBER
 DD  .F               510:   DEPTH DRILLER
 DL  .F               517:   DEPTH LOGGER
 BLI .F               510:   BOTTOM LOG INTERVAL
 TLI .F                40:   TOP LOG INTERVAL
 CS  .IN            8.625:   CASING SIZE
 CBD .F                40:   CASING BOTTOM DRILLER
 CBL .F                48:   CASING BOTTOM LOGGER
 BS  .IN            7.875:   BIT SIZE
 BSD .F               510:   BIT SIZE AT DEPTH
 DFT .            KCL MUD:   DRILLING FLUID TYPE
 DFD .                8.7:   DRILLING FLUID DENSITY
 DFV .                 39:   DRILLING FLUID VISCOSITY
 DFPH.                  9:   DRILLING FLUID PH
 DFL .                8.9:   DRILLING FLUID LOSS
 MSS .          FLOW LINE:   MUD SAMPLE SOURCE
 RMS .OHMM            .32:   RESISTIVITY MUD SAMPLE
 MST .F                68:   MUD SAMPLE TEMPERATURE
 RMF .OHMM            .26:   RESISTIVITY MUD FILTRATE SAMPLE
 MFST.F                72:   MUD FILTRATE SAMPLE TEMPERATURE
 RMC .OHMM            .28:   RESISTIVITY MUD CAKE
 MCST.F                75:   MUD CAKE SAMPLE TEMPERATURE
 MFSS.               MEAS:   MUD FILTRATE SAMPLE SOURCE
 MCSS.               MEAS:   MUD CAKE SAMPLE SOURCE
 RMB .OHMM            .32:   RESISTIVITY MUD AT BHT
 BHT .F                69:   BOTTOM HOLE TEMPERATURE
 TCS .HRS               3:   TIME CURCULATED STOPPED
 MRT .F                69:   MAXIMUM RECORDED TEMPERATURE
 LUN .               2958:   LOGGING UNIT NUMBER
 LUL .               CASP:   LOGGING UNIT LOCATION
 ENGI.           REYNOLDS:   RECORDING ENGINEER
 WITN.              AMEND:   WITNESSED BY
 CLNT.            A2DTECH:   CLIENT CODE
 ORIG.           5" PRINT:   ORIGIN OF DATA
 UWI .       490251069000:   UNIQUE WELL ID
 DICO. A2D Technologies, Inc.:   DIGITIZING COMPANY
~OTHER INFORMATION
~A   DEPT      SPR        ILD         SN       CALD         GRD      CORR        DEN       DPHI   
# ...
  109.5000   -69.0232     9.5667    10.0080     7.7455   101.1603     0.0340     2.4560     0.1281
  110.0000   -69.0238     9.6482    10.1155     7.8354   109.1340     0.0346     2.4680     0.1292
  110.5000   -69.0242     9.7303    10.2361     7.9249   116.4317     0.0349     2.4619     0.1299
  111.0000   -69.0255     9.8198    10.3938     7.9861   118.0487     0.0322     2.4615     0.1190
  111.5000   -69.0201     9.8988    10.5528     8.0087   117.6697     0.0292     2.4780     0.1186
  112.0000   -68.7419    10.0511    10.7143     8.0170   114.3585     0.0262     2.4769     0.1186
  112.5000   -68.4394    10.2057    10.8783     8.1282   114.3363     0.0234     2.4773     0.1148
  113.0000   -68.4386    10.3628    11.0448     8.2536   114.8437     0.0251     2.4945     0.1069
  113.5000   -68.4827    10.5222    11.2139     8.2767   115.1271     0.0340     2.5118     0.0992
  114.0000   -68.5251    10.6841    11.3855     8.2737   108.2684     0.0539     2.5237     0.0959
  114.5000   -68.5671    10.8484    11.5612     8.2661   100.9766     0.0742     2.5257     0.1126
  115.0000   -68.6092    11.0154    11.6369     8.2605   100.3690     0.1037     2.5002     0.1267
  115.5000   -68.6154    11.1848    11.7076     8.1525   100.6151     0.1458     2.4743     0.1286
  116.0000   -68.5619    11.3569    11.7777     8.0105   100.6668     0.1893     2.4617     0.1175
  116.5000   -68.5099    11.5316    11.8483     7.8678    96.0454     0.1993     2.4767     0.1016
  117.0000   -68.4556    11.5963    11.9194     7.7251    91.1948     0.1863     2.5048     0.0857
  117.5000   -68.3330    11.5963    11.9909     7.5830    87.3825     0.1429     2.5330     0.0702
  118.0000   -67.8887    11.5963    12.0628     7.4401    87.7906     0.0833     2.5603     0.1041
  118.5000   -67.4578    11.5963    12.1445     7.3758   101.2925     0.0238     2.5352     0.1373
  119.0000   -67.2485    11.5963    12.0908     7.3744   108.4717     0.0131     2.4850     0.1461
  119.5000   -67.3299    11.5964    12.0115     7.3750   109.4437     0.0145     2.4395     0.1534
  120.0000   -67.4071    11.5964    11.9328     7.3954   109.5558     0.0168     2.4272     0.1607
  120.5000   -67.4852    11.5967    11.8545     7.4422   109.4494     0.0189     2.4134     0.1681
  121.0000   -67.5627    11.5103    11.7768     7.4886   108.1673     0.0205     2.4005     0.1698
  121.5000   -67.6153    11.3903    11.6996     7.5356   105.4466     0.0223     2.3974     0.1713
  122.0000   -67.4847    11.2715    11.6229     7.5547   102.7646     0.0242     2.3967     0.1738
  122.5000   -67.3550    11.1540    11.5466     7.5548   101.1133     0.0276     2.3918     0.1754
  123.0000   -67.2260    11.0378    11.4709     7.5542   103.1630     0.0314     2.3855     0.1743
  123.5000   -67.0970    10.9228    11.3957     7.6026   105.5364     0.0432     2.3857     0.1714
  124.0000   -66.9679    10.8090    11.3210     7.8785   107.5622     0.0558     2.3890     0.1626
  124.5000   -66.8389    10.6964    11.2467     8.1472   104.5237     0.0686     2.4008     0.1538
  125.0000   -66.7108    10.5846    11.1730     8.1738   100.4072     0.0835     2.4130     0.1450
  125.5000   -66.6326    10.4749    11.0997     8.1762    97.9361     0.1009     2.4255     0.1362
  126.0000   -66.6336    10.4764    11.0269     8.1481    98.0146     0.1181     2.4450     0.1274
  126.5000   -66.6334    10.4155    10.9710     8.1206    99.4827     0.1297     2.4716     0.1186
  127.0000   -66.6335    10.3731    10.9481     8.0909   109.7049     0.1175     2.4984     0.1134
  127.5000   -66.6335    10.3309    10.9260     8.0758   114.4419     0.0959     2.5036     0.1122
  128.0000   -66.6335    10.2889    10.9039     8.0427   114.0895     0.0934     2.4990     0.1178
  128.5000   -66.6335    10.2471    10.8814     8.0087   113.7692     0.0943     2.4794     0.1196
  129.0000   -66.6332    10.2054    10.8537     7.9746   115.7799     0.0948     2.4767     0.1130
  129.5000   -66.6502    10.1639    10.7913     7.8547   117.3884     0.0830     2.4896     0.1074
  130.0000   -66.6741    10.1225    10.7302     7.7374   114.4246     0.0698     2.5007     0.1087
  130.5000   -66.6982    10.0813    10.6693     7.6206   106.3736     0.0629     2.4989     0.1104
  131.0000   -66.7224    10.0403    10.6088     7.5041   106.3292     0.0630     2.4952     0.1110
  131.5000   -66.7465     9.9995    10.5486     7.3877   106.0856     0.0633     2.4913     0.1090
  132.0000   -66.7707     9.9588    10.4888     7.2691   105.8908     0.0481     2.4929     0.1130
  132.5000   -66.7948     9.9183    10.4293     7.2195   103.5027     0.0273     2.4958     0.1273
  133.0000   -66.8190     9.8779    10.3701     7.2135   100.8833     0.0181     2.4736     0.1416
  133.5000   -66.8431     9.8378    10.3113     7.2139   100.8035     0.0181     2.4469     0.1559
  134.0000   -66.8672     9.7977    10.2528     7.2187   102.4800     0.0195     2.4203     0.1701
  134.5000   -66.8914     9.7579    10.1946     7.2952   102.4295     0.0209     2.3997     0.1774
  135.0000   -66.9155     9.7182    10.1368     7.3827   101.9733     0.0222     2.3857     0.1780
  135.5000   -66.9397     9.6786    10.0793     7.4670   102.3132     0.0236     2.3807     0.1784
  136.0000   -66.9638     9.6400    10.0221     7.5513   105.2431     0.0253     2.3805     0.1789
  136.5000   -66.9880     9.5866     9.9653     7.6357   108.2379     0.0369     2.3813     0.1719
  137.0000   -67.0121     9.5345     9.9109     7.7200   109.9729     0.0488     2.3819     0.1609
  137.5000   -67.0362     9.4826     9.8746     7.8043   110.7683     0.0506     2.3930     0.1500
  138.0000   -67.0604     9.4310     9.8398     7.8886   105.0890     0.0416     2.4208     0.1391
  138.5000   -67.0845     9.3798     9.8050     7.9752   104.7519     0.0326     2.4499     0.1280
  139.0000   -67.1087     9.3287     9.7705     8.0405   105.9519     0.0269     2.4742     0.1220
  139.5000   -67.1328     9.2780     9.7360     8.1133   106.8817     0.0290     2.4725     0.1270
  140.0000   -67.1570     9.2276     9.7016     8.1857   103.6051     0.0321     2.4700     0.1291
  140.5000   -67.1811     9.1774     9.6674     8.2587   103.9848     0.0354     2.4654     0.1326
  141.0000   -67.2055     9.1275     9.6333     8.3120   104.0564     0.0385     2.4570     0.1335
  141.5000   -67.2300     9.0778     9.5993     8.3179   101.0462     0.0514     2.4543     0.1336
  142.0000   -67.2313     9.0285     9.5654     8.2804   100.6399     0.0644     2.4535     0.1338
  142.5000   -67.2311     8.9794     9.5317     8.2307   106.2519     0.0773     2.4535     0.1338
  143.0000   -67.2311     8.9306     9.4979     8.1809   112.2793     0.0901     2.4541     0.1300
  143.5000   -67.2311     8.8820     9.4636     8.1309   115.0638     0.0971     2.4573     0.1254
  144.0000   -67.2313     8.8399     9.3956     8.0828   115.9897     0.0962     2.4633     0.1208
  144.5000   -67.2307     8.7578     9.3084     8.0065   115.5854     0.0956     2.4761     0.1162
  145.0000   -67.2338     8.6764     9.2219     7.9083   113.6316     0.0900     2.4888     0.1115
  145.5000   -67.0007     8.5958     9.1363     7.8094   112.4154     0.0850     2.4966     0.1106
  146.0000   -66.6262     8.5270     9.0514     7.7117   113.1696     0.0737     2.4964     0.1106
  146.5000   -66.2505     8.4741     8.9533     7.6498   113.4606     0.0566     2.4873     0.1183
  147.0000   -66.0341     8.4216     8.9637     7.5853   112.7616     0.0396     2.4750     0.1269
  147.5000   -66.0256     8.3694     8.9763     7.5530   111.4846     0.0243     2.4625     0.1356
  148.0000   -65.9750     8.3175     8.9889     7.5552   111.8819     0.0228     2.4500     0.1398
  148.5000   -65.9265     8.2655     9.0015     7.5551   106.4618     0.0209     2.4395     0.1425
  149.0000   -65.8778     8.2391     9.0141     7.5551    99.2976     0.0190     2.4391     0.1452
  149.5000   -65.8291     8.2868     9.0268     7.5551   102.1662     0.0171     2.4381     0.1475
