~VERSION INFORMATION
 VERS.                2.0:   CWLS LOG ASCII STANDARD - VERSION 2.0
 WRAP.                 NO:   ONE LINE PER DEPTH STEP
~WELL INFORMATION
#MNEM.UNIT      DATA TYPE    INFORMATION
#----------   ------------   ------------------------------
 STRT.F           14.5000:   START DEPTH
 STOP.F          750.0000:   STOP DEPTH
 STEP.F            0.5000:   STEP LENGTH
 NULL.          -999.2500:   NO VALUE
 COMP. FENIX & SCISSON INC:   COMPANY
 WELL.       NPR 3 #24-14:   WELL
 FLD .             TEAPOT:   FIELD
 LOC .      S14 T38N R78W:   LOCATION
 CNTY.            NATRONA:   COUNTY
 STAT.            WYOMING:   STATE
 CTRY. UNITED STATES OF AMERICA:   COUNTRY
 SRVC.           BIRDWELL:   SERVICE COMPANY
 DATE.        27-DEC-1978:   LOGDATE
 API .       490251075900:   API NUMBER
~CURVE INFORMATION
#MNEM.UNIT       API CODE    CURVE DESCRIPTION
#----------   ------------   ------------------------------
 DEPT.F                  :   
 SPR .MV     05 010 01 00:   SPONTANEOUS POTENTIAL FROM RES.
 SN  .OHMM   05 040 16 00:   SHORT NORMAL 16"
 IL  .OHMM   05 120 00 00:   INDUCTION LOG
 GRD .GAPI   45 310 01 00:   GAMMA RAY FROM DENSITY LOG
 CALD.IN     45 280 60 00:   CALIPER
 RHOB.G/C3   45 350 01 00:   BULK DENSITY
 DPHI.DEC    45 890 12 00:   DENSITY POROSITY SANDSTONE
 CORR.G/C3   45 356 01 00:   DENSITY CORRECTION
~PARAMETER INFORMATION
#MNEM.UNIT          VALUE    DESCRIPTION
#----------   ------------   ------------------------------
 PD  .                 GL:   PERMANENT DATUM
 EPD .F              5209:   ELEVATION PERMANENT DATUM
 LMF .                 KB:   LOG MEASURED FROM
 DAPD.F                 4:   FEET ABOVE PERMANENT DATUM
 DMF .                 KB:   DRILLING MEASURED FROM
 EKB .F              5212:   KELLING BUSHING
 EGL .F              5209:   GROUND LEVEL
 DATE.           12-27-78:   RUN DATE
 RUN .                  1:   RUN NUMBER
 DD  .F               750:   DEPTH DRILLER
 DL  .F               742:   DEPTH LOGGER
 BLI .F               735:   BOTTOM LOG INTERVAL
 TLI .F                35:   TOP LOG INTERVAL
 CS  .IN            8.625:   CASING SIZE
 CBD .F                40:   CASING BOTTOM DRILLER
 CBL .F                32:   CASING BOTTOM LOGGER
 BS  .IN            7.875:   BIT SIZE
 BSD .F               750:   BIT SIZE AT DEPTH
 DFT .                KCL:   DRILLING FLUID TYPE
 DFD .                8.6:   DRILLING FLUID DENSITY
 DFV .                 35:   DRILLING FLUID VISCOSITY
 DFPH.                9.4:   DRILLING FLUID PH
 DFL .               12.4:   DRILLING FLUID LOSS
 MSS .           FLOWLINE:   MUD SAMPLE SOURCE
 RMS .OHMM            .38:   RESISTIVITY MUD SAMPLE
 MST .F                58:   MUD SAMPLE TEMPERATURE
 RMF .OHMM            .38:   RESISTIVITY MUD FILTRATE SAMPLE
 MFST.F                58:   MUD FILTRATE SAMPLE TEMPERATURE
 RMC .OHMM            .36:   RESISTIVITY MUD CAKE
 MCST.F                60:   MUD CAKE SAMPLE TEMPERATURE
 MFSS.           MEASURED:   MUD FILTRATE SAMPLE SOURCE
 MCSS.           MEASURED:   MUD CAKE SAMPLE SOURCE
 RMB .OHMM            .37:   RESISTIVITY MUD AT BHT
 BHT .F                59:   BOTTOM HOLE TEMPERATURE
 TCS .HRS               2:   TIME CURCULATED STOPPED
 MRT .F                59:   MAXIMUM RECORDED TEMPERATURE
 LUN .               2958:   LOGGING UNIT NUMBER
 LUL .             CASPER:   LOGGING UNIT LOCATION
 ENGI.         B. ROLLINS:   RECORDING ENGINEER
 WITN.           DINSMORE:   WITNESSED BY
 CLNT.            A2DTECH:   CLIENT CODE
 ORIG.           5" PRINT:   ORIGIN OF DATA
 UWI .       490251075900:   UNIQUE WELL ID
 DICO. A2D Technologies, Inc.:   DIGITIZING COMPANY
~OTHER INFORMATION
~A   DEPT      SPR         SN         IL         GRD      CALD       RHOB       DPHI       CORR   
# ...
  217.0000   -50.3090     7.9690     6.5970   106.1630     7.6990     2.5000     0.1100     0.0410
  217.5000   -50.7060     7.9690     6.5900   106.0440     7.6890     2.5000     0.1110     0.0350
  218.0000   -51.2540     7.9690     6.5840   104.6740     7.7570     2.4980     0.1150     0.0230
  218.5000   -51.7840     7.9690     6.5770    99.1800     7.8550     2.4950     0.1150     0.0210
  219.0000   -52.1520     7.9690     6.5690    96.6980     7.9530     2.4920     0.1130     0.0230
  219.5000   -52.5290     7.9690     6.6590    98.5120     8.0510     2.4930     0.1080     0.0300
  220.0000   -52.8940     7.9700     6.7700    98.7370     8.1250     2.4970     0.1090     0.0390
  220.5000   -53.0570     7.9700     6.8780    96.8910     8.1170     2.5010     0.1150     0.0490
  221.0000   -53.2110     7.9700     6.8890    98.0500     8.1100     2.4960     0.1210     0.0580
  221.5000   -53.2950     7.9690     6.8990   101.3930     8.0950     2.4840     0.1230     0.0670
  222.0000   -53.2840     8.0300     6.9090   104.0680     8.0530     2.4750     0.1190     0.0770
  222.5000   -53.2740     8.1240     6.9190   104.1470     8.0260     2.4790     0.1120     0.0860
  223.0000   -53.2640     8.2190     6.9290   106.5620     8.0040     2.4890     0.1090     0.0890
  223.5000   -53.2540     8.2680     6.9390   105.0400     7.9730     2.4970     0.1100     0.0910
  224.0000   -53.2430     8.2680     6.9970   103.8280     7.8550     2.4990     0.1130     0.0890
  224.5000   -53.2330     8.2640     7.0790   107.6100     7.6340     2.4980     0.1180     0.0860
  225.0000   -53.2230     8.2600     7.1360   106.8240     7.6430     2.4920     0.1220     0.0840
  225.5000   -53.2120     8.2550     7.0830   101.8220     7.6510     2.4820     0.1230     0.0830
  226.0000   -53.2020     8.2500     7.0580    99.2450     7.6590     2.4800     0.1230     0.0810
  226.5000   -53.1920     8.2460     7.0320    98.9650     7.6670     2.4780     0.1260     0.0800
  227.0000   -53.1810     8.2410     7.0070   100.0310     7.6760     2.4750     0.1220     0.0840
  227.5000   -53.1710     8.2370     6.9810   100.8250     7.6850     2.4690     0.1140     0.0880
  228.0000   -53.1600     8.2320     6.9560   100.7130     7.6760     2.4830     0.1060     0.0910
  228.5000   -53.1500     8.2270     6.9300   100.4320     7.6540     2.5150     0.1010     0.0800
  229.0000   -53.1400     8.2230     6.9050   100.1690     7.6490     2.5160     0.1000     0.0620
  229.5000   -53.1290     8.2180     6.8780   100.6500     7.6920     2.5170     0.0990     0.0570
  230.0000   -53.1180     8.2140     6.9030   103.8920     7.9290     2.5170     0.0950     0.0570
  230.5000   -53.1070     8.2090     6.9270   105.7360     8.0770     2.5230     0.0880     0.0560
  231.0000   -53.0550     8.2040     6.9520   105.9350     8.1380     2.5280     0.0870     0.0560
  231.5000   -52.8160     8.2000     6.9770   105.2030     8.2010     2.5320     0.0860     0.0520
  232.0000   -52.5790     8.1920     7.0020   104.5710     8.2230     2.5340     0.0890     0.0470
  232.5000   -52.3500     8.2140     7.0420   104.4600     8.1970     2.5310     0.0970     0.0440
  233.0000   -51.9390     8.2650     7.0860   104.4220     8.1660     2.5220     0.1070     0.0440
  233.5000   -51.2100     8.3160     7.1290   104.6210     8.1330     2.5100     0.1170     0.0550
  234.0000   -50.0680     8.4150     7.3870   105.6360     8.0970     2.4970     0.1220     0.0710
  234.5000   -48.9300     8.5760     7.6490   105.7650     8.0560     2.4850     0.1190     0.1030
  235.0000   -48.2290     8.7370     7.8070   103.4030     7.7540     2.4770     0.1080     0.1450
  235.5000   -48.0620     8.9820     7.6920    99.5760     7.9700     2.4910     0.0930     0.1830
  236.0000   -47.8890     8.9750     7.5910    97.2800     7.6510     2.5150     0.0760     0.2070
  236.5000   -47.7230     8.9590     7.5470    96.5140     7.6090     2.5390     0.0630     0.2290
  237.0000   -47.8430     8.9440     7.5040    97.0620     7.5790     2.5630     0.0570     0.2240
  237.5000   -48.0010     8.9290     7.4600    99.5150     7.5520     2.5860     0.0630     0.2030
  238.0000   -48.1620     8.9130     7.4170   102.1070     7.5250     2.5890     0.0930     0.1650
  238.5000   -48.4040     8.8850     7.2390   104.3310     7.4980     2.5550     0.0970     0.1350
  239.0000   -49.2370     8.7580     7.0060   106.0300     7.4710     2.5240     0.1020     0.1130
  239.5000   -50.0770     8.6320     6.8960   107.7300     7.4440     2.5180     0.1080     0.0910
  240.0000   -51.0980     8.5050     6.8150   108.9760     7.4180     2.5110     0.1160     0.0520
  240.5000   -52.1690     8.4050     6.8630   108.7000     7.3950     2.4950     0.1240     0.0500
  241.0000   -53.1290     8.3570     6.9280   107.0480     7.4910     2.4810     0.1250     0.0530
  241.5000   -53.1020     8.3080     6.9920   102.8990     7.6890     2.4740     0.1240     0.0600
  242.0000   -53.0980     8.2680     7.0560    98.7710     7.8820     2.4750     0.1200     0.0710
  242.5000   -53.0990     8.2680     7.1250    97.9330     7.9590     2.4790     0.1170     0.0790
  243.0000   -53.1000     8.2680     7.1950    99.0400     8.0300     2.4860     0.1120     0.0810
  243.5000   -53.1000     8.2680     7.2640   100.5740     8.0640     2.4920     0.1070     0.0830
  244.0000   -53.1000     8.2680     7.3340   100.9300     8.0830     2.4990     0.0990     0.0830
  244.5000   -53.1000     8.5140     7.4040   100.1970     8.0630     2.5080     0.0890     0.0820
  245.0000   -53.1000     8.6750     7.4720   100.9260     8.0440     2.5220     0.0960     0.0710
  245.5000   -53.1000     8.7170     7.4720   102.6700     8.0260     2.5330     0.1080     0.0560
  246.0000   -53.1000     8.7590     7.4720   102.5930     8.0050     2.5170     0.1200     0.0470
  246.5000   -53.1000     8.8010     7.4720   101.8740     7.8870     2.4950     0.1330     0.0480
  247.0000   -53.1000     8.8440     7.4720   101.2420     7.5220     2.4730     0.1280     0.0580
  247.5000   -53.1000     8.9000     7.4720   101.4480     7.6050     2.4590     0.1190     0.0800
  248.0000   -53.1000     8.8320     7.4720   101.6590     7.6860     2.4890     0.1110     0.0920
  248.5000   -53.1000     8.8180     7.4720   101.6450     7.7680     2.5180     0.1090     0.0900
  249.0000   -53.1000     8.8180     7.4720   100.6120     7.7670     2.5130     0.1120     0.0770
  249.5000   -53.1000     8.8180     7.4720   100.2230     7.7590     2.5040     0.1110     0.0670
  250.0000   -53.1000     8.8180     7.4720   100.2220     7.8050     2.4960     0.1060     0.0670
  250.5000   -53.1000     8.7970     7.4250   100.2190     7.8210     2.5020     0.1020     0.0660
  251.0000   -53.1000     8.7550     7.3570   100.2140     7.8080     2.5160     0.0990     0.0580
  251.5000   -53.1000     8.7120     7.2890   100.2120     7.7960     2.5170     0.1080     0.0490
  252.0000   -53.1000     8.6700     7.2100    99.8260     7.8210     2.5050     0.1180     0.0420
  252.5000   -53.1000     8.6280     7.1320    98.9030     7.9000     2.4950     0.1180     0.0450
  253.0000   -53.1000     8.5850     7.0880    97.9900     7.9790     2.4840     0.1110     0.0470
  253.5000   -53.1000     8.5430     7.0450    97.0650     8.0560     2.4980     0.1040     0.0420
  254.0000   -53.1000     8.5000     7.0090    97.1270     8.1220     2.5160     0.1010     0.0300
  254.5000   -53.1000     8.4580     7.0310    98.1860     8.0840     2.5060     0.1200     0.0130
  255.0000   -53.1000     8.4160     7.0530   100.8390     8.0470     2.4920     0.1180     0.0080
  255.5000   -53.0990     8.3730     7.0760   103.5890     8.0100     2.4820     0.1150     0.0130
  256.0000   -53.0990     8.3450     7.0980   105.1790     7.8990     2.4890     0.1110     0.0170
  256.5000   -52.9860     8.3930     7.1200   104.8380     7.7930     2.4970     0.1120     0.0200
  257.0000   -52.7600     8.4290     7.1430   104.4160     7.7440     2.4990     0.1150     0.0200
