~VERSION INFORMATION
 VERS.                2.0:   CWLS LOG ASCII STANDARD - VERSION 2.0
 WRAP.                 NO:   ONE LINE PER DEPTH STEP
~WELL INFORMATION
#MNEM.UNIT      DATA TYPE    INFORMATION
#----------   ------------   ------------------------------
 STRT.F            4.0000:   START DEPTH
 STOP.F          572.0000:   STOP DEPTH
 STEP.F            0.5000:   STEP LENGTH
 NULL.          -999.2500:   NO VALUE
 COMP. FENIX & SCISSON INC:   COMPANY
 WELL.       NPR#3 #33-10:   WELL
 FLD .             TEAPOT:   FIELD
 LOC .      S10 T38N R78W:   LOCATION
 CNTY.            NATRONA:   COUNTY
 STAT.            WYOMING:   STATE
 CTRY. UNITED STATES OF AMERICA:   COUNTRY
 SRVC.              Welex:   SERVICE COMPANY
 DATE.        05-MAY-1980:   LOGDATE
 API .       490251080800:   API NUMBER
~CURVE INFORMATION
#MNEM.UNIT       API CODE    CURVE DESCRIPTION
#----------   ------------   ------------------------------
 DEPT.F                  :   
 SGRD.OHMM   07 220 05 00:   SHALLOW GUARD RESISTIVITY
 ILD .OHMM   07 120 46 00:   INDUCTION LOG DEEP RESISTIVITY
 ILM .OHMM   07 120 44 00:   INDUCTION LOG MEDIUM
 SPR .MV     07 010 01 00:   SPONTANEOUS POTENTIAL
 CALD.IN     45 280 60 00:   CALIPER
 GRD .GAPI   45 310 01 00:   GAMMA RAY FROM DENSITY LOG
 RHOB.G/C3   45 350 01 00:   BULK DENSITY
 CORR.G/C3   45 356 01 00:   DENSITY CORRECTION
 DPHI.DEC    45 890 12 00:   DENSITY POROSITY SANDSTONE
~PARAMETER INFORMATION
#MNEM.UNIT          VALUE    DESCRIPTION
#----------   ------------   ------------------------------
 PD  .                 GL:   PERMANENT DATUM
 EPD .F              5228:   ELEVATION PERMANENT DATUM
 LMF .                 KB:   LOG MEASURED FROM
 DAPD.F                 5:   FEET ABOVE PERMANENT DATUM
 DMF .                 KB:   DRILLING MEASURED FROM
 EKB .F              5233:   KELLING BUSHING
 EGL .F              5228:   GROUND LEVEL
 DATE.             5-5-80:   RUN DATE
 RUN .                  1:   RUN NUMBER
 DD  .F               572:   DEPTH DRILLER
 DL  .F               572:   DEPTH LOGGER
 BLI .F               570:   BOTTOM LOG INTERVAL
 TLI .F                30:   TOP LOG INTERVAL
 BS  .IN            7.875:   BIT SIZE
 BSD .F               572:   BIT SIZE AT DEPTH
 DFT .            KCL MUD:   DRILLING FLUID TYPE
 DFD .                8.9:   DRILLING FLUID DENSITY
 DFV .                 36:   DRILLING FLUID VISCOSITY
 DFL .               12.6:   DRILLING FLUID LOSS
 MSS .           FLOWLINE:   MUD SAMPLE SOURCE
 RMS .OHMM           1.08:   RESISTIVITY MUD SAMPLE
 MST .F                60:   MUD SAMPLE TEMPERATURE
 RMF .OHMM            .86:   RESISTIVITY MUD FILTRATE SAMPLE
 MFST.F                60:   MUD FILTRATE SAMPLE TEMPERATURE
 RMC .OHMM           1.29:   RESISTIVITY MUD CAKE
 MCST.F                60:   MUD CAKE SAMPLE TEMPERATURE
 MFSS.           MEASURED:   MUD FILTRATE SAMPLE SOURCE
 MCSS.           MEASURED:   MUD CAKE SAMPLE SOURCE
 TCS .HRS               2:   TIME CURCULATED STOPPED
 MRT .F               100:   MAXIMUM RECORDED TEMPERATURE
 LUN .               1892:   LOGGING UNIT NUMBER
 LUL .             CASPER:   LOGGING UNIT LOCATION
 ENGI.               REIN:   RECORDING ENGINEER
 WITN.              AMEND:   WITNESSED BY
 CLNT.            A2DTECH:   CLIENT CODE
 ORIG.           5" PRINT:   ORIGIN OF DATA
 UWI .       490251080800:   UNIQUE WELL ID
 DICO. A2D Technologies, Inc.:   DIGITIZING COMPANY
~OTHER INFORMATION
~A    DEPT    SGRD        ILD        ILM        SPR       CALD         GRD        RHOB       CORR     DPHI   
# ...
  478.5000    15.4778    11.8242    13.0000   -31.4331     7.9228    78.0669     2.4833     0.0969     0.1235
  479.0000    15.1674    11.8502    12.9641   -31.0993     7.9264    78.1823     2.4910     0.1218     0.1185
  479.5000    15.1090    11.8751    12.9282   -30.7665     7.9049    78.6877     2.4944     0.1092     0.1148
  480.0000    15.0282    11.9001    12.8925   -30.4339     7.8723    79.1813     2.4811     0.0925     0.1195
  480.5000    15.7855    11.9254    12.8568   -30.0434     7.8380    79.6723     2.4708     0.0759     0.1288
  481.0000    15.8829    11.9345    12.8212   -29.6538     7.8282    80.1578     2.4763     0.0588     0.1259
  481.5000    15.7371    11.8565    12.7857   -29.2617     7.8537    80.3208     2.4881     0.0514     0.1220
  482.0000    15.2481    11.8018    12.7503   -28.7589     7.8840    79.8178     2.4908     0.0505     0.1184
  482.5000    14.6182    11.7473    12.7308   -28.0926     7.9144    79.3259     2.4820     0.0497     0.1253
  483.0000    15.3078    11.6932    12.7703   -27.4252     7.9447    79.2475     2.4670     0.0461     0.1336
  483.5000    15.0282    11.6393    12.7983   -26.4944     7.9753    79.3570     2.4506     0.0410     0.1418
  484.0000    15.3078    11.5702    12.8265   -25.5625     7.9861    79.5283     2.4284     0.0358     0.1515
  484.5000    14.2612    11.4814    12.8481   -24.6604     7.9862    79.6998     2.4385     0.0306     0.1451
  485.0000    13.8315    11.3934    12.5838   -24.3690     7.9866    79.8711     2.4630     0.0255     0.1322
  485.5000    14.0889    11.3060    12.3742   -24.1062     7.9586    80.0423     2.4873     0.0189     0.1194
  486.0000    13.8315    11.2193    12.1681   -23.8516     7.9145    80.2135     2.5019     0.0114     0.1148
  486.5000    15.0282    11.1333    11.9345   -23.7069     7.8703    80.3854     2.4988     0.0039     0.1168
  487.0000    14.6182    11.0479    11.9691   -23.5683     7.8256    80.5580     2.4941    -0.0035     0.1159
  487.5000    15.0223    10.9834    12.0227   -23.4295     7.8095    80.7247     2.4900    -0.0030     0.1137
  488.0000    14.3508    11.0236    12.0766   -23.2906     7.8121    80.6815     2.5017     0.0058     0.1089
  488.5000    14.4840    11.0698    12.1307   -23.1517     7.8148    79.8871     2.5206     0.0146     0.1003
  489.0000    14.1452    11.1165    12.1850   -23.0129     7.8176    79.2426     2.5397     0.0233     0.0916
  489.5000    14.0889    11.1633    12.2396   -22.8766     7.8203    79.9519     2.5586     0.0320     0.0816
  490.0000    14.4840    11.2102    12.2692   -22.7321     7.8229    80.6934     2.5527     0.0320     0.0881
  490.5000    14.6234    11.2574    12.2113   -22.5911     7.8266    80.5197     2.5346     0.0168     0.0965
  491.0000    14.6143    11.2923    12.1568   -22.4404     7.8444    80.1211     2.5165     0.0019     0.1048
  491.5000    13.9596    11.2059    12.1026   -22.0691     7.8424    80.1941     2.4984    -0.0131     0.1131
  492.0000    14.4840    11.1068    12.0486   -21.7035     7.8346    80.3901     2.4771    -0.0271     0.1180
  492.5000    14.2181    11.0086    11.9949   -21.6558     7.8279    80.4296     2.4936    -0.0193     0.1083
  493.0000    14.0889    10.9109    11.9414   -21.6559     7.8321    80.5710     2.5163    -0.0047     0.1000
  493.5000    14.3511    10.8150    11.8695   -21.6566     7.8438    80.7465     2.5397     0.0101     0.0912
  494.0000    14.2194    10.7819    11.7332   -21.6567     7.8555    80.8368     2.5430     0.0251     0.0904
  494.5000    14.6182    10.9344    11.5985   -21.6565     7.8672    81.3071     2.5285     0.0327     0.0936
  495.0000    14.2194    11.0540    11.5024   -21.6553     7.8676    81.8152     2.5130     0.0403     0.1026
  495.5000    15.0282    11.1900    11.5877   -21.6584     7.8619    82.3220     2.4975     0.0479     0.1120
  496.0000    15.0282    11.1209    11.6439   -21.7786     7.8557    82.8282     2.4821     0.0556     0.1216
  496.5000    14.6173    11.0199    11.6952   -22.2579     7.8493    83.3351     2.4667     0.0534     0.1310
  497.0000    14.3707    10.9207    11.7468   -22.4048     7.8478    83.8465     2.4506     0.0346     0.1405
  497.5000    13.9523    10.8224    11.7986   -22.5403     7.8478    84.3660     2.4495     0.0161     0.1424
  498.0000    13.0586    10.7250    11.8250   -22.6762     7.8478    84.3404     2.4970     0.0070     0.1268
  498.5000    14.6428    10.6286    11.6027   -22.8157     7.8478    84.1500     2.5533     0.0232     0.1151
  499.0000    14.2111    10.5329    11.4334   -22.7895     7.8478    83.9959     2.5438     0.0089     0.1033
  499.5000    14.5643    10.4382    11.2666   -22.7005     7.8478    84.1480     2.5486     0.0007     0.0923
  500.0000    14.7614    10.3443    11.0937   -22.6094     7.8478    84.7419     2.5570     0.0098     0.0870
  500.5000    13.9511    10.2977    11.1553   -22.5182     7.8478    85.3161     2.5549     0.0189     0.0792
  501.0000    14.2194    10.3285    11.2329   -22.3684     7.8478    85.8905     2.5578     0.0256     0.0814
  501.5000    14.0545    10.3567    11.3110   -22.0662     7.8478    86.4624     2.5639     0.0190     0.0838
  502.0000    13.7337    10.3936    11.3969   -21.6215     7.8478    87.0296     2.5704     0.0063     0.0807
  502.5000    13.5788    10.3778    11.3288   -21.1506     7.8478    87.6316     2.5772    -0.0026     0.0766
  503.0000    13.8315    10.3479    11.2543   -20.6767     7.8478    87.5150     2.5852     0.0016     0.0725
  503.5000    13.5788    10.3179    11.1803   -20.2819     7.8478    86.9527     2.5931     0.0094     0.0684
  504.0000    16.9417    10.2917    11.1067   -19.9440     7.8478    86.3681     2.5973     0.0174     0.0656
  504.5000    16.3067    10.2711    11.0683   -19.6092     7.8478    85.7835     2.5761     0.0155     0.0772
  505.0000    15.1450    10.2510    11.0343   -19.2738     7.8478    85.1998     2.5546     0.0052     0.0860
  505.5000    14.0661    10.2309    11.0004   -18.9399     7.8478    84.6089     2.5332    -0.0060     0.0948
  506.0000    13.5788    10.2108    10.9666   -18.6540     7.8478    84.0225     2.5118    -0.0176     0.1036
  506.5000    14.0889    10.1907    10.9328   -18.7908     7.8478    84.5114     2.4904    -0.0301     0.1124
  507.0000    13.2084    10.1707    10.8992   -19.0139     7.8478    85.4011     2.4770    -0.0495     0.1212
  507.5000    13.7046    10.1508    10.8657   -19.2375     7.8478    86.5647     2.4904    -0.0568     0.1236
  508.0000    13.3307    10.1310    10.8323   -19.4584     7.8478    87.7276     2.4848    -0.0573     0.1187
  508.5000    13.3307    10.1104    10.7990   -19.6045     7.8478    88.7595     2.4737    -0.0822     0.1156
  509.0000    13.7046    10.1306    10.7658   -19.7474     7.8478    87.7602     2.4644    -0.0751     0.1181
  509.5000    13.2884    10.1526    10.7327   -19.8901     7.8478    86.4621     2.4722    -0.0628     0.1210
  510.0000    13.0872    10.1750    10.7001   -20.0278     7.8478    85.8575     2.4871    -0.0502     0.1186
  510.5000    13.2098    10.2031    10.6839   -20.3822     7.8478    86.9014     2.5021    -0.0376     0.1115
  511.0000    13.3773    10.1621    10.6846   -20.7748     7.8478    87.5526     2.5172    -0.0252     0.1045
  511.5000    13.4542    10.1071    10.6846   -21.1689     7.8478    86.9278     2.5321    -0.0159     0.0974
  512.0000    13.1029    10.0523    10.6846   -21.5604     7.8478    86.2610     2.5404    -0.0258     0.0900
  512.5000    12.8037     9.9978    10.6562   -21.8629     7.8478    85.5809     2.5274    -0.0285     0.0974
  513.0000    12.7302     9.9436    10.4686   -21.8589     7.8478    86.0943     2.5173    -0.0219     0.1030
  513.5000    12.6552     9.8897    10.2842   -21.9674     7.8478    86.7933     2.5158    -0.0250     0.1048
  514.0000    12.1559     9.8338    10.1031   -22.2120     7.8478    87.4947     2.5273    -0.0233     0.1018
  514.5000    12.3831     9.7187     9.9252   -22.4547     7.8478    88.1945     2.5391    -0.0080     0.0872
