~VERSION INFORMATION
 VERS.                2.0:   CWLS LOG ASCII STANDARD - VERSION 2.0
 WRAP.                 NO:   ONE LINE PER DEPTH STEP
~WELL INFORMATION
#MNEM.UNIT      DATA TYPE    INFORMATION
#----------   ------------   ------------------------------
 STRT.F           33.5000:   START DEPTH
 STOP.F          692.0000:   STOP DEPTH
 STEP.F            0.5000:   STEP LENGTH
 NULL.          -999.2500:   NO VALUE
 COMP. FENIX & SCISSON INC:   COMPANY
 WELL.       NPR-3 #65-34:   WELL
 FLD .  TEAPOT DOME NPR-3:   FIELD
 LOC .      S34 T39N R78W:   LOCATION
 CNTY.            NATRONA:   COUNTY
 STAT.            WYOMING:   STATE
 CTRY. UNITED STATES OF AMERICA:   COUNTRY
 SRVC.           BIRDWELL:   SERVICE COMPANY
 DATE.        14-AUG-1978:   LOGDATE
 API .       490251070400:   API NUMBER
~CURVE INFORMATION
#MNEM.UNIT       API CODE    CURVE DESCRIPTION
#----------   ------------   ------------------------------
 DEPT.F                  :   
 CALD.IN     45 280 60 00:   CALIPER
 GRD .GAPI   45 310 01 00:   GAMMA RAY FROM DENSITY LOG
 RHOB.G/C3   45 350 01 00:   BULK DENSITY
 CORR.G/C3   45 356 01 00:   DENSITY CORRECTION
 DPHI.DEC    45 890 12 00:   DENSITY POROSITY SANDSTONE
 SPR .MV     05 010 01 00:   SPONTANEOUS POTENTIAL
 SN  .OHMM   05 040 16 00:   SHORT NORMAL 16'
 ILD .OHMM   05 120 46 00:   INDUCTION LOG DEEP RESISTIVITY
~PARAMETER INFORMATION
#MNEM.UNIT          VALUE    DESCRIPTION
#----------   ------------   ------------------------------
 PD  .                 GL:   PERMANENT DATUM
 EPD .F              5083:   ELEVATION PERMANENT DATUM
 LMF .                 KB:   LOG MEASURED FROM
 DAPD.F                 4:   FEET ABOVE PERMANENT DATUM
 DMF .                 KB:   DRILLING MEASURED FROM
 EKB .F              5087:   KELLING BUSHING
 EGL .F              5083:   GROUND LEVEL
 DATE.            8-14-78:   RUN DATE
 RUN .                  1:   RUN NUMBER
 DD  .F               675:   DEPTH DRILLER
 DL  .F               682:   DEPTH LOGGER
 BLI .F               676:   BOTTOM LOG INTERVAL
 TLI .F                50:   TOP LOG INTERVAL
 CS  .IN            8.625:   CASING SIZE
 CBD .F                40:   CASING BOTTOM DRILLER
 BS  .IN            7.875:   BIT SIZE
 BSD .F               675:   BIT SIZE AT DEPTH
 DFT .                KCL:   DRILLING FLUID TYPE
 DFD .                8.7:   DRILLING FLUID DENSITY
 DFV .                 31:   DRILLING FLUID VISCOSITY
 DFPH.                  9:   DRILLING FLUID PH
 TCS .HRS               2:   TIME CURCULATED STOPPED
 LUN .               3006:   LOGGING UNIT NUMBER
 LUL .               CASP:   LOGGING UNIT LOCATION
 ENGI.             MILLER:   RECORDING ENGINEER
 WITN.           MCGINLEY:   WITNESSED BY
 CLNT.            A2DTECH:   CLIENT CODE
 ORIG.           5" PRINT:   ORIGIN OF DATA
 UWI .       490251070400:   UNIQUE WELL ID
 DICO. A2D Technologies, Inc.:   DIGITIZING COMPANY
~OTHER INFORMATION
~A   DEPT     CALD         GRD      RHOB       CORR       DPHI        SPR         SN        ILD   
# ...
  600.5000     7.2135    51.0117     2.2011     0.0614     0.2807    -6.3339    10.2798    16.0300
  601.0000     7.2108    50.5837     2.2125     0.0674     0.2660    -6.2813    10.3504    15.9437
  601.5000     7.2501    50.6726     2.2420     0.0734     0.2559    -6.2288    10.4363    15.8524
  602.0000     7.3011    51.1422     2.2573     0.0794     0.2453    -6.1785    10.5455    15.7617
  602.5000     7.3521    51.8896     2.2746     0.0854     0.2346    -6.2464    10.6557    15.6714
  603.0000     7.4022    52.6346     2.2920     0.0914     0.2239    -6.4599    10.7671    15.5927
  603.5000     7.4858    53.6652     2.3127     0.1024     0.2132    -6.7303    10.8834    15.5927
  604.0000     7.5761    54.8561     2.3430     0.1164     0.1769    -7.2606    10.8834    15.5927
  604.5000     7.6676    56.0526     2.3769     0.1397     0.1534    -7.7874    10.8834    15.8432
  605.0000     7.7031    57.2495     2.4181     0.1677     0.1406    -8.0328    10.8495    16.2567
  605.5000     7.4711    58.4572     2.4582     0.1958     0.1277    -8.1412    10.8097    16.6296
  606.0000     7.2467    59.6797     2.5010     0.2240     0.1015    -8.2474    10.7394    16.3875
  606.5000     7.0850    59.2826     2.5231     0.2521     0.0924    -8.3540    10.6117    16.1717
  607.0000     7.0703    58.7598     2.5242     0.2804     0.0914    -8.4607    10.4855    15.9578
  607.5000     7.1874    58.3357     2.5383     0.2894     0.0865    -8.5675    10.3608    15.8420
  608.0000     7.3405    58.7220     2.5493     0.2664     0.0808    -8.6743    10.2376    15.7798
  608.5000     7.4942    58.7419     2.4872     0.2102     0.1464    -8.7815    10.1096    15.6036
  609.0000     7.6468    58.7388     2.4318     0.1542     0.1621    -8.8878    10.0680    15.2055
  609.5000     7.7543    58.5815     2.4004     0.1187     0.1725    -8.9755    10.0243    14.8247
  610.0000     7.7844    57.8079     2.3843     0.0963     0.1792    -8.8416     9.9808    14.0082
  610.5000     7.8106    57.0646     2.3683     0.0742     0.1914    -8.6410     9.9375    13.1586
  611.0000     7.8361    56.7082     2.3523     0.0578     0.1992    -8.4381     9.8943    12.5889
  611.5000     7.8616    57.4986     2.3449     0.0503     0.1995    -8.2353     9.8509    12.5139
  612.0000     7.8885    58.2461     2.3432     0.0579     0.1992    -8.0330     9.6816    12.4829
  612.5000     7.8723    58.9952     2.3451     0.0657     0.1977    -7.8278     9.4270    12.4580
  613.0000     7.8431    59.7447     2.3478     0.0735     0.1941    -7.7920     9.3046    12.4332
  613.5000     7.8144    60.4904     2.3556     0.0729     0.1884    -7.8341     9.2757    12.4085
  614.0000     7.8287    60.9290     2.3607     0.0701     0.1924    -7.8771     9.2491    12.3829
  614.5000     7.8543    60.3459     2.3521     0.0579     0.1999    -7.9193     9.2226    12.2022
  615.0000     7.8794    59.7444     2.3425     0.0476     0.1981    -7.9794     9.1961    12.0179
  615.5000     7.8808    59.6976     2.3437     0.0479     0.1975    -8.7879     9.1698    11.8363
  616.0000     7.8516    60.4236     2.3475     0.0479     0.1972    -9.7369     9.1435    11.6574
  616.5000     7.8227    61.1516     2.3512     0.0479     0.1930   -10.2704     9.1173    11.5876
  617.0000     7.7931    60.6213     2.3550     0.0479     0.1908   -10.4605     9.0911    11.5454
  617.5000     7.7219    59.6239     2.3578     0.0479     0.1919   -10.6410     9.0651    11.5043
  618.0000     7.5560    59.1811     2.3577     0.0499     0.1902   -10.8214     9.0434    11.4634
  618.5000     7.3915    60.5510     2.3621     0.0541     0.1815   -11.0025     9.0271    11.4225
  619.0000     7.2228    62.2921     2.3765     0.0580     0.1778   -11.1836     9.0108    11.3818
  619.5000     7.1948    61.9622     2.3787     0.0579     0.1766   -11.3647     8.9945    11.3413
  620.0000     7.2505    59.6945     2.3810     0.0579     0.1697   -11.5460     8.9783    11.3008
  620.5000     7.1996    57.4730     2.3874     0.0579     0.1753   -11.7266     8.9621    11.2605
  621.0000     7.2249    56.8229     2.3863     0.0578     0.1829   -11.9080     8.9460    11.2204
  621.5000     7.3785    57.9212     2.3708     0.0582     0.1936   -11.9944     8.9299    11.1804
  622.0000     7.2739    59.6763     2.3561     0.0697     0.1872   -11.9962     8.9138    11.1406
  622.5000     7.2146    61.4595     2.3607     0.0819     0.1910   -11.9961     8.8976    11.0873
  623.0000     7.2251    63.2375     2.3585     0.0848     0.1888   -11.9960     8.8584    11.1899
  623.5000     7.3369    64.7919     2.3584     0.0860     0.1865   -11.9960     8.7460    11.1876
  624.0000     7.4463    64.7519     2.3586     0.0874     0.1934   -11.9960     8.6352    11.1886
  624.5000     7.5182    64.8948     2.3510     0.0967     0.1956   -11.9955     8.5584    11.1884
  625.0000     7.5640    65.8056     2.3653     0.1154     0.1616   -11.9923     8.5433    11.1901
  625.5000     7.6090    66.1125     2.4118     0.1323     0.1600   -12.0133     8.5281    11.1021
  626.0000     7.6540    66.0631     2.4131     0.1331     0.1633   -12.4930     8.5131    10.9608
  626.5000     7.6990    66.0052     2.4117     0.1393     0.1564   -12.9792     8.4980    10.7821
  627.0000     7.7441    65.9479     2.4216     0.1562     0.1471   -13.4625     8.4732    10.7843
  627.5000     7.7893    65.8917     2.4351     0.1729     0.1449   -13.9454     8.3925    10.7836
  628.0000     7.8344    65.8350     2.4362     0.1896     0.1445   -14.4287     8.3126    10.7836
  628.5000     7.8751    65.7819     2.4397     0.1991     0.1380   -14.9101     8.2334    10.6443
  629.0000     7.8843    65.3648     2.4473     0.1975     0.1325   -15.3948     8.1550    10.4800
  629.5000     7.8956    64.4297     2.4527     0.1963     0.1329   -15.6797     8.0773    10.3178
  630.0000     7.9069    62.3842     2.4411     0.1829     0.1452   -15.8709     8.0004    10.1583
  630.5000     7.9183    60.2855     2.4285     0.1636     0.1514   -16.0523     7.9242    10.0012
  631.0000     7.9294    60.6756     2.4276     0.1607     0.1377   -16.2483     7.8487     9.8466
  631.5000     7.9560    61.6160     2.4482     0.1647     0.1238   -16.7783     7.7740     9.6944
  632.0000     7.9909    61.4955     2.4681     0.1673     0.1164   -17.3224     7.7238     9.5446
  632.5000     8.0261    60.8179     2.4850     0.1662     0.1146   -17.4695     7.6964     9.4567
  633.0000     8.0613    61.0595     2.4933     0.1651     0.1090   -17.5242     7.6692     9.3979
  633.5000     8.0969    61.4038     2.4983     0.1639     0.1087   -17.5764     7.6421     9.3394
  634.0000     8.1325    63.8291     2.4981     0.1629     0.1074   -17.6300     7.6147     9.2813
  634.5000     8.1134    67.0506     2.4977     0.1614     0.1081   -17.6836     7.5966     9.2192
  635.0000     8.0900    70.2362     2.4973     0.1515     0.1086   -17.7373     7.6101     9.1895
  635.5000     8.0669    70.1192     2.4969     0.1384     0.1086   -17.7904     7.6205     9.1347
  636.0000     8.0439    68.1571     2.4956     0.1203     0.1190   -17.8373     7.6309     9.0802
  636.5000     8.0210    65.0950     2.4769     0.0858     0.1198   -17.9743     7.6413     9.0507
  637.0000     7.9999    62.9730     2.4760     0.0843     0.1190   -18.3651     7.6518     9.1298
  637.5000     7.9090    62.6388     2.4755     0.0762     0.1289   -19.0154     7.6624     9.1886
  638.0000     7.8070    61.9880     2.4597     0.0656     0.1340   -19.6630     7.6938     9.3046
  638.5000     7.7118    61.1678     2.4528     0.0544     0.1329   -20.3132     7.7421     9.3046
  639.0000     7.6609    60.9104     2.4566     0.0519     0.1282   -20.9683     7.7907     9.3046
  639.5000     7.6125    61.2492     2.4612     0.0492     0.1255   -21.6406     7.8394     9.3046
  640.0000     7.5648    61.5842     2.4652     0.0414     0.1266   -21.7018     7.8818     9.3046
  640.5000     7.5328    61.9499     2.4572     0.0337     0.1338   -21.7284     7.7967     9.3046
