~VERSION INFORMATION
 VERS.                2.0:   CWLS LOG ASCII STANDARD - VERSION 2.0
 WRAP.                 NO:   ONE LINE PER DEPTH STEP
~WELL INFORMATION
#MNEM.UNIT      DATA TYPE    INFORMATION
#----------   ------------   ------------------------------
 STRT.F           32.0000:   START DEPTH
 STOP.F          517.0000:   STOP DEPTH
 STEP.F            0.5000:   STEP LENGTH
 NULL.          -999.2500:   NO VALUE
 COMP.    FENIX & SCISSON:   COMPANY
 WELL.        NPR #75-S-3:   WELL
 FLD .             TEAPOT:   FIELD
 LOC .       S3 T38N R78W:   LOCATION
 CNTY.            NATRONA:   COUNTY
 STAT.            WYOMING:   STATE
 CTRY. UNITED STATES OF AMERICA:   COUNTRY
 SRVC.              Welex:   SERVICE COMPANY
 DATE.        08-MAR-1977:   LOGDATE
 API .       490251030900:   API NUMBER
~CURVE INFORMATION
#MNEM.UNIT       API CODE    CURVE DESCRIPTION
#----------   ------------   ------------------------------
 DEPT.F                  :   
 SPR .MV     07 010 01 00:   SPONTANEOUS POTENTIAL
 ILD .OHMM   07 120 46 00:   INDUCTION LOG DEEP RES
 ILM .OHMM   07 120 44 00:   INDUCTION LOG MEDIUM RES
 SGRD.OHMM   07 220 05 00:   SHALLOW  GUARD RESISTIVITY
 CALD.IN     45 280 60 00:   CALIPER FROM DENSITY
 GRD .GAPI   45 310 01 00:   GAMMA RAY FROM DENSITY LOG
 CORR.G/C3   45 356 01 00:   DENSITY CORRECTION
 DPHI.DEC    45 890 12 00:   DENSITY POROSITY SANDSTONE
 RHOB.G/C3   45 350 01 00:   BULK DENSITY
~PARAMETER INFORMATION
#MNEM.UNIT          VALUE    DESCRIPTION
#----------   ------------   ------------------------------
 PD  .                 GL:   PERMANENT DATUM
 EPD .F              5141:   ELEVATION PERMANENT DATUM
 LMF .                 GL:   LOG MEASURED FROM
 DMF .                 GL:   DRILLING MEASURED FROM
 EGL .F              5141:   GROUND LEVEL
 DATE.         03-08-1977:   RUN DATE
 RUN .                  1:   RUN NUMBER
 DD  .F               521:   DEPTH DRILLER
 DL  .F               521:   DEPTH LOGGER
 BLI .F               519:   BOTTOM LOG INTERVAL
 TLI .F                35:   TOP LOG INTERVAL
 CS  .IN            8.625:   CASING SIZE
 CBD .F                40:   CASING BOTTOM DRILLER
 CBL .F                42:   CASING BOTTOM LOGGER
 BS  .IN            7.875:   BIT SIZE
 BSD .F               521:   BIT SIZE AT DEPTH
 DFT .            KCL MUD:   DRILLING FLUID TYPE
 DFD .                8.5:   DRILLING FLUID DENSITY
 DFV .                 32:   DRILLING FLUID VISCOSITY
 DFPH.                  8:   DRILLING FLUID PH
 DFL .                8.5:   DRILLING FLUID LOSS
 MSS .            MUD PIT:   MUD SAMPLE SOURCE
 RMS .OHMM            .65:   RESISTIVITY MUD SAMPLE
 MST .F                53:   MUD SAMPLE TEMPERATURE
 RMF .OHMM            .51:   RESISTIVITY MUD FILTRATE SAMPLE
 MFST.F                58:   MUD FILTRATE SAMPLE TEMPERATURE
 RMC .OHMM            .67:   RESISTIVITY MUD CAKE
 MCST.F                54:   MUD CAKE SAMPLE TEMPERATURE
 MFSS.           FANN KIT:   MUD FILTRATE SAMPLE SOURCE
 MCSS.           FANN KIT:   MUD CAKE SAMPLE SOURCE
 RMB .OHMM            .53:   RESISTIVITY MUD AT BHT
 BHT .F                64:   BOTTOM HOLE TEMPERATURE
 TCS .HRS             1.5:   TIME CURCULATED STOPPED
 MRT .F                64:   MAXIMUM RECORDED TEMPERATURE
 LUN .               8611:   LOGGING UNIT NUMBER
 LUL .           GILLETTE:   LOGGING UNIT LOCATION
 ENGI.               DOAK:   RECORDING ENGINEER
 WITN.           S. BURKE:   WITNESSED BY
 CLNT.            A2DTECH:   CLIENT CODE
 ORIG.           5" PRINT:   ORIGIN OF DATA
 UWI .       490251030900:   UNIQUE WELL ID
 DICO. A2D Technologies, Inc.:   DIGITIZING COMPANY
~OTHER INFORMATION
~A   DEPT      SPR        ILD        ILM       SGRD       CALD        GRD        CORR        DPHI       RHOB 
# ...
  287.5000   -42.6619     7.7832     8.0837    11.4038     8.0052   119.9630     0.0490     0.0812     2.5085
  288.0000   -42.6493     7.7351     8.0882    11.3301     8.0051   120.2776     0.0492     0.0776     2.5131
  288.5000   -42.6355     7.7404     8.0926    11.1028     8.0051   120.5881     0.0494     0.0780     2.5177
  289.0000   -42.6228     7.7458     8.0971    11.0300     8.0050   120.7585     0.0481     0.0813     2.5156
  289.5000   -42.6090     7.8587     8.1025    11.0357     8.0049   121.6738     0.0483     0.0836     2.5067
  290.0000   -42.5957     8.0838     8.2753    11.1935     8.0048   122.8691     0.0484     0.0845     2.5030
  290.5000   -42.7300     8.1453     8.4528    11.4322     8.0047   123.6160     0.0501     0.0851     2.5031
  291.0000   -42.8643     8.0950     8.6341    11.2803     8.0046   122.8643     0.0503     0.0827     2.5085
  291.5000   -42.9986     7.9898     8.6986    11.2063     8.0046   121.6913     0.0520     0.0768     2.5161
  292.0000   -43.1328     7.9402     8.6435    11.5256     8.0045   120.3880     0.0537     0.0744     2.5229
  292.5000   -43.1933     7.9459     8.5301    11.5294     8.0044   119.4939     0.0569     0.0732     2.5253
  293.0000   -43.2538     8.0063     8.4179    11.4257     8.0043   118.4908     0.0586     0.0725     2.5276
  293.5000   -43.3881     8.0673     8.3647    10.5852     8.0042   116.3899     0.0603     0.0719     2.5277
  294.0000   -43.3747     8.1848     8.4856    10.1264     8.0041   112.9149     0.0620     0.0716     2.5255
  294.5000   -43.3615     8.2471     8.6676    10.5909     8.0040   115.8851     0.0606     0.0746     2.5196
  295.0000   -43.3483     8.3099     8.7927    11.6548     8.0040   119.7662     0.0623     0.0788     2.5152
  295.5000   -43.3351     8.2585     8.7976    12.3185     8.0039   122.0047     0.0640     0.0781     2.5131
  296.0000   -43.3956     7.9844     8.6820    12.7345     8.0038   122.4613     0.0657     0.0724     2.5207
  296.5000   -43.4560     7.6138     8.5679    12.6441     8.0037   119.8149     0.0659     0.0733     2.5260
  297.0000   -43.7362     7.3106     8.3397    12.3916     8.0036   118.4978     0.0661     0.0760     2.5254
  297.5000   -44.1654     7.0679     7.9515    12.3182     8.0035   117.4730     0.0662     0.0925     2.5119
  298.0000   -44.5946     6.5567     7.2743    12.2966     8.0035   127.2711     0.0649     0.1087     2.4805
  298.5000   -44.5814     5.8764     6.2119     7.4240     8.0034   130.8429     0.0606     0.1198     2.4498
  299.0000   -44.5681     5.6414     4.7150     4.8552     8.0033   132.4887     0.0562     0.1318     2.4153
  299.5000   -44.4074     5.6853     5.0960     4.1516     8.0032   133.0976     0.0504     0.1447     2.3883
  300.0000   -43.9517     5.9703     6.0528    11.8436     8.0031   131.3360     0.0430     0.1582     2.3794
  300.5000   -43.2822     6.6706     6.8086    13.2327     8.0041   116.0966     0.0296     0.1269     2.4479
  301.0000   -42.7605     7.1022     7.5021    13.0588     8.0051   109.3026     0.0419     0.0956     2.4795
  301.5000   -42.3121     7.6666     8.4389    12.9744     8.0061   108.2811     0.0482     0.0844     2.5074
  302.0000   -42.0112     8.1066     9.4926    13.4387     8.0072   110.0849     0.0514     0.0784     2.5150
  302.5000   -41.7848     8.5130    10.0360    13.7272     8.0082   111.2909     0.0546     0.0741     2.5211
  303.0000   -41.5576     8.8174    10.2512    13.9255     8.0092   111.0102     0.0578     0.0720     2.5257
  303.5000   -41.3305     9.1327    10.4710    14.0295     8.0103   113.2584     0.0596     0.0708     2.5288
  304.0000   -41.1033     9.3943    10.6222    14.0373     8.0113   115.5014     0.0613     0.0722     2.5206
  304.5000   -40.9500     9.7958    10.7015    13.6631     8.0123   115.8185     0.0615     0.0797     2.5132
  305.0000   -40.8702     9.7900    10.8560    13.4816     8.0134   113.9134     0.0587     0.0869     2.5111
  305.5000   -40.7169    10.0691    11.2427    13.3964     8.0144   106.9712     0.0559     0.0947     2.5014
  306.0000   -40.3422    10.7191    11.8046    13.4984     8.0154   102.5475     0.0516     0.1040     2.4782
  306.5000   -39.8201    11.6493    12.3947    13.5058     8.0158   100.0498     0.0487     0.1057     2.4722
  307.0000   -39.5191    12.6603    13.2845    14.2795     8.0147    96.6632     0.0474     0.1021     2.4746
  307.5000   -39.0707    13.5707    14.6980    22.5195     8.0136    88.3877     0.0507     0.1045     2.4754
  308.0000   -38.3274    14.3476    16.1115    26.9553     8.0125    73.8900     0.0554     0.1170     2.4658
  308.5000   -37.7315    15.1689    17.5249    30.5335     8.0114    70.5034     0.0602     0.1212     2.4508
  309.0000   -37.0619    15.9272    19.1322    32.0564     8.0104    67.2649     0.0634     0.1251     2.4404
  309.5000   -36.6134    17.3093    20.4610    27.1831     8.0093    62.8412     0.0636     0.1320     2.4194
  310.0000   -36.2388    19.3371    21.1672    29.9582     8.0082    64.9361     0.0623     0.1674     2.3962
  310.5000   -36.1599    21.4540    21.6196    31.4567     8.0071    67.7717     0.0594     0.1809     2.3505
  311.0000   -36.1539    22.8389    22.2343    32.8033     8.0060    69.8666     0.0597     0.1815     2.3446
  311.5000   -36.1480    23.6524    23.0747    33.7392     8.0049    71.9614     0.0614     0.1766     2.3462
  312.0000   -36.1421    24.1598    24.5091    32.6140     8.0038    73.9082     0.0647     0.1730     2.3590
  312.5000   -36.1362    24.3403    24.5066    28.6259     8.0027    75.4104     0.0694     0.1705     2.3629
  313.0000   -36.1303    24.5222    24.1846    28.8399     8.0016    76.1720     0.0711     0.1723     2.3630
  313.5000   -35.9769    24.7054    24.0318    30.9153     8.0005    76.7854     0.0728     0.1792     2.3548
  314.0000   -35.9709    25.2353    24.2204    32.0172     7.9994    77.5469     0.0730     0.1861     2.3384
  314.5000   -35.9650    26.1342    24.5609    32.2566     7.9983    78.3084     0.0733     0.1890     2.3309
  315.0000   -35.8111    27.6302    24.9211    33.6374     7.9972    77.8848     0.0719     0.1887     2.3318
  315.5000   -35.8057    28.8122    25.4538    43.7356     7.9961    72.7204     0.0692     0.1848     2.3394
  316.0000   -35.7998    29.4302    26.1775    45.2883     7.9950    66.9634     0.0678     0.1835     2.3427
  316.5000   -35.7938    29.4465    27.2954    47.5602     7.9939    62.8360     0.0665     0.2036     2.3163
  317.0000   -35.7879    29.2172    28.2668    54.6216     7.9928    59.5976     0.0652     0.2117     2.2931
  317.5000   -35.7820    28.4130    29.0726    56.1737     7.9917    59.0206     0.0624     0.2147     2.2721
  318.0000   -35.7761    27.3394    30.7368    48.5954     7.9906    60.8243     0.0566     0.2153     2.2559
  318.5000   -35.7702    27.3739    33.8675    43.7721     7.9895    64.5488     0.0553     0.2080     2.2971
  319.0000   -35.7642    27.7626    37.3171    42.1205     7.9884    66.9400     0.0571     0.2002     2.3197
  319.5000   -35.7578    28.1567    38.3809    46.4797     7.9873    69.3312     0.0603     0.1917     2.3311
  320.0000   -35.7524    28.5565    37.3584    51.8555     7.9862    71.4260     0.0635     0.1893     2.3282
  320.5000   -35.4515    28.5724    36.2871    50.1262     7.9860    69.9653     0.0682     0.1969     2.3140
  321.0000   -35.2981    28.3917    40.6227    55.3187     7.9866    65.2454     0.0730     0.1988     2.3133
  321.5000   -34.9972    28.2123    39.8138    49.0924     7.9872    63.9277     0.0792     0.1987     2.3202
  322.0000   -34.8438    28.2284    39.5328    50.3506     7.9878    65.2870     0.0840     0.1900     2.3293
  322.5000   -34.8379    28.2441    41.2546    59.4732     7.9885    66.7893     0.0887     0.1849     2.3384
  323.0000   -35.1269    28.2598    40.9940    66.6839     7.9891    69.1804     0.0919     0.1866     2.3347
  323.5000   -35.4160    28.2755    44.2456    58.9186     7.9897    70.9433     0.0921     0.1909     2.3228
