~VERSION INFORMATION
 VERS.                2.0:   CWLS LOG ASCII STANDARD - VERSION 2.0
 WRAP.                 NO:   ONE LINE PER DEPTH STEP
~WELL INFORMATION
#MNEM.UNIT      DATA TYPE    INFORMATION
#----------   ------------   ------------------------------
 STRT.F            3.5000:   START DEPTH
 STOP.F          523.0000:   STOP DEPTH
 STEP.F            0.5000:   STEP LENGTH
 NULL.          -999.2500:   NO VALUE
 COMP.       F D SERV INC:   COMPANY
 WELL.    88-8 SX 3 #88-3:   WELL
 FLD .             TEAPOT:   FIELD
 LOC .       S3 T38N R78W:   LOCATION
 CNTY.            NATRONA:   COUNTY
 STAT.            WYOMING:   STATE
 CTRY. UNITED STATES OF AMERICA:   COUNTRY
 SRVC.      Western Atlas:   SERVICE COMPANY
 DATE.        28-NOV-1992:   LOGDATE
 API .       490252256200:   API NUMBER
~CURVE INFORMATION
#MNEM.UNIT       API CODE    CURVE DESCRIPTION
#----------   ------------   ------------------------------
 DEPT.F                  :   
 GRR .GAPI   07 310 01 00:   GAMMA RAY
 RILD.OHMM   07 120 46 00:   INDUCTION LOG DEEP RESISTIVITY
 RILM.OHMM   07 120 44 00:   RESITIVITY LONG MEDIUM
 C13 .IN     45 280 13 00:   CALIPER X
 PORZ.DEC    45 890 12 00:   DENSITY POROSITY SANDSTONE
 NPHI.DEC    42 890 03 00:   NEUTRON POROSITY SANDSTONE
 ZCOR.G/C3   45 356 01 00:   DENSITY CORRECTION
 ZDEN.G/C3   45 350 01 00:   BULK DENSITY
~PARAMETER INFORMATION
#MNEM.UNIT          VALUE    DESCRIPTION
#----------   ------------   ------------------------------
 PD  .                 GL:   PERMANENT DATUM
 EPD .F              5126:   ELEVATION PERMANENT DATUM
 LMF .                 KB:   LOG MEASURED FROM
 DAPD.F                10:   FEET ABOVE PERMANENT DATUM
 DMF .                 KB:   DRILLING MEASURED FROM
 EKB .F              5136:   KELLING BUSHING
 EDF .F              5135:   DRILLING FLOOR
 EGL .F              5126:   GROUND LEVEL
 DATE.        28-NOV-1992:   RUN DATE
 RUN .                  1:   RUN NUMBER
 DD  .F               525:   DEPTH DRILLER
 DL  .F               525:   DEPTH LOGGER
 BLI .F               516:   BOTTOM LOG INTERVAL
 TLI .F                76:   TOP LOG INTERVAL
 CS  .IN            8.625:   CASING SIZE
 CBD .F                95:   CASING BOTTOM DRILLER
 CBL .F                76:   CASING BOTTOM LOGGER
 BS  .IN            7.875:   BIT SIZE
 BSD .F               525:   BIT SIZE AT DEPTH
 DFT .           AIR FOAM:   DRILLING FLUID TYPE
 MRT .F                70:   MAXIMUM RECORDED TEMPERATURE
 LUN .            HL-6274:   LOGGING UNIT NUMBER
 LUL .             CASPER:   LOGGING UNIT LOCATION
 ENGI.             RAUTIO:   RECORDING ENGINEER
 WITN.           ED REISH:   WITNESSED BY
 CLNT.            A2DTECH:   CLIENT CODE
 ORIG.           5" PRINT:   ORIGIN OF DATA
 UWI .       490252256200:   UNIQUE WELL ID
 DICO. A2D Technologies, Inc.:   DIGITIZING COMPANY
~OTHER INFORMATION
~A    DEPT     GRR       RILD       RILM        C13       PORZ       NPHI       ZCOR       ZDEN   
# ...
  206.0000   133.1325     7.9401     7.9005     8.3330     0.1113     0.3022     0.0352     2.4636
  206.5000   133.1325     7.8854     7.7913     8.3328     0.1140     0.3043     0.0322     2.4559
  207.0000   134.9398     7.8854     7.7908     8.3326     0.1170     0.3067     0.0277     2.4530
  207.5000   136.4458     7.8310     7.7365     8.3324     0.1157     0.3088     0.0232     2.4568
  208.0000   137.9518     7.7234     7.6296     8.3322     0.1152     0.3094     0.0217     2.4568
  208.5000   137.9518     7.5125     7.4207     8.3320     0.1170     0.3109     0.0202     2.4508
  209.0000   137.9518     7.2547     7.2082     8.3318     0.1203     0.3140     0.0187     2.4455
  209.5000   137.9518     7.0589     6.9231     8.3317     0.1239     0.3170     0.0172     2.4395
  210.0000   140.1206     6.8189     6.5951     8.3315     0.1281     0.3238     0.0172     2.4348
  210.5000   140.7259     6.5415     6.2053     8.3313     0.1308     0.3347     0.0202     2.4320
  211.0000   140.4275     6.4063     6.0357     8.3311     0.1306     0.3393     0.0457     2.4365
  211.5000   140.4310     6.1042     5.9116     8.3309     0.1258     0.3378     0.0577     2.4434
  212.0000   140.4339     6.1042     5.8303     8.3307     0.1201     0.3234     0.0532     2.4560
  212.5000   140.4117     6.1893     6.0357     8.3157     0.1132     0.3137     0.0397     2.4621
  213.0000   138.9342     6.3191     6.3355     8.3162     0.1111     0.3113     0.0442     2.4643
  213.5000   138.3339     6.4516     6.7898     8.3166     0.1104     0.3140     0.0517     2.4658
  214.0000   140.1447     6.6788     7.0779     8.3170     0.1099     0.3161     0.0622     2.4658
  214.5000   141.3866     6.9139     7.2767     8.3175     0.1102     0.3134     0.0607     2.4666
  215.0000   143.1631     7.1079     7.3781     8.3179     0.1123     0.3104     0.0382     2.4643
  215.5000   143.7677     7.3074     7.4810     8.3183     0.1150     0.3083     0.0307     2.4576
  216.0000   139.8556     7.3074     7.6089     8.3187     0.1159     0.3077     0.0247     2.4560
  216.5000   139.8675     7.4093     7.6912     8.3192     0.1153     0.3080     0.0263     2.4568
  217.0000   139.2596     7.4607     7.7446     8.3196     0.1150     0.3056     0.0307     2.4568
  217.5000   137.4552     7.4607     7.7446     8.3200     0.1174     0.3029     0.0322     2.4523
  218.0000   136.5537     7.4607     7.7446     8.3204     0.1198     0.3023     0.0316     2.4463
  218.5000   139.8734     7.4607     7.6912     8.3209     0.1207     0.3035     0.0307     2.4463
  219.0000   143.4885     7.4093     7.5330     8.3213     0.1216     0.3047     0.0322     2.4455
  219.5000   140.4793     7.3582     7.4294     8.3217     0.1232     0.3063     0.0292     2.4440
  220.0000   137.4701     7.2570     7.4294     8.3222     0.1234     0.3084     0.0262     2.4448
  220.5000   136.8705     7.1573     7.3215     8.3226     0.1210     0.3126     0.0262     2.4470
  221.0000   139.5849     7.0102     7.1270     8.3230     0.1198     0.3120     0.0337     2.4500
  221.5000   143.2022     6.8128     7.0290     8.3234     0.1198     0.3111     0.0412     2.4515
  222.0000   145.9159     6.5415     6.8845     8.3239     0.1220     0.3117     0.0397     2.4493
  222.5000   147.4247     6.2755     6.6456     8.3243     0.1238     0.3162     0.0412     2.4470
  223.0000   145.9223     6.0203     6.2918     8.3247     0.1271     0.3340     0.0397     2.4440
  223.5000   141.1058     5.8073     6.1199     8.3252     0.1382     0.3397     0.0397     2.4306
  224.0000   139.3007     5.3893     5.6319     8.3256     0.1596     0.3364     0.0367     2.3869
  224.5000   142.3163     5.1701     5.3189     8.3260     0.1656     0.3245     0.0551     2.3749
  225.0000   145.0307     4.9943     4.7366     8.3264     0.1578     0.3144     0.0907     2.3764
  225.5000   144.1299     4.9943     4.8696     8.3417     0.1412     0.3123     0.0952     2.3990
  226.0000   140.8195     5.0991     5.0762     8.3411     0.1250     0.3124     0.0652     2.4403
  226.5000   139.9187     5.2422     5.3311     8.3404     0.1166     0.3108     0.0487     2.4598
  227.0000   141.7289     5.4644     5.6319     8.3397     0.1063     0.3072     0.0457     2.4733
  227.5000   140.8288     5.6980     5.9527     8.3391     0.0979     0.3042     0.0457     2.4819
  228.0000   137.8195     5.9788     6.2053     8.3384     0.0949     0.3049     0.0457     2.4906
  228.5000   137.7831     6.3191     6.5189     8.3377     0.0973     0.3073     0.0442     2.4906
  229.0000   138.7289     6.7718     6.8370     8.3371     0.1000     0.3106     0.0442     2.4884
  229.5000   138.4305     7.0601     7.0290     8.3364     0.1012     0.3124     0.0442     2.4852
  230.0000   140.5424     7.2070     7.1766     8.3357     0.1025     0.3130     0.0442     2.4816
  230.5000   143.5573     7.3074     7.3296     8.3350     0.1030     0.3130     0.0427     2.4801
  231.0000   141.3996     7.3582     7.4810     8.3344     0.1015     0.3151     0.0397     2.4786
  231.5000   138.1420     7.4607     7.6381     8.3337     0.0982     0.3148     0.0367     2.4831
  232.0000   139.9521     7.5647     7.6381     8.3330     0.0976     0.3139     0.0397     2.4869
  232.5000   140.5574     7.6172     7.6564     8.3323     0.0988     0.3154     0.0427     2.4876
  233.0000   139.9578     7.7234     7.7522     8.3317     0.0982     0.3173     0.0442     2.4861
  233.5000   138.4553     7.7586     7.9072     8.3310     0.0961     0.3179     0.0457     2.4876
  234.0000   138.7594     7.8854     7.9621     8.3303     0.0925     0.3161     0.0412     2.4899
  234.5000   140.8706     7.9401     8.0732     8.3297     0.0901     0.3146     0.0395     2.4936
  235.0000   143.9056     7.9953     8.0732     8.3290     0.0907     0.3143     0.0337     2.4974
  235.5000   145.0939     8.0508     8.0732     8.3283     0.0943     0.3158     0.0307     2.4891
  236.0000   144.7948     8.1067     8.0732     8.3276     0.0989     0.3155     0.0322     2.4838
  236.5000   144.1953     8.1752     8.1858     8.3270     0.0992     0.3146     0.0349     2.4846
  237.0000   143.2932     8.2767     8.2999     8.3263     0.0977     0.3127     0.0385     2.4891
  237.5000   141.4915     8.2767     8.4157     8.3256     0.0953     0.3101     0.0412     2.4929
  238.0000   143.0004     8.2767     8.4742     8.3249     0.0946     0.3083     0.0412     2.4921
  238.5000   143.9068     8.3036     8.4742     8.3243     0.0972     0.3065     0.0412     2.4899
  239.0000   141.1988     8.3342     8.5331     8.3236     0.0998     0.3040     0.0382     2.4853
  239.5000   139.9968     8.3921     8.5331     8.3229     0.0992     0.3008     0.0352     2.4816
  240.0000   141.5064     8.3921     8.5331     8.3223     0.0980     0.2972     0.0322     2.4861
  240.5000   140.9068     8.3921     8.4157     8.3221     0.0971     0.2999     0.0337     2.4884
  241.0000   139.1024     8.3342     8.2999     8.3220     0.0986     0.3029     0.0322     2.4884
  241.5000   138.5029     8.3342     8.2999     8.3218     0.1034     0.3056     0.0292     2.4823
  242.0000   138.5064     8.2767     8.1858     8.3217     0.1097     0.3056     0.0352     2.4726
  242.5000   141.2201     8.2197     8.1858     8.3215     0.1124     0.3044     0.0382     2.4666
  243.0000   144.2350     8.1630     8.1858     8.3214     0.1076     0.3038     0.0382     2.4674
  243.5000   147.5518     8.1630     8.0732     8.3212     0.1046     0.3047     0.0352     2.4733
  244.0000   144.8438     8.0508     8.0175     8.3211     0.1040     0.3084     0.0367     2.4756
  244.5000   139.4249     7.9401     7.9072     8.3209     0.1046     0.3129     0.0382     2.4763
  245.0000   135.5121     7.7234     7.7446     8.2907     0.1064     0.3162     0.0352     2.4740
  245.5000   137.7962     7.4093     7.5330     8.2755     0.1143     0.3192     0.0277     2.4651
  246.0000   141.8438     6.8587     7.0779     8.2753     0.1212     0.3231     0.0187     2.4508
