~VERSION INFORMATION
 VERS.                2.0:   CWLS LOG ASCII STANDARD - VERSION 2.0
 WRAP.                 NO:   ONE LINE PER DEPTH STEP
~WELL INFORMATION
#MNEM.UNIT      DATA TYPE    INFORMATION
#----------   ------------   ------------------------------
 STRT.F            0.0000:   START DEPTH
 STOP.F          497.0000:   STOP DEPTH
 STEP.F            0.1000:   STEP LENGTH
 NULL.          -999.2500:   NO VALUE
 COMP.       F D SERV INC:   COMPANY
 WELL. NAVAL PETROLEUM RESERVE 3 SX-1 #81-1-10:   WELL
 FLD .             NPR #3:   FIELD
 LOC .      S10 T38N R78W:   LOCATION
 CNTY.            NATRONA:   COUNTY
 STAT.            WYOMING:   STATE
 CTRY. UNITED STATES OF AMERICA:   COUNTRY
 SRVC.     Atlas Wireline:   SERVICE COMPANY
 DATE.        14-DEC-1997:   LOGDATE
 API .       490252257400:   API NUMBER
~CURVE INFORMATION
#MNEM.UNIT       API CODE    CURVE DESCRIPTION
#----------   ------------   ------------------------------
 DEPT.F                  :   
 GRR .GAPI   07 310 01 00:   GAMMA RAY
 RILD.OHMM   07 120 46 00:   INDUCTION LOG DEEP RESISTIVITY
 RILM.OHMM   07 120 44 00:   INDUCTION LOG MEDIUM RESISTIVITY
~PARAMETER INFORMATION
#MNEM.UNIT          VALUE    DESCRIPTION
#----------   ------------   ------------------------------
 PD  .                 GL:   PERMANENT DATUM
 EPD .F              5132:   ELEVATION PERMANENT DATUM
 LMF .                 KB:   LOG MEASURED FROM
 DAPD.F                10:   FEET ABOVE PERMANENT DATUM
 DMF .                 KB:   DRILLING MEASURED FROM
 EKB .F              5142:   KELLING BUSHING
 EDF .F              5141:   DRILLING FLOOR
 EGL .F              5132:   GROUND LEVEL
 DATE.        14-DEC-1992:   RUN DATE
 RUN .                  1:   RUN NUMBER
 DD  .F               513:   DEPTH DRILLER
 DL  .F               505:   DEPTH LOGGER
 BLI .F               497:   BOTTOM LOG INTERVAL
 CS  .IN            8.625:   CASING SIZE
 CBD .F                53:   CASING BOTTOM DRILLER
 CBL .F                54:   CASING BOTTOM LOGGER
 BS  .IN            7.875:   BIT SIZE
 BSD .F               513:   BIT SIZE AT DEPTH
 DFT .           AIR FOAM:   DRILLING FLUID TYPE
 BHT .F                68:   BOTTOM HOLE TEMPERATURE
 MRT .F                68:   MAXIMUM RECORDED TEMPERATURE
 LUN .           HL- 6274:   LOGGING UNIT NUMBER
 LUL .             CASPER:   LOGGING UNIT LOCATION
 ENGI.             RAUTIO:   RECORDING ENGINEER
 WITN.          G. STRONG:   WITNESSED BY
 CLNT.            A2DTECH:   CLIENT CODE
 ORIG.           5" PRINT:   ORIGIN OF DATA
 UWI .       490252257400:   UNIQUE WELL ID
 DICO. A2D Technologies, Inc.:   DIGITIZING COMPANY
~OTHER INFORMATION
~A    DEPT      GRR      RILD       RILM   
# ...
   54.6000   120.5076    23.9400    62.1131
   54.7000   121.0843    21.4265    67.1861
   54.8000   121.7663    10.0531    23.6256
   54.9000   122.3558     3.1163     6.3658
   55.0000   122.7309     2.3901     5.0287
   55.1000   122.8916     2.2151     3.6626
   55.2000   122.9454     2.1134     3.3182
   55.3000   123.1928     2.0305     3.2595
   55.4000   122.8916     2.0518     3.2596
   55.5000   122.8916     2.1028     3.2921
   55.6000   122.7100     2.1732     3.3716
   55.7000   122.3141     2.2520     3.6375
   55.8000   121.9880     2.3445     4.0529
   55.9000   121.9880     2.4869     4.4338
   56.0000   121.9799     2.6453     4.8805
   56.1000   121.6867     2.7826     5.8483
   56.2000   121.6867     3.2411     6.3924
   56.3000   121.8659     3.9591     6.8384
   56.4000   122.1237     4.7486     7.1509
   56.5000   122.4739     5.4925     7.4549
   56.6000   122.9406     6.4872     7.7713
   56.7000   123.1984     7.5073     8.1113
   56.8000   123.4940     8.9414     8.5163
   56.9000   123.7141    11.7005     8.8502
   57.0000   124.1486    14.6199     9.3183
   57.1000   124.5309    16.4732    10.5311
   57.2000   124.8787    16.8185    12.1265
   57.3000   125.3478    16.8195    12.6218
   57.4000   125.6088    16.7259    13.0201
   57.5000   126.2048    16.6278    16.0465
   57.6000   126.6402    16.3534    18.0496
   57.7000   127.3301    15.6538    18.3590
   57.8000   127.9727    14.5122    17.7290
   57.9000   128.5759    13.2636    17.0597
   58.0000   129.2610    11.9690    16.4879
   58.1000   129.5197    11.2765    15.2822
   58.2000   130.1205    10.9427    14.2985
   58.3000   130.3358    10.7503    13.6184
   58.4000   130.5936    10.1587    13.2020
   58.5000   130.7229     9.0855    12.7632
   58.6000   130.5526     8.3839    12.1328
   58.7000   129.9952     8.1128    11.4356
   58.8000   129.2169     7.9860    10.7947
   58.9000   128.3132     7.8789    10.2766
   59.0000   127.8876     7.8116     9.9160
   59.1000   127.2024     7.7658     9.6923
   59.2000   126.5550     7.7390     9.5680
   59.3000   126.0393     7.7840     9.5256
   59.4000   125.6024     7.7845     9.5304
   59.5000   125.6024     7.7848     9.5926
   59.6000   125.6024     7.8171     9.6450
   59.7000   125.6024     7.8400     9.7893
   59.8000   125.7695     7.8404    10.0698
   59.9000   126.6458     7.8329    10.3848
   60.0000   128.4337     7.7870    10.6199
   60.1000   130.7173     7.6268    10.8112
   60.2000   132.8313     7.3003    11.0267
   60.3000   135.2410     7.0550    11.0270
   60.4000   136.9052     6.9890    11.0273
   60.5000   138.4739     7.0310    10.9911
   60.6000   139.7631     7.0732    10.9514
   60.7000   140.8185     7.1170    10.9234
   60.8000   141.2651     7.1997    10.7975
   60.9000   141.2651     7.3558    10.7262
   61.0000   141.0161     7.6476    10.6148
   61.1000   140.7582     7.9753    10.4896
   61.2000   140.5004     8.2930    10.3327
   61.3000   140.2426     8.7440    10.1279
   61.4000   139.8337     9.6671     9.8897
   61.5000   139.0924     9.8305     9.6570
   61.6000   138.5542     9.9621     9.4000
   61.7000   137.3213    10.0460     9.3040
   61.8000   136.2354    10.0810     9.1565
   61.9000   135.0442    10.0815     8.9669
   62.0000   133.5221    10.0774     8.7746
   62.1000   131.4979    10.0129     8.6194
   62.2000   129.0683     9.9065     8.4659
   62.3000   127.7108     9.7479     8.2378
   62.4000   126.9783     9.5766     8.1141
   62.5000   126.6064     9.4297     7.9709
   62.6000   126.3486     9.2952     7.9017
   62.7000   126.2048     9.0823     7.9019
   62.8000   126.2755     8.9624     7.8939
   62.9000   126.5333     8.8705     7.8475
   63.0000   126.8072     8.6942     7.8478
   63.1000   126.8072     8.5439     7.8480
   63.2000   127.4024     8.4436     7.8482
   63.3000   127.8659     8.3536     7.8718
   63.4000   128.1237     8.3031     7.9034
   63.5000   128.3815     8.1345     7.9112
   63.6000   128.6145     8.0540     7.9590
   63.7000   128.6145     7.9595     8.0149
   63.8000   128.6145     7.8893     8.0544
   63.9000   128.4185     7.8583     8.0712
   64.0000   128.4659     7.8588     8.0947
   64.1000   128.7237     7.8592     8.1280
   64.2000   128.9815     7.9145     8.1282
   64.3000   129.2169     7.9532     8.1285
   64.4000   129.2169     7.9706     8.1287
   64.5000   129.9277     7.9710     8.1681
   64.6000   130.3141     7.9855     8.1859
   64.7000   130.8723     8.0335     8.1861
   64.8000   131.4321     8.0840     8.1864
   64.9000   131.7534     8.0844     8.1803
   65.0000   132.2690     8.0848     8.1301
   65.1000   132.8313     8.0853     8.1303
   65.2000   133.0659     8.1068     8.1305
   65.3000   133.5148     8.1426     8.1307
   65.4000   133.8827     8.1430     8.1530
   65.5000   134.0361     8.1435     8.1879
   65.6000   134.1582     8.1886     8.1882
   65.7000   134.6562     8.2012     8.1884
   65.8000   134.9398     8.2017     8.2349
   65.9000   134.9398     8.2021     8.2080
   66.0000   134.9398     8.2026     8.1891
   66.1000   135.0851     8.2030     8.1893
   66.2000   135.2410     8.2035     8.1895
   66.3000   135.2410     8.2040     8.1898
   66.4000   135.2562     8.2044     8.1900
   66.5000   135.5422     8.2049     8.1902
   66.6000   135.5422     8.2053     8.1905
   66.7000   135.7285     8.2058     8.1907
   66.8000   135.7004     8.2062     8.1703
   66.9000   135.4426     8.2068     8.1344
   67.0000   135.1847     8.2071     8.1346
   67.1000   134.9269     8.2076     8.1348
   67.2000   134.6385     8.1830     8.1350
   67.3000   133.9566     8.1517     8.1353
   67.4000   133.1831     8.1521     8.1355
   67.5000   132.2691     8.1526     8.1556
   67.6000   131.5293     8.1531     8.1927
   67.7000   131.3253     8.1136     8.1930
   67.8000   131.3357     8.0974     8.1932
   67.9000   131.6265     8.0979     8.1934
   68.0000   131.6265     8.0983     8.1936
   68.1000   131.6265     8.0988     8.1665
   68.2000   131.7647     8.0993     8.1373
   68.3000   131.9277     8.0997     8.1375
   68.4000   131.9277     8.1386     8.1377
   68.5000   131.9277     8.1571     8.1380
   68.6000   131.9277     8.1576     8.1382
   68.7000   131.7052     8.1580     8.1384
   68.8000   131.6265     8.1585     8.1387
   68.9000   131.6265     8.1589     8.1389
   69.0000   131.5341     8.1594     8.1391
   69.1000   131.3253     8.1598     8.1393
   69.2000   131.3253     8.1603     8.1396
   69.3000   131.3253     8.1812     8.1398
   69.4000   131.5454     8.2181     8.1400
   69.5000   131.8032     8.2186     8.1402
   69.6000   132.3277     8.2191     8.1405
   69.7000   133.1012     8.2195     8.1407
   69.8000   133.9213     8.2199     8.1409
   69.9000   134.9558     8.1931     8.1412
   70.0000   136.4458     8.1451     8.1414
   70.1000   137.3165     8.0973     8.1416
   70.2000   137.9992     8.0476     8.1168
   70.3000   138.5149     7.9414     8.0856
   70.4000   138.8554     7.9007     8.0772
   70.5000   138.8554     7.8219     8.0294
   70.6000   138.8546     7.7301     7.9746
   70.7000   138.5542     7.6232     7.9349
   70.8000   138.3389     7.5056     7.9197
   70.9000   138.0811     7.4609     7.8963
   71.0000   137.8233     7.3597     7.8496
   71.1000   137.6506     7.3233     7.8033
   71.2000   137.6506     7.3095     7.7570
   71.3000   137.6506     7.2883     7.7035
   71.4000   137.6506     7.2596     7.7037
   71.5000   137.4377     7.2467     7.6738
   71.6000   137.3494     7.1602     7.6507
   71.7000   137.3494     7.1111     7.6219
   71.8000   137.3494     7.1114     7.5386
   71.9000   137.3494     7.0849     7.4933
   72.0000   137.3494     7.0434     7.4936
   72.1000   137.3494     6.9899     7.4576
   72.2000   137.5598     6.9179     7.4136
   72.3000   137.6506     6.9183     7.3698
   72.4000   137.6506     6.8797     7.3263
   72.5000   137.6506     6.8712     7.2889
   72.6000   137.6506     6.8222     7.2891
   72.7000   137.6506     6.7770     7.2475
