~VERSION INFORMATION
 VERS.                2.0:   CWLS LOG ASCII STANDARD - VERSION 2.0
 WRAP.                 NO:   ONE LINE PER DEPTH STEP
~WELL INFORMATION
#MNEM.UNIT      DATA TYPE    INFORMATION
#----------   ------------   ------------------------------
 STRT.F           43.0000:   START DEPTH
 STOP.F          551.0000:   STOP DEPTH
 STEP.F            0.5000:   STEP LENGTH
 NULL.          -999.2500:   NO VALUE
 COMP. FENIX & SCISSON INC:   COMPANY
 WELL.   NPR 3  27-S #3-3:   WELL
 FLD .             TEAPOT:   FIELD
 LOC .       S3 T38N R78W:   LOCATION
 CNTY.            NATRONA:   COUNTY
 STAT.            WYOMING:   STATE
 CTRY. UNITED STATES OF AMERICA:   COUNTRY
 SRVC.           BIRDWELL:   SERVICE COMPANY
 DATE.        07-OCT-1978:   LOGDATE
 API .       490251071600:   API NUMBER
~CURVE INFORMATION
#MNEM.UNIT       API CODE    CURVE DESCRIPTION
#----------   ------------   ------------------------------
 DEPT.F                  :   
 SPR .MV     05 010 01 00:   SPONTANEOUS POTENTIAL FROM RES.
 SN  .OHMM   05 040 16 00:   SHORT NORMAL 16"
 ILD .OHMM   05 120 46 00:   INDUCTION LOG DEEP
 GRD .GAPI   45 310 01 00:   GAMMA RAY FROM DENSITY LOG
 CALD.IN     45 280 60 00:   CALIPER
 RHOB.G/C3   45 350 01 00:   BULK DENSITY
 CORR.G/C3   45 356 01 00:   DENSITY CORRECTION
 DPHI.DEC    45 890 12 00:   DENSITY POROSITY SANDSTONE
~PARAMETER INFORMATION
#MNEM.UNIT          VALUE    DESCRIPTION
#----------   ------------   ------------------------------
 PD  .                 GL:   PERMANENT DATUM
 EPD .F              5241:   ELEVATION PERMANENT DATUM
 LMF .                 KB:   LOG MEASURED FROM
 DAPD.F                 4:   FEET ABOVE PERMANENT DATUM
 DMF .                 KB:   DRILLING MEASURED FROM
 EKB .F              5245:   KELLING BUSHING
 EGL .F              5241:   GROUND LEVEL
 DATE.            10-7-78:   RUN DATE
 RUN .                  1:   RUN NUMBER
 DD  .F               552:   DEPTH DRILLER
 DL  .F               551:   DEPTH LOGGER
 BLI .F               545:   BOTTOM LOG INTERVAL
 TLI .F                48:   TOP LOG INTERVAL
 CS  .IN            8.625:   CASING SIZE
 CBL .F                43:   CASING BOTTOM LOGGER
 BS  .IN            7.875:   BIT SIZE
 BSD .F               552:   BIT SIZE AT DEPTH
 DFT .                KCL:   DRILLING FLUID TYPE
 DFD .                8.7:   DRILLING FLUID DENSITY
 DFV .                 38:   DRILLING FLUID VISCOSITY
 DFPH.                  9:   DRILLING FLUID PH
 DFL .                 38:   DRILLING FLUID LOSS
 MSS .            MUD PIT:   MUD SAMPLE SOURCE
 RMS .OHMM            .24:   RESISTIVITY MUD SAMPLE
 MST .F                48:   MUD SAMPLE TEMPERATURE
 RMF .OHMM             .2:   RESISTIVITY MUD FILTRATE SAMPLE
 MFST.F                62:   MUD FILTRATE SAMPLE TEMPERATURE
 RMC .OHMM             .3:   RESISTIVITY MUD CAKE
 MCST.F                62:   MUD CAKE SAMPLE TEMPERATURE
 MFSS.               MEAS:   MUD FILTRATE SAMPLE SOURCE
 MCSS.               MEAS:   MUD CAKE SAMPLE SOURCE
 TCS .HRS               3:   TIME CURCULATED STOPPED
 LUN .               2958:   LOGGING UNIT NUMBER
 LUL .               CASP:   LOGGING UNIT LOCATION
 ENGI.             MILLER:   RECORDING ENGINEER
 WITN.              AMEND:   WITNESSED BY
 CLNT.            A2DTECH:   CLIENT CODE
 ORIG.       2", 5" PRINT:   ORIGIN OF DATA
 UWI .       490251071600:   UNIQUE WELL ID
 DICO. A2D Technologies, Inc.:   DIGITIZING COMPANY
~OTHER INFORMATION
~A   DEPT      SPR         SN        ILD        GRD         CALD       RHOB      CORR        DPHI 
# ...
  245.5000   -28.3368     7.2688     8.7047   100.8717     8.3269     2.4797     0.0030     0.1215
  246.0000   -28.7099     7.2804     8.6921   100.9907     8.3380     2.4765     0.0030     0.1238
  246.5000   -29.0201     7.2921     8.6796   100.8748     8.3488     2.4734     0.0030     0.1257
  247.0000   -29.1490     7.3039     8.6670   100.7561     8.3497     2.4703     0.0030     0.1267
  247.5000   -29.2784     7.3219     8.6545   100.6342     8.3258     2.4672     0.0030     0.1292
  248.0000   -29.4078     7.2698     8.6430   100.5095     8.3022     2.4641     0.0030     0.1317
  248.5000   -29.5373     7.1664     8.4290   100.2890     8.2782     2.4610     0.0084     0.1329
  249.0000   -29.6669     7.0632     8.2362   100.6823     8.2863     2.4619     0.0192     0.1314
  249.5000   -29.7964     6.9915     8.0478   101.0725     8.2972     2.4635     0.0288     0.1266
  250.0000   -29.9260     7.0156     7.9497   101.4609     8.3079     2.4741     0.0289     0.1218
  250.5000   -30.0558     7.0342     7.9392   101.2991     8.3187     2.4859     0.0279     0.1170
  251.0000   -30.1846     7.0528     7.9292   100.5944     8.3291     2.4979     0.0222     0.1121
  251.5000   -30.3150     7.0715     7.9191   100.2827     8.3323     2.4987     0.0135     0.1101
  252.0000   -30.2297     7.0903     7.9089   101.8288     8.3170     2.4912     0.0024     0.1153
  252.5000   -29.9398     7.1091     7.8990   103.0684     8.3020     2.4808    -0.0020     0.1220
  253.0000   -29.6490     7.1241     7.8886   102.2562     8.2872     2.4702    -0.0003     0.1265
  253.5000   -29.3568     7.1312     7.8838   100.7623     8.2780     2.4712     0.0014     0.1256
  254.0000   -29.0539     7.1385     8.1134    99.3662     8.2824     2.4732     0.0031     0.1245
  254.5000   -29.0163     7.1456     8.2925    99.1382     8.2866     2.4751     0.0082     0.1237
  255.0000   -29.2817     7.1529     8.4089    99.4816     8.2907     2.4769     0.0139     0.1228
  255.5000   -29.5477     7.1601     8.4068   101.4097     8.2951     2.4789     0.0192     0.1219
  256.0000   -29.7863     7.1673     8.4074   103.5084     8.2718     2.4811     0.0198     0.1209
  256.5000   -28.7250     7.1745     8.4072   104.7054     8.2270     2.4853     0.0206     0.1157
  257.0000   -26.8017     7.1817     8.4072   105.2239     8.1974     2.4940     0.0199     0.1098
  257.5000   -26.9643     7.1890     8.4072   104.5283     8.1997     2.5018     0.0170     0.1064
  258.0000   -27.0804     7.1962     8.4072   103.2667     8.2015     2.5017     0.0115     0.1054
  258.5000   -27.1992     7.2035     8.4072   102.4364     8.2033     2.4990     0.0057     0.1083
  259.0000   -27.5618     7.2108     8.4072   102.5489     8.2051     2.4964     0.0037     0.1112
  259.5000   -27.9818     7.2180     8.4072   103.2815     8.2070     2.4938     0.0050     0.1126
  260.0000   -28.7921     7.2253     8.4072   105.6617     8.2088     2.4916     0.0064     0.1117
  260.5000   -29.6467     7.2326     8.4072   107.3989     8.2106     2.4965     0.0077     0.1086
  261.0000   -30.4040     7.2400     8.4072   107.7821     8.2124     2.5019     0.0092     0.1053
  261.5000   -30.4237     7.2477     8.4072   108.1877     8.2142     2.5073     0.0106     0.1020
  262.0000   -30.4578     7.2538     8.4072   108.4707     8.2160     2.5126     0.0147     0.0987
  262.5000   -30.4947     7.1797     8.4072   106.7481     8.2148     2.5179     0.0183     0.0953
  263.0000   -30.5321     7.1084     8.4072   104.6320     8.2011     2.5213     0.0132     0.0934
  263.5000   -30.5732     7.0563     8.4072   104.0942     8.1878     2.5203     0.0082     0.0973
  264.0000   -30.4268     7.0684     8.4072   104.2294     8.1808     2.5104     0.0032     0.1043
  264.5000   -30.2280     7.0781     8.4072   104.3626     8.2014     2.4998     0.0032     0.1107
  265.0000   -30.0276     7.0878     8.4073   104.3503     8.2175     2.4892     0.0035     0.1139
  265.5000   -29.8224     7.0974     8.4074   103.5938     8.2172     2.4846     0.0037     0.1171
  266.0000   -29.7809     7.1071     8.4064   102.0443     8.2171     2.4849     0.0039     0.1175
  266.5000   -29.7806     7.1168     8.3907   100.8503     8.2171     2.4869     0.0042     0.1157
  267.0000   -29.7790     7.1265     8.3753   100.9829     8.2171     2.4877     0.0044     0.1156
  267.5000   -29.9828     7.1363     8.3601   101.0915     8.2171     2.4819     0.0047     0.1173
  268.0000   -30.3342     7.1460     8.3449   101.1993     8.2171     2.4762     0.0048     0.1227
  268.5000   -30.6857     7.1557     8.3298   101.2539     8.2171     2.4741     0.0093     0.1231
  269.0000   -30.9915     7.1656     8.3146   101.0207     8.2176     2.4838     0.0148     0.1204
  269.5000   -31.0329     7.1753     8.2995    99.9159     8.1898     2.4936     0.0130     0.1108
  270.0000   -31.0789     7.1876     8.2844    98.8435     8.1489     2.4955     0.0095     0.1046
  270.5000   -31.1239     7.1193     8.2693    98.2637     8.1081     2.4955     0.0007     0.1120
  271.0000   -31.1888     7.0282     8.2536    98.4332     8.0859     2.4955    -0.0009     0.1116
  271.5000   -31.7502     6.9382     8.1947    99.9023     8.1263     2.4955    -0.0007     0.1113
  272.0000   -32.3386     6.8638     8.1334   102.5323     8.1653     2.4955    -0.0005     0.1110
  272.5000   -32.9309     6.8638     8.0724   102.7589     8.1810     2.4985    -0.0004     0.1096
  273.0000   -33.1636     6.8638     8.0119   100.7297     8.1868     2.5089    -0.0002     0.1023
  273.5000   -33.1677     6.8638     7.9519    96.6565     8.1924     2.5195     0.0000     0.0949
  274.0000   -33.1677     6.8639     7.8923    95.3207     8.1980     2.5227     0.0002     0.0934
  274.5000   -33.1673     6.8637     7.8332    95.7410     8.2037     2.5109     0.0003     0.1029
  275.0000   -33.1673     6.8643     7.6386    96.4349     8.2093     2.4965     0.0005     0.1107
  275.5000   -33.1673     6.7878     7.3604    99.1399     8.2150     2.4821     0.0007     0.1186
  276.0000   -33.1673     6.7252     6.9915   102.7613     8.2206     2.4703     0.0008     0.1265
  276.5000   -33.1673     6.6766     7.0026   103.8188     8.2263     2.4719     0.0010     0.1261
  277.0000   -33.1673     6.6766     7.0207   103.7518     8.2319     2.4791     0.0005     0.1207
  277.5000   -33.1673     6.6766     7.0388   103.6510     8.2376     2.4863     0.0000     0.1163
  278.0000   -33.1673     6.6766     7.0570   104.2500     8.2432     2.4876    -0.0004     0.1146
  278.5000   -33.1673     6.6766     7.0751   104.6770     8.2489     2.4876    -0.0009     0.1147
  279.0000   -33.1673     6.6766     7.0933   104.7685     8.2545     2.4876    -0.0014     0.1148
  279.5000   -33.1674     6.6766     7.1112   104.8371     8.2601     2.4875    -0.0019     0.1149
  280.0000   -33.1671     6.6766     7.1541   104.7871     8.2658     2.4859    -0.0023     0.1169
  280.5000   -33.1828     6.6766     7.2256   104.7386     8.2714     2.4818    -0.0028     0.1188
  281.0000   -33.2072     6.6766     7.2977   104.6891     8.2771     2.4777    -0.0022     0.1207
  281.5000   -33.2319     6.6766     7.3706   104.6252     8.2827     2.4745    -0.0008     0.1226
  282.0000   -33.2565     6.6766     7.4442   105.5857     8.2884     2.4747     0.0005     0.1233
  282.5000   -33.2812     6.6766     7.5267   106.6707     8.2940     2.4788     0.0008     0.1214
  283.0000   -33.3058     6.6769     7.4835   106.7203     8.2997     2.4831     0.0004     0.1196
  283.5000   -33.3305     6.6766     7.4352   106.7837     8.3053     2.4862     0.0001     0.1178
  284.0000   -33.3551     6.6587     7.3872   106.6227     8.3110     2.4875    -0.0003     0.1159
  284.5000   -33.3798     6.4945     7.3396   106.0557     8.3164     2.4876    -0.0007     0.1145
  285.0000   -33.4044     6.3343     7.2923   106.0324     8.3111     2.4876    -0.0010     0.1148
  285.5000   -33.4291     6.2593     7.2452   106.0367     8.3053     2.4872    -0.0014     0.1164
