~VERSION INFORMATION
 VERS.                2.0:   CWLS LOG ASCII STANDARD - VERSION 2.0
 WRAP.                 NO:   ONE LINE PER DEPTH STEP
~WELL INFORMATION
#MNEM.UNIT      DATA TYPE    INFORMATION
#----------   ------------   ------------------------------
 STRT.F           30.0000:   START DEPTH
 STOP.F          509.0000:   STOP DEPTH
 STEP.F            0.5000:   STEP LENGTH
 NULL.          -999.2500:   NO VALUE
 COMP. FENIX & SCISSON INC:   COMPANY
 WELL.   NPR 3 #45 SX 3-3:   WELL
 FLD .             TEAPOT:   FIELD
 LOC .       S3 T38N R78W:   LOCATION
 CNTY.            NATRONA:   COUNTY
 STAT.            WYOMING:   STATE
 CTRY. UNITED STATES OF AMERICA:   COUNTRY
 SRVC.            Unknown:   SERVICE COMPANY
 DATE.        05-OCT-1978:   LOGDATE
 API .       490251071700:   API NUMBER
~CURVE INFORMATION
#MNEM.UNIT       API CODE    CURVE DESCRIPTION
#----------   ------------   ------------------------------
 DEPT.F                  :   
 SPR .MV     05 010 01 00:   SPONTANEOUS POTENTIAL FROM RES.
 SN  .OHMM   05 040 16 00:   SHORT NORMAL 16"
 ILD .OHMM   05 120 46 00:   INDUCTION LOG DEEP
 GRD .GAPI   45 310 01 00:   GAMMA RAY FROM DENSITY LOG
 CALD.IN     45 280 60 00:   CALIPER
 RHOB.G/C3   45 350 01 00:   BULK DENSITY
 DPHI.DEC    45 890 12 00:   DENSITY POROSITY SANDSTONE
 CORR.G/C3   45 356 01 00:   DENSITY CORRECTION
~PARAMETER INFORMATION
#MNEM.UNIT          VALUE    DESCRIPTION
#----------   ------------   ------------------------------
 PD  .                 GL:   PERMANENT DATUM
 EPD .F              5188:   ELEVATION PERMANENT DATUM
 LMF .                 KB:   LOG MEASURED FROM
 DAPD.F                 4:   FEET ABOVE PERMANENT DATUM
 DMF .                 KB:   DRILLING MEASURED FROM
 EKB .F              5192:   KELLING BUSHING
 EGL .F              5188:   GROUND LEVEL
 DATE.            10-5-78:   RUN DATE
 RUN .                  1:   RUN NUMBER
 DD  .F               510:   DEPTH DRILLER
 DL  .F               509:   DEPTH LOGGER
 BLI .F               503:   BOTTOM LOG INTERVAL
 TLI .F                48:   TOP LOG INTERVAL
 CS  .IN            8.625:   CASING SIZE
 CBL .F                46:   CASING BOTTOM LOGGER
 BS  .IN            7.875:   BIT SIZE
 BSD .F               510:   BIT SIZE AT DEPTH
 DFT .                KCL:   DRILLING FLUID TYPE
 DFD .                8.7:   DRILLING FLUID DENSITY
 DFV .                 37:   DRILLING FLUID VISCOSITY
 DFPH.                  9:   DRILLING FLUID PH
 DFL .               10.4:   DRILLING FLUID LOSS
 MSS .            MUD PIT:   MUD SAMPLE SOURCE
 RMS .OHMM            .28:   RESISTIVITY MUD SAMPLE
 MST .F                58:   MUD SAMPLE TEMPERATURE
 RMF .OHMM            .32:   RESISTIVITY MUD FILTRATE SAMPLE
 MFST.F                54:   MUD FILTRATE SAMPLE TEMPERATURE
 RMC .OHMM            .24:   RESISTIVITY MUD CAKE
 MCST.F                56:   MUD CAKE SAMPLE TEMPERATURE
 MFSS.               MEAS:   MUD FILTRATE SAMPLE SOURCE
 MCSS.               MEAS:   MUD CAKE SAMPLE SOURCE
 BHT .F                64:   BOTTOM HOLE TEMPERATURE
 TCS .HRS               2:   TIME CURCULATED STOPPED
 MRT .F                64:   MAXIMUM RECORDED TEMPERATURE
 LUN .               2958:   LOGGING UNIT NUMBER
 LUL .               CASP:   LOGGING UNIT LOCATION
 ENGI.             MILLER:   RECORDING ENGINEER
 WITN.           DINSMORE:   WITNESSED BY
 CLNT.            A2DTECH:   CLIENT CODE
 ORIG.       2", 5" PRINT:   ORIGIN OF DATA
 UWI .       490251071700:   UNIQUE WELL ID
 DICO. A2D Technologies, Inc.:   DIGITIZING COMPANY
~OTHER INFORMATION
~A   DEPT      SPR         SN        ILD         GRD      CALD       RHOB       DPHI       CORR   
# ...
  192.0000   -14.2221     8.6342     8.4043   101.8528     7.5312     2.4737     0.1247     0.0032
  192.5000   -14.1990     8.6972     8.4360   101.8526     7.5231     2.4787     0.1219     0.0048
  193.0000   -14.1760     8.7607     8.4679   101.8519     7.5151     2.4836     0.1197     0.0064
  193.5000   -14.1530     8.8252     8.4999   101.8452     7.5071     2.4871     0.1185     0.0079
  194.0000   -14.1299     8.8662     8.5461   102.0544     7.4991     2.4851     0.1199     0.0097
  194.5000   -14.1069     8.8045     8.5156   102.3746     7.4910     2.4788     0.1253     0.0117
  195.0000   -14.0839     8.7591     8.4615   103.1628     7.4832     2.4653     0.1314     0.0214
  195.5000   -14.0609     8.7139     8.4078   103.9485     7.4613     2.4560     0.1374     0.0341
  196.0000   -14.0378     8.6690     8.3544   104.6831     7.4323     2.4536     0.1416     0.0898
  196.5000   -14.0143     8.6243     8.3013   104.8428     7.4030     2.4852     0.1250     0.1294
  197.0000   -13.9884     8.5799     8.2486   105.0213     7.3737     2.5199     0.1073     0.1323
  197.5000   -14.0979     8.5356     8.1962   105.2009     7.3444     2.5515     0.0896     0.1106
  198.0000   -14.2285     8.4916     8.1441   105.3813     7.3395     2.5515     0.0856     0.0675
  198.5000   -14.3597     8.4479     8.0924   105.5591     7.3376     2.5273     0.0968     0.0149
  199.0000   -14.4905     8.4043     8.0410   106.0417     7.3356     2.5092     0.1110     0.0002
  199.5000   -14.6213     8.3610     7.9900   106.7256     7.3335     2.4919     0.1200    -0.0011
  200.0000   -14.7521     8.3179     7.9392   107.2862     7.3315     2.4824     0.1256    -0.0015
  200.5000   -14.8827     8.2751     7.8888   107.6307     7.3295     2.4761     0.1265    -0.0020
  201.0000   -15.0132     8.2325     7.8387   105.5246     7.3274     2.4768     0.1256    -0.0025
  201.5000   -15.1424     8.1899     7.7671   101.7894     7.3254     2.4785     0.1248    -0.0030
  202.0000   -15.4825     8.1031     7.5582    99.5938     7.3235     2.4818     0.1217    -0.0036
  202.5000   -15.8926     7.9336     7.3549    99.4754     7.3208     2.4848     0.1207    -0.0041
  203.0000   -16.3038     7.7678     7.1570    99.5472     7.3543     2.4794     0.1224    -0.0045
  203.5000   -16.7120     7.6058     6.9645    99.6513     7.4012     2.4739     0.1253    -0.0047
  204.0000   -16.9939     7.4451     6.7772    99.7525     7.4406     2.4685     0.1312    -0.0056
  204.5000   -17.0603     7.1347     6.5819    99.8532     7.4356     2.4632     0.1336    -0.0064
  205.0000   -17.1301     6.8359     6.3745    99.9538     7.4316     2.4573     0.1362    -0.0073
  205.5000   -17.1992     6.5495     6.1687   100.0546     7.4277     2.4492     0.1388    -0.0081
  206.0000   -17.2683     6.2752     5.8574   100.1562     7.4237     2.4386     0.1503    -0.0089
  206.5000   -17.3388     6.0266     5.4415   100.2547     7.4166     2.4136     0.1620    -0.0098
  207.0000   -17.3339     5.5633     4.9916   100.2215     7.3921     2.3829     0.1729    -0.0101
  207.5000   -17.2946     5.1572     4.4208   100.1810     7.3678     2.3521     0.1924    -0.0071
  208.0000   -17.2544     4.7808     3.9165   100.1423     7.3440     2.3214     0.2147    -0.0042
  208.5000   -17.2143     4.4318     3.4629   100.1122     7.3248     2.2906     0.2370    -0.0016
  209.0000   -17.1756     4.1083     3.2311   100.0565     7.3069     2.2598     0.2590     0.0005
  209.5000   -17.0078     3.9883     3.0706    98.8427     7.2889     2.2280     0.2787     0.0045
  210.0000   -16.7938     3.9486     2.9618    95.0945     7.2710     2.2216     0.2802     0.0108
  210.5000   -16.5687     4.0331     2.9389    91.7300     7.2593     2.2562     0.2563     0.0146
  211.0000   -16.1473     4.1246     2.9154    90.4814     7.2558     2.3028     0.2308     0.0167
  211.5000   -15.7053     4.3028     3.0297    90.5527     7.2523     2.3497     0.2047     0.0174
  212.0000   -15.2626     4.4908     3.2862    91.8707     7.2487     2.3873     0.1787     0.0140
  212.5000   -14.8187     4.9232     3.6724    96.2350     7.2451     2.4139     0.1665     0.0065
  213.0000   -14.3964     5.3972     4.1039    99.8923     7.2409     2.4406     0.1539    -0.0009
  213.5000   -14.3822     5.4825     4.5742   102.2775     7.2641     2.4644     0.1406    -0.0028
  214.0000   -14.3844     6.0226     4.8927   103.1905     7.2918     2.4661     0.1322    -0.0032
  214.5000   -14.3849     6.6308     5.2242   105.2772     7.3196     2.4609     0.1354    -0.0036
  215.0000   -14.3849     6.9870     5.5809   107.7591     7.3209     2.4574     0.1375    -0.0041
  215.5000   -14.3849     7.1377     5.9081   108.4242     7.3208     2.4603     0.1361    -0.0047
  216.0000   -14.3850     7.1751     6.1384   108.5670     7.3207     2.4660     0.1316     0.0021
  216.5000   -14.3848     7.2136     6.1132   108.4353     7.3207     2.4808     0.1243     0.0057
  217.0000   -14.3737     7.2522     6.0939   108.3016     7.3207     2.4924     0.1147     0.0063
  217.5000   -14.3346     7.3098     6.0743   108.1672     7.3207     2.4907     0.1145     0.0067
  218.0000   -14.2960     7.2603     6.0551   108.0333     7.3207     2.4843     0.1189     0.0073
  218.5000   -14.2577     7.1671     6.0354   107.9066     7.3207     2.4745     0.1262     0.0127
  219.0000   -14.2189     7.0751     5.9018   108.1870     7.3206     2.4583     0.1346     0.0240
  219.5000   -14.1511     6.9814     5.6793   108.9880     7.3208     2.4368     0.1506     0.0390
  220.0000   -13.9283     6.6141     5.4659   111.2561     7.3425     2.4152     0.1666     0.0618
  220.5000   -13.7744     6.2523     5.2959   114.0800     7.3666     2.3944     0.1741     0.0828
  221.0000   -13.7401     6.2654     5.2800   116.4600     7.3907     2.4134     0.1655     0.0936
  221.5000   -13.7040     6.2787     5.2642   117.3713     7.4149     2.4365     0.1507     0.0829
  222.0000   -13.6682     6.2920     5.2484   116.6119     7.4390     2.4546     0.1395     0.0671
  222.5000   -13.6324     6.3053     5.2327   112.6101     7.4603     2.4590     0.1367     0.0555
  223.0000   -13.5965     6.4184     5.2170   110.7672     7.4556     2.4687     0.1331     0.0476
  223.5000   -13.5607     6.5903     5.2024   109.9983     7.4513     2.4795     0.1254     0.0441
  224.0000   -13.5248     6.7667     5.4148   110.0318     7.4471     2.4889     0.1180     0.0406
  224.5000   -13.4892     6.9480     5.6226   110.7091     7.4429     2.4880     0.1172     0.0398
  225.0000   -13.4539     7.1340     5.8383   112.2647     7.4388     2.4864     0.1219     0.0402
  225.5000   -13.4157     7.3251     6.0823   113.8623     7.4346     2.4889     0.1200     0.0407
  226.0000   -13.2223     7.5212     6.4548   114.0824     7.4304     2.4940     0.1175     0.0411
  226.5000   -12.6689     7.7226     6.9148   113.0944     7.4262     2.5033     0.1109     0.0395
  227.0000   -12.1893     7.9402     7.1163   111.5350     7.4220     2.5110     0.1042     0.0345
  227.5000   -12.2005     7.9331     7.3297   111.0222     7.4178     2.5056     0.1072     0.0242
  228.0000   -12.2023     7.9236     7.5161   111.0127     7.4137     2.4989     0.1127     0.0132
  228.5000   -12.2024     7.9142     7.5157   111.0150     7.4095     2.4941     0.1145     0.0059
  229.0000   -12.2024     7.9048     7.5144   111.0156     7.4053     2.4957     0.1125     0.0076
  229.5000   -12.2024     7.8953     7.5146   111.0125     7.4010     2.4971     0.1117     0.0093
  230.0000   -12.2024     7.8860     7.5148   111.1380     7.4020     2.4935     0.1157     0.0054
  230.5000   -12.2024     7.8770     7.4266   111.2856     7.4040     2.4823     0.1210     0.0002
  231.0000   -12.2024     7.8676     7.3555   111.4333     7.4060     2.4710     0.1282    -0.0005
  231.5000   -12.2024     7.7494     7.2851   111.5515     7.4080     2.4595     0.1392     0.0003
  232.0000   -12.2024     7.6120     7.2153   111.6753     7.4100     2.4574     0.1391     0.0078
