~VERSION INFORMATION
 VERS.                2.0:   CWLS LOG ASCII STANDARD - VERSION 2.0
 WRAP.                 NO:   ONE LINE PER DEPTH STEP
~WELL INFORMATION
#MNEM.UNIT      DATA TYPE    INFORMATION
#----------   ------------   ------------------------------
 STRT.F           31.0000:   START DEPTH
 STOP.F          600.0000:   STOP DEPTH
 STEP.F            0.5000:   STEP LENGTH
 NULL.          -999.2500:   NO VALUE
 COMP. FENIX & SCISSON INC:   COMPANY
 WELL.      NPR 3 #84 S-3:   WELL
 FLD .             TEAPOT:   FIELD
 LOC .       S3 T38N R78W:   LOCATION
 CNTY.            NATRONA:   COUNTY
 STAT.            WYOMING:   STATE
 CTRY. UNITED STATES OF AMERICA:   COUNTRY
 SRVC.              Welex:   SERVICE COMPANY
 DATE.        29-MAR-1977:   LOGDATE
 API .       490251032000:   API NUMBER
~CURVE INFORMATION
#MNEM.UNIT       API CODE    CURVE DESCRIPTION
#----------   ------------   ------------------------------
 DEPT.F                  :   
 CALD.IN     45 280 60 00:   CALIPER FROM DENSITY LOG
 GRD .GAPI   45 310 01 00:   GAMMA RAY FROM DENSITY LOG
 CORR.G/C3   45 356 01 00:   DENSITY CORRECTION
 DPHI.DEC    45 890 12 00:   DENSITY POROSITY SANDSTONE
 RHOB.G/C3   45 350 01 00:   BULK DENSITY
 SPR .MV     07 010 01 00:   SPONTANEOUS POTENTIAL
 ILD .OHMM   07 120 46 00:   INDUCTION LOG DEEP
 ILM .OHMM   07 120 44 00:   INDUCTION LOG MEDIUM
 SGRD.OHMM   07 221 05 00:   SHALLOW SHORT GUARD RESISTIVITY
~PARAMETER INFORMATION
#MNEM.UNIT          VALUE    DESCRIPTION
#----------   ------------   ------------------------------
 PD  .                 GL:   PERMANENT DATUM
 EPD .F              5146:   ELEVATION PERMANENT DATUM
 LMF .                 GL:   LOG MEASURED FROM
 DMF .                 GL:   DRILLING MEASURED FROM
 EGL .F              5146:   GROUND LEVEL
 DATE.        29-MAR-1977:   RUN DATE
 RUN .                  1:   RUN NUMBER
 DD  .F               610:   DEPTH DRILLER
 DL  .F               602:   DEPTH LOGGER
 BLI .F               600:   BOTTOM LOG INTERVAL
 TLI .F                30:   TOP LOG INTERVAL
 CS  .IN            8.625:   CASING SIZE
 BSD .F               610:   BIT SIZE AT DEPTH
 DFT .                KCL:   DRILLING FLUID TYPE
 DFD .                8.8:   DRILLING FLUID DENSITY
 BHT .F                63:   BOTTOM HOLE TEMPERATURE
 TCS .HRS            0500:   TIME CURCULATED STOPPED
 MRT .F                63:   MAXIMUM RECORDED TEMPERATURE
 ENGI.            C. DOAK:   RECORDING ENGINEER
 WITN.            R. LYON:   WITNESSED BY
 CLNT.            A2DTECH:   CLIENT CODE
 ORIG.           5" PRINT:   ORIGIN OF DATA
 UWI .       490251032000:   UNIQUE WELL ID
 DICO. A2D Technologies, Inc.:   DIGITIZING COMPANY
~OTHER INFORMATION
~A   DEPT     CALD        GRD       CORR       DPHI       RHOB        SPR        ILD        ILM       SGRD   
# ...
   67.5000     7.9645   104.1732     0.0332     0.1000     2.4800    -7.1078     7.2081     8.2662    10.2626
   68.0000     7.9504   104.7841     0.0334     0.0996     2.4785    -6.3516     7.2121     8.6812    10.5599
   68.5000     7.9367   105.6932     0.0335     0.1005     2.4748    -6.4902     7.1663     8.2182    10.8524
   69.0000     7.9084   106.6022     0.0337     0.1026     2.4659    -6.9193     7.1209     8.0527    11.0113
   69.5000     7.8944   105.7229     0.0308     0.1106     2.4554    -7.5004     7.0758     7.8927    11.2502
   70.0000     7.8807   105.2906     0.0294     0.1199     2.4495    -7.7876     7.0309     7.6804    13.2018
   70.5000     7.8670   106.6592     0.0265     0.1205     2.4488    -7.3252     7.0348     7.8469     9.4078
   71.0000     7.8684   112.2305     0.0222     0.1168     2.4518    -7.0147     6.9421     8.0148    10.0911
   71.5000     7.8696   118.9195     0.0178     0.1132     2.4601    -6.8528     6.8506     7.8003     9.8904
   72.0000     7.8708   119.8063     0.0119     0.1099     2.4639    -6.6909     6.7554     7.6453     9.4289
   72.5000     7.8869   119.4983     0.0060     0.1078     2.4669    -6.3804     6.5745     7.8642     9.0514
   73.0000     7.9030   117.8391     0.0002     0.1077     2.4670    -6.0699     6.4482     7.9771     8.8699
   73.5000     7.9042   116.2394    -0.0057     0.1086     2.4662    -6.0566     6.4073     7.6580     8.8147
   74.0000     7.9203   115.6731    -0.0086     0.1101     2.4648    -6.0433     6.3667     7.6083     8.8223
   74.5000     7.9215   115.5365    -0.0115     0.1122     2.4603    -6.4758     6.4146     7.6654     8.8897
   75.0000     7.9374   115.4241    -0.0098     0.1148     2.4537    -6.6144     6.4626     7.5652     8.9577
   75.5000     7.9387   115.5887    -0.0066     0.1181     2.4515    -6.8983     6.5110     7.6219     9.1520
   76.0000     7.9399   115.7556    -0.0003     0.1168     2.4568    -7.0336     6.5598     7.8946     9.4156
   76.5000     7.9411   115.9194     0.0060     0.1089     2.4622    -7.1688     6.6089     8.1196     9.8218
   77.0000     7.9274   116.3814     0.0089     0.1054     2.4673    -7.1522     6.7053     7.9022    10.1748
   77.5000     7.9286   117.1414     0.0091     0.1055     2.4673    -7.4394     6.8024     8.1296    10.2526
   78.0000     7.9298   117.9014     0.0092     0.1111     2.4592    -7.7233     6.9008     8.8372     9.7050
   78.5000     7.9310   116.8730     0.0078     0.1134     2.4615    -8.0332     7.0007     8.3670    10.3380
   79.0000     7.9172   114.0563     0.0065     0.1080     2.4660    -6.2074     7.1020     8.1420    10.0625
   79.5000     7.9184   112.2827     0.0051     0.1065     2.4675    -2.9252     7.1059     8.1695     9.6580
   80.0000     7.9196   111.4034     0.0023     0.1071     2.4653    -0.2578     7.1592     8.3231     9.9378
   80.5000     7.9056   110.9674     0.0009     0.1082     2.4616    -0.2972     7.2128     8.2132    10.2950
   81.0000     7.9070   110.8332    -0.0019     0.1106     2.4587    -0.3365     7.2668     8.1037    10.3737
   81.5000     7.9084   111.2989    -0.0049     0.1151     2.4557    -1.9782     7.2701     8.1093    10.2363
   82.0000     7.9095   111.9098    -0.0077     0.1177     2.4528    -4.7881     7.2741     8.4577    10.8287
   82.5000     7.9107   112.0700    -0.0106     0.1198     2.4476    -9.0839     7.2781     8.4040    10.9873
   83.0000     7.8966   110.5982    -0.0119     0.1216     2.4454   -11.2994     7.2822     8.3495    10.5474
   83.5000     7.8981   109.8679    -0.0148     0.1227     2.4432   -13.2177     7.3367     8.5898    10.4093
   84.0000     7.8993   109.7300    -0.0146     0.1233     2.4425   -14.8389     7.2902     8.7748    10.7836
   84.5000     7.9005   109.8976    -0.0145     0.1227     2.4448   -16.0143     7.2440     8.5399    10.6426
   85.0000     7.9017   110.2105    -0.0112     0.1203     2.4508   -16.4501     7.1965     8.3691    10.2875
   85.5000     7.9178   109.7782    -0.0081     0.1172     2.4583   -15.8391     7.1032     8.2017     9.9443
   86.0000     7.9190   109.7931    -0.0050     0.1130     2.4599   -15.2314     7.0096     8.2062     9.9511
   86.5000     7.9202   110.2550    -0.0063     0.1106     2.4621   -14.6271     6.9652     8.2172     9.8186
   87.0000     7.9213   111.3131    -0.0107     0.1115     2.4592   -14.2943     6.9176     7.9910     9.5554
   87.5000     7.9225   112.6692    -0.0151     0.1171     2.4510   -13.8472     6.8260     8.0509     9.3045
   88.0000     7.9237   114.3234    -0.0194     0.1210     2.4473   -13.3385     6.7398     8.2243     9.6535
   88.5000     7.9249   115.5305    -0.0193     0.1192     2.4481   -12.8756     6.6971     8.2345    10.0641
   89.0000     7.9261   116.4395    -0.0161     0.1147     2.4571   -12.2639     6.7009     7.7900    10.3446
   89.5000     7.9273   116.9014    -0.0145     0.1084     2.4699   -11.8011     6.7103     7.8484    10.1969
   90.0000     7.9136   116.1711    -0.0038     0.1014     2.4782   -11.6358     6.8016     8.1856     9.8701
   90.5000     7.9148   114.9937     0.0100     0.0948     2.4835   -11.6194     6.8054     8.1901     9.8769
   91.0000     7.9010   114.4087     0.0222     0.0958     2.4827   -11.6029     6.8564     7.9672     9.9524
   91.5000     7.8873   115.4705     0.0299     0.0946     2.4875   -12.3305     6.8602     7.7576     9.9593
   92.0000     7.8885   117.1247     0.0315     0.0882     2.4957   -13.5045     6.9115     7.9909     9.9661
   92.5000     7.8748   118.7789     0.0332     0.0897     2.4978   -14.5297     6.9154     8.4972     9.9730
   93.0000     7.8611   119.2371     0.0318     0.0908     2.4964   -15.1085     6.9192     8.1506     9.9799
   93.5000     7.8623   118.2087     0.0275     0.0905     2.4957   -15.3938     6.9238     8.3387     9.9867
   94.0000     7.8784   122.4001     0.0231     0.0892     2.4927   -14.3316     6.9756     8.4605    11.0875
   94.5000     7.8796   123.0111     0.0202     0.0910     2.4876   -12.9758     7.0279     8.8437    10.9426
   95.0000     7.8957   122.5789     0.0171     0.0949     2.4838   -13.2570     7.0317     9.0056    10.1469
   95.5000     7.9118   120.9544     0.0145     0.0996     2.4809   -13.6911     7.0356     8.3978    10.0126
   96.0000     7.9132   120.2235     0.0131     0.0990     2.4809   -12.3312     7.0883     8.1842    11.1181
   96.5000     7.8992   120.3879     0.0118     0.0963     2.4817   -12.6124     7.0922     8.2456    10.9727
   97.0000     7.9007   120.4028     0.0134     0.0984     2.4833   -12.8977     7.0961     8.5406    10.3168
   97.5000     7.9168   120.4176     0.0151     0.0992     2.4848   -13.1789     7.1493     8.8462     9.7659
   98.0000     7.9180   120.5815     0.0183     0.0938     2.4871   -12.5631     7.2028     8.7294    10.5479
   98.5000     7.9191   121.1924     0.0229     0.0920     2.4871   -12.6954     7.2567     8.5548    10.8517
   99.0000     7.9051   122.1015     0.0246     0.0932     2.4842   -12.9807     7.2607     8.4993    11.0106
   99.5000     7.9066   123.1595     0.0263     0.1015     2.4783   -12.8113     7.3658     8.7438    10.8666
  100.0000     7.8957   124.2176     0.0249     0.1107     2.4687   -12.6502     7.3619     8.8094    10.5770
  100.5000     7.8492   125.1736     0.0296     0.1191     2.4514   -13.0802     7.2713     8.6309    10.4356
  101.0000     7.7610   126.1924     0.0433     0.1173     2.4597   -13.3613     7.4782     8.7557    10.9606
  101.5000     7.6727   124.7200     0.0570     0.1101     2.4732   -13.1920     7.6380     9.1307    11.3522
  102.0000     7.5845   123.5412     0.0587     0.1131     2.4687   -13.3243     7.7475     9.4561    11.7579
  102.5000     7.5261   125.9481     0.0528     0.1197     2.4463   -13.9031     7.8044     9.5918    12.1781
  103.0000     7.4677   123.8796     0.0484     0.1271     2.4321   -14.3372     7.8617     9.5287    12.3524
  103.5000     7.4539   119.8737     0.0441     0.1232     2.4419   -14.5263     7.9195     9.2733    11.8569
