~VERSION INFORMATION
 VERS.                2.0:   CWLS LOG ASCII STANDARD - VERSION 2.0
 WRAP.                 NO:   ONE LINE PER DEPTH STEP
~WELL INFORMATION
#MNEM.UNIT      DATA TYPE    INFORMATION
#----------   ------------   ------------------------------
 STRT.F           34.0000:   START DEPTH
 STOP.F          582.0000:   STOP DEPTH
 STEP.F            0.5000:   STEP LENGTH
 NULL.          -999.2500:   NO VALUE
 COMP. FENIX & SCISSON INC:   COMPANY
 WELL. NPR 3 SX-33 #88-33:   WELL
 FLD .             TEAPOT:   FIELD
 LOC .      S33 T39N R78W:   LOCATION
 CNTY.            NATRONA:   COUNTY
 STAT.            WYOMING:   STATE
 CTRY. UNITED STATES OF AMERICA:   COUNTRY
 SRVC.           BIRDWELL:   SERVICE COMPANY
 DATE.        04-AUG-1978:   LOGDATE
 API .       490251068000:   API NUMBER
~CURVE INFORMATION
#MNEM.UNIT       API CODE    CURVE DESCRIPTION
#----------   ------------   ------------------------------
 DEPT.F                  :   
 SPR .MV     05 010 01 00:   SPONTANEOUS POTENTIAL FROM RES.
 ILD .OHMM   05 120 46 00:   INDUCTION LOG DEEP
 SN  .OHMM   05 040 16 00:   SHORT NORMAL 16"
 CALD.IN     45 280 60 00:   CALIPER
 GRD .GAPI   45 310 01 00:   GAMMA RAY FROM DENSITY LOG
 DEN .G/C3   45 350 01 00:   COMPENSATED BULK DENSTIY
 CORR.G/C3   45 356 01 00:   DENSITY CORRECTION
 DPHI.DEC    45 890 12 00:   DENSITY POROSITY SANDSTONE
~PARAMETER INFORMATION
#MNEM.UNIT          VALUE    DESCRIPTION
#----------   ------------   ------------------------------
 PD  .                 GL:   PERMANENT DATUM
 EPD .F              5146:   ELEVATION PERMANENT DATUM
 LMF .                 KB:   LOG MEASURED FROM
 DAPD.F                 4:   FEET ABOVE PERMANENT DATUM
 DMF .                 KB:   DRILLING MEASURED FROM
 EKB .F              5150:   KELLING BUSHING
 EGL .F              5146:   GROUND LEVEL
 DATE.             8-4-78:   RUN DATE
 RUN .                  1:   RUN NUMBER
 DD  .F               570:   DEPTH DRILLER
 DL  .F               588:   DEPTH LOGGER
 BLI .F               582:   BOTTOM LOG INTERVAL
 TLI .F                50:   TOP LOG INTERVAL
 CS  .IN            8.625:   CASING SIZE
 CBD .F                40:   CASING BOTTOM DRILLER
 BS  .IN            7.875:   BIT SIZE
 BSD .F               570:   BIT SIZE AT DEPTH
 DFT .                KCL:   DRILLING FLUID TYPE
 DFD .                8.7:   DRILLING FLUID DENSITY
 DFV .                 34:   DRILLING FLUID VISCOSITY
 DFPH.                  9:   DRILLING FLUID PH
 DFL .                9.6:   DRILLING FLUID LOSS
 MSS .          FLOW LINE:   MUD SAMPLE SOURCE
 RMS .OHMM            .24:   RESISTIVITY MUD SAMPLE
 MST .F                70:   MUD SAMPLE TEMPERATURE
 RMF .OHMM            .24:   RESISTIVITY MUD FILTRATE SAMPLE
 MFST.F                80:   MUD FILTRATE SAMPLE TEMPERATURE
 RMC .OHMM             .3:   RESISTIVITY MUD CAKE
 MCST.F                75:   MUD CAKE SAMPLE TEMPERATURE
 MFSS.               MEAS:   MUD FILTRATE SAMPLE SOURCE
 TCS .HRS               2:   TIME CURCULATED STOPPED
 LUN .               3006:   LOGGING UNIT NUMBER
 LUL .               CASP:   LOGGING UNIT LOCATION
 ENGI.             MILLER:   RECORDING ENGINEER
 WITN.           MCGINLEY:   WITNESSED BY
 CLNT.            A2DTECH:   CLIENT CODE
 ORIG.        2" 5" PRINT:   ORIGIN OF DATA
 UWI .       490251068000:   UNIQUE WELL ID
 DICO. A2D Technologies, Inc.:   DIGITIZING COMPANY
~OTHER INFORMATION
~A   DEPT      SPR        ILD         SN       CALD         GRD       DEN       CORR       DPHI   
# ...
  115.0000   -25.0299    10.4321     9.8463     7.5346    98.9331     2.4694     0.0664     0.1212
  115.5000   -25.1509    10.6158     9.7990     7.5711   100.1477     2.4781     0.0658     0.1152
  116.0000   -25.2717    10.8028     9.7256     7.5706    95.7225     2.4890     0.0667     0.1126
  116.5000   -25.3926    10.9099     9.6213     7.5701    99.1832     2.4883     0.0720     0.1193
  117.0000   -25.5127    10.7674     9.5182     7.5701   102.7249     2.4847     0.0772     0.1209
  117.5000   -25.5993    10.6691     9.4191     7.5720   103.1082     2.4813     0.0827     0.1177
  118.0000   -25.5977    10.5718     9.4041     7.4664   102.6503     2.4833     0.0984     0.1060
  118.5000   -25.5977    10.4754     9.3801     7.3196   102.5372     2.4991     0.1335     0.0882
  119.0000   -25.5976    10.3813     9.3563     7.1713   102.8650     2.5225     0.1679     0.0771
  119.5000   -25.5976    10.2027     9.3325     7.0244   103.1747     2.5427     0.1930     0.1140
  120.0000   -25.5976     9.9217     9.3088     7.0108   105.2648     2.4561     0.1646     0.1258
  120.5000   -25.5976     9.6478     9.2851     7.2380   102.9788     2.4676     0.0940     0.1169
  121.0000   -25.5976     9.3813     9.2615     7.2640   100.6602     2.4844     0.0964     0.1150
  121.5000   -25.5976     9.3330     9.2392     7.3446   100.2109     2.4895     0.0977     0.1244
  122.0000   -25.5976     9.3725     9.2185     7.4777    98.0919     2.4739     0.0773     0.1269
  122.5000   -25.5976     9.5604     9.1980     7.5204    96.8628     2.4835     0.0474     0.1142
  123.0000   -25.5976     9.7522     9.1774     7.5423    95.2982     2.4928     0.0480     0.1099
  123.5000   -25.5976     9.9478     9.1569     7.5616    97.0601     2.4964     0.0455     0.1104
  124.0000   -25.5976    10.1473     9.1365     7.6957   101.4844     2.4974     0.0415     0.1098
  124.5000   -25.5976    10.3508     9.1161     7.8713   100.2172     2.4989     0.0405     0.1068
  125.0000   -25.5976    10.5157     9.0957     7.8908    98.7309     2.4995     0.0436     0.1054
  125.5000   -25.5968    10.4341     9.0657     7.8897    99.0913     2.4996     0.0467     0.1078
  126.0000   -25.6414    10.3664     8.9967     7.8294   101.8531     2.4975     0.0492     0.1128
  126.5000   -25.7033    10.2984     8.9283     7.6148   104.2857     2.4907     0.0513     0.1146
  127.0000   -25.7657    10.2306     8.8604     7.4024   103.0440     2.4882     0.0533     0.1134
  127.5000   -25.8070     9.9038     8.7985     7.1918   104.5012     2.5111     0.0622     0.1033
  128.0000   -25.8273     9.6337     8.7412     7.0958   101.8045     2.5376     0.0819     0.0755
  128.5000   -25.8477     9.4041     8.6842     7.0135    99.4853     2.5557     0.1166     0.0687
  129.0000   -25.8680     9.1800     8.6275     6.9703   100.8345     2.5561     0.1351     0.0853
  129.5000   -25.8883     8.9613     8.5636     6.9741   102.7090     2.5407     0.1252     0.1018
  130.0000   -25.9086     8.7122     8.4880     6.9790   102.3670     2.5124     0.0993     0.1171
  130.5000   -25.9289     8.4604     8.4130     6.9837   101.8998     2.4841     0.0734     0.1287
  131.0000   -25.9493     8.2159     8.3387     6.9876   102.6397     2.4566     0.0582     0.1403
  131.5000   -25.9697     7.9785     8.2651     7.0433   103.4648     2.4393     0.0500     0.1478
  132.0000   -25.9913     7.7479     8.1922     7.1189   104.2837     2.4358     0.0502     0.1423
  132.5000   -25.9376     7.6962     8.1321     7.1948   104.3492     2.4446     0.0584     0.1302
  133.0000   -25.8551     7.7634     8.1918     7.2708   103.1174     2.4610     0.0668     0.1250
  133.5000   -25.7720     7.8829     8.2431     7.3469   102.7964     2.4746     0.0650     0.1239
  134.0000   -25.6889     8.0042     8.2948     7.4220   103.6698     2.4755     0.0540     0.1226
  134.5000   -25.6058     8.2506     8.3468     7.4293   102.5309     2.4812     0.0476     0.1138
  135.0000   -25.5229     8.6046     8.4064     7.4626   102.2745     2.4897     0.0467     0.1108
  135.5000   -25.4398     8.9736     8.4688     7.6376   103.7659     2.4985     0.0457     0.1074
  136.0000   -25.4813     9.3575     8.5316     7.7727   100.8196     2.5036     0.0448     0.1067
  136.5000   -25.6474     9.7679     8.5949     7.7690   100.1935     2.5035     0.0443     0.1040
  137.0000   -25.8133     9.9605     8.6586     7.7246    99.5589     2.5035     0.0522     0.1026
  137.5000   -25.9796     9.9208     8.7229     7.5753    97.6891     2.5035     0.0602     0.1071
  138.0000   -26.1480     9.8848     8.7765     7.3848    97.0984     2.5033     0.0685     0.1078
  138.5000   -26.1768     9.8498     8.8213     7.2375    97.2411     2.5137     0.0866     0.0922
  139.0000   -26.1521     9.8150     8.8357     7.2256    97.7383     2.5273     0.1046     0.0814
  139.5000   -26.1264     9.7804     8.8397     7.2192    98.7930     2.5410     0.1225     0.0734
  140.0000   -26.1007     9.5527     8.8437     7.2131   100.0625     2.5549     0.1376     0.0734
  140.5000   -26.0752     9.2653     8.8477     7.1736   101.3386     2.5551     0.1380     0.1001
  141.0000   -26.0496     9.0794     8.8518     7.1010   102.6174     2.5188     0.1092     0.1138
  141.5000   -26.0240     9.0993     8.8558     7.0486   103.7944     2.4928     0.0786     0.1130
  142.0000   -25.9987     9.1140     8.8598     7.0504   102.4331     2.4916     0.0534     0.1112
  142.5000   -26.0022     9.1291     8.8638     7.1318   100.1673     2.4933     0.0496     0.1118
  143.0000   -26.0092     9.1440     8.8678     7.2233    97.9509     2.4950     0.0492     0.1111
  143.5000   -26.0163     9.1592     8.8719     7.3149    97.8299     2.4965     0.0488     0.1096
  144.0000   -26.0232     9.1936     8.8759     7.4059    99.3514     2.4963     0.0483     0.1082
  144.5000   -26.0302     9.2359     8.8799     7.4802   100.8065     2.4923     0.0461     0.1134
  145.0000   -26.0372     9.2783     8.8840     7.5106   100.0215     2.4884     0.0402     0.1154
  145.5000   -26.0442     9.3210     8.8880     7.5421    98.9087     2.4854     0.0349     0.1175
  146.0000   -26.0511     9.3637     8.8920     7.5798    99.0927     2.4882     0.0295     0.1186
  146.5000   -26.0581     9.4184     8.8961     7.5938   100.9026     2.4921     0.0279     0.1115
  147.0000   -26.0651     9.4113     8.9001     7.5993   102.0399     2.4960     0.0317     0.1051
  147.5000   -26.0721     9.4007     8.9041     7.6046   100.7128     2.5000     0.0360     0.1026
  148.0000   -26.0791     9.3897     8.9081     7.6100   103.7953     2.5035     0.0399     0.1014
  148.5000   -26.0860     9.3790     8.9140     7.6154    98.2531     2.5034     0.0389     0.1050
  149.0000   -26.0930     9.3682     8.9026     7.6208   100.9933     2.5016     0.0374     0.1066
  149.5000   -26.1000     9.3574     8.8799     7.6262   102.9009     2.4998     0.0359     0.1064
  150.0000   -26.1070     9.3466     8.8572     7.6271   101.9018     2.4985     0.0344     0.1062
  150.5000   -26.1139     9.3359     8.8345     7.6164    99.5773     2.4985     0.0342     0.1086
  151.0000   -26.1209     9.3251     8.8119     7.6059   100.4195     2.4985     0.0347     0.1067
  151.5000   -26.1279     9.3144     8.7894     7.5953   103.2453     2.4985     0.0352     0.1074
  152.0000   -26.1349     9.3037     8.7669     7.5907   100.9202     2.4985     0.0357     0.1082
  152.5000   -26.1418     9.2930     8.7445     7.6065    99.0997     2.4985     0.0359     0.1068
  153.0000   -26.1488     9.2823     8.7221     7.6227    98.5745     2.4986     0.0365     0.1088
  153.5000   -26.1558     9.2717     8.6998     7.6677    98.4606     2.4947     0.0371     0.1148
  154.0000   -26.1628     9.2610     8.6771     7.7077    99.2152     2.4894     0.0376     0.1178
  154.5000   -26.1698     9.2503     8.6719     7.6741    99.9358     2.4857     0.0436     0.1138
  155.0000   -26.1769     9.2184     8.6720     7.4951   100.6547     2.4952     0.0517     0.1079
