~VERSION INFORMATION
 VERS.                2.0:   CWLS LOG ASCII STANDARD - VERSION 2.0
 WRAP.                 NO:   ONE LINE PER DEPTH STEP
~WELL INFORMATION
#MNEM.UNIT      DATA TYPE    INFORMATION
#----------   ------------   ------------------------------
 STRT.F            0.0000:   START DEPTH
 STOP.F          404.0000:   STOP DEPTH
 STEP.F            0.1000:   STEP LENGTH
 NULL.          -999.2500:   NO VALUE
 COMP.   FLUOR DANIEL INC:   COMPANY
 WELL.   62-1 X 10 #62-10:   WELL
 FLD .             TEAPOT:   FIELD
 LOC .      S10 T38N R78W:   LOCATION
 CNTY.            NATRONA:   COUNTY
 STAT.            WYOMING:   STATE
 CTRY. UNITED STATES OF AMERICA:   COUNTRY
 SRVC.      Western Atlas:   SERVICE COMPANY
 DATE.        29-MAR-1995:   LOGDATE
 API .       490252270300:   API NUMBER
~CURVE INFORMATION
#MNEM.UNIT       API CODE    CURVE DESCRIPTION
#----------   ------------   ------------------------------
 DEPT.F                  :   
 GRR .GAPI   07 310 01 00:   GAMMA RAY
 RILD.OHMM   07 120 46 00:   INDUCTION LOG DEEP RESISTIVITY
 RILM.OHMM   07 120 44 00:   RESITIVITY LONG MEDIUM
~PARAMETER INFORMATION
#MNEM.UNIT          VALUE    DESCRIPTION
#----------   ------------   ------------------------------
 PD  .                 GL:   PERMANENT DATUM
 EPD .F              5160:   ELEVATION PERMANENT DATUM
 LMF .                 KB:   LOG MEASURED FROM
 DAPD.F                10:   FEET ABOVE PERMANENT DATUM
 DMF .                 KB:   DRILLING MEASURED FROM
 EKB .F              5170:   KELLING BUSHING
 EDF .F              5169:   DRILLING FLOOR
 EGL .F              5160:   GROUND LEVEL
 DATE.        29-MAR-1995:   RUN DATE
 RUN .                  1:   RUN NUMBER
 DD  .F               455:   DEPTH DRILLER
 DL  .F               416:   DEPTH LOGGER
 BLI .F               408:   BOTTOM LOG INTERVAL
 TLI .F                95:   TOP LOG INTERVAL
 CS  .IN            9.625:   CASING SIZE
 CBD .F                95:   CASING BOTTOM DRILLER
 CBL .F                95:   CASING BOTTOM LOGGER
 BS  .IN             8.75:   BIT SIZE
 BSD .F               455:   BIT SIZE AT DEPTH
 DFT .                AIR:   DRILLING FLUID TYPE
 MRT .F               204:   MAXIMUM RECORDED TEMPERATURE
 LUN .            HL 6530:   LOGGING UNIT NUMBER
 LUL .             CASPER:   LOGGING UNIT LOCATION
 ENGI.        VERN RAUTIO:   RECORDING ENGINEER
 WITN.        GARY STRONG:   WITNESSED BY
 CLNT.            A2DTECH:   CLIENT CODE
 ORIG.           5" PRINT:   ORIGIN OF DATA
 UWI .       490252270300:   UNIQUE WELL ID
 DICO. A2D Technologies, Inc.:   DIGITIZING COMPANY
~OTHER INFORMATION
~A    DEPT      GRR      RILD       RILM   
# ...
  345.8000    86.3971     4.9379     4.9764
  345.9000    86.9090     4.9089     4.9763
  346.0000    87.4208     4.8800     4.9762
  346.1000    87.8459     4.8514     4.9762
  346.2000    88.0614     4.8179     4.9949
  346.3000    87.7605     4.7946     5.0107
  346.4000    87.2607     4.7844     5.0106
  346.5000    86.9543     4.7714     5.0105
  346.6000    86.8573     4.7434     5.0105
  346.7000    86.8579     4.7182     5.0104
  346.8000    86.9245     4.7181     5.0103
  346.9000    87.1807     4.7181     5.0264
  347.0000    87.4631     4.6978     5.0451
  347.1000    87.6931     4.6853     5.0450
  347.2000    87.9493     4.6954     5.0449
  347.3000    88.2055     4.7178     5.0449
  347.4000    88.5531     4.7178     5.0448
  347.5000    88.9744     4.7506     5.0447
  347.6000    88.9750     4.7505     5.0447
  347.7000    89.2773     4.7684     5.0446
  347.8000    89.2778     4.7835     5.0470
  347.9000    89.2784     4.7834     5.0796
  348.0000    89.1624     4.7860     5.0795
  348.1000    88.9780     4.8166     5.0795
  348.2000    88.9786     4.8166     5.0794
  348.3000    88.9792     4.8372     5.0793
  348.4000    88.9798     4.8657     5.0792
  348.5000    88.9804     4.8837     5.0792
  348.6000    88.9810     4.8890     5.0791
  348.7000    88.9816     4.9176     5.0790
  348.8000    88.9822     4.9176     5.0790
  348.9000    88.9790     4.9175     5.0789
  349.0000    88.6818     4.9174     5.0788
  349.1000    88.6824     4.9174     5.0808
  349.2000    88.6830     4.9173     5.1140
  349.3000    88.6836     4.9172     5.1140
  349.4000    88.6842     4.9172     5.1139
  349.5000    88.6556     4.9171     5.1295
  349.6000    88.3838     4.9170     5.1494
  349.7000    88.1456     4.9170     5.1540
  349.8000    87.8906     4.9274     5.1851
  349.9000    87.7822     4.9511     5.1850
  350.0000    87.6039     4.9510     5.2090
  350.1000    87.1498     4.9801     5.2575
  350.2000    86.9844     5.0093     5.2580
  350.3000    87.1849     5.0385     5.2943
  350.4000    87.1915     5.0556     5.2943
  350.5000    87.4905     5.0624     5.2944
  350.6000    87.4920     5.0909     5.2945
  350.7000    87.6531     5.0910     5.3021
  350.8000    87.7973     5.1163     5.3315
  350.9000    87.7991     5.1266     5.3316
  351.0000    87.8009     5.1405     5.3584
  351.1000    87.8030     5.1706     5.3689
  351.2000    87.8045     5.1986     5.3838
  351.3000    87.6398     5.1986     5.4064
  351.4000    87.3891     5.2256     5.4065
  351.5000    87.1383     5.2350     5.4066
  351.6000    86.8875     5.2504     5.4066
  351.7000    86.6072     5.2717     5.4290
  351.8000    86.3859     5.2753     5.4444
  351.9000    86.1351     5.3086     5.4445
  352.0000    85.8843     5.3372     5.4486
  352.1000    85.7092     5.3457     5.4826
  352.2000    85.7110     5.3626     5.4827
  352.3000    85.7130     5.3940     5.5065
  352.4000    85.7146     5.4255     5.5387
  352.5000    85.8974     5.4586     5.5595
  352.6000    86.1518     5.4893     5.5650
  352.7000    86.4063     5.4968     5.5984
  352.8000    86.6606     5.5153     5.6303
  352.9000    86.9304     5.5352     5.6633
  353.0000    87.4067     5.5415     5.6964
  353.1000    87.5373     5.5740     5.7297
  353.2000    87.5391     5.6129     5.7633
  353.3000    87.5409     5.6394     5.7974
  353.4000    87.5017     5.6522     5.8777
  353.5000    87.2429     5.6523     5.9059
  353.6000    87.0001     5.6599     5.9623
  353.7000    86.7493     5.6918     6.0168
  353.8000    86.2057     5.6919     6.0435
  353.9000    85.5471     5.7201     6.0453
  354.0000    84.8990     5.7317     6.0858
  354.1000    83.6338     5.7318     6.0859
  354.2000    82.4293     5.7319     6.0859
  354.3000    81.6199     5.7320     6.0694
  354.4000    80.6113     5.7320     6.0440
  354.5000    79.7074     5.7321     6.0441
  354.6000    78.9515     5.7322     6.0442
  354.7000    78.1954     5.7323     6.0129
  354.8000    77.3119     5.7324     5.9781
  354.9000    76.8935     5.7287     5.9435
  355.0000    76.3902     5.6928     5.9090
  355.1000    75.9986     5.6929     5.8748
  355.2000    75.7478     5.6930     5.8385
  355.3000    75.5106     5.6754     5.8070
  355.4000    75.5128     5.6537     5.7486
  355.5000    75.5143     5.6489     5.7002
  355.6000    75.6843     5.6148     5.6556
  355.7000    76.1767     5.5836     5.5954
  355.8000    76.9363     5.5512     5.5621
  355.9000    77.7800     5.5191     5.5308
  356.0000    79.7468     5.4871     5.4740
  356.1000    81.5438     5.4553     5.4292
  356.2000    83.3910     5.4236     5.3977
  356.3000    84.7821     5.3861     5.3665
  356.4000    85.7943     5.3610     5.3351
  356.5000    86.7782     5.3490     5.2622
  356.6000    87.6008     5.3360     5.2623
  356.7000    88.2975     5.3051     5.2433
  356.8000    89.0570     5.2743     5.1999
  356.9000    89.9501     5.2390     5.1540
  357.0000    90.8778     5.2134     5.1527
  357.1000    91.5666     5.2028     5.1185
  357.2000    91.8348     5.1891     5.0932
  357.3000    91.8365     5.1590     5.0637
  357.4000    91.6485     5.1291     5.0344
  357.5000    91.2569     5.0958     5.0052
  357.6000    90.7535     5.0698     4.9787
  357.7000    90.2928     5.0405     4.9788
  357.8000    90.0356     4.9969     4.9530
  357.9000    89.7912     4.9477     4.9445
  358.0000    89.5404     4.9222     4.9300
  358.1000    89.4377     4.9223     4.9104
  358.2000    89.4395     4.8961     4.9105
  358.3000    89.4413     4.8677     4.9106
  358.4000    89.4431     4.8395     4.9106
  358.5000    89.4453     4.8211     4.9107
  358.6000    89.4468     4.8169     4.8952
  358.7000    89.4486     4.7878     4.8769
  358.8000    89.4504     4.7879     4.8769
  358.9000    89.4522     4.7879     4.8770
  359.0000    89.4540     4.7721     4.9047
  359.1000    89.4561     4.7549     4.9111
  359.2000    89.4576     4.7550     4.9112
  359.3000    89.4594     4.7551     4.9112
  359.4000    89.5746     4.7551     4.9113
  359.5000    89.8933     4.7552     4.9116
  359.6000    90.4005     4.7553     4.9457
  359.7000    90.9752     4.7553     4.9457
  359.8000    91.6331     4.7554     4.9458
  359.9000    92.5625     4.7555     4.9583
  360.0000    93.6955     4.7555     4.9804
  360.1000    95.0316     4.7324     4.9804
  360.2000    96.4813     4.7227     4.9805
  360.3000    97.3209     4.7228     4.9806
  360.4000    98.0006     4.7229     4.9807
  360.5000    98.7601     4.7229     4.9672
  360.6000    99.5197     4.7230     4.9463
  360.7000   100.2005     4.7231     4.9464
  360.8000   100.7075     4.7231     4.9465
  360.9000   101.2532     4.7232     4.9465
  361.0000   101.4882     4.7233     4.9265
  361.1000   101.5584     4.7203     4.9125
  361.2000   101.6953     4.6907     4.9125
  361.3000   101.8637     4.6908     4.9126
  361.4000   101.8285     4.6908     4.9127
  361.5000   101.5657     4.6909     4.9127
  361.6000   101.3269     4.7003     4.9128
  361.7000   100.5017     4.7237     4.8973
  361.8000    99.6356     4.7238     4.8790
  361.9000    98.5998     4.7239     4.8790
  362.0000    96.9974     4.7450     4.8791
  362.1000    94.9400     4.7569     4.8792
  362.2000    92.9597     4.7675     4.8792
  362.3000    91.7357     4.7902     4.8959
  362.4000    91.3255     4.7903     4.9134
  362.5000    91.2267     4.8237     4.9134
  362.6000    90.9760     4.8238     4.9135
  362.7000    90.7276     4.8410     4.9136
  362.8000    90.7297     4.8694     4.9370
  362.9000    90.5253     4.8915     4.9479
  363.0000    90.4314     4.8925     4.9480
  363.1000    90.3254     4.9257     4.9549
  363.2000    90.0746     4.9258     4.9826
  363.3000    89.8238     4.9445     4.9827
  363.4000    89.5339     4.9603     4.9827
  363.5000    89.5354     4.9679     4.9828
  363.6000    89.2090     4.9950     4.9829
  363.7000    88.7057     4.9950     4.9829
  363.8000    88.2683     5.0207     4.9854
  363.9000    88.0006     5.0300     5.0178
