~VERSION INFORMATION
 VERS.                2.0:   CWLS LOG ASCII STANDARD - VERSION 2.0
 WRAP.                 NO:   ONE LINE PER DEPTH STEP
~WELL INFORMATION
#MNEM.UNIT      DATA TYPE    INFORMATION
#----------   ------------   ------------------------------
 STRT.F            0.0000:   START DEPTH
 STOP.F          545.0000:   STOP DEPTH
 STEP.F            0.1000:   STEP LENGTH
 NULL.          -999.2500:   NO VALUE
 COMP.       F D SERV INC:   COMPANY
 WELL. NAVAL PETROLEUM RESERVE 3 SX-3 #88-5-3:   WELL
 FLD .             TEAPOT:   FIELD
 LOC .       S3 T38N R78W:   LOCATION
 CNTY.            NATRONA:   COUNTY
 STAT.            WYOMING:   STATE
 CTRY. UNITED STATES OF AMERICA:   COUNTRY
 SRVC.     Atlas Wireline:   SERVICE COMPANY
 DATE.        14-OCT-1992:   LOGDATE
 API .       490252255700:   API NUMBER
~CURVE INFORMATION
#MNEM.UNIT       API CODE    CURVE DESCRIPTION
#----------   ------------   ------------------------------
 DEPT.F                  :   
 GRR .GAPI   07 310 01 00:   GAMMA RAY
 RILD.OHMM   07 120 46 00:   INDUCTION LOG DEEP RESISTIVITY
 RILM.OHMM   07 120 44 00:   INDUCTION LOG MEDIUM RESISTIVITY
~PARAMETER INFORMATION
#MNEM.UNIT          VALUE    DESCRIPTION
#----------   ------------   ------------------------------
 PD  .                 GL:   PERMANENT DATUM
 EPD .F              5152:   ELEVATION PERMANENT DATUM
 LMF .                 KB:   LOG MEASURED FROM
 DAPD.F                10:   FEET ABOVE PERMANENT DATUM
 DMF .                 KB:   DRILLING MEASURED FROM
 EKB .F              5162:   KELLING BUSHING
 EDF .F              5161:   DRILLING FLOOR
 EGL .F              5152:   GROUND LEVEL
 DATE.        14-OCT-1992:   RUN DATE
 RUN .                  1:   RUN NUMBER
 DD  .F               555:   DEPTH DRILLER
 DL  .F               552:   DEPTH LOGGER
 BLI .F               546:   BOTTOM LOG INTERVAL
 CS  .IN            8.625:   CASING SIZE
 CBD .F                85:   CASING BOTTOM DRILLER
 CBL .F                96:   CASING BOTTOM LOGGER
 BS  .IN            7.875:   BIT SIZE
 BSD .F               555:   BIT SIZE AT DEPTH
 DFT .           AIR FOAM:   DRILLING FLUID TYPE
 BHT .F                72:   BOTTOM HOLE TEMPERATURE
 TCS .HRS               2:   TIME CURCULATED STOPPED
 MRT .F                72:   MAXIMUM RECORDED TEMPERATURE
 LUN .            HL-6274:   LOGGING UNIT NUMBER
 LUL .             CASPER:   LOGGING UNIT LOCATION
 ENGI.             RAUTIO:   RECORDING ENGINEER
 WITN.        GARY STRONG:   WITNESSED BY
 CLNT.            A2DTECH:   CLIENT CODE
 ORIG.           5" PRINT:   ORIGIN OF DATA
 UWI .       490252255700:   UNIQUE WELL ID
 DICO. A2D Technologies, Inc.:   DIGITIZING COMPANY
~OTHER INFORMATION
~A    DEPT      GRR      RILD       RILM   
# ...
  473.2000   119.5623    10.5894    10.7369
  473.3000   119.9791    10.5889    10.7365
  473.4000   120.3203    10.5885    10.7361
  473.5000   120.5706    10.5880    10.7060
  473.6000   120.8208    10.5329    10.6611
  473.7000   121.0710    10.4715    10.6607
  473.8000   121.3499    10.4412    10.6602
  473.9000   121.3477    10.4408    10.6040
  474.0000   121.3453    10.4327    10.5421
  474.1000   121.3429    10.3679    10.4805
  474.2000   121.3405    10.3675    10.4193
  474.3000   121.3381    10.3224    10.3671
  474.4000   121.3356    10.2952    10.3666
  474.5000   121.3333    10.2732    10.3090
  474.6000   121.3309    10.2133    10.2489
  474.7000   121.3285    10.1524    10.2229
  474.8000   121.3261    10.1520    10.1999
  474.9000   121.3237    10.1053    10.1404
  475.0000   121.3213    10.0464    10.0811
  475.1000   121.3185    10.0112    10.0806
  475.2000   121.3165     9.9984    10.0803
  475.3000   121.3141     9.9401    10.0078
  475.4000   121.3117     9.8723     9.9409
  475.5000   121.3093     9.8720     9.9268
  475.6000   121.2925     9.8351     9.8688
  475.7000   121.0039     9.8031     9.8030
  475.8000   121.0018     9.7881     9.7540
  475.9000   120.8276     9.7347     9.6971
  476.0000   120.6967     9.7342     9.6405
  476.1000   120.6178     9.6847     9.5842
  476.2000   120.3628     9.6282     9.5282
  476.3000   120.0887     9.5993     9.4673
  476.4000   119.6188     9.5658     9.4173
  476.5000   119.1111     9.4665     9.4013
  476.6000   118.6034     9.4661     9.3723
  476.7000   118.0957     9.3658     9.3176
  476.8000   117.5879     9.2572     9.2556
  476.9000   117.0714     9.1500     9.1431
  477.0000   116.5725     9.0617     9.0923
  477.1000   116.4661     9.0088     8.9599
  477.2000   116.4637     8.9541     8.8337
  477.3000   116.4613     8.8547     8.7312
  477.4000   116.4589     8.8303     8.6394
  477.5000   116.4664     8.7713     8.5889
  477.6000   116.7540     8.6696     8.4704
  477.7000   117.1820     8.5786     8.4304
  477.8000   117.8522     8.5284     8.3513
  477.9000   118.4881     8.4110     8.2544
  478.0000   118.9189     8.2932     8.1586
  478.1000   119.1692     8.1787     8.0617
  478.2000   119.4424     8.0641     7.9022
  478.3000   119.8990     7.9244     7.8237
  478.4000   120.2202     7.7850     7.7033
  478.5000   120.4705     7.5798     7.5492
  478.6000   120.7207     7.4314     7.3632
  478.7000   120.9710     7.3161     7.1515
  478.8000   121.2299     7.1924     6.9269
  478.9000   121.4715     7.0267     6.7476
  479.0000   121.7217     6.8514     6.5812
  479.1000   122.1205     6.5078     6.4297
  479.2000   122.5225     6.3412     6.2697
  479.3000   122.8260     6.1596     6.0895
  479.4000   123.3288     6.0006     5.9062
  479.5000   123.9155     5.8411     5.7770
  479.6000   124.5453     5.6487     5.6441
  479.7000   125.3009     5.5107     5.5142
  479.8000   126.0564     5.4508     5.3990
  479.9000   127.0149     5.4110     5.3111
  480.0000   128.5688     5.3794     5.2494
  480.1000   130.8081     5.3593     5.2130
  480.2000   133.7313     5.3591     5.1884
  480.3000   137.1905     5.3589     5.1397
  480.4000   140.2066     5.3587     5.0926
  480.5000   142.6489     5.3831     5.0699
  480.6000   144.8169     5.3954     5.0697
  480.7000   146.4095     5.4080     5.0694
  480.8000   147.6046     5.4324     5.0946
  480.9000   148.4818     5.4322     5.1241
  481.0000   149.3815     5.4320     5.1681
  481.1000   150.1966     5.4318     5.2283
  481.2000   150.7972     5.4519     5.2921
  481.3000   151.8030     5.4690     5.3938
  481.4000   152.3984     5.4771     5.4796
  481.5000   152.6026     5.5066     5.5993
  481.6000   152.8528     5.5063     5.7131
  481.7000   152.9922     5.5342     5.8248
  481.8000   152.9898     5.5662     5.9512
  481.9000   152.9562     5.5984     6.0239
  482.0000   152.3841     5.6308     6.1589
  482.1000   151.4995     5.6633     6.3037
  482.2000   149.7945     5.6987     6.4517
  482.3000   147.5204     5.7290     6.5883
  482.4000   144.5254     5.7622     6.7190
  482.5000   140.4799     5.7955     6.9163
  482.6000   136.1536     5.8408     7.1100
  482.7000   130.9804     5.9087     7.2112
  482.8000   126.3569     5.9801     7.3646
  482.9000   122.6180     6.0471     7.5374
  483.0000   119.8836     6.0902     7.7034
  483.1000   118.2462     6.1670     7.8406
  483.2000   117.2204     6.2608     8.0512
  483.3000   116.2203     6.3484     8.2136
  483.4000   115.0055     6.4970     8.3737
  483.5000   114.2023     6.6783     8.5446
  483.6000   113.6945     6.7736     8.7303
  483.7000   113.2456     6.9177     8.8883
  483.8000   113.0019     7.1163     9.1169
  483.9000   113.2994     7.3785     9.3110
  484.0000   113.7297     7.6854     9.4900
  484.1000   114.0641     8.1041     9.6565
  484.2000   114.5562     8.6080     9.8259
  484.3000   115.2384     9.0847     9.9897
  484.4000   115.7926     9.4096    10.1116
  484.5000   116.8887     9.6302    10.2809
  484.6000   118.2705     9.8452    10.3687
  484.7000   119.7839     9.9713    10.4287
  484.8000   121.0266    10.0232    10.4891
  484.9000   121.7718    10.0398    10.5498
  485.0000   122.0221    10.0394    10.6108
  485.1000   122.2798    10.0389    10.6103
  485.2000   122.0325    10.0385    10.6099
  485.3000   121.7774    10.0381    10.5714
  485.4000   121.3726    10.0377    10.5359
  485.5000   120.6608    10.0373    10.5209
  485.6000   119.7022    10.0369    10.4624
  485.7000   118.9487    10.0364    10.4619
  485.8000   118.3588    10.0360    10.4615
  485.9000   118.1450    10.0356    10.4207
  486.0000   117.8899    10.0352    10.3598
  486.1000   117.7514    10.0348    10.3164
  486.2000   117.7490    10.0696    10.3160
  486.3000   117.7466    10.1036    10.3155
  486.4000   117.7439    10.1032    10.3151
  486.5000   117.9680    10.1028    10.3147
  486.6000   118.0396    10.1023    10.3143
  486.7000   118.2992    10.1019    10.3138
  486.8000   118.7187    10.1015    10.3134
  486.9000   119.0046    10.1278    10.3130
  487.0000   119.5314    10.1864    10.3126
  487.1000   120.2512    10.2411    10.3121
  487.2000   121.1995    10.2405    10.3461
  487.3000   122.0624    10.2402    10.3829
  487.4000   122.9157    10.2808    10.3824
  487.5000   123.9739    10.3104    10.3820
  487.6000   125.2371    10.3283    10.4536
  487.7000   127.0218    10.3812    10.4532
  487.8000   127.6420    10.3807    10.4528
  487.9000   128.0781    10.4361    10.4524
  488.0000   128.2162    10.4964    10.4519
  488.1000   128.1494    10.5241    10.4544
  488.2000   127.8943    10.5236    10.5236
  488.3000   127.6081    10.5328    10.5758
  488.4000   127.3842    10.5958    10.5958
  488.5000   127.1291    10.5954    10.5954
  488.6000   126.6210    10.5950    10.5950
  488.7000   125.8605    10.6305    10.6004
  488.8000   125.1315    10.6676    10.6676
  488.9000   124.5908    10.6672    10.7235
  489.0000   123.8797    10.6668    10.7408
  489.1000   123.3081    10.7403    10.7732
  489.2000   122.6596    10.7399    10.8355
  489.3000   121.9925    10.7786    10.8892
  489.4000   121.4392    10.8136    10.8887
  489.5000   120.6727    10.8132    10.8882
  489.6000   119.4686    10.8127    10.8878
  489.7000   118.8577    10.8122    10.9236
  489.8000   118.2527    10.8660    10.9625
  489.9000   117.7449    10.8864    10.9742
  490.0000   117.3574    10.8860    11.0377
  490.1000   117.3426    10.9036    11.0371
  490.2000   117.0519    10.9607    11.0889
  490.3000   117.0499    10.9602    11.1531
  490.4000   117.2172    10.9598    11.1897
  490.5000   117.4675    11.0047    11.2047
  490.6000   117.7177    11.0683    11.2664
  490.7000   118.0218    11.1111    11.2659
  490.8000   118.8394    11.1106    11.3218
  490.9000   119.0691    11.1102    11.3432
  491.0000   119.6877    11.1709    11.3428
  491.1000   120.4432    11.2355    11.3612
  491.2000   121.1099    11.2636    11.4269
  491.3000   121.6127    11.2631    11.4994
