~VERSION INFORMATION
 VERS.                2.0:   CWLS LOG ASCII STANDARD - VERSION 2.0
 WRAP.                 NO:   ONE LINE PER DEPTH STEP
~WELL INFORMATION
#MNEM.UNIT      DATA TYPE    INFORMATION
#----------   ------------   ------------------------------
 STRT.F         1379.5000:   START DEPTH
 STOP.F         2168.0000:   STOP DEPTH
 STEP.F            0.5000:   STEP LENGTH
 NULL.          -999.2500:   NO VALUE
 COMP.   FLUOR DANIEL INC:   COMPANY
 WELL. NAVAL PETROLEUM RESERVE 3  83-5-STX-10 #83-5-10:   WELL
 FLD .            WILDCAT:   FIELD
 LOC .      S10 T38N R78W:   LOCATION
 CNTY.            NATRONA:   COUNTY
 STAT.            WYOMING:   STATE
 CTRY. UNITED STATES OF AMERICA:   COUNTRY
 SRVC.            Unknown:   SERVICE COMPANY
 DATE.        20-JAN-1995:   LOGDATE
 API .       490252265500:   API NUMBER
~CURVE INFORMATION
#MNEM.UNIT       API CODE    CURVE DESCRIPTION
#----------   ------------   ------------------------------
 DEPT.F                  :   
 C1  .VF     91 831 01 00:   METHANE
 C2  .VF     91 832 01 00:   ETHANE
 ROP .FT/HR  91 810 01 00:   RAT OF DRILLING PENETRATION
 TGAS.TC/CC  91 830 01 00:   TOTAL GAS UNIT
~PARAMETER INFORMATION
#MNEM.UNIT          VALUE    DESCRIPTION
#----------   ------------   ------------------------------
 DATE.        20-JAN-1995:   RUN DATE
 BLI .F              2165:   BOTTOM LOG INTERVAL
 TLI .F              1380:   TOP LOG INTERVAL
 CLNT.            A2DTECH:   CLIENT CODE
 ORIG.         2.5" PRINT:   ORIGIN OF DATA
 UWI .       490252265500:   UNIQUE WELL ID
 DICO. A2D Technologies, Inc.:   DIGITIZING COMPANY
~OTHER INFORMATION
~A  DEPT        C1         C2        ROP        TGAS  
# ...
 1817.5000  -999.2500  -999.2500     0.5183   331.9672
 1818.0000  -999.2500  -999.2500     0.5179   354.0984
 1818.5000  -999.2500  -999.2500     0.5195   354.0984
 1819.0000  -999.2500  -999.2500     0.5212   361.4754
 1819.5000  -999.2500  -999.2500     0.5228   361.4754
 1820.0000  -999.2500  -999.2500     0.5245   368.8524
 1820.5000  -999.2500  -999.2500     0.5262   376.2295
 1821.0000  -999.2500  -999.2500     0.5278   383.6066
 1821.5000  -999.2500  -999.2500     0.5295   383.6066
 1822.0000  -999.2500  -999.2500     0.5312   383.6066
 1822.5000  -999.2500  -999.2500     0.5328   390.9836
 1823.0000  -999.2500  -999.2500     0.5345   405.7377
 1823.5000  -999.2500  -999.2500     0.5362   413.1147
 1824.0000  -999.2500  -999.2500     0.5378   413.1147
 1824.5000  -999.2500  -999.2500     0.5395   413.1147
 1825.0000  -999.2500  -999.2500     0.5412   413.1147
 1825.5000  -999.2500  -999.2500     0.5429   413.1147
 1826.0000  -999.2500  -999.2500     0.5445   413.1147
 1826.5000  -999.2500  -999.2500     0.5462   413.1147
 1827.0000  -999.2500  -999.2500     0.5479   413.1147
 1827.5000  -999.2500  -999.2500     0.5495   413.1147
 1828.0000  -999.2500  -999.2500     0.5512   420.4918
 1828.5000  -999.2500  -999.2500     0.5529   420.4918
 1829.0000  -999.2500  -999.2500     0.5545   420.4918
 1829.5000  -999.2500  -999.2500     0.5562   420.4918
 1830.0000  -999.2500  -999.2500     0.5579   420.4918
 1830.5000  -999.2500  -999.2500     0.5595   420.4918
 1831.0000  -999.2500  -999.2500     0.5612   420.4918
 1831.5000  -999.2500  -999.2500     0.5630   420.4918
 1832.0000  -999.2500  -999.2500     0.7458   420.4918
 1832.5000  -999.2500  -999.2500     0.7454   420.4918
 1833.0000  -999.2500  -999.2500     0.7633   420.4918
 1833.5000  -999.2500  -999.2500     0.7629   420.4918
 1834.0000  -999.2500  -999.2500     1.0008   420.4918
 1834.5000  -999.2500  -999.2500     1.0003   420.4918
 1835.0000  -999.2500  -999.2500     1.0000   420.4918
 1835.5000  -999.2500  -999.2500     0.8531   420.4918
 1836.0000  -999.2500  -999.2500     0.7794   420.4918
 1836.5000  -999.2500  -999.2500     0.7791   420.4918
 1837.0000  -999.2500  -999.2500     0.7787   413.1147
 1837.5000  -999.2500  -999.2500     0.7784   413.1147
 1838.0000  -999.2500  -999.2500     0.7780   413.1147
 1838.5000  -999.2500  -999.2500     0.7776   413.1147
 1839.0000  -999.2500  -999.2500     0.7772   413.1147
 1839.5000  -999.2500  -999.2500     0.7769   413.1147
 1840.0000  -999.2500  -999.2500     0.7765   413.1147
 1840.5000  -999.2500  -999.2500     0.7761   420.4918
 1841.0000  -999.2500  -999.2500     0.7758   420.4918
 1841.5000  -999.2500  -999.2500     0.8304   420.4918
 1842.0000  -999.2500  -999.2500     0.9765   420.4918
 1842.5000  -999.2500  -999.2500     0.9761   420.4918
 1843.0000  -999.2500  -999.2500     0.9942   420.4918
 1843.5000  -999.2500  -999.2500     0.9938   420.4918
 1844.0000  -999.2500  -999.2500     1.3047   420.4918
 1844.5000  -999.2500  -999.2500     1.5242   413.1147
 1845.0000  -999.2500  -999.2500     1.5238   420.4918
 1845.5000  -999.2500  -999.2500     1.5234   413.1147
 1846.0000  -999.2500  -999.2500     2.0176   413.1147
 1846.5000  -999.2500  -999.2500     2.0356   413.1147
 1847.0000  -999.2500  -999.2500     2.0351   413.1147
 1847.5000  -999.2500  -999.2500     2.0347   420.4918
 1848.0000  -999.2500  -999.2500     1.2835   420.4918
 1848.5000  -999.2500  -999.2500     1.2831   420.4918
 1849.0000  -999.2500  -999.2500     1.2827   435.2459
 1849.5000  -999.2500  -999.2500     1.2824   442.6230
 1850.0000  -999.2500  -999.2500     1.0073   442.6230
 1850.5000  -999.2500  -999.2500     1.0069   450.0000
 1851.0000  -999.2500  -999.2500     1.0250   464.7541
 1851.5000  -999.2500  -999.2500     1.0429   472.1311
 1852.0000  -999.2500  -999.2500     0.9692   479.5082
 1852.5000  -999.2500  -999.2500     0.7857   501.6393
 1853.0000  -999.2500  -999.2500     0.7853   501.6393
 1853.5000  -999.2500  -999.2500     0.7850   509.0164
 1854.0000  -999.2500  -999.2500     0.7845   531.1475
 1854.5000  -999.2500  -999.2500     0.7842   538.5246
 1855.0000  -999.2500  -999.2500     0.7839   560.6558
 1855.5000  -999.2500  -999.2500     0.7834   568.0328
 1856.0000  -999.2500  -999.2500     0.7831   590.1639
 1856.5000  -999.2500  -999.2500     0.7827   590.1639
 1857.0000  -999.2500  -999.2500     0.7824   619.6721
 1857.5000  -999.2500  -999.2500     0.7820   619.6721
 1858.0000  -999.2500  -999.2500     0.7816   627.0492
 1858.5000  -999.2500  -999.2500     0.7813   641.8033
 1859.0000  -999.2500  -999.2500     0.7809   649.1803
 1859.5000  -999.2500  -999.2500     0.8904   656.5574
 1860.0000  -999.2500  -999.2500     0.9817   656.5574
 1860.5000  -999.2500  -999.2500     0.9813   671.3115
 1861.0000  -999.2500  -999.2500     0.9809   678.6885
 1861.5000  -999.2500  -999.2500     0.9805   678.6885
 1862.0000  -999.2500  -999.2500     0.9802   678.6885
 1862.5000  -999.2500  -999.2500     0.9982   678.6885
 1863.0000  -999.2500  -999.2500     0.9978   678.6885
 1863.5000  -999.2500  -999.2500     0.9974   678.6885
 1864.0000  -999.2500  -999.2500     0.9971   678.6885
 1864.5000  -999.2500  -999.2500     0.9967   686.0656
 1865.0000  -999.2500  -999.2500     0.9963   678.6885
 1865.5000  -999.2500  -999.2500     0.9960   678.6885
 1866.0000  -999.2500  -999.2500     0.9956   678.6885
 1866.5000  -999.2500  -999.2500     0.9952   663.9344
 1867.0000  -999.2500  -999.2500     0.9949   656.5574
 1867.5000  -999.2500  -999.2500     0.9945   649.1803
 1868.0000  -999.2500  -999.2500     0.9941   649.1803
 1868.5000  -999.2500  -999.2500     0.9938   641.8033
 1869.0000  -999.2500  -999.2500     0.9934   634.4262
 1869.5000  -999.2500  -999.2500     0.9930   619.6721
 1870.0000  -999.2500  -999.2500     0.9927   619.6721
 1870.5000  -999.2500  -999.2500     0.9923   612.2951
 1871.0000  -999.2500  -999.2500     0.9919   597.5410
 1871.5000  -999.2500  -999.2500     1.2297   597.5410
 1872.0000  -999.2500  -999.2500     1.2476   590.1639
 1872.5000  -999.2500  -999.2500     1.2472   590.1639
 1873.0000  -999.2500  -999.2500     1.2653   575.4099
 1873.5000  -999.2500  -999.2500     1.1915   568.0328
 1874.0000  -999.2500  -999.2500     0.9714   560.6558
 1874.5000  -999.2500  -999.2500     0.9710   553.2787
 1875.0000  -999.2500  -999.2500     0.9707   538.5246
 1875.5000  -999.2500  -999.2500     0.9703   531.1475
 1876.0000  -999.2500  -999.2500     1.2630   531.1475
 1876.5000  -999.2500  -999.2500     1.2626   523.7705
 1877.0000  -999.2500  -999.2500     1.2439   509.0164
 1877.5000  -999.2500  -999.2500     1.2436   509.0164
 1878.0000  -999.2500  -999.2500     2.2139   516.3934
 1878.5000  -999.2500  -999.2500     2.2319   531.1475
 1879.0000  -999.2500  -999.2500     2.2315   531.1475
 1879.5000  -999.2500  -999.2500     2.2678   538.5246
 1880.0000  -999.2500  -999.2500     2.0109   560.6558
 1880.5000  -999.2500  -999.2500     0.5974   560.6558
 1881.0000  -999.2500  -999.2500     0.5918   560.6558
 1881.5000  -999.2500  -999.2500     0.5861   560.6558
 1882.0000  -999.2500  -999.2500     0.5804   560.6558
 1882.5000  -999.2500  -999.2500     0.5748   568.0328
 1883.0000  -999.2500  -999.2500     0.5691   568.0328
 1883.5000  -999.2500  -999.2500     0.5634   568.0328
 1884.0000  -999.2500  -999.2500     0.5578   568.0328
 1884.5000  -999.2500  -999.2500     0.5521   568.0328
 1885.0000  -999.2500  -999.2500     0.5464   568.0328
 1885.5000  -999.2500  -999.2500     0.5408   568.0328
 1886.0000  -999.2500  -999.2500     0.5351   568.0328
 1886.5000  -999.2500  -999.2500     0.5294   568.0328
 1887.0000  -999.2500  -999.2500     0.5238   568.0328
 1887.5000  -999.2500  -999.2500     0.7601   568.0328
 1888.0000  -999.2500  -999.2500     0.7596   568.0328
 1888.5000  -999.2500  -999.2500     0.7593   568.0328
 1889.0000  -999.2500  -999.2500     0.7589   568.0328
 1889.5000  -999.2500  -999.2500     0.7770   568.0328
 1890.0000  -999.2500  -999.2500     0.9415   568.0328
