~VERSION INFORMATION
 VERS.                2.0:   CWLS LOG ASCII STANDARD - VERSION 2.0
 WRAP.                 NO:   ONE LINE PER DEPTH STEP
~WELL INFORMATION
#MNEM.UNIT      DATA TYPE    INFORMATION
#----------   ------------   ------------------------------
 STRT.F            0.0000:   START DEPTH
 STOP.F         2182.0000:   STOP DEPTH
 STEP.F            0.1000:   STEP LENGTH
 NULL.          -999.2500:   NO VALUE
 COMP.       FLUOR DANIEL:   COMPANY
 WELL.   75-1 X 29 #75-29:   WELL
 FLD .             TEAPOT:   FIELD
 LOC .      S29 T39N R78W:   LOCATION
 CNTY.            NATRONA:   COUNTY
 STAT.            WYOMING:   STATE
 CTRY. UNITED STATES OF AMERICA:   COUNTRY
 SRVC.      Western Atlas:   SERVICE COMPANY
 DATE.        10-MAY-1996:   LOGDATE
 API .       490252279100:   API NUMBER
~CURVE INFORMATION
#MNEM.UNIT       API CODE    CURVE DESCRIPTION
#----------   ------------   ------------------------------
 DEPT.F                  :   
 GRR .GAPI   07 310 01 00:   GAMMA RAY
 RFOC.OHMM   07 220 04 00:   RESISTIVITY FOCUSED LOG
 RILD.OHMM   07 120 46 00:   INDUCTION LOG DEEP RESISTIVITY
 RILM.OHMM   07 120 44 00:   INDUCTION LOG MEDIUM RESISTIVITY
~PARAMETER INFORMATION
#MNEM.UNIT          VALUE    DESCRIPTION
#----------   ------------   ------------------------------
 PD  .                 GL:   PERMANENT DATUM
 EPD .F              5031:   ELEVATION PERMANENT DATUM
 LMF .                 KB:   LOG MEASURED FROM
 DAPD.F                10:   FEET ABOVE PERMANENT DATUM
 DMF .                 KB:   DRILLING MEASURED FROM
 EKB .F              5041:   KELLING BUSHING
 EDF .F              5040:   DRILLING FLOOR
 EGL .F              5031:   GROUND LEVEL
 DATE.        10-MAY-1996:   RUN DATE
 RUN .                  1:   RUN NUMBER
 DD  .F              2188:   DEPTH DRILLER
 DL  .F              2184:   DEPTH LOGGER
 BLI .F              2182:   BOTTOM LOG INTERVAL
 TLI .F               400:   TOP LOG INTERVAL
 CS  .IN                7:   CASING SIZE
 CBD .F               400:   CASING BOTTOM DRILLER
 CBL .F               400:   CASING BOTTOM LOGGER
 BS  .IN             6.25:   BIT SIZE
 BSD .F              2188:   BIT SIZE AT DEPTH
 DFT .                AIR:   DRILLING FLUID TYPE
 MRT .F                97:   MAXIMUM RECORDED TEMPERATURE
 LUN .            HL-6530:   LOGGING UNIT NUMBER
 LUL .             CASPER:   LOGGING UNIT LOCATION
 ENGI.           BROWNLOW:   RECORDING ENGINEER
 WITN.             LEBEAU:   WITNESSED BY
 CLNT.            A2DTECH:   CLIENT CODE
 ORIG.           5" PRINT:   ORIGIN OF DATA
 UWI .       490252279100:   UNIQUE WELL ID
 DICO. A2D Technologies, Inc.:   DIGITIZING COMPANY
~OTHER INFORMATION
~A    DEPT      GRR      RFOC       RILD       RILM   
# ...
 1576.8000   147.7695  -999.2500     5.9076     6.1457
 1576.9000   147.7671  -999.2500     5.9077     6.1822
 1577.0000   147.7647  -999.2500     5.9078     6.1821
 1577.1000   147.6067  -999.2500     5.9079     6.1820
 1577.2000   147.4582  -999.2500     5.9080     6.1819
 1577.3000   147.4558  -999.2500     5.9362     6.1969
 1577.4000   147.4534  -999.2500     5.9493     6.2247
 1577.5000   147.4506  -999.2500     5.9493     6.2246
 1577.6000   147.4486  -999.2500     5.9494     6.2245
 1577.7000   147.4462  -999.2500     5.9495     6.2244
 1577.8000   147.3203  -999.2500     5.9496     6.2243
 1577.9000   146.9120  -999.2500     5.9497     6.2243
 1578.0000   146.0630  -999.2500     5.9498     6.2242
 1578.1000   144.4197  -999.2500     5.9498     6.2206
 1578.2000   142.0724  -999.2500     5.9499     6.1811
 1578.3000   141.0249  -999.2500     5.9500     6.1810
 1578.4000   140.3753  -999.2500     5.9501     6.1551
 1578.5000   139.4281  -999.2500     5.9502     6.1382
 1578.6000   138.1118  -999.2500     5.9503     6.1259
 1578.7000   136.5623  -999.2500     5.9503     6.0901
 1578.8000   136.3097  -999.2500     5.9504     6.0535
 1578.9000   136.2558  -999.2500     5.9505     6.0534
 1579.0000   136.4082  -999.2500     5.9506     6.0533
 1579.1000   136.8746  -999.2500     5.9167     6.0533
 1579.2000   137.6340  -999.2500     5.9097     6.0532
 1579.3000   138.3928  -999.2500     5.9098     6.0531
 1579.4000   139.2600  -999.2500     5.8955     6.0530
 1579.5000   139.9127  -999.2500     5.8691     6.0529
 1579.6000   140.5017  -999.2500     5.8678     6.0528
 1579.7000   141.1301  -999.2500     5.8287     6.0527
 1579.8000   141.8896  -999.2500     5.7999     6.0527
 1579.9000   142.6767  -999.2500     5.7663     6.0526
 1580.0000   143.7706  -999.2500     5.7170     6.0525
 1580.1000   144.7036  -999.2500     5.6602     6.0524
 1580.2000   145.7179  -999.2500     5.6274     6.0523
 1580.3000   146.5927  -999.2500     5.5918     6.0275
 1580.4000   147.1701  -999.2500     5.5919     6.0104
 1580.5000   147.3790  -999.2500     5.5920     6.0103
 1580.6000   147.3761  -999.2500     5.6094     6.0055
 1580.7000   147.3738  -999.2500     5.6309     5.9686
 1580.8000   147.3714  -999.2500     5.6310     5.9685
 1580.9000   147.3689  -999.2500     5.6311     5.9684
 1581.0000   147.2600  -999.2500     5.6312     5.9486
 1581.1000   146.8855  -999.2500     5.6313     5.9271
 1581.2000   146.0987  -999.2500     5.6313     5.9271
 1581.3000   144.6440  -999.2500     5.6314     5.9270
 1581.4000   143.3365  -999.2500     5.6315     5.9269
 1581.5000   141.6403  -999.2500     5.6324     5.9268
 1581.6000   140.1045  -999.2500     5.6708     5.9267
 1581.7000   138.9812  -999.2500     5.6709     5.9267
 1581.8000   138.2437  -999.2500     5.6710     5.9266
 1581.9000   137.6915  -999.2500     5.6863     5.9265
 1582.0000   138.1557  -999.2500     5.7106     5.9264
 1582.1000   139.2175  -999.2500     5.7107     5.9263
 1582.2000   140.4857  -999.2500     5.7108     5.9262
 1582.3000   141.7540  -999.2500     5.7407     5.9262
 1582.4000   143.0214  -999.2500     5.7507     5.9261
 1582.5000   144.3137  -999.2500     5.7507     5.9260
 1582.6000   145.5564  -999.2500     5.7508     5.9259
 1582.7000   146.8238  -999.2500     5.7508     5.9581
 1582.8000   147.4767  -999.2500     5.7509     5.9669
 1582.9000   147.8342  -999.2500     5.7510     5.9861
 1583.0000   148.2232  -999.2500     5.7511     6.0082
 1583.1000   148.2208  -999.2500     5.7511     6.0143
 1583.2000   148.2180  -999.2500     5.7641     6.0498
 1583.3000   147.9991  -999.2500     5.7913     6.0497
 1583.4000   147.5731  -999.2500     5.7914     6.0779
 1583.5000   146.9406  -999.2500     5.7915     6.0915
 1583.6000   146.1766  -999.2500     5.7916     6.0915
 1583.7000   145.3867  -999.2500     5.7917     6.0996
 1583.8000   144.2822  -999.2500     5.7917     6.1336
 1583.9000   143.3488  -999.2500     5.7918     6.1335
 1584.0000   142.1454  -999.2500     5.7919     6.1334
 1584.1000   141.0111  -999.2500     5.7920     6.1573
 1584.2000   140.0827  -999.2500     5.8217     6.1760
 1584.3000   139.3597  -999.2500     5.8325     6.1759
 1584.4000   138.8380  -999.2500     5.8325     6.1758
 1584.5000   138.3390  -999.2500     5.8326     6.1757
 1584.6000   138.0290  -999.2500     5.8368     6.1756
 1584.7000   137.7726  -999.2500     5.8733     6.1755
 1584.8000   137.6217  -999.2500     5.8734     6.1948
 1584.9000   137.5616  -999.2500     5.8990     6.2183
 1585.0000   137.3050  -999.2500     5.9144     6.2182
 1585.1000   137.0108  -999.2500     5.9144     6.2181
 1585.2000   136.7925  -999.2500     5.9145     6.2180
 1585.3000   136.5361  -999.2500     5.9146     6.2179
 1585.4000   136.4006  -999.2500     5.9489     6.2179
 1585.5000   136.3247  -999.2500     5.9560     6.2178
 1585.6000   136.0942  -999.2500     5.9561     6.2177
 1585.7000   136.0915  -999.2500     5.9561     6.2176
 1585.8000   136.3214  -999.2500     5.9562     6.2175
 1585.9000   136.5730  -999.2500     5.9563     6.2174
 1586.0000   137.0980  -999.2500     5.9564     6.2173
 1586.1000   137.8577  -999.2500     5.9565     6.2172
 1586.2000   138.6178  -999.2500     5.9566     6.2171
 1586.3000   139.3954  -999.2500     5.9566     6.2170
 1586.4000   139.8884  -999.2500     5.9567     6.2169
 1586.5000   140.3939  -999.2500     5.9568     6.2168
 1586.6000   141.0522  -999.2500     5.9569     6.2167
 1586.7000   141.8121  -999.2500     5.9570     6.2167
 1586.8000   142.6286  -999.2500     5.9571     6.2166
 1586.9000   143.6227  -999.2500     5.9571     6.2165
 1587.0000   144.2048  -999.2500     5.9571     6.2164
 1587.1000   144.6344  -999.2500     5.9572     6.2163
 1587.2000   144.9718  -999.2500     5.9573     6.2162
 1587.3000   145.2233  -999.2500     5.9574     6.2162
 1587.4000   145.4021  -999.2500     5.9304     6.2161
 1587.5000   145.3997  -999.2500     5.9165     6.2088
 1587.6000   145.3971  -999.2500     5.9165     6.1730
 1587.7000   144.9321  -999.2500     5.9166     6.1729
 1587.8000   144.0535  -999.2500     5.9167     6.1728
 1587.9000   143.4439  -999.2500     5.9168     6.1727
 1588.0000   143.2760  -999.2500     5.9169     6.1727
 1588.1000   143.2736  -999.2500     5.9170     6.1634
 1588.2000   143.2711  -999.2500     5.9011     6.1299
 1588.3000   143.2688  -999.2500     5.8762     6.1298
 1588.4000   143.2664  -999.2500     5.8763     6.1297
 1588.5000   143.2639  -999.2500     5.8764     6.1296
 1588.6000   143.4700  -999.2500     5.8459     6.1296
 1588.7000   143.9756  -999.2500     5.8360     6.1184
 1588.8000   144.4810  -999.2500     5.8184     6.0871
 1588.9000   145.0639  -999.2500     5.7958     6.0870
 1589.0000   145.2770  -999.2500     5.7959     6.0869
 1589.1000   145.8635  -999.2500     5.7960     6.0868
 1589.2000   146.7429  -999.2500     5.7640     6.0868
 1589.3000   147.5401  -999.2500     5.7562     6.0867
 1589.4000   147.7918  -999.2500     5.7562     6.0802
 1589.5000   148.0661  -999.2500     5.7563     6.0445
 1589.6000   148.0639  -999.2500     5.7563     6.0444
 1589.7000   147.8783  -999.2500     5.7564     6.0443
 1589.8000   147.7574  -999.2500     5.7565     6.0442
 1589.9000   147.7551  -999.2500     5.7291     6.0292
 1590.0000   147.7929  -999.2500     5.7170     6.0024
 1590.1000   148.0518  -999.2500     5.7170     6.0006
 1590.2000   148.0495  -999.2500     5.7086     5.9608
 1590.3000   148.2460  -999.2500     5.6777     5.9607
 1590.4000   148.8000  -999.2500     5.6778     5.9606
 1590.5000   149.5595  -999.2500     5.6488     5.9606
 1590.6000   150.3191  -999.2500     5.6387     5.9605
 1590.7000   151.0949  -999.2500     5.6387     5.9604
 1590.8000   152.5595  -999.2500     5.6285     5.9603
 1590.9000   152.7722  -999.2500     5.6000     5.9602
 1591.0000   152.8567  -999.2500     5.6001     5.9601
 1591.1000   152.8543  -999.2500     5.6002     5.9601
 1591.2000   152.8519  -999.2500     5.6003     5.9600
 1591.3000   152.8495  -999.2500     5.6003     5.9599
