~VERSION INFORMATION
 VERS.                2.0:   CWLS LOG ASCII STANDARD - VERSION 2.0
 WRAP.                 NO:   ONE LINE PER DEPTH STEP
~WELL INFORMATION
#MNEM.UNIT      DATA TYPE    INFORMATION
#----------   ------------   ------------------------------
 STRT.F           48.0000:   START DEPTH
 STOP.F          650.0000:   STOP DEPTH
 STEP.F            0.5000:   STEP LENGTH
 NULL.          -999.2500:   NO VALUE
 COMP. FENIX & SCISSON INC:   COMPANY
 WELL.    36 SX 34 #36-34:   WELL
 FLD .             TEAPOT:   FIELD
 LOC .      S34 T39N R78W:   LOCATION
 CNTY.            NATRONA:   COUNTY
 STAT.            WYOMING:   STATE
 CTRY. UNITED STATES OF AMERICA:   COUNTRY
 SRVC.            Unknown:   SERVICE COMPANY
 DATE.        19-JAN-1979:   LOGDATE
 API .       490251076800:   API NUMBER
~CURVE INFORMATION
#MNEM.UNIT       API CODE    CURVE DESCRIPTION
#----------   ------------   ------------------------------
 DEPT.F                  :   
 SPR .MV     05 010 01 00:   SPONTANEOUS POTENTIAL FROM RES.
 SN  .OHMM   05 040 16 00:   SHORT NORMAL 16"
 IL  .OHMM   05 120 00 00:   INDUCTION LOG
 CALD.IN     45 280 60 00:   CALIPER
 GRD .GAPI   45 310 01 00:   GAMMA RAY FROM DENSITY LOG
 RHOB.G/C3   45 350 01 00:   BULK DENSITY
 DPHI.DEC    45 890 12 00:   DENSITY POROSITY SANDSTONE
 CORR.G/C3   45 356 01 00:   DENSITY CORRECTION
~PARAMETER INFORMATION
#MNEM.UNIT          VALUE    DESCRIPTION
#----------   ------------   ------------------------------
 PD  .                 GL:   PERMANENT DATUM
 EPD .F              5125:   ELEVATION PERMANENT DATUM
 LMF .                 KB:   LOG MEASURED FROM
 DAPD.F                 4:   FEET ABOVE PERMANENT DATUM
 DMF .                 KB:   DRILLING MEASURED FROM
 EKB .F              5129:   KELLING BUSHING
 EGL .F              5125:   GROUND LEVEL
 DATE.            1-19-79:   RUN DATE
 RUN .                  1:   RUN NUMBER
 DD  .F               650:   DEPTH DRILLER
 DL  .F               650:   DEPTH LOGGER
 BLI .F               643:   BOTTOM LOG INTERVAL
 TLI .F                50:   TOP LOG INTERVAL
 CS  .IN            8.625:   CASING SIZE
 CBD .F                40:   CASING BOTTOM DRILLER
 CBL .F                36:   CASING BOTTOM LOGGER
 BS  .IN            7.875:   BIT SIZE
 BSD .F               650:   BIT SIZE AT DEPTH
 DFT .                KCL:   DRILLING FLUID TYPE
 DFD .                8.8:   DRILLING FLUID DENSITY
 DFV .                 34:   DRILLING FLUID VISCOSITY
 DFL .                8.8:   DRILLING FLUID LOSS
 MSS .           FLOWLINE:   MUD SAMPLE SOURCE
 RMS .OHMM            .17:   RESISTIVITY MUD SAMPLE
 MST .F                62:   MUD SAMPLE TEMPERATURE
 RMF .OHMM            .15:   RESISTIVITY MUD FILTRATE SAMPLE
 MFST.F                62:   MUD FILTRATE SAMPLE TEMPERATURE
 RMC .OHMM            .22:   RESISTIVITY MUD CAKE
 MCST.F                63:   MUD CAKE SAMPLE TEMPERATURE
 MFSS.           MEASURED:   MUD FILTRATE SAMPLE SOURCE
 MCSS.           MEASURED:   MUD CAKE SAMPLE SOURCE
 RMB .OHMM            .18:   RESISTIVITY MUD AT BHT
 BHT .F                60:   BOTTOM HOLE TEMPERATURE
 TCS .HRS               3:   TIME CURCULATED STOPPED
 MRT .F                60:   MAXIMUM RECORDED TEMPERATURE
 LUN .                 30:   LOGGING UNIT NUMBER
 LUL .             CASPER:   LOGGING UNIT LOCATION
 ENGI.         B. ROLLINS:   RECORDING ENGINEER
 WITN.           DINSMORE:   WITNESSED BY
 CLNT.            A2DTECH:   CLIENT CODE
 ORIG.           5" PRINT:   ORIGIN OF DATA
 UWI .       490251076800:   UNIQUE WELL ID
 DICO. A2D Technologies, Inc.:   DIGITIZING COMPANY
~OTHER INFORMATION
~A   DEPT      SPR           SN        IL      CALD        GRD       RHOB       DPHI       CORR   
# ...
  331.5000   -60.9790     6.5460     7.1790     8.2230   107.8130     2.4750     0.1130     0.0370
  332.0000   -60.2690     6.4570     7.0380     8.2230   110.4500     2.4780     0.1110     0.0400
  332.5000   -59.7240     6.3690     6.8970     8.2220   107.0640     2.4820     0.1090     0.0400
  333.0000   -59.8780     6.2800     6.7560     8.2210   103.4100     2.4860     0.1070     0.0350
  333.5000   -60.0920     6.2300     6.6470     8.2210    99.7600     2.4880     0.1080     0.0300
  334.0000   -60.3140     6.2300     6.6470     8.2200    96.2570     2.4830     0.1100     0.0280
  334.5000   -59.8640     6.2560     6.6870     8.2200    98.1100     2.4780     0.1120     0.0280
  335.0000   -59.2990     6.2980     6.7360     8.2190   100.8590     2.4780     0.1110     0.0320
  335.5000   -58.7280     6.3400     6.7860     8.2180   103.5930     2.4790     0.1110     0.0350
  336.0000   -58.3450     6.3820     6.8350     8.2180   105.6540     2.4760     0.1130     0.0320
  336.5000   -58.6400     6.4240     6.8840     8.2170   105.0350     2.4710     0.1170     0.0290
  337.0000   -59.1690     6.4660     6.9340     8.2170   106.3370     2.4720     0.1180     0.0280
  337.5000   -59.7090     6.5080     6.9830     8.2160   111.1050     2.4740     0.1150     0.0270
  338.0000   -59.5020     6.5500     7.0320     8.2150   109.7290     2.4750     0.1130     0.0270
  338.5000   -59.2370     6.5920     7.0810     8.2150   107.3840     2.4770     0.1120     0.0260
  339.0000   -58.9720     6.6340     7.1310     8.2140   107.5860     2.4790     0.1110     0.0320
  339.5000   -58.7060     6.6760     7.2250     8.2140   108.4180     2.4810     0.1110     0.0330
  340.0000   -58.8230     6.7090     7.1750     8.2130   109.8160     2.4810     0.1110     0.0320
  340.5000   -59.4860     6.6470     7.0570     8.2120   111.5660     2.4780     0.1130     0.0310
  341.0000   -59.6950     6.6470     6.9390     8.2120   111.3070     2.4740     0.1150     0.0300
  341.5000   -59.6230     6.5860     6.8220     8.2110   108.2270     2.4710     0.1180     0.0280
  342.0000   -59.5520     6.4450     6.7040     8.2110   105.7680     2.4680     0.1200     0.0290
  342.5000   -59.4800     6.2990     6.5870     8.2110   104.6410     2.4630     0.1220     0.0300
  343.0000   -59.4080     6.1540     6.4690     8.2110   107.3080     2.4550     0.1250     0.0290
  343.5000   -59.3840     6.0080     6.3520     8.2110   108.7060     2.4470     0.1300     0.0280
  344.0000   -60.0630     5.8620     6.2340     8.2130   108.9750     2.4390     0.1340     0.0300
  344.5000   -60.7180     5.7170     6.1170     8.2730   108.8910     2.4320     0.1400     0.0370
  345.0000   -61.3710     5.5710     5.9990     8.3350   103.3270     2.4290     0.1370     0.0450
  345.5000   -62.0190     5.4260     5.8820     8.3730    97.2910     2.4430     0.1320     0.0500
  346.0000   -62.4740     5.2800     5.8390     8.2170    93.3740     2.4550     0.1260     0.0450
  346.5000   -60.8740     5.2250     5.9380     8.2140   100.4810     2.4660     0.1200     0.0380
  347.0000   -59.4860     5.2620     6.0580     8.2140   105.8880     2.4700     0.1180     0.0360
  347.5000   -59.4190     5.4440     6.1780     8.2150   107.7700     2.4720     0.1180     0.0360
  348.0000   -59.3280     5.6270     6.2980     8.2160   106.3190     2.4730     0.1170     0.0360
  348.5000   -59.2280     5.8090     6.4180     8.2170   104.9040     2.4750     0.1160     0.0350
  349.0000   -59.0690     5.9920     6.5380     8.2180   105.6330     2.4740     0.1140     0.0300
  349.5000   -58.5220     6.1490     6.6580     8.2200   104.6340     2.4720     0.1100     0.0280
  350.0000   -57.9690     6.2520     6.7770     8.2210   103.4130     2.4740     0.1070     0.0320
  350.5000   -57.4320     6.3540     6.8970     8.2220   103.1000     2.4830     0.1030     0.0400
  351.0000   -57.9360     6.4570     7.0170     8.2230   103.4070     2.4920     0.0990     0.0440
  351.5000   -58.5810     6.5600     7.1370     8.2240   105.0290     2.5010     0.0970     0.0470
  352.0000   -59.2230     6.6620     7.2570     8.2250   106.6370     2.5080     0.0960     0.0500
  352.5000   -59.6450     6.7650     7.3770     8.2260   108.2180     2.5020     0.0990     0.0450
  353.0000   -59.0930     6.8680     7.4970     8.2270   109.5290     2.4920     0.1020     0.0400
  353.5000   -58.5620     6.9710     7.6170     8.2280   109.6230     2.4840     0.1050     0.0340
  354.0000   -58.5280     7.0730     7.7370     8.2290   109.6630     2.4850     0.1040     0.0320
  354.5000   -59.0360     7.1760     7.8560     8.2310   108.9800     2.4900     0.1020     0.0310
  355.0000   -59.0020     7.2790     7.9760     8.2300   105.7460     2.4950     0.1000     0.0290
  355.5000   -58.8330     7.3820     8.0960     8.2250   102.2380     2.5010     0.0980     0.0290
  356.0000   -58.2450     7.4840     8.2240     8.2200   103.3530     2.5130     0.0880     0.0360
  356.5000   -57.2650     7.6370     8.2240     8.2150   105.6210     2.5370     0.0740     0.0470
  357.0000   -56.9720     7.6170     8.2240     8.2100   105.8580     2.5620     0.0590     0.0580
  357.5000   -57.4330     7.5760     8.2130     8.2050   107.0270     2.5530     0.0660     0.0560
  358.0000   -57.2620     7.5350     8.1750     8.2000   108.5980     2.5380     0.0730     0.0510
  358.5000   -56.8300     7.4950     8.1360     8.1950   108.9630     2.5280     0.0790     0.0450
  359.0000   -56.8320     7.4540     8.0980     8.1920   107.9120     2.5470     0.0690     0.0400
  359.5000   -56.9130     7.4140     8.0600     8.1930   108.3120     2.5610     0.0630     0.0350
  360.0000   -57.1990     7.3730     8.0220     8.1940   111.8910     2.5470     0.0740     0.0310
  360.5000   -57.8360     7.3330     7.9640     8.1950   110.2770     2.5310     0.0820     0.0350
  361.0000   -58.4700     7.2920     7.8790     8.1960   106.0380     2.5150     0.0910     0.0350
  361.5000   -59.1130     7.2250     7.7940     8.1970   102.4380     2.5060     0.0990     0.0340
  362.0000   -58.9130     7.0920     7.7100     8.1970   103.2050     2.5140     0.0960     0.0330
  362.5000   -58.4740     7.0270     7.6250     8.1980   105.0920     2.5220     0.0880     0.0410
  363.0000   -58.1460     6.8980     7.5400     8.1990   106.0580     2.5120     0.0930     0.0420
  363.5000   -58.5390     6.7710     7.4550     8.2000   108.1070     2.5010     0.1000     0.0410
  364.0000   -59.3570     6.5860     7.3700     8.2010   111.5100     2.4910     0.1080     0.0390
  364.5000   -60.1180     6.4060     7.2850     8.2020   111.6110     2.4820     0.1110     0.0370
  365.0000   -60.1400     6.1730     7.1430     8.2030   110.4610     2.4770     0.1140     0.0350
  365.5000   -60.1620     6.0040     6.8570     8.2040   112.0220     2.4670     0.1180     0.0320
  366.0000   -60.7300     5.7850     6.5700     8.2050   113.6150     2.4570     0.1260     0.0300
  366.5000   -61.3270     5.5450     6.2830     8.2060   106.8440     2.4510     0.1290     0.0280
  367.0000   -61.8750     5.2420     6.0040     8.2070   101.0410     2.4480     0.1330     0.0330
  367.5000   -62.8810     4.9430     5.6500     8.2080   104.6970     2.4330     0.1390     0.0360
  368.0000   -64.2550     4.6110     5.3040     8.2080   108.6620     2.4130     0.1580     0.0360
  368.5000   -64.7570     4.2820     4.9590     8.2090   109.9150     2.3750     0.1780     0.0360
  369.0000   -64.8470     3.9530     4.6140     8.2100   108.1560     2.3380     0.1980     0.0360
  369.5000   -66.0830     3.6080     4.2690     8.2130   107.8240     2.3000     0.2180     0.0390
  370.0000   -65.5870     3.4320     3.9240     8.1620   106.5780     2.2630     0.2380     0.0430
  370.5000   -64.8180     3.2470     3.5790     8.0950   102.8350     2.2380     0.2480     0.0460
  371.0000   -65.1330     3.0830     3.3820     8.1030   100.3600     2.2650     0.2280     0.0500
  371.5000   -65.6140     3.0830     3.3510     8.3890   104.1790     2.3030     0.2130     0.0390
