~VERSION INFORMATION
 VERS.                2.0:   CWLS LOG ASCII STANDARD - VERSION 2.0
 WRAP.                 NO:   ONE LINE PER DEPTH STEP
~WELL INFORMATION
#MNEM.UNIT      DATA TYPE    INFORMATION
#----------   ------------   ------------------------------
 STRT.F           19.5000:   START DEPTH
 STOP.F          690.5000:   STOP DEPTH
 STEP.F            0.5000:   STEP LENGTH
 NULL.          -999.2500:   NO VALUE
 COMP. FENIX & SCISSON INC:   COMPANY
 WELL. 37-22 SX 11 WI #3-11:   WELL
 FLD .             TEAPOT:   FIELD
 LOC .      S11 T38N R78W:   LOCATION
 CNTY.            NATRONA:   COUNTY
 STAT.            WYOMING:   STATE
 CTRY. UNITED STATES OF AMERICA:   COUNTRY
 SRVC.      Dresser Atlas:   SERVICE COMPANY
 DATE.        11-AUG-1980:   LOGDATE
 API .       490251084400:   API NUMBER
~CURVE INFORMATION
#MNEM.UNIT       API CODE    CURVE DESCRIPTION
#----------   ------------   ------------------------------
 DEPT.F                  :   
 SPR .MV     07 010 01 00:   SPONTANEOUS POTENTIAL
 SFL .OHMM   07 220 01 00:   SHALLOW FOCUSED LOG RESISTIVITY
 ILD .OHMM   07 120 46 00:   INDUCTION LOG DEEP
 ILM .OHMM   07 120 44 00:   INDUCTION LOG MEDIUM
 GRD .GAPI   45 310 01 00:   GAMMA RAY FROM DENSITY LOG
 CALD.IN     45 280 60 00:   CALIPER
 CORR.G/C3   45 356 01 00:   DENSITY CORRECTION
 RHOB.G/C3   45 350 01 00:   BULK DENSITY
 NPHI.DEC    42 890 12 00:   NEUTRON POROSITY SANDSTONE
 DPHI.DEC    45 890 12 00:   DENSITY POROSITY SANDSTONE
~PARAMETER INFORMATION
#MNEM.UNIT          VALUE    DESCRIPTION
#----------   ------------   ------------------------------
 PD  .                 GL:   PERMANENT DATUM
 EPD .F              5191:   ELEVATION PERMANENT DATUM
 LMF .                 KB:   LOG MEASURED FROM
 DAPD.F                 5:   FEET ABOVE PERMANENT DATUM
 DMF .                 KB:   DRILLING MEASURED FROM
 EKB .F              5196:   KELLING BUSHING
 EGL .F              5191:   GROUND LEVEL
 DATE.            8-11-80:   RUN DATE
 RUN .                  1:   RUN NUMBER
 DD  .F               680:   DEPTH DRILLER
 DL  .F               689:   DEPTH LOGGER
 BLI .F               687:   BOTTOM LOG INTERVAL
 TLI .F                20:   TOP LOG INTERVAL
 CS  .IN            8.625:   CASING SIZE
 BS  .IN            7.875:   BIT SIZE
 BSD .F               680:   BIT SIZE AT DEPTH
 DFT .           CHEM GEL:   DRILLING FLUID TYPE
 DFD .                9.9:   DRILLING FLUID DENSITY
 DFV .                 52:   DRILLING FLUID VISCOSITY
 DFPH.               11.5:   DRILLING FLUID PH
 DFL .                104:   DRILLING FLUID LOSS
 MSS .           FLOWLINE:   MUD SAMPLE SOURCE
 RMS .OHMM             .2:   RESISTIVITY MUD SAMPLE
 MST .F                74:   MUD SAMPLE TEMPERATURE
 RMF .OHMM            .15:   RESISTIVITY MUD FILTRATE SAMPLE
 MFST.F                74:   MUD FILTRATE SAMPLE TEMPERATURE
 RMC .OHMM            .25:   RESISTIVITY MUD CAKE
 MCST.F                74:   MUD CAKE SAMPLE TEMPERATURE
 MFSS.               CALC:   MUD FILTRATE SAMPLE SOURCE
 MCSS.               CALC:   MUD CAKE SAMPLE SOURCE
 TCS .HRS               3:   TIME CURCULATED STOPPED
 LUN .             HL6150:   LOGGING UNIT NUMBER
 LUL .                 FM:   LOGGING UNIT LOCATION
 ENGI.            BRANNEY:   RECORDING ENGINEER
 WITN.           MCINTYRE:   WITNESSED BY
 CLNT.            A2DTECH:   CLIENT CODE
 ORIG.           5" PRINT:   ORIGIN OF DATA
 UWI .       490251084400:   UNIQUE WELL ID
 DICO. A2D Technologies, Inc.:   DIGITIZING COMPANY
~OTHER INFORMATION
~A   DEPT      SPR        SFL        ILD        ILM        GRD       CALD       CORR       RHOB       NPHI       DPHI   
# ...
  488.5000   -51.9340     7.0340     4.9770     4.8750   129.9700     8.1160     0.1050     2.4920     0.2810     0.1150
  489.0000   -51.6490     8.2380     5.3230     5.1370   129.8410     8.1190     0.0730     2.4870     0.2740     0.1210
  489.5000   -51.3650     7.7250     5.6690     5.3980   128.5380     8.1240     0.0660     2.4840     0.2650     0.1180
  490.0000   -51.0800     6.7530     6.0150     5.6600   127.4250     8.1290     0.0720     2.4980     0.2690     0.1130
  490.5000   -50.7940     6.2520     6.3620     5.9220   127.0880     8.1340     0.0670     2.4870     0.2760     0.1180
  491.0000   -50.5070     6.5900     6.7920     6.1950   126.0890     8.1390     0.0580     2.4760     0.2850     0.1240
  491.5000   -50.2270     6.9470     6.6570     5.8880   125.7430     8.1440     0.0510     2.4690     0.2810     0.1290
  492.0000   -49.9050     7.3030     6.2850     5.5680   125.7530     8.1490     0.0580     2.4750     0.2730     0.1250
  492.5000   -50.0440     7.6600     5.9130     5.2470   124.1660     8.1540     0.0620     2.4840     0.2770     0.1210
  493.0000   -50.1730     8.0170     5.5410     4.9270   128.2960     8.1590     0.0510     2.4710     0.2850     0.1270
  493.5000   -50.2970     8.3140     5.1690     4.6060   127.8940     8.1640     0.0540     2.4530     0.2910     0.1330
  494.0000   -50.4200     7.5140     4.7970     4.2850   129.3110     8.1690     0.0410     2.4290     0.2990     0.1430
  494.5000   -50.4940     6.5110     4.4250     3.9650   125.2100     8.1740     0.0210     2.4040     0.2950     0.1700
  495.0000   -50.4450     5.5080     4.1340     3.7960   126.0970     8.1750     0.0400     2.3970     0.2900     0.1670
  495.5000   -50.3950     4.2540     4.4450     3.7370   127.0990     8.1770     0.0650     2.4300     0.2960     0.1600
  496.0000   -50.3450     5.3910     4.7510     3.9720   126.8450     8.1780     0.0890     2.4790     0.2990     0.1330
  496.5000   -50.2950     8.0880     5.0560     4.2560   127.0830     8.1800     0.1000     2.5100     0.2920     0.1060
  497.0000   -50.2460     7.5370     5.3610     4.5410   127.6890     8.1820     0.0620     2.4870     0.2810     0.1190
  497.5000   -50.1970     6.1960     5.6660     4.8250   128.1650     8.1840     0.0700     2.4970     0.2710     0.1130
  498.0000   -50.1470     6.5840     5.9710     5.1090   128.0660     8.1860     0.0820     2.5170     0.2660     0.0880
  498.5000   -50.0590     7.1010     6.2760     5.3920   127.8760     8.1880     0.0810     2.5370     0.2600     0.0910
  499.0000   -49.9110     7.6190     6.5810     5.6760   126.4690     8.1890     0.0690     2.5260     0.2540     0.0960
  499.5000   -49.9020     8.1360     6.8860     5.9590   125.0070     8.1910     0.0580     2.5100     0.2490     0.1030
  500.0000   -49.8700     8.6540     7.1920     6.2430   121.3790     8.1930     0.0540     2.5140     0.2520     0.1010
  500.5000   -49.8350     9.1140     7.4970     6.5260   120.8360     8.1940     0.0640     2.5210     0.2530     0.0980
  501.0000   -49.8010     9.0890     7.5940     6.6680   122.1810     8.1900     0.0740     2.5290     0.2490     0.0950
  501.5000   -49.7680     9.0420     7.6150     6.6560   121.9480     8.1860     0.0840     2.5310     0.2440     0.0920
  502.0000   -49.7340     8.9940     7.6360     6.6400   121.6690     8.1820     0.0760     2.5230     0.2430     0.0980
  502.5000   -49.6610     8.9470     7.6560     6.6250   122.6640     8.1780     0.0580     2.5060     0.2510     0.1070
  503.0000   -49.5120     8.8990     7.6770     6.6090   121.8570     8.1740     0.0640     2.5110     0.2570     0.1040
  503.5000   -49.4410     8.8520     7.6980     6.5930   123.5080     8.1700     0.0700     2.5210     0.2610     0.0980
  504.0000   -49.3720     8.8040     7.7190     6.5770   125.3860     8.1660     0.0770     2.5300     0.2570     0.0920
  504.5000   -49.3040     8.7850     7.7390     6.5610   123.9290     8.1620     0.0830     2.5390     0.2520     0.0870
  505.0000   -49.2360     8.7900     7.7600     6.5460   120.7800     8.1580     0.0770     2.5430     0.2500     0.0930
  505.5000   -49.1680     8.8010     7.7810     6.5300   122.9260     8.1540     0.0620     2.5190     0.2530     0.1000
  506.0000   -49.1010     8.8120     7.8010     6.5140   124.7890     8.1500     0.0580     2.5020     0.2550     0.1110
  506.5000   -49.0330     8.8230     7.8220     6.4980   120.7690     8.1470     0.0640     2.5110     0.2560     0.1060
  507.0000   -48.9650     8.8340     7.8430     6.4860   118.7830     8.1430     0.0710     2.5210     0.2610     0.0980
  507.5000   -48.8970     8.8450     7.8640     6.5620   120.8240     8.1400     0.0630     2.5100     0.2690     0.1060
  508.0000   -48.8300     8.8560     7.8840     6.6500   122.8840     8.1360     0.0580     2.5020     0.2660     0.1110
  508.5000   -48.7630     8.8660     7.9050     6.7370   123.3830     8.1330     0.0660     2.5100     0.2610     0.1070
  509.0000   -48.7080     8.9370     7.9260     6.8240   124.4590     8.1290     0.0600     2.5050     0.2650     0.1050
  509.5000   -48.8300     9.0160     7.9470     6.9120   124.0100     8.1260     0.0520     2.4990     0.2690     0.1120
  510.0000   -49.0110     9.0940     7.9670     6.9990   124.4560     8.1220     0.0620     2.5190     0.2730     0.1040
  510.5000   -49.1920     9.1730     7.9880     7.0860   123.2130     8.1190     0.0710     2.5310     0.2690     0.0930
  511.0000   -49.3730     9.2510     8.0140     7.1770   119.9050     8.1150     0.0600     2.5130     0.2630     0.0990
  511.5000   -49.5550     9.3300     7.3430     6.6370   116.3740     8.1120     0.0500     2.4960     0.2580     0.1110
  512.0000   -49.7320     9.4550     6.4700     5.9340   113.7410     8.1080     0.0410     2.4820     0.2520     0.1200
  512.5000   -49.7960     9.0960     5.5960     5.2310   111.8360     8.1050     0.0310     2.4610     0.2540     0.1320
  513.0000   -49.5260     7.7160     5.1320     4.5280   114.1070     8.1010     0.0210     2.4300     0.2610     0.1490
  513.5000   -49.3210     6.3350     5.0230     3.8410   117.2290     8.0970     0.0110     2.4000     0.2670     0.1700
  514.0000   -49.1210     4.9550     4.9140     3.6270   120.9170     8.0870     0.0070     2.3700     0.2740     0.1940
  514.5000   -48.9240     3.9120     4.7890     4.0420   124.5970     8.0530     0.0500     2.3500     0.2810     0.1880
  515.0000   -48.7420     7.3130     5.4650     4.7300   128.3490     8.0190     0.0980     2.4300     0.2890     0.1520
  515.5000   -48.2390    11.4690     6.2600     5.4180   129.4060     8.0010     0.1390     2.5690     0.2760     0.0740
  516.0000   -47.9680    10.9980     7.0550     6.1060   128.7920     8.0320     0.0990     2.5470     0.2540     0.0810
  516.5000   -47.8790    10.0140     7.8490     6.7930   121.2800     8.0640     0.0440     2.5140     0.2400     0.0950
  517.0000   -47.8250     9.0300     9.0310     7.4810   112.2010     8.0940     0.0330     2.5050     0.2360     0.1080
  517.5000   -47.7750     8.1620     9.0040     8.0770   113.4860     8.1070     0.0380     2.5120     0.2390     0.1040
  518.0000   -47.7240     8.6980     8.9530     7.9890   115.5180     8.1270     0.0440     2.5090     0.2390     0.1050
  518.5000   -47.6720     9.2800     8.9010     7.9010   112.0610     8.1350     0.0490     2.5130     0.2400     0.1020
  519.0000   -47.6210     9.5430     8.8500     7.8140   108.0630     8.1340     0.0510     2.5220     0.2440     0.0980
  519.5000   -47.5740     9.1730     8.7980     7.7260   111.0210     8.1270     0.0480     2.5290     0.2470     0.0950
  520.0000   -47.5430     8.9000     8.7460     7.6540   114.5640     8.1200     0.0460     2.5180     0.2420     0.1020
  520.5000   -47.3350     8.6250     8.7050     8.1510   115.5750     8.1130     0.0530     2.5250     0.2470     0.0990
  521.0000   -47.1250     9.1040     9.6410     8.5720   114.2570     8.1060     0.0580     2.5390     0.2460     0.0920
  521.5000   -46.8280     9.7060    10.5040     8.9940   115.0880     8.0990     0.0530     2.5280     0.2440     0.0970
