~VERSION INFORMATION
 VERS.                2.0:   CWLS LOG ASCII STANDARD - VERSION 2.0
 WRAP.                 NO:   ONE LINE PER DEPTH STEP
~WELL INFORMATION
#MNEM.UNIT      DATA TYPE    INFORMATION
#----------   ------------   ------------------------------
 STRT.F            3.0000:   START DEPTH
 STOP.F         3449.0000:   STOP DEPTH
 STEP.F            0.5000:   STEP LENGTH
 NULL.          -999.2500:   NO VALUE
 COMP. LAWRENCE/ALLISON INC:   COMPANY
 WELL.       NPR 3 #24-10:   WELL
 FLD .             TEAPOT:   FIELD
 LOC .      S10 T38N R78W:   LOCATION
 CNTY.            NATRONA:   COUNTY
 STAT.            WYOMING:   STATE
 CTRY. UNITED STATES OF AMERICA:   COUNTRY
 SRVC.      Dresser Atlas:   SERVICE COMPANY
 DATE.        28-JUL-1985:   LOGDATE
 API .       490251104400:   API NUMBER
~CURVE INFORMATION
#MNEM.UNIT       API CODE    CURVE DESCRIPTION
#----------   ------------   ------------------------------
 DEPT.F                  :   
 PORD.DEC    45 890 12 00:   POROSITY DENSITY SANDSTONE
 CNC .DEC    42 890 03 00:   NEUTRON POROSITY SANDSTONE
 CORR.G/C3   45 356 01 00:   DENSITY CORRECTION
 DEN .G/C3   45 350 01 00:   COMPENSATED BULK DENSTIY
 AC  .US/F   60 520 00 00:   ACCOUSTIC
 CALR.IN     07 280 01 00:   CALIPER FROM RESISTIVITY
 GRR .GAPI   07 310 01 00:   GAMMA RAY
 RFOC.OHMM   07 220 04 00:   RESISTIVITY FOCUSED LOG
 RILD.OHMM   07 120 46 00:   INDUCTION LOG DEEP RESISTIVITY
 RILM.OHMM   07 120 44 00:   INDUCTION LOG MEDIUM RESISTIVITY
 SPR .MV     07 010 01 00:   SPONTANEOUS POTENTIAL
~PARAMETER INFORMATION
#MNEM.UNIT          VALUE    DESCRIPTION
#----------   ------------   ------------------------------
 PD  .                 GL:   PERMANENT DATUM
 EPD .F              5242:   ELEVATION PERMANENT DATUM
 LMF .                 KB:   LOG MEASURED FROM
 DAPD.F                13:   FEET ABOVE PERMANENT DATUM
 DMF .                 KB:   DRILLING MEASURED FROM
 EKB .F              5255:   KELLING BUSHING
 EGL .F              5242:   GROUND LEVEL
 DATE.        28-JUL-1985:   RUN DATE
 RUN .                  1:   RUN NUMBER
 DD  .F              3451:   DEPTH DRILLER
 DL  .F              3451:   DEPTH LOGGER
 BLI .F              3449:   BOTTOM LOG INTERVAL
 CS  .IN            8.625:   CASING SIZE
 CBD .F               688:   CASING BOTTOM DRILLER
 CBL .F               686:   CASING BOTTOM LOGGER
 BS  .IN            7.875:   BIT SIZE
 BSD .F              3451:   BIT SIZE AT DEPTH
 DFT .            KCL GEL:   DRILLING FLUID TYPE
 DFD .                8.9:   DRILLING FLUID DENSITY
 DFV .                 40:   DRILLING FLUID VISCOSITY
 DFPH.                8.0:   DRILLING FLUID PH
 DFL .                 10:   DRILLING FLUID LOSS
 MSS .           FLOWLINE:   MUD SAMPLE SOURCE
 RMS .OHMM           0.87:   RESISTIVITY MUD SAMPLE
 MST .F                92:   MUD SAMPLE TEMPERATURE
 RMF .OHMM             65:   RESISTIVITY MUD FILTRATE SAMPLE
 MFST.F                92:   MUD FILTRATE SAMPLE TEMPERATURE
 RMC .OHMM           1.09:   RESISTIVITY MUD CAKE
 MCST.F                92:   MUD CAKE SAMPLE TEMPERATURE
 MFSS.               CALC:   MUD FILTRATE SAMPLE SOURCE
 MCSS.               CALC:   MUD CAKE SAMPLE SOURCE
 RMB .OHMM            .66:   RESISTIVITY MUD AT BHT
 BHT .F               121:   BOTTOM HOLE TEMPERATURE
 TCS .HRS               4:   TIME CURCULATED STOPPED
 MRT .F               121:   MAXIMUM RECORDED TEMPERATURE
 LUN .               6264:   LOGGING UNIT NUMBER
 LUL .               GLTE:   LOGGING UNIT LOCATION
 ENGI.           FAHLSING:   RECORDING ENGINEER
 WITN.             STRONG:   WITNESSED BY
 CLNT.            A2DTECH:   CLIENT CODE
 ORIG.        2" 5" PRINT:   ORIGIN OF DATA
 UWI .       490251104400:   UNIQUE WELL ID
 DICO. A2D Technologies, Inc.:   DIGITIZING COMPANY
 R1  . POROSITY WITH SANDSTONE:   REMARKS 1
~OTHER INFORMATION
~A    DEPT    PORD        CNC       CORR        DEN         AC       CALR         GRR      RFOC       RILD       RILM        SPR   
# ...
 2138.0000  -999.2500  -999.2500  -999.2500  -999.2500  -999.2500     8.2847   136.1369     8.4471     7.0180     7.3482   -46.3495
 2138.5000  -999.2500  -999.2500  -999.2500  -999.2500  -999.2500     8.2845   130.6987     8.5633     7.0180     7.3477   -46.2003
 2139.0000  -999.2500  -999.2500  -999.2500  -999.2500  -999.2500     8.2842   125.0359     8.6812     7.0180     7.3472   -46.0512
 2139.5000  -999.2500  -999.2500  -999.2500  -999.2500  -999.2500     8.2989   122.5406     8.7394     7.0180     7.2959   -46.2093
 2140.0000  -999.2500  -999.2500  -999.2500  -999.2500  -999.2500     8.2987   122.0814     8.7984     7.0668     7.2449   -46.8072
 2140.5000  -999.2500  -999.2500  -999.2500  -999.2500  -999.2500     8.2983   125.0726     8.7964     7.0668     7.1943   -47.4114
 2141.0000  -999.2500  -999.2500  -999.2500  -999.2500  -999.2500     8.2980   127.5734     8.6736     7.0668     7.2440   -47.7141
 2141.5000  -999.2500  -999.2500  -999.2500  -999.2500  -999.2500     8.3129   123.6435     8.5439     7.1160     7.2938   -48.0168
 2142.0000  -999.2500  -999.2500  -999.2500  -999.2500  -999.2500     8.3125   120.4695     8.3741     7.1160     7.3442   -48.0183
 2142.5000  -999.2500  -999.2500  -999.2500  -999.2500  -999.2500     8.3273   119.7858     8.3724     7.1655     7.3949   -48.0197
 2143.0000  -999.2500  -999.2500  -999.2500  -999.2500  -999.2500     8.3421   123.3974     8.4876     7.2154     7.4976   -47.6729
 2143.5000  -999.2500  -999.2500  -999.2500  -999.2500  -999.2500     8.3569   126.5581     8.6044     7.2154     7.5494   -47.3970
 2144.0000  -999.2500  -999.2500  -999.2500  -999.2500  -999.2500     8.3716   123.3841     8.7228     7.1655     7.5488   -47.1211
 2144.5000  -999.2500  -999.2500  -999.2500  -999.2500  -999.2500     8.3713   121.3429     8.7822     7.1655     7.5483   -46.8209
 2145.0000  -999.2500  -999.2500  -999.2500  -999.2500  -999.2500     8.3710   125.1807     8.9026     7.1160     7.4437   -46.6714
 2145.5000  -999.2500  -999.2500  -999.2500  -999.2500  -999.2500     8.3708   128.3415     9.0251     7.1160     7.3801   -46.5226
 2146.0000  -999.2500  -999.2500  -999.2500  -999.2500  -999.2500     8.3704   128.7873     9.0865     7.1160     7.3633   -46.3735
 2146.5000  -999.2500  -999.2500  -999.2500  -999.2500  -999.2500     8.3701   125.8015     9.0842     7.1160     7.3465   -46.5256
 2147.0000  -999.2500  -999.2500  -999.2500  -999.2500  -999.2500     8.3698   124.4373     8.7121     7.1160     7.3360   -46.5431
 2147.5000  -999.2500  -999.2500  -999.2500  -999.2500  -999.2500     8.3695   124.0163     8.2976     7.1160     7.3360   -46.9807
 2148.0000  -999.2500  -999.2500  -999.2500  -999.2500  -999.2500     8.3692   129.2116     7.9518     7.1160     7.3360   -47.2834
 2148.5000  -999.2500  -999.2500  -999.2500  -999.2500  -999.2500     8.3689   135.0873     7.9011     7.1655     7.3750   -47.5861
 2149.0000  -999.2500  -999.2500  -999.2500  -999.2500  -999.2500     8.3686   140.5105     8.5253     7.0668     7.5002   -47.7381
 2149.5000  -999.2500  -999.2500  -999.2500  -999.2500  -999.2500     8.3532   141.8630     9.0726     7.0668     7.5951   -47.7396
 2150.0000  -999.2500  -999.2500  -999.2500  -999.2500  -999.2500     8.3379   138.6872     9.2619     7.2154     7.6480   -47.7331
 2150.5000  -999.2500  -999.2500  -999.2500  -999.2500  -999.2500     8.3300   140.7168     9.1654     7.4183     7.7549   -47.6868
 2151.0000  -999.2500  -999.2500  -999.2500  -999.2500  -999.2500     8.3222   143.8775     9.0762     7.5743     7.8089   -47.6405
 2151.5000  -999.2500  -999.2500  -999.2500  -999.2500  -999.2500     8.3143   147.0383     8.9870     7.7336     7.8633   -47.5949
 2152.0000  -999.2500  -999.2500  -999.2500  -999.2500  -999.2500     8.3065   151.1220     8.9436     7.5743     7.8692   -47.5964
 2152.5000  -999.2500  -999.2500  -999.2500  -999.2500  -999.2500     8.2986   150.8935     8.9492     7.4700     7.9181   -47.4473
 2153.0000  -999.2500  -999.2500  -999.2500  -999.2500  -999.2500     8.3086   146.1400     9.0673     7.4700     7.9270   -47.4304
 2153.5000  -999.2500  -999.2500  -999.2500  -999.2500  -999.2500     8.2936   145.0071     9.1933     7.5220     8.0392   -47.1490
 2154.0000  -999.2500  -999.2500  -999.2500  -999.2500  -999.2500     8.2938   148.8504     9.2566     7.6801     8.1977   -46.9760
 2154.5000  -999.2500  -999.2500  -999.2500  -999.2500  -999.2500     8.2789   150.3056     9.3204     7.8416     8.3701   -46.8508
 2155.0000  -999.2500  -999.2500  -999.2500  -999.2500  -999.2500     8.2791   152.2395     9.3846     8.0064     8.5463   -46.8527
 2155.5000  -999.2500  -999.2500  -999.2500  -999.2500  -999.2500     8.2792   150.6536     9.5149     8.1183     8.6657   -46.8542
 2156.0000  -999.2500  -999.2500  -999.2500  -999.2500  -999.2500     8.2794   142.3366     9.6471     8.2890     8.7869   -46.8557
 2156.5000  -999.2500  -999.2500  -999.2500  -999.2500  -999.2500     8.2795   135.7172     9.7814     8.4047     8.9097   -46.8572
 2157.0000  -999.2500  -999.2500  -999.2500  -999.2500  -999.2500     8.2797   136.3936     9.9863     8.4632     8.9717   -46.7077
 2157.5000  -999.2500  -999.2500  -999.2500  -999.2500  -999.2500     8.2798   140.0113    10.2664     8.5814     9.0342   -46.5586
 2158.0000  -999.2500  -999.2500  -999.2500  -999.2500  -999.2500     8.2800   142.9502    10.4817     8.6412     9.0342   -46.2593
 2158.5000  -999.2500  -999.2500  -999.2500  -999.2500  -999.2500     8.2801   141.5812    10.7011     8.7013     9.0971   -46.1102
 2159.0000  -999.2500  -999.2500  -999.2500  -999.2500  -999.2500     8.2803   136.1335    10.7004     8.7013     9.0971   -45.9607
 2159.5000  -999.2500  -999.2500  -999.2500  -999.2500  -999.2500     8.2804   132.9567    10.6996     8.6412     9.0342   -45.8116
 2160.0000  -999.2500  -999.2500  -999.2500  -999.2500  -999.2500     8.2806   131.4028    10.4786     8.5221     8.9097   -45.9641
 2160.5000  -999.2500  -999.2500  -999.2500  -999.2500  -999.2500     8.2958   133.7214     9.9813     8.3466     8.6657   -46.2668
 2161.0000  -999.2500  -999.2500  -999.2500  -999.2500  -999.2500     8.2959   135.9711     9.9117     8.1748     8.4284   -47.0213
 2161.5000  -999.2500  -999.2500  -999.2500  -999.2500  -999.2500     8.3112   137.7592     9.8425     8.0622     8.2548   -47.4746
 2162.0000  -999.2500  -999.2500  -999.2500  -999.2500  -999.2500     8.3113   138.8926     8.9933     8.0064     8.0847   -47.6267
 2162.5000  -999.2500  -999.2500  -999.2500  -999.2500  -999.2500     8.3115   139.3100     8.8688     7.9511     8.0847   -47.6282
 2163.0000  -999.2500  -999.2500  -999.2500  -999.2500  -999.2500     8.3267   138.1898     8.9920     7.9511     8.0847   -47.6297
 2163.5000  -999.2500  -999.2500  -999.2500  -999.2500  -999.2500     8.3269   133.6489     9.3087     7.8962     8.1410   -47.3300
 2164.0000  -999.2500  -999.2500  -999.2500  -999.2500  -999.2500     8.3119   131.8367     9.5699     7.8962     8.1977   -47.1805
 2164.5000  -999.2500  -999.2500  -999.2500  -999.2500  -999.2500     8.3121   133.6444     9.6360     7.8962     8.1977   -46.7306
 2165.0000  -999.2500  -999.2500  -999.2500  -999.2500  -999.2500     8.2971   134.3214     9.6351     7.7874     8.1977   -46.4305
 2165.5000  -999.2500  -999.2500  -999.2500  -999.2500  -999.2500     8.2973   132.2824     9.5018     7.7336     8.1977   -46.1308
 2166.0000  -999.2500  -999.2500  -999.2500  -999.2500  -999.2500     8.2823   131.6020     9.2412     7.6801     8.1410   -45.8311
 2166.5000  -999.2500  -999.2500  -999.2500  -999.2500  -999.2500     8.2825   133.1829     9.0502     7.6801     8.0847   -45.6820
 2167.0000  -999.2500  -999.2500  -999.2500  -999.2500  -999.2500     8.2827   132.5019     8.9871     7.6801     7.9732   -45.6839
 2167.5000  -999.2500  -999.2500  -999.2500  -999.2500  -999.2500     8.2979   129.3322     9.2392     7.6801     7.9181   -45.9866
 2168.0000  -999.2500  -999.2500  -999.2500  -999.2500  -999.2500     8.2981   126.1626     9.6312     7.6801     7.9181   -46.4399
