~VERSION INFORMATION
 VERS.                2.0:   CWLS LOG ASCII STANDARD - VERSION 2.0
 WRAP.                 NO:   ONE LINE PER DEPTH STEP
~WELL INFORMATION
#MNEM.UNIT      DATA TYPE    INFORMATION
#----------   ------------   ------------------------------
 STRT.F          372.0000:   START DEPTH
 STOP.F         1845.0000:   STOP DEPTH
 STEP.F            0.5000:   STEP LENGTH
 NULL.          -999.2500:   NO VALUE
 COMP.             T.H.E.:   COMPANY
 WELL. 63-1-STX-29 #63-29:   WELL
 FLD .             TEAPOT:   FIELD
 LOC .      S29 T39N R78W:   LOCATION
 CNTY.            NATRONA:   COUNTY
 STAT.            WYOMING:   STATE
 CTRY. UNITED STATES OF AMERICA:   COUNTRY
 SRVC.            Unknown:   SERVICE COMPANY
 DATE.        20-MAY-1996:   LOGDATE
 API .       490252279200:   API NUMBER
~CURVE INFORMATION
#MNEM.UNIT       API CODE    CURVE DESCRIPTION
#----------   ------------   ------------------------------
 DEPT.F                  :   
 ROP .MIN/FT 91 810 01 00:   RATE OF DRILLING PENETRATION
 TGAS.UNITS  91 830 01 00:   TOTAL GAS FROM HOTWIRE
~PARAMETER INFORMATION
#MNEM.UNIT          VALUE    DESCRIPTION
#----------   ------------   ------------------------------
 EKB .F              4983:   KELLING BUSHING
 EGL .F              4973:   GROUND LEVEL
 DATE.          5-20-1996:   RUN DATE
 RUN .                  1:   RUN NUMBER
 BLI .F              1845:   BOTTOM LOG INTERVAL
 TLI .F               372:   TOP LOG INTERVAL
 CS  .IN                7:   CASING SIZE
 CBD .F               354:   CASING BOTTOM DRILLER
 ENGI.   C. TOWER/R. HUSK:   RECORDING ENGINEER
 CLNT.            A2DTECH:   CLIENT CODE
 ORIG.           5" PRINT:   ORIGIN OF DATA
 UWI .       490252279200:   UNIQUE WELL ID
 DICO. A2D Technologies, Inc.:   DIGITIZING COMPANY
~OTHER INFORMATION
~A   DEPT        ROP     TGAS   
# ...
 1101.0000     0.5061     0.6317
 1101.5000     0.5060     0.6305
 1102.0000     0.5059     0.6296
 1102.5000     0.5058     0.6285
 1103.0000     0.5057     0.6293
 1103.5000     0.5056     0.6315
 1104.0000     0.5055     0.6337
 1104.5000     0.5054     0.6359
 1105.0000     0.5053     0.6381
 1105.5000     0.5051     0.6403
 1106.0000     0.5050     0.6425
 1106.5000     0.5049     0.6446
 1107.0000     0.5154     0.6468
 1107.5000     0.5047     0.6490
 1108.0000     0.5046     0.6512
 1108.5000     0.5045     0.6534
 1109.0000     0.5044     0.6556
 1109.5000     0.5043     0.6578
 1110.0000     0.5042     0.6600
 1110.5000     0.5885     0.6622
 1111.0000     0.6412     0.6644
 1111.5000     0.6516     0.6666
 1112.0000     0.6515     0.6687
 1112.5000     0.6514     0.6709
 1113.0000     0.6512     0.6731
 1113.5000     0.6511     0.6753
 1114.0000     0.6510     0.6775
 1114.5000     0.6509     0.6797
 1115.0000     0.6508     0.6819
 1115.5000     0.6507     0.6841
 1116.0000     0.6506     0.6863
 1116.5000     0.6505     0.6885
 1117.0000     0.6504     0.6907
 1117.5000     0.6503     0.6928
 1118.0000     0.6502     0.6950
 1118.5000     0.6501     0.6972
 1119.0000     0.6500     0.6994
 1119.5000     0.6499     0.7016
 1120.0000     0.6498     0.7038
 1120.5000     0.6391     0.7060
 1121.0000     0.6285     0.7082
 1121.5000     0.6178     0.7104
 1122.0000     1.0186     0.7126
 1122.5000     1.0396     0.7147
 1123.0000     1.0289     0.7169
 1123.5000     1.0182     0.7191
 1124.0000     1.0076     0.7213
 1124.5000     1.0075     0.7235
 1125.0000     1.0074     0.7257
 1125.5000     1.0073     0.7279
 1126.0000     1.0072     0.7301
 1126.5000     1.0071     0.7323
 1127.0000     1.0069     0.7345
 1127.5000     0.9963     0.7367
 1128.0000     0.6692     0.7388
 1128.5000     0.6374     0.7410
 1129.0000     0.6373     0.7432
 1129.5000     0.6478     0.7454
 1130.0000     0.6477     0.7476
 1130.5000     0.6480     0.7498
 1131.0000     0.6484     0.7520
 1131.5000     0.6489     0.7542
 1132.0000     0.6493     0.7564
 1132.5000     0.6497     0.7586
 1133.0000     0.6501     0.7608
 1133.5000     0.6506     0.7629
 1134.0000     0.6510     0.7651
 1134.5000     0.6514     0.7673
 1135.0000     0.6519     0.7695
 1135.5000     0.6523     0.7717
 1136.0000     0.6527     0.7739
 1136.5000     0.6532     0.7761
 1137.0000     0.6536     0.7783
 1137.5000     0.6540     0.7805
 1138.0000     0.6545     0.7827
 1138.5000     0.6549     0.7849
 1139.0000     0.6553     0.7870
 1139.5000     0.6558     0.7892
 1140.0000     0.6561     0.7914
 1140.5000     0.6454     0.7936
 1141.0000     0.6348     0.7958
 1141.5000     0.6453     0.7980
 1142.0000     0.7717     0.8002
 1142.5000     0.7927     0.8024
 1143.0000     0.7926     0.8046
 1143.5000     0.7925     0.8068
 1144.0000     0.8873     0.8090
 1144.5000     1.4358     0.8111
 1145.0000     1.4356     0.8133
 1145.5000     1.4355     0.8155
 1146.0000     1.4354     0.8177
 1146.5000     1.1294     0.8199
 1147.0000     1.1293     0.8221
 1147.5000     1.1292     0.8243
 1148.0000     1.3084     0.8265
 1148.5000     1.3189     0.8287
 1149.0000     1.3188     0.8309
 1149.5000     1.3081     0.8330
 1150.0000     1.3080     0.8352
 1150.5000     1.0436     0.8374
 1151.0000     1.0429     0.8396
 1151.5000     1.0423     0.8418
 1152.0000     1.0417     0.8440
 1152.5000     1.2943     0.8462
 1153.0000     1.2936     0.8484
 1153.5000     1.3036     0.8506
 1154.0000     1.3029     0.8528
 1154.5000     1.7981     0.8550
 1155.0000     1.7974     0.8571
 1155.5000     1.8075     0.8593
 1156.0000     1.8067     0.8615
 1156.5000     1.3525     0.8637
 1157.0000     1.2886     0.8659
 1157.5000     1.2879     0.8681
 1158.0000     1.0235     0.8703
 1158.5000     1.0018     0.8725
 1159.0000     0.9906     0.8747
 1159.5000     0.9900     0.8769
 1160.0000     0.9789     0.8791
 1160.5000     0.9044     0.8812
 1161.0000     0.8931     0.8834
 1161.5000     0.8925     0.8856
 1162.0000     0.8919     0.8878
 1162.5000     0.8913     0.8900
 1163.0000     0.8907     0.8922
 1163.5000     0.8900     0.8944
 1164.0000     0.8894     0.8966
 1164.5000     0.9625     0.8988
 1165.0000     0.9832     0.9010
 1165.5000     0.9719     0.9032
 1166.0000     0.9712     0.9053
 1166.5000     1.2343     0.9075
 1167.0000     1.2655     0.9097
 1167.5000     1.2542     0.9119
 1168.0000     1.6332     0.9141
 1168.5000     1.8016     0.9163
 1169.0000     1.7797     0.9185
 1169.5000     1.7790     0.9207
 1170.0000     1.7679     0.9229
 1170.5000     1.4825     0.9251
 1171.0000     1.4817     0.9272
 1171.5000     1.4811     0.9294
 1172.0000     0.6472     0.9316
 1172.5000     0.5094     0.9338
 1173.0000     0.5088     0.9360
 1173.5000     0.5188     0.9382
 1174.0000     0.5181     0.9404
 1174.5000     0.5174     0.9426
 1175.0000     0.5275     0.9448
 1175.5000     0.5267     0.9470
 1176.0000     0.5261     0.9492
 1176.5000     0.5360     0.9513
 1177.0000     0.5354     0.9535
 1177.5000     0.5453     0.9557
 1178.0000     0.5446     0.9579
 1178.5000     0.5547     0.9601
 1179.0000     0.5647     0.9623
 1179.5000     0.5639     0.9645
 1180.0000     0.5632     0.9667
 1180.5000     0.6470     0.9689
 1181.0000     0.6781     0.9711
 1181.5000     0.6668     0.9733
 1182.0000     0.6769     0.9754
 1182.5000     0.7710     0.9776
 1183.0000     0.7916     0.9798
 1183.5000     0.7803     0.9820
 1184.0000     1.2860     0.9842
 1184.5000     1.2853     0.9864
 1185.0000     1.2847     0.9886
 1185.5000     1.2841     0.9908
 1186.0000     0.8826     0.9930
 1186.5000     0.8820     0.9952
 1187.0000     0.8920     0.9974
 1187.5000     0.8913     0.9995
 1188.0000     0.8273     1.0017
 1188.5000     0.8056     1.0039
 1189.0000     0.8050     1.0061
 1189.5000     0.8044     1.0083
 1190.0000     0.8037     1.0105
 1190.5000     0.8031     1.0127
 1191.0000     0.8024     1.0149
 1191.5000     0.8018     1.0171
 1192.0000     0.5164     1.0193
 1192.5000     0.5053     1.0215
 1193.0000     0.5152     1.0236
 1193.5000     0.5145     1.0258
 1194.0000     0.5139     1.0280
 1194.5000     0.5132     1.0302
 1195.0000     0.5126     1.0324
 1195.5000     0.5119     1.0346
 1196.0000     0.5219     1.0368
 1196.5000     1.0382     1.0390
 1197.0000     1.0375     1.0412
 1197.5000     1.0369     1.0434
 1198.0000     1.0256     1.0455
 1198.5000     0.7929     1.0477
 1199.0000     0.7923     1.0499
 1199.5000     0.8024     1.0521
 1200.0000     0.8016     1.0511
 1200.5000     0.5479     1.0402
 1201.0000     0.5260     1.0293
 1201.5000     0.5362     1.0184
 1202.0000     0.5354     1.0075
 1202.5000     0.5347     0.9965
 1203.0000     0.5359     0.9856
 1203.5000     0.5427     0.9747
 1204.0000     0.5517     0.9638
 1204.5000     0.5579     0.9529
 1205.0000     0.5579     0.9419
 1205.5000     0.5474     0.9310
 1206.0000     0.5474     0.9201
 1206.5000     0.5804     0.9092
 1207.0000     0.6842     0.8983
 1207.5000     0.6842     0.8873
 1208.0000     0.6884     0.8764
 1208.5000     0.6842     0.8655
 1209.0000     0.6842     0.8546
 1209.5000     0.6842     0.8437
 1210.0000     0.6842     0.8328
 1210.5000     0.6842     0.8218
 1211.0000     0.6818     0.8109
 1211.5000     0.6737     0.8000
 1212.0000     0.9158     0.7891
 1212.5000     0.9053     0.7782
 1213.0000     0.9053     0.7672
 1213.5000     0.9045     0.7563
 1214.0000     0.9036     0.7454
 1214.5000     1.1474     0.7345
 1215.0000     1.1474     0.7236
 1215.5000     1.1368     0.7126
 1216.0000     1.1579     0.7017
 1216.5000     1.3474     0.6908
 1217.0000     1.3474     0.6799
 1217.5000     1.3474     0.6690
 1218.0000     1.3436     0.6580
 1218.5000     0.6737     0.6471
 1219.0000     0.6689     0.6362
 1219.5000     0.6737     0.6253
 1220.0000     0.6737     0.6144
 1220.5000     0.8000     0.6034
 1221.0000     0.8000     0.5925
 1221.5000     0.8000     0.5816
 1222.0000     0.8000     0.5707
