~VERSION INFORMATION
 VERS.                2.0:   CWLS LOG ASCII STANDARD - VERSION 2.0
 WRAP.                 NO:   ONE LINE PER DEPTH STEP
~WELL INFORMATION
#MNEM.UNIT      DATA TYPE    INFORMATION
#----------   ------------   ------------------------------
 STRT.F          442.0000:   START DEPTH
 STOP.F         2636.0000:   STOP DEPTH
 STEP.F            0.5000:   STEP LENGTH
 NULL.          -999.2500:   NO VALUE
 COMP. FENIX & SCISSON INC:   COMPANY
 WELL.     25 SHX 2 #25-2:   WELL
 FLD .             TEAPOT:   FIELD
 LOC .       S2 T38N R78W:   LOCATION
 CNTY.            NATRONA:   COUNTY
 STAT.            WYOMING:   STATE
 CTRY. UNITED STATES OF AMERICA:   COUNTRY
 SRVC.              Welex:   SERVICE COMPANY
 DATE.        07-JUN-1980:   LOGDATE
 API .       490251080200:   API NUMBER
~CURVE INFORMATION
#MNEM.UNIT       API CODE    CURVE DESCRIPTION
#----------   ------------   ------------------------------
 DEPT.F                  :   
 CALD.IN     45 280 60 00:   CALIPER
 GRD .GAPI   45 310 01 00:   GAMMA RAY FROM DENSITY LOG
 DPHI.DEC    45 890 12 00:   DENSITY POROSITY SANDSTONE
 CORR.G/C3   45 356 01 00:   DENSITY CORRECTION
 RHOB.G/C3   45 350 01 00:   BULK DENSITY
~PARAMETER INFORMATION
#MNEM.UNIT          VALUE    DESCRIPTION
#----------   ------------   ------------------------------
 PD  .                 GL:   PERMANENT DATUM
 EPD .F              5120:   ELEVATION PERMANENT DATUM
 LMF .                 KB:   LOG MEASURED FROM
 DAPD.F                10:   FEET ABOVE PERMANENT DATUM
 DMF .                 KB:   DRILLING MEASURED FROM
 EKB .F              5130:   KELLING BUSHING
 EGL .F              5120:   GROUND LEVEL
 DATE.             6-7-80:   RUN DATE
 RUN .                  1:   RUN NUMBER
 DD  .F              2652:   DEPTH DRILLER
 DL  .F              2638:   DEPTH LOGGER
 BLI .F              2636:   BOTTOM LOG INTERVAL
 TLI .F              1224:   TOP LOG INTERVAL
 BS  .IN             6.75:   BIT SIZE
 BSD .F              2652:   BIT SIZE AT DEPTH
 DFT .        AIR DRILLED:   DRILLING FLUID TYPE
 TCS .HRS               2:   TIME CURCULATED STOPPED
 MRT .F               125:   MAXIMUM RECORDED TEMPERATURE
 ENGI.               REIN:   RECORDING ENGINEER
 WITN.           DINSMORE:   WITNESSED BY
 CLNT.            A2DTECH:   CLIENT CODE
 ORIG.           5" PRINT:   ORIGIN OF DATA
 UWI .       490251080200:   UNIQUE WELL ID
 DICO. A2D Technologies, Inc.:   DIGITIZING COMPANY
~OTHER INFORMATION
~A   DEPT     CALD         GRD      DPHI       CORR       RHOB   
# ...
 2211.0000     8.8474    78.7247     0.1287     0.0751     2.4318
 2211.5000     8.8474    77.6886     0.1250     0.0929     2.4460
 2212.0000     8.8474    76.5291     0.1223     0.1004     2.4552
 2212.5000     8.8474    75.3748     0.1243     0.0903     2.4412
 2213.0000     8.8474    74.2238     0.1252     0.0790     2.4265
 2213.5000     8.8474    73.0688     0.1228     0.0918     2.4449
 2214.0000     8.8474    72.8306     0.1202     0.1036     2.4623
 2214.5000     8.8474    73.3795     0.1199     0.0882     2.4535
 2215.0000     8.8474    73.3684     0.1206     0.0854     2.4413
 2215.5000     8.8474    73.4540     0.1199     0.0930     2.4595
 2216.0000     8.8474    73.6821     0.1239     0.0821     2.4442
 2216.5000     8.8474    73.5074     0.1281     0.0712     2.4227
 2217.0000     8.8474    73.1127     0.1297     0.0606     2.4161
 2217.5000     8.8474    72.8454     0.1286     0.0554     2.4241
 2218.0000     8.8474    72.6418     0.1273     0.0501     2.4259
 2218.5000     8.8474    72.7522     0.1271     0.0549     2.4182
 2219.0000     8.8474    72.9410     0.1271     0.0619     2.4377
 2219.5000     8.8474    72.3612     0.1320     0.0552     2.4303
 2220.0000     8.8474    71.9986     0.1367     0.0492     2.4232
 2220.5000     8.8474    71.7314     0.1283     0.0641     2.4386
 2221.0000     8.8474    71.4636     0.1279     0.0538     2.4293
 2221.5000     8.8474    71.1973     0.1339     0.0507     2.4276
 2222.0000     8.8474    70.9260     0.1260     0.0609     2.4422
 2222.5000     8.8474    71.1495     0.1219     0.0710     2.4531
 2223.0000     8.8474    71.7672     0.1219     0.0771     2.4539
 2223.5000     8.8474    72.3820     0.1195     0.0777     2.4599
 2224.0000     8.8474    72.7245     0.1228     0.0642     2.4312
 2224.5000     8.8474    72.5634     0.1243     0.0643     2.4266
 2225.0000     8.8474    72.4048     0.1215     0.0697     2.4407
 2225.5000     8.8449    72.5656     0.1187     0.0753     2.4376
 2226.0000     8.8410    72.7943     0.1186     0.0826     2.4312
 2226.5000     8.8371    73.0246     0.1140     0.1012     2.4591
 2227.0000     8.8331    73.2540     0.1072     0.1167     2.4689
 2227.5000     8.8291    73.4866     0.1053     0.1164     2.4763
 2228.0000     8.8274    73.6128     0.1048     0.1050     2.4677
 2228.5000     8.8267    73.7202     0.1148     0.0927     2.4528
 2229.0000     8.8260    74.0768     0.1164     0.0944     2.4532
 2229.5000     8.8254    74.5355     0.1145     0.0999     2.4591
 2230.0000     8.8247    74.9997     0.1150     0.0888     2.4521
 2230.5000     8.8241    75.4638     0.1279     0.0694     2.4230
 2231.0000     8.8234    75.9283     0.1303     0.0663     2.4165
 2231.5000     8.8228    76.4080     0.1283     0.0724     2.4156
 2232.0000     8.8221    76.5765     0.1243     0.0824     2.4290
 2232.5000     8.8215    76.6582     0.1219     0.0844     2.4398
 2233.0000     8.8208    76.5991     0.1235     0.0748     2.4337
 2233.5000     8.8202    76.2610     0.1287     0.0586     2.4204
 2234.0000     8.8195    76.0481     0.1219     0.0713     2.4344
 2234.5000     8.8188    75.9442     0.1279     0.0561     2.4362
 2235.0000     8.8182    76.4921     0.1222     0.0670     2.4222
 2235.5000     8.8175    77.0730     0.1211     0.0775     2.4385
 2236.0000     8.8169    77.6511     0.1207     0.0733     2.4323
 2236.5000     8.8162    78.2286     0.1218     0.0687     2.4362
 2237.0000     8.8156    78.8079     0.1223     0.0696     2.4314
 2237.5000     8.8149    79.3854     0.1174     0.0834     2.4437
 2238.0000     8.8143    79.5895     0.1108     0.0966     2.4579
 2238.5000     8.8136    79.7685     0.1068     0.1086     2.4724
 2239.0000     8.8130    79.9490     0.1119     0.1082     2.4713
 2239.5000     8.8123    80.1282     0.1187     0.1018     2.4605
 2240.0000     8.8117    80.2145     0.1272     0.0814     2.4397
 2240.5000     8.8110    80.0250     0.1356     0.0614     2.4191
 2241.0000     8.8103    79.7266     0.1441     0.0462     2.3987
 2241.5000     8.8097    78.6126     0.1488     0.0539     2.3871
 2242.0000     8.8090    77.0302     0.1451     0.0619     2.3940
 2242.5000     8.8083    75.2309     0.1423     0.0699     2.4042
 2243.0000     8.8091    74.8721     0.1393     0.0779     2.4081
 2243.5000     8.8104    74.4797     0.1341     0.0843     2.4191
 2244.0000     8.8116    74.1312     0.1342     0.0809     2.4226
 2244.5000     8.8128    74.0520     0.1370     0.0779     2.4128
 2245.0000     8.8140    73.9305     0.1216     0.0883     2.4438
 2245.5000     8.8153    72.9685     0.1170     0.1003     2.4521
 2246.0000     8.8165    71.9698     0.1161     0.0897     2.4437
 2246.5000     8.8177    70.9730     0.1116     0.0993     2.4586
 2247.0000     8.8190    69.9814     0.1200     0.0784     2.4433
 2247.5000     8.8202    68.8639     0.1259     0.0571     2.4302
 2248.0000     8.8214    67.6942     0.1267     0.0581     2.4275
 2248.5000     8.8226    66.8917     0.1230     0.0638     2.4361
 2249.0000     8.8239    66.5322     0.1239     0.0616     2.4330
 2249.5000     8.8251    66.0669     0.1211     0.0674     2.4421
 2250.0000     8.8263    65.5989     0.1191     0.0707     2.4455
 2250.5000     8.8276    65.1239     0.1241     0.0647     2.4341
 2251.0000     8.8288    65.3373     0.1275     0.0669     2.4257
 2251.5000     8.8300    65.6086     0.1204     0.0705     2.4431
 2252.0000     8.8312    65.8772     0.1189     0.0741     2.4501
 2252.5000     8.8325    66.1439     0.1230     0.0730     2.4374
 2253.0000     8.8337    66.4039     0.1255     0.0569     2.4427
 2253.5000     8.8349    67.1904     0.1342     0.0397     2.4081
 2254.0000     8.8362    68.1244     0.1395     0.0355     2.3927
 2254.5000     8.8374    69.0579     0.1309     0.0539     2.4165
 2255.0000     8.8386    69.8384     0.1300     0.0629     2.4140
 2255.5000     8.8398    70.3652     0.1286     0.0712     2.4153
 2256.0000     8.8411    70.9024     0.1263     0.0872     2.4222
 2256.5000     8.8423    71.6641     0.1247     0.0953     2.4356
 2257.0000     8.8435    72.7591     0.1281     0.0817     2.4208
 2257.5000     8.8448    73.3768     0.1351     0.0724     2.4060
 2258.0000     8.8460    73.3279     0.1310     0.0792     2.4104
 2258.5000     8.8472    72.4687     0.1243     0.0857     2.4281
 2259.0000     8.8457    71.6145     0.1248     0.0902     2.4310
 2259.5000     8.8438    71.0564     0.1301     0.0773     2.4197
 2260.0000     8.8420    71.3444     0.1273     0.0817     2.4198
 2260.5000     8.8401    71.6076     0.1262     0.0891     2.4284
 2261.0000     8.8382    71.8275     0.1300     0.0806     2.4187
 2261.5000     8.8363    71.9366     0.1347     0.0701     2.4069
 2262.0000     8.8344    71.8137     0.1355     0.0750     2.4004
 2262.5000     8.8325    71.6685     0.1323     0.0834     2.4265
 2263.0000     8.8307    71.9065     0.1333     0.0887     2.4260
 2263.5000     8.8288    72.1398     0.1330     0.0797     2.4219
 2264.0000     8.8269    72.0580     0.1337     0.0709     2.4101
 2264.5000     8.8250    71.2681     0.1336     0.0661     2.4037
 2265.0000     8.8231    70.4813     0.1319     0.0707     2.4168
 2265.5000     8.8212    69.5514     0.1343     0.0641     2.4164
 2266.0000     8.8194    68.3886     0.1316     0.0709     2.4021
 2266.5000     8.8175    67.2292     0.1271     0.0833     2.4376
 2267.0000     8.8156    66.0688     0.1350     0.0713     2.4203
 2267.5000     8.8137    64.9007     0.1327     0.0645     2.4245
 2268.0000     8.8118    64.2923     0.1284     0.0702     2.4343
 2268.5000     8.8099    64.1029     0.1230     0.0854     2.4489
 2269.0000     8.8083    64.4277     0.1176     0.1016     2.4653
 2269.5000     8.8088    64.7892     0.1155     0.0961     2.4563
 2270.0000     8.8093    65.1512     0.1184     0.0852     2.4422
 2270.5000     8.8098    65.5132     0.1221     0.0811     2.4379
 2271.0000     8.8104    65.9411     0.1231     0.0856     2.4512
 2271.5000     8.8109    66.4412     0.1261     0.0848     2.4516
