~VERSION INFORMATION
 VERS.                2.0:   CWLS LOG ASCII STANDARD - VERSION 2.0
 WRAP.                 NO:   ONE LINE PER DEPTH STEP
~WELL INFORMATION
#MNEM.UNIT      DATA TYPE    INFORMATION
#----------   ------------   ------------------------------
 STRT.F           11.0000:   START DEPTH
 STOP.F          804.0000:   STOP DEPTH
 STEP.F            0.1000:   STEP LENGTH
 NULL.          -999.2500:   NO VALUE
 COMP. BROWN JOHN E&C INC:   COMPANY
 WELL. 72-1 STX-34 #72-34:   WELL
 FLD .             TEAPOT:   FIELD
 LOC .      S34 T39N R78W:   LOCATION
 CNTY.            NATRONA:   COUNTY
 STAT.            WYOMING:   STATE
 CTRY. UNITED STATES OF AMERICA:   COUNTRY
 SRVC.     Atlas Wireline:   SERVICE COMPANY
 DATE.        31-JAN-1992:   LOGDATE
 API .       490252250200:   API NUMBER
~CURVE INFORMATION
#MNEM.UNIT       API CODE    CURVE DESCRIPTION
#----------   ------------   ------------------------------
 DEPT.F                  :   
 GRR .GAPI   07 310 01 00:   GAMMA RAY
 RILD.OHMM   07 120 46 00:   INDUCTION LOG DEEP RESISTIVITY
 RILM.OHMM   07 120 44 00:   INDUCTION LOG MEDIUM RESISTIVITY
~PARAMETER INFORMATION
#MNEM.UNIT          VALUE    DESCRIPTION
#----------   ------------   ------------------------------
 PD  .                 GL:   PERMANENT DATUM
 EPD .F              5069:   ELEVATION PERMANENT DATUM
 LMF .                 KB:   LOG MEASURED FROM
 DAPD.F                10:   FEET ABOVE PERMANENT DATUM
 DMF .                 KB:   DRILLING MEASURED FROM
 EKB .F              5079:   KELLING BUSHING
 EDF .F              5078:   DRILLING FLOOR
 EGL .F              5069:   GROUND LEVEL
 DATE.        31-JAN-1992:   RUN DATE
 RUN .                  1:   RUN NUMBER
 DD  .F               814:   DEPTH DRILLER
 DL  .F               813:   DEPTH LOGGER
 BLI .F               804:   BOTTOM LOG INTERVAL
 CS  .IN            9.625:   CASING SIZE
 CBD .F               100:   CASING BOTTOM DRILLER
 CBL .F               104:   CASING BOTTOM LOGGER
 BS  .IN             8.75:   BIT SIZE
 BSD .F               814:   BIT SIZE AT DEPTH
 DFT .                AIR:   DRILLING FLUID TYPE
 MRT .F                90:   MAXIMUM RECORDED TEMPERATURE
 LUN .           HL- 6274:   LOGGING UNIT NUMBER
 LUL .             CASPER:   LOGGING UNIT LOCATION
 ENGI.             RAUTIO:   RECORDING ENGINEER
 WITN.        GARY STRONG:   WITNESSED BY
 CLNT.            A2DTECH:   CLIENT CODE
 ORIG.           5" PRINT:   ORIGIN OF DATA
 UWI .       490252250200:   UNIQUE WELL ID
 DICO. A2D Technologies, Inc.:   DIGITIZING COMPANY
~OTHER INFORMATION
~A   DEPT       GRR      RILD       RILM   
# ...
  156.6000   122.7016     3.2033     2.8922
  156.7000   122.7038     3.2032     2.8922
  156.8000   122.5400     3.2030     2.8820
  156.9000   122.1875     3.2029     2.8720
  157.0000   121.7510     3.2027     2.8720
  157.1000   121.5032     3.2026     2.8719
  157.2000   121.2644     3.2025     2.8719
  157.3000   120.8368     3.2024     2.8831
  157.4000   120.4753     3.2022     2.8994
  157.5000   120.1615     3.1895     2.9234
  157.6000   119.6724     3.1796     2.9737
  157.7000   119.0976     3.1795     2.9905
  157.8000   118.8971     3.1793     3.0336
  157.9000   118.3625     3.1612     3.0669
  158.0000   117.6279     3.1432     3.0791
  158.1000   116.9250     3.1348     3.0802
  158.2000   116.3863     3.1292     3.1006
  158.3000   115.9471     3.1127     3.1005
  158.4000   115.7858     3.1126     3.1110
  158.5000   115.7882     3.1125     3.1222
  158.6000   115.7906     3.1123     3.1221
  158.7000   115.7931     3.1122     3.1221
  158.8000   115.5565     3.1121     3.1062
  158.9000   115.4953     3.1119     3.0886
  159.0000   115.4977     3.1118     3.0787
  159.1000   115.5002     3.1117     3.0786
  159.2000   115.4913     3.1115     3.0786
  159.3000   115.2029     3.1074     3.0617
  159.4000   115.2049     3.0896     3.0571
  159.5000   114.9209     3.0894     3.0484
  159.6000   114.4320     3.0760     3.0311
  159.7000   113.9134     3.0584     3.0146
  159.8000   113.0968     3.0410     3.0146
  159.9000   112.4442     3.0248     3.0008
  160.0000   111.3868     3.0247     2.9935
  160.1000   109.8475     3.0246     2.9877
  160.2000   108.0269     3.0245     2.9726
  160.3000   106.7547     3.0243     2.9726
  160.4000   106.2841     3.0218     2.9432
  160.5000   106.5134     3.0030     2.9206
  160.6000   106.8845     3.0029     2.9109
  160.7000   107.2643     2.9798     2.9079
  160.8000   108.0035     2.9535     2.8906
  160.9000   108.8876     2.9402     2.8597
  161.0000   109.4827     2.9400     2.8389
  161.1000   110.2222     2.9073     2.8229
  161.2000   110.9618     2.8743     2.8068
  161.3000   111.6470     2.8418     2.7908
  161.4000   111.9253     2.8096     2.7593
  161.5000   112.1432     2.7777     2.7403
  161.6000   112.2324     2.7407     2.7079
  161.7000   112.3368     2.7151     2.6718
  161.8000   112.5397     2.6665     2.6541
  161.9000   112.5423     2.6117     2.6029
  162.0000   112.3106     2.5712     2.5903
  162.1000   112.0673     2.5551     2.5577
  162.2000   111.8241     2.5162     2.5146
  162.3000   111.5808     2.4923     2.4743
  162.4000   111.3377     2.4660     2.4443
  162.5000   111.0943     2.4298     2.4063
  162.6000   111.0463     2.4155     2.3750
  162.7000   111.0487     2.4021     2.3482
  162.8000   111.1327     2.3586     2.3247
  162.9000   111.3561     2.3056     2.3115
  163.0000   111.3589     2.2571     2.2728
  163.1000   111.5744     2.2188     2.2441
  163.2000   111.6659     2.1744     2.2122
  163.3000   111.7681     2.1643     2.1749
  163.4000   111.9734     2.1520     2.1397
  163.5000   111.9759     2.1354     2.1256
  163.6000   112.2097     2.1126     2.1057
  163.7000   112.6327     2.0993     2.0890
  163.8000   113.0087     2.0992     2.0815
  163.9000   113.2567     2.1070     2.0831
  164.0000   113.5086     2.1189     2.0960
  164.1000   114.0026     2.1308     2.0960
  164.2000   114.3035     2.1433     2.1039
  164.3000   114.8235     2.1550     2.1158
  164.4000   115.4050     2.1672     2.1278
  164.5000   115.7193     2.1857     2.1402
  164.6000   116.8439     2.2072     2.1402
  164.7000   117.4788     2.2192     2.1582
  164.8000   118.3726     2.2190     2.1827
  164.9000   119.2607     2.2498     2.2007
  165.0000   119.9999     2.2734     2.2021
  165.1000   120.7893     2.2952     2.2471
  165.2000   121.2498     2.3315     2.2574
  165.3000   121.5714     2.3462     2.2852
  165.4000   121.7040     2.3817     2.3197
  165.5000   121.7065     2.4047     2.3476
  165.6000   121.7089     2.4299     2.3926
  165.7000   121.7113     2.4662     2.4408
  165.8000   121.7138     2.4807     2.4968
  165.9000   121.5826     2.5214     2.5539
  166.0000   121.1860     2.5436     2.6149
  166.1000   120.4312     2.5797     2.6937
  166.2000   119.3032     2.6348     2.7376
  166.3000   118.4713     2.6790     2.7959
  166.4000   117.3391     2.6941     2.8840
  166.5000   116.3026     2.7466     2.9871
  166.6000   115.5681     2.8005     3.0553
  166.7000   114.7766     2.8539     3.1253
  166.8000   114.3254     2.9210     3.1685
  166.9000   113.1570     3.0159     3.2147
  167.0000   111.9112     3.0763     3.2696
  167.1000   110.9871     3.1468     3.3238
  167.2000   110.2499     3.2114     3.3671
  167.3000   109.7627     3.2664     3.4165
  167.4000   109.4616     3.3255     3.4627
  167.5000   109.3495     3.4161     3.5021
  167.6000   109.3519     3.5000     3.5419
  167.7000   109.3543     3.5803     3.5851
  167.8000   109.3571     3.6623     3.6229
  167.9000   109.3591     3.7449     3.6354
  168.0000   109.5109     3.7661     3.6544
  168.1000   109.6666     3.8044     3.6960
  168.2000   109.7046     3.8477     3.7381
  168.3000   109.9742     3.8771     3.7381
  168.4000   110.4248     3.8770     3.7543
  168.5000   110.7514     3.8768     3.7869
  168.6000   110.9995     3.8957     3.8234
  168.7000   111.3011     3.9037     3.8437
  168.8000   111.8015     3.9124     3.8436
  168.9000   112.2887     3.9308     3.8435
  169.0000   112.9682     3.9305     3.8435
  169.1000   113.8363     3.9513     3.8435
  169.2000   114.7496     3.9578     3.8434
  169.3000   115.4594     3.9576     3.8433
  169.4000   115.7499     3.9521     3.8433
  169.5000   116.5669     3.9295     3.8579
  169.6000   117.2583     3.9071     3.8701
  169.7000   117.7521     3.8849     3.8700
  169.8000   118.2129     3.8747     3.8700
  169.9000   118.4850     3.8608     3.8699
  170.0000   118.9311     3.8170     3.8537
  170.1000   119.2597     3.7673     3.8319
  170.2000   119.3997     3.7490     3.8044
  170.3000   119.4021     3.7146     3.7614
  170.4000   119.4046     3.6805     3.7110
  170.5000   119.4070     3.6500     3.6605
  170.6000   119.4094     3.5616     3.6105
  170.7000   119.4118     3.5428     3.5697
  170.8000   119.4142     3.5365     3.5317
  170.9000   119.4417     3.5271     3.5093
  171.0000   120.0246     3.5070     3.4746
  171.1000   120.4292     3.4869     3.4480
  171.2000   121.0674     3.4670     3.4284
  171.3000   121.6318     3.4623     3.4090
  171.4000   121.9107     3.4622     3.3887
  171.5000   122.4571     3.4502     3.3705
  171.6000   122.6788     3.4096     3.3514
  171.7000   122.9268     3.3427     3.3416
  171.8000   123.0692     3.2488     3.3275
  171.9000   123.0717     3.1831     3.2709
  172.0000   123.0742     3.1337     3.1978
  172.1000   123.0766     3.0656     3.0989
  172.2000   123.0790     3.0092     2.9955
  172.3000   123.0814     2.9781     2.9212
  172.4000   123.0838     2.9443     2.9061
  172.5000   123.0862     2.9259     2.9060
  172.6000   123.0891     2.9258     2.8920
  172.7000   123.0911     2.9256     2.8960
  172.8000   123.5197     2.9255     2.9059
  172.9000   124.0889     2.9128     2.9059
  173.0000   124.3933     2.8876     2.9058
  173.1000   125.2190     2.8549     2.8906
  173.2000   126.3064     2.8186     2.8855
  173.3000   127.3770     2.7083     2.8705
  173.4000   128.2589     2.6454     2.8382
  173.5000   129.0914     2.5886     2.8060
  173.6000   130.3747     2.5500     2.6979
  173.7000   131.3179     2.5211     2.6379
  173.8000   132.3029     2.4898     2.6012
  173.9000   133.1667     2.4769     2.5676
  174.0000   134.0356     2.4628     2.5242
  174.1000   135.2508     2.4426     2.4746
  174.2000   135.9905     2.4178     2.4630
  174.3000   136.3369     2.4037     2.4490
  174.4000   136.4454     2.3903     2.4251
  174.5000   136.3650     2.3867     2.3896
  174.6000   136.0702     2.3797     2.3896
  174.7000   135.2427     2.3700     2.3774
