~VERSION INFORMATION
 VERS.                2.0:   CWLS LOG ASCII STANDARD - VERSION 2.0
 WRAP.                 NO:   ONE LINE PER DEPTH STEP
~WELL INFORMATION
#MNEM.UNIT      DATA TYPE    INFORMATION
#----------   ------------   ------------------------------
 STRT.F            0.0000:   START DEPTH
 STOP.F         4535.0000:   STOP DEPTH
 STEP.F            0.5000:   STEP LENGTH
 NULL.          -999.2500:   NO VALUE
 COMP.   FLUOR DANIEL INC:   COMPANY
 WELL.     56 X 15 #56-15:   WELL
 FLD .             TEAPOT:   FIELD
 LOC .      S15 T38N R78W:   LOCATION
 CNTY.            NATRONA:   COUNTY
 STAT.            WYOMING:   STATE
 CTRY. UNITED STATES OF AMERICA:   COUNTRY
 SRVC.      Dresser Atlas:   SERVICE COMPANY
 DATE.        03-MAY-1984:   LOGDATE
 API .       490252268500:   API NUMBER
~CURVE INFORMATION
#MNEM.UNIT       API CODE    CURVE DESCRIPTION
#----------   ------------   ------------------------------
 DEPT.F                  :   
 CNC .DEC    42 890 03 00:   NEUTRON POROSITY SANDSTONE
 PORD.DEC    45 890 12 00:   POROSITY DENSITY SANDSTONE
 RHOB.G/C3   45 350 01 00:   BULK DENSITY
 CORR.G/C3   45 356 01 00:   DENSITY CORRECTION
 DT  .US/F   60 520 00 00:   INTERVAL TRANSIT TIME
 RILD.OHMM   07 120 46 00:   INDUCTION LOG DEEP RESISTIVITY
 RILM.OHMM   07 120 44 00:   INDUCTION LOG MEDIUM RESISTIVITY
 CALR.IN     07 280 01 00:   CALIPER FROM RESISTIVITY
 GRR .GAPI   07 310 01 00:   GAMMA RAY FROM RESISTIVITY LOG
 SPR .MV     07 010 01 00:   SPONTANEOUS POTENTIAL
 RFOC.OHMM   07 220 04 00:   RESISTIVITY FOCUSED LOG
~PARAMETER INFORMATION
#MNEM.UNIT          VALUE    DESCRIPTION
#----------   ------------   ------------------------------
 PD  .                 GL:   PERMANENT DATUM
 EPD .F              5326:   ELEVATION PERMANENT DATUM
 LMF .                 KB:   LOG MEASURED FROM
 DAPD.F                12:   FEET ABOVE PERMANENT DATUM
 DMF .                 KB:   DRILLING MEASURED FROM
 EKB .F              5338:   KELLING BUSHING
 EDF .F              5337:   DRILLING FLOOR
 EGL .F              5326:   GROUND LEVEL
 DATE.        03-MAY-1984:   RUN DATE
 RUN .                  1:   RUN NUMBER
 DD  .F              4547:   DEPTH DRILLER
 DL  .F              4539:   DEPTH LOGGER
 BLI .F              4536:   BOTTOM LOG INTERVAL
 TLI .F              1021:   TOP LOG INTERVAL
 CS  .IN            8.625:   CASING SIZE
 CBD .F              1027:   CASING BOTTOM DRILLER
 CBL .F              1021:   CASING BOTTOM LOGGER
 BS  .IN            7.875:   BIT SIZE
 BSD .F              4547:   BIT SIZE AT DEPTH
 DFT .            KCL GEL:   DRILLING FLUID TYPE
 DFD .                9.1:   DRILLING FLUID DENSITY
 DFV .                 44:   DRILLING FLUID VISCOSITY
 DFPH.                  8:   DRILLING FLUID PH
 DFL .               14.5:   DRILLING FLUID LOSS
 MSS .            MUDTANK:   MUD SAMPLE SOURCE
 RMS .OHMM           0.56:   RESISTIVITY MUD SAMPLE
 MST .F                73:   MUD SAMPLE TEMPERATURE
 RMF .OHMM           0.42:   RESISTIVITY MUD FILTRATE SAMPLE
 MFST.F                73:   MUD FILTRATE SAMPLE TEMPERATURE
 RMC .OHMM           0.71:   RESISTIVITY MUD CAKE
 MCST.F                73:   MUD CAKE SAMPLE TEMPERATURE
 MFSS.               MEAS:   MUD FILTRATE SAMPLE SOURCE
 MCSS.               CALC:   MUD CAKE SAMPLE SOURCE
 RMB .OHMM           0.29:   RESISTIVITY MUD AT BHT
 BHT .F               141:   BOTTOM HOLE TEMPERATURE
 TCS .HRS             3.5:   TIME CURCULATED STOPPED
 MRT .F               125:   MAXIMUM RECORDED TEMPERATURE
 LUN .               6302:   LOGGING UNIT NUMBER
 LUL .               CODY:   LOGGING UNIT LOCATION
 ENGI.              GETTY:   RECORDING ENGINEER
 WITN.           JENNINGS:   WITNESSED BY
 CLNT.            A2DTECH:   CLIENT CODE
 ORIG.           5" PRINT:   ORIGIN OF DATA
 UWI .       490252268500:   UNIQUE WELL ID
 DICO. A2D Technologies, Inc.:   DIGITIZING COMPANY
~OTHER INFORMATION
~A    DEPT     CNC       PORD       RHOB       CORR         DT       RILD       RILM       CALR         GRR       SPR       RFOC   
# ...
 2653.5000  -999.2500  -999.2500  -999.2500  -999.2500  -999.2500     5.2706     5.5687     8.1696   118.1312   -22.5415     5.3602
 2654.0000  -999.2500  -999.2500  -999.2500  -999.2500  -999.2500     5.4174     5.7632     8.1691   120.2277   -22.9986     5.4338
 2654.5000  -999.2500  -999.2500  -999.2500  -999.2500  -999.2500     5.5683     6.0094     8.1685   117.2114   -23.4558     5.9046
 2655.0000  -999.2500  -999.2500  -999.2500  -999.2500  -999.2500     5.6838     6.2154     8.1679   112.6914   -23.7646     6.9252
 2655.5000  -999.2500  -999.2500  -999.2500  -999.2500  -999.2500     5.9237     6.4326     8.1373   109.0736   -24.0717     7.5776
 2656.0000  -999.2500  -999.2500  -999.2500  -999.2500  -999.2500     6.1749     6.5656     8.1195   108.1626   -24.3788     7.7897
 2656.5000  -999.2500  -999.2500  -999.2500  -999.2500  -999.2500     6.4469     6.7480     8.0910   112.0614   -24.6860     7.4701
 2657.0000  -999.2500  -999.2500  -999.2500  -999.2500  -999.2500     6.7991     6.9838     8.0755   114.4586   -24.9931     7.1639
 2657.5000  -999.2500  -999.2500  -999.2500  -999.2500  -999.2500     7.0861     7.1778     8.0599   116.5551   -25.0004     7.0149
 2658.0000  -999.2500  -999.2500  -999.2500  -999.2500  -999.2500     7.3342     7.2254     8.0443   115.6441   -25.1576     7.3623
 2658.5000  -999.2500  -999.2500  -999.2500  -999.2500  -999.2500     7.4351     7.2752     8.0437   114.1316   -25.3148     7.7810
 2659.0000  -999.2500  -999.2500  -999.2500  -999.2500  -999.2500     7.4326     7.3723     8.0432   114.4235   -25.3465     8.2236
 2659.5000  -999.2500  -999.2500  -999.2500  -999.2500  -999.2500     7.3793     7.3692     8.0426   115.6178   -25.6310     8.3373
 2660.0000  -999.2500  -999.2500  -999.2500  -999.2500  -999.2500     7.3773     7.3667     8.0570   117.4135   -25.6383     8.1635
 2660.5000  -999.2500  -999.2500  -999.2500  -999.2500  -999.2500     7.2737     7.3642     8.0714   116.7328   -25.6456     7.8834
 2661.0000  -999.2500  -999.2500  -999.2500  -999.2500  -999.2500     7.2214     7.3617     8.1007   112.5818   -25.8028     7.6660
 2661.5000  -999.2500  -999.2500  -999.2500  -999.2500  -999.2500     7.2190     7.3593     8.1151   111.9715   -25.8100     7.7716
 2662.0000  -999.2500  -999.2500  -999.2500  -999.2500  -999.2500     7.2678     7.3568     8.1296   111.6620   -25.6674     7.8786
 2662.5000  -999.2500  -999.2500  -999.2500  -999.2500  -999.2500     7.3164     7.3543     8.1289   108.6457   -25.6747     7.9319
 2663.0000  -999.2500  -999.2500  -999.2500  -999.2500  -999.2500     7.3653     7.3518     8.1283   106.2309   -25.3821     7.9299
 2663.5000  -999.2500  -999.2500  -999.2500  -999.2500  -999.2500     7.4146     7.3487     8.1277   104.7184   -25.0913     7.9283
 2664.0000  -999.2500  -999.2500  -999.2500  -999.2500  -999.2500     7.4121     7.3463     8.1271   105.9126   -24.7988     7.9819
 2664.5000  -999.2500  -999.2500  -999.2500  -999.2500  -999.2500     7.3589     7.2426     8.1416   108.3400   -24.5062     8.0363
 2665.0000  -999.2500  -999.2500  -999.2500  -999.2500  -999.2500     7.0537     7.1405     8.1558   110.1554   -24.5135     8.1465
 2665.5000  -999.2500  -999.2500  -999.2500  -999.2500  -999.2500     6.8142     6.9428     8.1552   108.8917   -24.2209     8.2588
 2666.0000  -999.2500  -999.2500  -999.2500  -999.2500  -999.2500     6.6721     6.8448     8.1547   105.2739   -24.0783     8.2458
 2666.5000  -999.2500  -999.2500  -999.2500  -999.2500  -999.2500     6.7167     6.8425     8.1841    95.3403   -23.9355     7.4388
 2667.0000  -999.2500  -999.2500  -999.2500  -999.2500  -999.2500     6.7149     6.8402     8.1835    96.8353   -23.6311     6.9386
 2667.5000  -999.2500  -999.2500  -999.2500  -999.2500  -999.2500     6.6667     6.8373     8.1979   101.6385   -23.2005     6.7006
 2668.0000  -999.2500  -999.2500  -999.2500  -999.2500  -999.2500     6.5731     6.7878     8.2139   106.1411   -22.9080     6.6529
 2668.5000  -999.2500  -999.2500  -999.2500  -999.2500  -999.2500     6.4808     6.6458     8.2417   108.2376   -22.7653     7.0313
 2669.0000  -999.2500  -999.2500  -999.2500  -999.2500  -999.2500     6.3018     6.5067     8.2561   108.8303   -22.7744     7.3799
 2669.5000  -999.2500  -999.2500  -999.2500  -999.2500  -999.2500     6.1240     6.3706     8.2705   108.8193   -22.6299     7.6921
 2670.0000  -999.2500  -999.2500  -999.2500  -999.2500  -999.2500     5.9580     6.1942     8.2698   107.6076   -22.3392     7.8524
 2670.5000  -999.2500  -999.2500  -999.2500  -999.2500  -999.2500     5.7935     6.0227     8.2844   105.4935   -22.1964     7.6235
 2671.0000  -999.2500  -999.2500  -999.2500  -999.2500  -999.2500     5.6726     5.8951     8.2987   105.1862   -21.8983     6.9753
 2671.5000  -999.2500  -999.2500  -999.2500  -999.2500  -999.2500     5.5543     5.7733     8.3280   106.3783   -21.6114     6.4612
 2672.0000  -999.2500  -999.2500  -999.2500  -999.2500  -999.2500     5.4763     5.6521     8.3274   107.5747   -21.6205     6.2396
 2672.5000  -999.2500  -999.2500  -999.2500  -999.2500  -999.2500     5.3994     5.5723     8.2967   107.8900   -21.7777     6.1952
 2673.0000  -999.2500  -999.2500  -999.2500  -999.2500  -999.2500     5.4355     5.5320     8.2812   106.6333   -22.0848     6.0243
 2673.5000  -999.2500  -999.2500  -999.2500  -999.2500  -999.2500     5.4719     5.4919     8.2506   105.1402   -22.2420     5.8582
 2674.0000  -999.2500  -999.2500  -999.2500  -999.2500  -999.2500     5.5896     5.4900     8.2350   106.3344   -22.2493     5.6966
 2674.5000  -999.2500  -999.2500  -999.2500  -999.2500  -999.2500     5.7806     5.5264     8.2344   105.7220   -22.2566     5.9418
 2675.0000  -999.2500  -999.2500  -999.2500  -999.2500  -999.2500     5.9416     5.6407     8.2339   101.5027   -22.2639     6.4747
 2675.5000  -999.2500  -999.2500  -999.2500  -999.2500  -999.2500     6.1071     5.7573     8.2333    96.9848   -22.2714     7.0107
 2676.0000  -999.2500  -999.2500  -999.2500  -999.2500  -999.2500     6.2338     5.8759     8.2315   103.5904   -22.2802     7.3073
 2676.5000  -999.2500  -999.2500  -999.2500  -999.2500  -999.2500     6.3196     5.9974     8.2020   109.5967   -22.5874     7.1058
 2677.0000  -999.2500  -999.2500  -999.2500  -999.2500  -999.2500     6.4061     6.0797     8.2014   112.2947   -22.8945     6.8621
 2677.5000  -999.2500  -999.2500  -999.2500  -999.2500  -999.2500     6.5386     6.2054     8.1858   113.4889   -23.2016     6.7193
 2678.0000  -999.2500  -999.2500  -999.2500  -999.2500  -999.2500     6.5829     6.3337     8.1852   110.1697   -23.3588     6.7179
 2678.5000  -999.2500  -999.2500  -999.2500  -999.2500  -999.2500     6.6783     6.4195     8.1847   108.6572   -23.5160     6.8579
 2679.0000  -999.2500  -999.2500  -999.2500  -999.2500  -999.2500     6.7638     6.4620     8.1841   108.9491   -23.8232     7.1084
 2679.5000  -999.2500  -999.2500  -999.2500  -999.2500  -999.2500     6.7616     6.5048     8.1985   109.2433   -23.8306     7.4502
 2680.0000  -999.2500  -999.2500  -999.2500  -999.2500  -999.2500     6.8072     6.5928     8.2129   108.9316   -23.9895     7.8195
 2680.5000  -999.2500  -999.2500  -999.2500  -999.2500  -999.2500     6.8049     6.6371     8.2273   106.5168   -23.9967     8.0380
 2681.0000  -999.2500  -999.2500  -999.2500  -999.2500  -999.2500     6.8031     6.7737     8.2417   106.2073   -23.8541     8.0927
 2681.5000  -999.2500  -999.2500  -999.2500  -999.2500  -999.2500     6.8491     6.8192     8.2410   109.2205   -23.7114     7.7070
 2682.0000  -999.2500  -999.2500  -999.2500  -999.2500  -999.2500     6.8944     6.8643     8.2404   111.9437   -23.5670     7.3912
 2682.5000  -999.2500  -999.2500  -999.2500  -999.2500  -999.2500     6.8925     6.8614     8.2550   113.3969   -23.2744     7.2878
 2683.0000  -999.2500  -999.2500  -999.2500  -999.2500  -999.2500     6.8906     6.8591     8.2542   114.2903   -23.4334     7.4931
 2683.5000  -999.2500  -999.2500  -999.2500  -999.2500  -999.2500     6.8884     6.8568     8.2537   115.7853   -23.5907     7.7088
