~VERSION INFORMATION
 VERS.                2.0:   CWLS LOG ASCII STANDARD - VERSION 2.0
 WRAP.                 NO:   ONE LINE PER DEPTH STEP
~WELL INFORMATION
#MNEM.UNIT      DATA TYPE    INFORMATION
#----------   ------------   ------------------------------
 STRT.F            0.0000:   START DEPTH
 STOP.F          625.0000:   STOP DEPTH
 STEP.F            0.5000:   STEP LENGTH
 NULL.          -999.2500:   NO VALUE
 COMP.       F D SERV INC:   COMPANY
 WELL.    75-3 SX-3 #72-3:   WELL
 FLD .             TEAPOT:   FIELD
 LOC .       S3 T38N R78W:   LOCATION
 CNTY.            NATRONA:   COUNTY
 STAT.            WYOMING:   STATE
 CTRY. UNITED STATES OF AMERICA:   COUNTRY
 SRVC.     Atlas Wireline:   SERVICE COMPANY
 DATE.        05-MAY-1992:   LOGDATE
 API .       490252251800:   API NUMBER
~CURVE INFORMATION
#MNEM.UNIT       API CODE    CURVE DESCRIPTION
#----------   ------------   ------------------------------
 DEPT.F                  :   
 CALD.IN     45 280 60 00:   CALIPER FROM DENSITY
 CORR.G/C3   45 356 01 00:   DENSITY CORRECTION
 DEN .G/C3   45 350 01 00:   COMPENSATED BULK DENSTIY
 GRD .GAPI   45 310 01 00:   GAMMA RAY FROM DENSITY LOG
 RILD.OHMM   07 120 46 00:   INDUCTION LOG DEEP RESISTIVITY
 RILM.OHMM   07 120 44 00:   INDUCTION LOG MEDIUM RESISTIVITY
 PORD.DEC    45 890 12 00:   POROSITY DENSITY SANDSTONE
~PARAMETER INFORMATION
#MNEM.UNIT          VALUE    DESCRIPTION
#----------   ------------   ------------------------------
 PD  .                 GL:   PERMANENT DATUM
 EPD .F              5148:   ELEVATION PERMANENT DATUM
 LMF .                 KB:   LOG MEASURED FROM
 DAPD.F                 5:   FEET ABOVE PERMANENT DATUM
 DMF .                 KB:   DRILLING MEASURED FROM
 EKB .F              5153:   KELLING BUSHING
 EDF .F              5152:   DRILLING FLOOR
 EGL .F              5148:   GROUND LEVEL
 DATE.        05-MAY-1992:   RUN DATE
 RUN .                  1:   RUN NUMBER
 DD  .F               630:   DEPTH DRILLER
 DL  .F               633:   DEPTH LOGGER
 BLI .F               625:   BOTTOM LOG INTERVAL
 CS  .IN            8.625:   CASING SIZE
 CBD .F                44:   CASING BOTTOM DRILLER
 CBL .F                49:   CASING BOTTOM LOGGER
 BS  .IN            7.875:   BIT SIZE
 BSD .F               630:   BIT SIZE AT DEPTH
 DFT .        AIR DRILLED:   DRILLING FLUID TYPE
 MRT .F                88:   MAXIMUM RECORDED TEMPERATURE
 LUN .           HL- 6274:   LOGGING UNIT NUMBER
 LUL .             CASPER:   LOGGING UNIT LOCATION
 ENGI.       P. RASHUSSEN:   RECORDING ENGINEER
 WITN.          G. STRONG:   WITNESSED BY
 CLNT.            A2DTECH:   CLIENT CODE
 ORIG.           5" PRINT:   ORIGIN OF DATA
 UWI .       490252251800:   UNIQUE WELL ID
 DICO. A2D Technologies, Inc.:   DIGITIZING COMPANY
~OTHER INFORMATION
~A    DEPT    CALD       CORR        DEN         GRD      RILD       RILM       PORD   
# ...
   91.0000     8.3961    -0.0103     2.4832   159.9516     7.7243     7.4758     0.1034
   91.5000     8.3812    -0.0103     2.4847   163.2623     7.5628     7.3694     0.1028
   92.0000     8.3664    -0.0193     2.4922   165.9709     7.4568     7.2173     0.1022
   92.5000     8.3666    -0.0193     2.4997   168.6795     7.3011     7.1160     0.1016
   93.0000     8.3667    -0.0161     2.5057   170.7875     7.1988     7.1143     0.1019
   93.5000     8.3819    -0.0129     2.5027   171.0938     7.1476     7.1625     0.1023
   94.0000     8.4270    -0.0072     2.4951   171.0997     7.1467     7.2114     0.1014
   94.5000     8.4421    -0.0041     2.4935   171.7062     7.2463     7.2095     0.1005
   95.0000     8.4423    -0.0011     2.4950   172.0124     7.2963     7.3090     0.0960
   95.5000     8.4274    -0.0010     2.4890   170.2165     7.3977     7.4103     0.0945
   96.0000     8.3976    -0.0010     2.5055   166.3185     7.5534     7.5646     0.0920
   96.5000     8.3978     0.0021     2.5176   165.7237     7.7665     7.7226     0.0878
   97.0000     8.3829     0.0021     2.5236   165.7298     7.9855     7.8839     0.0800
   97.5000     8.3681    -0.0009     2.5100   164.8049     8.2108     8.0484     0.0822
   98.0000     8.3682    -0.0009     2.4978   161.1532     8.4463     8.2180     0.0872
   98.5000     8.3384    -0.0008     2.4963   157.8478     8.6805     8.4466     0.0935
   99.0000     8.3385    -0.0008     2.4993   154.9441     8.8011     8.5739     0.0954
   99.5000     8.3237     0.0022     2.4963   159.7548     8.9241     8.7420     0.0894
  100.0000     8.3228     0.0023     2.4965   164.5656     8.8605     8.7203     0.0879
  100.5000     8.3164     0.0023     2.5007   165.1706     8.6738     8.4768     0.0903
  101.0000     8.3101     0.0023     2.4946   163.6750     8.4908     8.2334     0.0934
  101.5000     8.3079     0.0054     2.4882   164.5833     8.3562     7.9900     0.0964
  102.0000     8.3076     0.0054     2.4710   166.3910     8.1274     7.7885     0.1022
  102.5000     8.2923     0.0024     2.4554   168.1987     7.9089     7.5716     0.1085
  103.0000     8.2920    -0.0006     2.4750   169.3600     7.7422     7.4127     0.1058
  103.5000     8.3067    -0.0096     2.4780   171.1704     7.5789     7.3592     0.1037
  104.0000     8.3064    -0.0126     2.4765   172.9809     7.3674     7.1546     0.1025
  104.5000     8.3062    -0.0095     2.4765   175.6936     7.1619     7.0045     0.1019
  105.0000     8.3059    -0.0065     2.4765   183.5191     7.1095     6.9539     0.1026
  105.5000     8.3056    -0.0061     2.4795   187.1799     7.1071     6.9519     0.1032
  106.0000     8.3052    -0.0064     2.4825   182.6287     7.2046     7.0477     0.1026
  106.5000     8.3200    -0.0094     2.4840   175.4166     7.3041     7.1453     0.1023
  107.0000     8.3196    -0.0184     2.4885   170.6105     7.3528     7.2437     0.1008
  107.5000     8.3193    -0.0214     2.4885   167.2783     7.5060     7.3949     0.0999
  108.0000     8.3190    -0.0184     2.4869   163.1036     7.5560     7.4446     0.0993
  108.5000     8.3037    -0.0123     2.4779   164.0500     7.7134     7.4420     0.0997
  109.0000     8.3184    -0.0062     2.4582   164.9724     7.8734     7.5446     0.1040
  109.5000     8.3181     0.0028     2.4597   165.8297     7.9266     7.5953     0.1064
  110.0000     8.3028     0.0149     2.4643   164.6327     8.0910     7.7538     0.1091
  110.5000     8.3176     0.0119     2.4733   163.7349     8.1450     7.8059     0.1061
  111.0000     8.3172    -0.0031     2.4884   162.8401     8.1993     7.8038     0.1024
  111.5000     8.3019    -0.0061     2.4989   162.2430     8.3118     7.9152     0.0961
  112.0000     8.3016    -0.0030     2.5034   161.0459     8.3671     8.0202     0.0913
  112.5000     8.3013     0.0030     2.4988   160.1511     8.3642     8.0741     0.0928
  113.0000     8.3160     0.0121     2.4928   158.9541     8.4200     8.1853     0.0947
  113.5000     8.3157     0.0151     2.4963   157.4562     8.4123     8.2404     0.0965
  114.0000     8.3154     0.0122     2.5064   153.5524     8.3555     8.2958     0.0926
  114.5000     8.3304     0.0062     2.5154   157.7689     8.2944     8.1780     0.0856
  115.0000     8.3448    -0.0029     2.5139   164.3914     8.1758     8.0624     0.0832
  115.5000     8.3445    -0.0059     2.5063   170.4124     8.0035     8.0042     0.0869
  116.0000     8.3442     0.0002     2.5018   170.4702     7.8896     7.9463     0.0872
  116.5000     8.3439     0.0002     2.5063   168.9205     7.8320     7.8340     0.0866
  117.0000     8.3436    -0.0001     2.5063   168.0242     7.8293     7.7774     0.0860
  117.5000     8.3433    -0.0087     2.5063   168.3309     7.8266     7.7212     0.0878
  118.0000     8.3430    -0.0117     2.4942   169.5437     7.8239     7.6121     0.0927
  118.5000     8.3577    -0.0117     2.4896   171.0676     7.8212     7.5571     0.0984
  119.0000     8.3724    -0.0147     2.4881   170.6906     7.8185     7.5550     0.0991
  119.5000     8.3721    -0.0116     2.4881   167.2685     7.8158     7.5529     0.0991
  120.0000     8.3718    -0.0086     2.4881   163.2478     7.8131     7.5508     0.0985
  120.5000     8.3715    -0.0055     2.4881   167.4658     7.8103     7.5488     0.0978
  121.0000     8.3562    -0.0025     2.4941   172.8853     7.8076     7.5467     0.0955
  121.5000     8.3559    -0.0055     2.4958   179.5078     7.8049     7.5446     0.0949
  122.0000     8.3556    -0.0055     2.4895   184.6265     7.8576     7.5981     0.0976
  122.5000     8.3553    -0.0085     2.4820   184.9332     7.8542     7.6999     0.1007
  123.0000     8.3400    -0.0145     2.4820   184.6369     7.8515     7.7517     0.1028
  123.5000     8.3397    -0.0114     2.4896   184.3421     7.9040     7.8038     0.1022
  124.0000     8.3244    -0.0114     2.5032   184.0473     7.9011     7.9113     0.0965
  124.5000     8.3391    -0.0083     2.5168   182.8517     7.9538     7.9645     0.0823
  125.0000     8.3388    -0.0083     2.5161   181.6546     8.0068     7.9618     0.0844
  125.5000     8.3385    -0.0083     2.5000   180.4576     8.0040     7.9596     0.0905
  126.0000     8.3368    -0.0052     2.4924   178.3583     8.0012     7.9574     0.0953
  126.5000     8.3229     0.0039     2.4879   176.8604     7.9427     7.9552     0.0996
  127.0000     8.3227     0.0069     2.4879   177.1671     7.8846     7.9530     0.0987
  127.5000     8.3223     0.0130     2.4924   179.5791     7.8813     7.8955     0.0969
  128.0000     8.3220     0.0160     2.4984   182.8933     7.8786     7.8933     0.0960
  128.5000     8.3217     0.0160     2.4954   181.9970     7.8759     7.8912     0.0969
  129.0000     8.3214     0.0161     2.4908   180.4754     7.9847     7.8890     0.0994
  129.5000     8.3211     0.0161     2.4818   178.6487     8.0935     7.8868     0.1006
  130.0000     8.3208     0.0161     2.4772   176.5614     8.2621     7.9398     0.1003
  130.5000     8.3205     0.0162     2.4878   174.7489     8.3179     7.9377     0.0979
  131.0000     8.3052     0.0162     2.5074   172.1034     8.4905     7.9355     0.0934
  131.5000     8.3049     0.0162     2.5058   170.0041     8.6070     7.9888     0.0913
  132.0000     8.2896     0.0163     2.5058   168.2055     8.6651     8.2127     0.0907
  132.5000     8.2893     0.0133     2.5058   167.9092     8.6613     8.3860     0.0919
  133.0000     8.2890     0.0073     2.5058   168.5182     8.6584     8.5639     0.0910
  133.5000     8.2887     0.0043     2.5058   169.7271     8.6554     8.6846     0.0898
  134.0000     8.2884     0.0013     2.5058   171.5376     8.6524     8.7965     0.0892
  134.5000     8.2881     0.0013     2.5057   173.6488     8.7100     8.7323     0.0884
  135.0000     8.2879     0.0014     2.5072   173.0532     8.7070     8.6692     0.0869
  135.5000     8.2876     0.0014     2.5103   170.9524     8.7650     8.7892     0.0860
  136.0000     8.2873     0.0014     2.5132   171.5614     8.8853     8.8483     0.0848
