~VERSION INFORMATION
 VERS.                2.0:   CWLS LOG ASCII STANDARD - VERSION 2.0
 WRAP.                 NO:   ONE LINE PER DEPTH STEP
~WELL INFORMATION
#MNEM.UNIT      DATA TYPE    INFORMATION
#----------   ------------   ------------------------------
 STRT.F            0.0000:   START DEPTH
 STOP.F          546.0000:   STOP DEPTH
 STEP.F            0.5000:   STEP LENGTH
 NULL.          -999.2500:   NO VALUE
 COMP. LAWRENCE/ALLISON INC:   COMPANY
 WELL.   NPR 3 #76-21SX10:   WELL
 FLD .             TEAPOT:   FIELD
 LOC .      S10 T38N R78W:   LOCATION
 CNTY.            NATRONA:   COUNTY
 STAT.            WYOMING:   STATE
 CTRY. UNITED STATES OF AMERICA:   COUNTRY
 SRVC.      Dresser Atlas:   SERVICE COMPANY
 DATE.        22-JUL-1984:   LOGDATE
 API .       490251097000:   API NUMBER
~CURVE INFORMATION
#MNEM.UNIT       API CODE    CURVE DESCRIPTION
#----------   ------------   ------------------------------
 DEPT.F                  :   
 CALD.IN     45 280 60 00:   CALIPER FROM DENSITY LOG
 DEN .G/C3   45 350 01 00:   COMPENSATED BULK DENSTIY
 CORR.G/C3   45 356 01 00:   DENSITY CORRECTION
 DPHI.DEC    45 890 12 00:   POROSITY DENSITY SANDSTONE
 CNC .DEC    42 890 03 00:   NEUTRON POROSITY SANDSTONE
 GRR .GAPI   07 310 01 00:   GAMMA RAY
 SPR .MV     07 010 01 00:   SPONTANEOUS POTENTIAL
 RILD.OHMM   07 120 46 00:   INDUCTION LOG DEEP RESISTIVITY
 RILM.OHMM   07 120 44 00:   INDUCTION LOG MEDIUM RESISTIVITY
 RFOC.OHMM   07 220 04 00:   RESISTIVITY FOCUSED LOG
 AC  .US/F   60 520 00 00:   ACCOUSTIC
~PARAMETER INFORMATION
#MNEM.UNIT          VALUE    DESCRIPTION
#----------   ------------   ------------------------------
 PD  .                 GL:   PERMANENT DATUM
 EPD .F              5167:   ELEVATION PERMANENT DATUM
 LMF .                 GL:   LOG MEASURED FROM
 DMF .                 GL:   DRILLING MEASURED FROM
 EGL .F              5167:   GROUND LEVEL
 DATE.        22-JUL-1984:   RUN DATE
 RUN .                  1:   RUN NUMBER
 DD  .F               551:   DEPTH DRILLER
 DL  .F               547:   DEPTH LOGGER
 BLI .F               544:   BOTTOM LOG INTERVAL
 CS  .IN            9.625:   CASING SIZE
 CBD .F                40:   CASING BOTTOM DRILLER
 CBL .F                42:   CASING BOTTOM LOGGER
 BS  .IN            7.875:   BIT SIZE
 BSD .F               551:   BIT SIZE AT DEPTH
 DFT .        KCL POLYMER:   DRILLING FLUID TYPE
 MSS .           FLOWLINE:   MUD SAMPLE SOURCE
 RMS .OHMM           .193:   RESISTIVITY MUD SAMPLE
 MST .F                75:   MUD SAMPLE TEMPERATURE
 RMF .OHMM           .144:   RESISTIVITY MUD FILTRATE SAMPLE
 MFST.F                75:   MUD FILTRATE SAMPLE TEMPERATURE
 RMC .OHMM            .24:   RESISTIVITY MUD CAKE
 MCST.F                74:   MUD CAKE SAMPLE TEMPERATURE
 MFSS.               CALC:   MUD FILTRATE SAMPLE SOURCE
 MCSS.               CALC:   MUD CAKE SAMPLE SOURCE
 TCS .HRS               5:   TIME CURCULATED STOPPED
 MRT .F                90:   MAXIMUM RECORDED TEMPERATURE
 LUN .               6274:   LOGGING UNIT NUMBER
 LUL .               GLTE:   LOGGING UNIT LOCATION
 ENGI.             RAUTIO:   RECORDING ENGINEER
 WITN.              FIVAS:   WITNESSED BY
 CLNT.            A2DTECH:   CLIENT CODE
 ORIG.       2", 5" PRINT:   ORIGIN OF DATA
 UWI .       490251097000:   UNIQUE WELL ID
 DICO. A2D Technologies, Inc.:   DIGITIZING COMPANY
~OTHER INFORMATION
~A    DEPT    CALD        DEN       CORR       DPHI        CNC         GRR       SPR       RILD       RILM       RFOC         AC   
# ...
  183.0000     8.3660     2.4400     0.0410     0.1270     0.3304   129.3730   -54.9610     4.9360     5.0400     7.1660   164.8750
  183.5000     8.3660     2.4480     0.0490     0.1210     0.3177   123.6390   -53.9800     4.9210     5.1940     7.3720   164.3770
  184.0000     8.3660     2.4570     0.0550     0.1150     0.2729   123.8640   -53.0450     5.1300     5.3470     7.9260   164.6580
  184.5000     8.3660     2.4650     0.0510     0.1120     0.2768   129.2580   -52.1360     5.3450     5.5680     7.7460   165.0750
  185.0000     8.3660     2.4680     0.0480     0.1090     0.2842   135.1710   -50.9390     5.6220     5.9030     7.4340   164.6760
  185.5000     8.3660     2.4740     0.0580     0.1050     0.2770   136.1990   -49.2370     5.9800     6.2370     7.3650   160.6190
  186.0000     8.3660     2.4860     0.0700     0.0980     0.2717   133.3320   -47.6980     6.4420     6.5710     7.8370   155.7900
  186.5000     8.3660     2.4980     0.0780     0.0910     0.2739   131.4330   -47.2410     6.9080     6.9080     8.4100   154.1060
  187.0000     8.3660     2.5100     0.0670     0.0820     0.2806   133.6110   -46.7540     7.1150     7.0850     8.7940   155.0540
  187.5000     8.3680     2.5110     0.0560     0.0840     0.2883   135.6980   -46.3460     7.3240     7.2630     8.9900   156.0020
  188.0000     8.3700     2.5060     0.0470     0.0870     0.2852   134.6750   -46.0810     7.5040     7.3620     9.0110   155.1040
  188.5000     8.3730     2.5020     0.0510     0.0890     0.2804   133.1560   -45.9180     7.6780     7.4670     8.8390   153.9800
  189.0000     8.3750     2.5040     0.0560     0.0880     0.2776   131.7060   -46.2540     7.7420     7.5710     8.5560   152.8570
  189.5000     8.3770     2.5070     0.0610     0.0860     0.2800   133.0290   -46.5730     7.7820     7.7110     8.2740   151.7150
  190.0000     8.3800     2.5110     0.0660     0.0840     0.2812   135.2670   -47.1160     7.6360     7.4660     8.1200   149.9240
  190.5000     8.3820     2.5080     0.0660     0.0850     0.2787   134.2250   -47.6060     7.2960     7.2320     8.0720   148.4730
  191.0000     8.3840     2.5010     0.0530     0.0900     0.2762   131.1430   -48.4220     7.0730     7.1800     7.9860   148.7490
  191.5000     8.3840     2.4880     0.0390     0.0980     0.2795   130.1150   -49.2360     6.9850     7.1290     7.9260   148.8240
  192.0000     8.3750     2.4740     0.0260     0.1030     0.2950   130.0580   -50.0460     6.8690     7.0050     7.9260   148.3560
  192.5000     8.3670     2.4680     0.0210     0.1080     0.2981   128.1380   -50.8420     6.7520     6.8730     7.8940   146.7240
  193.0000     8.3660     2.4650     0.0260     0.1120     0.3012   125.3890   -51.4000     6.6360     6.7410     7.8220   146.1320
  193.5000     8.3660     2.4670     0.0420     0.1110     0.2868   126.5010   -51.8920     6.5190     6.5610     7.6670   146.2500
  194.0000     8.3670     2.4710     0.0600     0.1090     0.2984   130.3470   -52.1090     6.2730     6.3610     7.4090   146.2310
  194.5000     8.3730     2.4730     0.0650     0.1070     0.2996   134.8460   -51.9760     5.9560     5.9790     7.1660   143.4080
  195.0000     8.3800     2.4710     0.0490     0.1080     0.3073   135.3860   -51.8450     5.6380     5.6160     7.0680   140.4290
  195.5000     8.3870     2.4680     0.0320     0.1100     0.3177   135.5540   -51.7740     5.3210     5.2520     6.9760   136.9590
  196.0000     8.3940     2.4590     0.0240     0.1140     0.3232   136.3650   -51.7740     4.9050     5.0130     6.7840   139.2520
  196.5000     8.4000     2.4430     0.0180     0.1260     0.3198   137.9380   -51.7710     4.6150     4.9210     6.1670   150.5180
  197.0000     8.4050     2.4120     0.0230     0.1420     0.3170   139.5560   -51.4940     4.8940     5.0110     5.3390   154.8940
  197.5000     8.3990     2.3910     0.0390     0.1560     0.3191   139.1560   -50.2690     4.9540     5.0950     4.9800   157.2180
  198.0000     8.3930     2.3830     0.0490     0.1600     0.3215   137.2600   -48.6470     5.0830     5.3200     5.5290   157.8960
  198.5000     8.3870     2.4110     0.0580     0.1450     0.3224   132.7540   -47.0350     5.2530     5.5690     6.5590   155.7420
  199.0000     8.3820     2.4400     0.0610     0.1280     0.3075   128.4770   -46.2020     5.4240     5.8340     7.3970   154.1060
  199.5000     8.3760     2.4550     0.0540     0.1170     0.2858   125.8180   -45.4700     5.7090     6.1290     7.8530   152.3130
  200.0000     8.3700     2.4560     0.0420     0.1170     0.2768   125.0910   -44.7190     6.2690     6.4970     7.7900   151.3500
  200.5000     8.3680     2.4530     0.0310     0.1190     0.2864   127.0900   -44.6750     6.8290     6.8660     7.7180   150.6610
  201.0000     8.3720     2.4470     0.0130     0.1230     0.2919   129.5450   -44.8960     7.2450     7.1590     7.6470   150.3190
  201.5000     8.3770     2.4400    -0.0070     0.1270     0.2952   131.7990   -45.3240     7.4660     7.3370     7.5710   149.3360
  202.0000     8.3810     2.4360    -0.0240     0.1280     0.2977   132.6710   -45.7490     7.5710     7.4330     7.6400   148.2490
  202.5000     8.3860     2.4490     0.0020     0.1200     0.2908   134.5810   -46.1800     7.5710     7.3650     7.8840   147.1620
  203.0000     8.3860     2.4660     0.0370     0.1100     0.2754   137.7680   -46.6090     7.6070     7.5140     8.0400   146.1420
  203.5000     8.3860     2.4830     0.0620     0.1010     0.2719   136.7960   -47.1230     7.7090     7.6170     8.1150   145.1860
  204.0000     8.3860     2.4860     0.0530     0.1000     0.2781   133.8300   -47.6250     7.8110     7.6990     8.1900   144.2310
  204.5000     8.3860     2.4860     0.0420     0.0990     0.2799   129.2270   -47.8270     7.8530     7.7820     8.2960   143.2750
  205.0000     8.3860     2.4880     0.0330     0.0980     0.2897   127.7710   -47.8270     7.8530     7.7160     8.3740   142.2430
  205.5000     8.3860     2.4900     0.0300     0.0970     0.2950   126.9670   -47.8270     7.7610     7.6490     8.3110   142.2430
  206.0000     8.3860     2.4890     0.0290     0.0980     0.2949   126.8940   -47.6930     7.6400     7.5710     8.2590   142.9750
  206.5000     8.3860     2.4940     0.0400     0.0950     0.2986   128.3110   -47.3620     7.6840     7.6240     8.2070   143.8490
  207.0000     8.3860     2.5010     0.0530     0.0890     0.3010   130.2860   -47.0720     7.7110     7.7110     8.1550   144.7230
  207.5000     8.3860     2.5090     0.0750     0.0830     0.2994   132.4620   -46.3490     7.6740     7.6650     8.0720   145.8330
  208.0000     8.3860     2.5170     0.0900     0.0800     0.2923   133.1610   -45.5480     7.6450     7.5950     8.1950   144.4060
  208.5000     8.3860     2.5140     0.0790     0.0810     0.2925   130.5140   -44.7200     7.5710     7.5020     8.3740   142.4530
  209.0000     8.3860     2.5100     0.0440     0.0880     0.3000   128.1970   -44.1210     7.5850     7.5140     8.3050   138.4530
  209.5000     8.3860     2.4940    -0.0030     0.0950     0.3033   128.8850   -43.5710     7.6140     7.5380     8.1590   129.6220
  210.0000     8.3860     2.4850     0.0060     0.0980     0.3094   130.9550   -43.1970     7.6400     7.5630     7.9990   125.1780
  210.5000     8.3860     2.4880     0.0190     0.0980     0.3106   132.3150   -42.9990     7.7010     7.6180     8.1350   124.5300
  211.0000     8.3860     2.4910     0.0330     0.0960     0.3037   134.1180   -42.7990     7.7560     7.6840     8.2970   125.1420
  211.5000     8.3860     2.4940     0.0460     0.0940     0.2920   136.5040   -42.5990     7.8520     7.7510     8.2970   126.3530
  212.0000     8.3860     2.4970     0.0490     0.0930     0.2845   138.1730   -42.6060     7.9850     7.8370     8.2970   127.5630
  212.5000     8.3860     2.4980     0.0490     0.0930     0.2808   136.4300   -42.7930     8.0720     7.9260     8.0720   128.0100
  213.0000     8.3820     2.4970     0.0500     0.0920     0.2789   136.3980   -43.0470     7.7030     7.5870     8.1090   123.3800
