~VERSION INFORMATION
 VERS.                2.0:   CWLS LOG ASCII STANDARD - VERSION 2.0
 WRAP.                 NO:   ONE LINE PER DEPTH STEP
~WELL INFORMATION
#MNEM.UNIT      DATA TYPE    INFORMATION
#----------   ------------   ------------------------------
 STRT.F           27.0000:   START DEPTH
 STOP.F          713.0000:   STOP DEPTH
 STEP.F            0.5000:   STEP LENGTH
 NULL.          -999.2500:   NO VALUE
 COMP. FENIX & SCISSON INC:   COMPANY
 WELL.       NPR 3 #44-34:   WELL
 FLD .        TEAPOT DOME:   FIELD
 LOC .      S34 T39N R78W:   LOCATION
 CNTY.            NATRONA:   COUNTY
 STAT.            WYOMING:   STATE
 CTRY. UNITED STATES OF AMERICA:   COUNTRY
 SRVC.           BIRDWELL:   SERVICE COMPANY
 DATE.        24-AUG-1978:   LOGDATE
 API .       490251070000:   API NUMBER
~CURVE INFORMATION
#MNEM.UNIT       API CODE    CURVE DESCRIPTION
#----------   ------------   ------------------------------
 DEPT.F                  :   
 SPR .MV     05 010 01 00:   SPONTANEOUS POTENTIAL FROM RES.
 ILD .OHMM   05 120 46 00:   INDUCTION LOG DEEP
 SN  .OHMM   05 040 16 00:   SHORT NORMAL 16"
 CALD.IN     45 280 60 00:   CALIPER
 GRD .GAPI   45 310 01 00:   GAMMA RAY FROM DENSITY LOG
 DEN .G/C3   45 350 01 00:   COMPENSATED BULK DENSTIY
 DPHI.DEC    45 890 12 00:   DENSITY POROSITY SANDSTONE
 CORR.G/C3   45 356 01 00:   DENSITY CORRECTION
~PARAMETER INFORMATION
#MNEM.UNIT          VALUE    DESCRIPTION
#----------   ------------   ------------------------------
 PD  .                 GL:   PERMANENT DATUM
 EPD .F              5124:   ELEVATION PERMANENT DATUM
 LMF .                 KB:   LOG MEASURED FROM
 DAPD.F                 4:   FEET ABOVE PERMANENT DATUM
 DMF .                 KB:   DRILLING MEASURED FROM
 EKB .F              5128:   KELLING BUSHING
 EGL .F              5124:   GROUND LEVEL
 DATE.            8-24-78:   RUN DATE
 RUN .                  1:   RUN NUMBER
 DD  .F               716:   DEPTH DRILLER
 DL  .F               713:   DEPTH LOGGER
 BLI .F               707:   BOTTOM LOG INTERVAL
 TLI .F                50:   TOP LOG INTERVAL
 CS  .IN            8.625:   CASING SIZE
 CBD .F                40:   CASING BOTTOM DRILLER
 BS  .IN            7.875:   BIT SIZE
 BSD .F               716:   BIT SIZE AT DEPTH
 DFT .            MUD KCL:   DRILLING FLUID TYPE
 DFD .                8.6:   DRILLING FLUID DENSITY
 DFV .                 34:   DRILLING FLUID VISCOSITY
 DFL .                7.4:   DRILLING FLUID LOSS
 MSS .          FLOW LINE:   MUD SAMPLE SOURCE
 RMS .OHMM            .18:   RESISTIVITY MUD SAMPLE
 MST .F                76:   MUD SAMPLE TEMPERATURE
 RMF .OHMM            .16:   RESISTIVITY MUD FILTRATE SAMPLE
 MFST.F                92:   MUD FILTRATE SAMPLE TEMPERATURE
 RMC .OHMM             .3:   RESISTIVITY MUD CAKE
 MCST.F                86:   MUD CAKE SAMPLE TEMPERATURE
 MFSS.               MEAS:   MUD FILTRATE SAMPLE SOURCE
 TCS .HRS               3:   TIME CURCULATED STOPPED
 MRT .F                72:   MAXIMUM RECORDED TEMPERATURE
 LUN .               2958:   LOGGING UNIT NUMBER
 LUL .               CASP:   LOGGING UNIT LOCATION
 ENGI.           REYNOLDS:   RECORDING ENGINEER
 WITN.              AMEND:   WITNESSED BY
 CLNT.            A2DTECH:   CLIENT CODE
 ORIG.           5" PRINT:   ORIGIN OF DATA
 UWI .       490251070000:   UNIQUE WELL ID
 DICO. A2D Technologies, Inc.:   DIGITIZING COMPANY
~OTHER INFORMATION
~A   DEPT      SPR        ILD         SN       CALD         GRD       DEN       DPHI       CORR   
   27.0000  -999.2500  -999.2500  -999.2500  -999.2500    57.6506  -999.2500  -999.2500  -999.2500
   27.5000  -999.2500  -999.2500  -999.2500  -999.2500    57.4498  -999.2500  -999.2500  -999.2500
   28.0000  -999.2500  -999.2500  -999.2500  -999.2500    57.4498  -999.2500  -999.2500  -999.2500
   28.5000  -999.2500  -999.2500  -999.2500  -999.2500    59.2366  -999.2500  -999.2500  -999.2500
   29.0000  -999.2500  -999.2500  -999.2500  -999.2500    62.1384  -999.2500  -999.2500  -999.2500
   29.5000  -999.2500  -999.2500  -999.2500  -999.2500    61.7915  -999.2500  -999.2500  -999.2500
   30.0000  -999.2500  -999.2500  -999.2500  -999.2500    60.9834  -999.2500  -999.2500  -999.2500
   30.5000  -999.2500  -999.2500  -999.2500  -999.2500    60.7332  -999.2500  -999.2500  -999.2500
   31.0000  -999.2500  -999.2500  -999.2500  -999.2500    62.8690  -999.2500  -999.2500  -999.2500
   31.5000  -999.2500  -999.2500  -999.2500  -999.2500    64.8694  -999.2500  -999.2500  -999.2500
   32.0000  -999.2500  -999.2500  -999.2500  -999.2500    64.7026  -999.2500  -999.2500  -999.2500
   32.5000  -999.2500  -999.2500  -999.2500  -999.2500    63.2067  -999.2500  -999.2500  -999.2500
   33.0000  -999.2500  -999.2500  -999.2500  -999.2500    61.6987  -999.2500  -999.2500  -999.2500
   33.5000  -999.2500  -999.2500  -999.2500  -999.2500    61.4069  -999.2500  -999.2500  -999.2500
   34.0000  -999.2500  -999.2500  -999.2500  -999.2500    61.2836  -999.2500  -999.2500  -999.2500
   34.5000  -999.2500  -999.2500  -999.2500  -999.2500    61.1627  -999.2500  -999.2500  -999.2500
   35.0000  -999.2500  -999.2500  -999.2500  -999.2500    61.0668  -999.2500  -999.2500  -999.2500
   35.5000  -999.2500  -999.2500  -999.2500  -999.2500    61.2615  -999.2500  -999.2500  -999.2500
   36.0000  -999.2500  -999.2500  -999.2500  -999.2500    61.4627  -999.2500  -999.2500  -999.2500
   36.5000  -999.2500  -999.2500  -999.2500  -999.2500    61.6657  -999.2500  -999.2500  -999.2500
   37.0000  -999.2500  -999.2500  -999.2500  -999.2500    61.8526  -999.2500  -999.2500  -999.2500
   37.5000  -999.2500  -999.2500  -999.2500  -999.2500    61.4961  -999.2500  -999.2500  -999.2500
   38.0000  -999.2500  -999.2500  -999.2500  -999.2500    61.1132  -999.2500  -999.2500  -999.2500
   38.5000  -999.2500  -999.2500  -999.2500  -999.2500    61.3464  -999.2500  -999.2500  -999.2500
   39.0000  -999.2500  -999.2500  -999.2500  -999.2500    62.6185  -999.2500  -999.2500  -999.2500
   39.5000  -999.2500  -999.2500  -999.2500  -999.2500    63.9654  -999.2500  -999.2500  -999.2500
   40.0000  -999.2500  -999.2500  -999.2500     9.1182    64.4484  -999.2500  -999.2500  -999.2500
   40.5000  -999.2500  -999.2500  -999.2500     9.0729    63.3406  -999.2500  -999.2500  -999.2500
   41.0000  -999.2500  -999.2500  -999.2500     9.0431    62.2153  -999.2500  -999.2500    -0.1651
   41.5000  -999.2500  -999.2500  -999.2500     9.0189    61.3961  -999.2500  -999.2500    -0.1723
   42.0000  -999.2500  -999.2500  -999.2500     8.9902    61.2230  -999.2500  -999.2500    -0.1723
   42.5000  -999.2500  -999.2500  -999.2500     8.9552    61.1082     2.6588  -999.2500    -0.1669
   43.0000  -999.2500  -999.2500  -999.2500     8.9524    62.2128     2.6319  -999.2500    -0.1576
   43.5000  -999.2500  -999.2500  -999.2500     8.9481    63.3251     2.5651  -999.2500    -0.1015
   44.0000  -999.2500  -999.2500  -999.2500     8.9441    64.4410     2.4628  -999.2500    -0.0449
   44.5000  -999.2500  -999.2500  -999.2500     8.9403    64.7083     2.3381  -999.2500    -0.0090
   45.0000  -999.2500  -999.2500  -999.2500     8.9472    63.4127     2.2147  -999.2500     0.0208
   45.5000  -999.2500  -999.2500  -999.2500     8.9671    62.0195     1.9346  -999.2500     0.0208
   46.0000  -999.2500  -999.2500  -999.2500     8.9622    62.3851     1.9086  -999.2500     0.0199
   46.5000  -999.2500  -999.2500  -999.2500     8.9239    67.4716     2.1595  -999.2500     0.0211
   47.0000   -53.2868     0.4665  -999.2500     9.3684    74.9210     2.3077  -999.2500     0.0243
   47.5000   -55.9821     1.2365  -999.2500     9.7271    82.3280     2.3844     0.1879     0.0259
   48.0000   -59.8606     3.5282  -999.2500     8.9428    82.1982     2.3946     0.1826     0.0265
   48.5000   -61.4452     3.7703     7.3227     8.9665    80.8116     2.4011     0.1771     0.0272
   49.0000   -63.6386     4.0107     7.1679     8.9796    82.0405     2.4111     0.1694     0.0288
   49.5000   -65.3965     4.2663     3.8938     8.9861    90.2840     2.4209     0.1679     0.0311
   50.0000   -66.3417     4.3553     3.7963     8.9920    96.0605     2.4206     0.1736     0.0334
   50.5000   -67.3017     4.3971     5.8433     8.9975    94.9724     2.4092     0.1785     0.0355
   51.0000   -68.2506     4.1909     5.8608     8.9784    91.7231     2.3971     0.1856     0.0355
   51.5000   -68.8864     4.0179     5.8809     8.9574    90.1234     2.3851     0.1928     0.0354
   52.0000   -69.0225     3.8545     5.8904     8.9365    91.0185     2.3730     0.2000     0.0352
   52.5000   -69.1641     3.6409     5.6423     8.9156    91.6178     2.3625     0.2047     0.0449
   53.0000   -69.3046     3.4345     5.4503     8.8947    88.3983     2.3598     0.2064     0.0567
   53.5000   -69.5018     3.3064     5.2680     8.8792    87.8324     2.3574     0.2083     0.0594
   54.0000   -69.9856     3.2989     5.1652     8.8910    85.5434     2.3509     0.2165     0.0545
   54.5000   -70.4672     3.2915     5.0839     8.9022    83.1146     2.3358     0.2251     0.0403
   55.0000   -70.9485     3.2840     5.0326     8.9134    83.5869     2.3208     0.2338     0.0278
   55.5000   -71.4300     3.2485     5.0127     8.9245    84.7843     2.3060     0.2419     0.0210
   56.0000   -71.9216     3.1570     4.9961     8.9352    90.1143     2.3041     0.2423     0.0224
   56.5000   -72.0121     3.0977     4.9963     8.9679    90.1963     2.3057     0.2364     0.0264
   57.0000   -72.0061     3.0819     4.9963     9.0049    84.9379     2.3086     0.2347     0.0307
   57.5000   -72.2501     3.0666     4.9963     9.0421    80.1990     2.3089     0.2349     0.0297
   58.0000   -72.5283     3.0512     4.9963     9.0791    80.7900     2.3009     0.2444     0.0275
   58.5000   -72.7987     2.8858     4.9444     9.1163    85.2219     2.2894     0.2516     0.0294
   59.0000   -72.8617     2.6835     4.8053     9.1534    86.3063     2.2799     0.2570     0.0318
   59.5000   -72.9247     2.4952     4.6694     9.1549    86.2373     2.2751     0.2668     0.0342
   60.0000   -72.9893     2.3362     4.5391     9.1474    86.4419     2.2557     0.2774     0.0365
   60.5000   -73.0541     2.3245     4.4750     9.1398    88.9715     2.2350     0.2878     0.0360
   61.0000   -73.1188     2.3155     4.4877     9.1324    91.6383     2.2182     0.2933     0.0324
   61.5000   -73.1841     2.4488     4.4963     9.1249    91.4379     2.2145     0.3031     0.0288
   62.0000   -73.2069     2.5604     4.5049     9.1175    92.7570     2.1985     0.3166     0.0252
   62.5000   -73.2073     2.6564     4.5135     9.1100    95.5543     2.1827     0.3166     0.0238
   63.0000   -73.2072     2.7555     4.5221     9.1025    97.9195     2.1824     0.3025     0.0243
   63.5000   -73.2072     2.9057     4.5307     9.0951    97.0680     2.2303     0.2738     0.0248
   64.0000   -73.2072     3.0820     4.5393     9.0876    90.6068     2.2775     0.2357     0.0254
   64.5000   -73.2072     3.2916     4.5480     9.0798    84.1152     2.3242     0.2071     0.0259
   65.0000   -73.2072     3.6296     4.5571     9.0810    81.2050     2.3739     0.1947     0.0265
   65.5000   -73.2072     3.6247     4.5591     9.0848    82.7419     2.3764     0.1968     0.0270
   66.0000   -73.2072     3.6264     4.4660     9.0887    86.4215     2.3690     0.2008     0.0271
   66.5000   -73.2070     3.5963     4.3036     9.0926    87.8039     2.3613     0.2036     0.0248
   67.0000   -73.2072     3.5585     4.2402     9.0964    88.7872     2.3613     0.2046     0.0226
