~VERSION INFORMATION
 VERS.                2.0:   CWLS LOG ASCII STANDARD - VERSION 2.0
 WRAP.                 NO:   ONE LINE PER DEPTH STEP
~WELL INFORMATION
#MNEM.UNIT      DATA TYPE    INFORMATION
#----------   ------------   ------------------------------
 STRT.F           14.0000:   START DEPTH
 STOP.F          513.0000:   STOP DEPTH
 STEP.F            0.1000:   STEP LENGTH
 NULL.          -999.2500:   NO VALUE
 COMP.       F D SERV INC:   COMPANY
 WELL.    52-1 SX-3 #52-3:   WELL
 FLD .             TEAPOT:   FIELD
 LOC .       S3 T38N R78W:   LOCATION
 CNTY.            NATRONA:   COUNTY
 STAT.            WYOMING:   STATE
 CTRY. UNITED STATES OF AMERICA:   COUNTRY
 SRVC.     Atlas Wireline:   SERVICE COMPANY
 DATE.        21-APR-1992:   LOGDATE
 API .       490252251400:   API NUMBER
~CURVE INFORMATION
#MNEM.UNIT       API CODE    CURVE DESCRIPTION
#----------   ------------   ------------------------------
 DEPT.F                  :   
 GRR .GAPI   07 310 01 00:   GAMMA RAY
 RILD.OHMM   07 120 46 00:   INDUCTION LOG DEEP RESISTIVITY
 RILM.OHMM   07 120 44 00:   INDUCTION LOG MEDIUM RESISTIVITY
~PARAMETER INFORMATION
#MNEM.UNIT          VALUE    DESCRIPTION
#----------   ------------   ------------------------------
 PD  .                 GL:   PERMANENT DATUM
 EPD .F              5115:   ELEVATION PERMANENT DATUM
 LMF .                 KB:   LOG MEASURED FROM
 DAPD.F                 5:   FEET ABOVE PERMANENT DATUM
 DMF .                 KB:   DRILLING MEASURED FROM
 EKB .F              5120:   KELLING BUSHING
 EDF .F              5119:   DRILLING FLOOR
 EGL .F              5115:   GROUND LEVEL
 DATE.        21-APR-1992:   RUN DATE
 RUN .                  1:   RUN NUMBER
 DD  .F               515:   DEPTH DRILLER
 DL  .F               520:   DEPTH LOGGER
 BLI .F               517:   BOTTOM LOG INTERVAL
 TLI .F                50:   TOP LOG INTERVAL
 CS  .IN            9.625:   CASING SIZE
 CBD .F                45:   CASING BOTTOM DRILLER
 CBL .F                50:   CASING BOTTOM LOGGER
 BS  .IN            7.875:   BIT SIZE
 BSD .F               515:   BIT SIZE AT DEPTH
 DFT .                AIR:   DRILLING FLUID TYPE
 LUN .            HL-6272:   LOGGING UNIT NUMBER
 LUL .             CASPER:   LOGGING UNIT LOCATION
 ENGI.       P. RASMUSSEN:   RECORDING ENGINEER
 WITN.          G. STRONG:   WITNESSED BY
 CLNT.            A2DTECH:   CLIENT CODE
 ORIG.           5" PRINT:   ORIGIN OF DATA
 UWI .       490252251400:   UNIQUE WELL ID
 DICO. A2D Technologies, Inc.:   DIGITIZING COMPANY
~OTHER INFORMATION
~A   DEPT      GRR       RILD       RILM   
# ...
  341.6000    94.7721    20.9923    19.2138
  341.7000    95.1134    21.0223    19.3163
  341.8000    95.4507    21.0830    19.3163
  341.9000    95.8685    21.1684    19.4062
  342.0000    95.8670    21.1740    19.5160
  342.1000    95.6402    21.3156    19.6263
  342.2000    95.3933    21.3153    19.7237
  342.3000    95.1464    21.3150    19.7237
  342.4000    94.8995    21.3576    19.7237
  342.5000    94.6526    21.4632    19.7968
  342.6000    94.4056    21.4629    19.8614
  342.7000    94.3480    21.4626    19.8614
  342.8000    94.4797    21.5426    19.8614
  342.9000    94.8008    21.6118    19.9686
  343.0000    95.2911    21.6357    20.0816
  343.1000    95.8536    21.7621    20.1396
  343.2000    96.2715    21.7618    20.1396
  343.3000    96.9148    21.8520    20.1419
  343.4000    97.5541    21.9131    20.2559
  343.5000    98.0845    21.9128    20.2802
  343.6000    98.8688    21.9174    20.2802
  343.7000    99.0972    22.0651    20.2802
  343.8000    99.6881    22.0648    20.2802
  343.9000   100.4240    22.0645    20.2802
  344.0000   101.2807    22.0642    20.2802
  344.1000   102.5205    22.0639    20.3513
  344.2000   104.4850    22.0636    20.4218
  344.3000   105.8697    22.0633    20.4218
  344.4000   106.2751    22.0630    20.4218
  344.5000   106.0282    22.0627    20.4218
  344.6000   105.7328    22.0624    20.4218
  344.7000   104.8977    22.0621    20.4218
  344.8000   104.4697    22.0618    20.4218
  344.9000   103.9770    22.0615    20.4218
  345.0000   103.3837    22.0612    20.4218
  345.1000   102.6896    22.0608    20.4218
  345.2000   102.1728    22.0605    20.4218
  345.3000   101.4708    22.0602    20.4218
  345.4000   100.7324    22.0599    20.4276
  345.5000   100.1148    22.0596    20.5643
  345.6000    99.6221    22.0593    20.5643
  345.7000    99.1376    22.0590    20.5643
  345.8000    98.8421    22.0587    20.5643
  345.9000    98.8411    22.0584    20.5509
  346.0000    98.8399    21.9786    20.4218
  346.1000    98.9232    21.9049    20.4218
  346.2000    99.1677    21.9046    20.4218
  346.3000    99.4403    21.9042    20.4218
  346.4000    99.6568    21.9039    20.4218
  346.5000    99.7402    21.9036    20.4218
  346.6000    99.8437    21.8438    20.3128
  346.7000   100.0882    21.7512    20.2802
  346.8000   100.3407    21.7509    20.2802
  346.9000   100.8150    21.7506    20.2802
  347.0000   100.9426    21.7503    20.2785
  347.1000   100.9414    21.7500    20.1645
  347.2000   101.0087    21.7099    20.0511
  347.3000   101.2411    21.5986    19.9384
  347.4000   101.2397    21.5983    19.8614
  347.5000   101.4401    21.5980    19.8523
  347.6000   101.8296    21.5977    19.7237
  347.7000   102.2312    21.5974    19.7237
  347.8000   102.4437    21.5971    19.7237
  347.9000   102.4422    21.5968    19.7237
  348.0000   102.6626    21.5965    19.7074
  348.1000   102.7420    21.5106    19.5869
  348.2000   102.6320    21.4462    19.5869
  348.3000   102.3327    21.4459    19.5869
  348.4000   101.8320    21.4456    19.5869
  348.5000   101.1058    21.4453    19.5635
  348.6000    99.8116    21.4450    19.4512
  348.7000    98.4649    21.3787    19.4512
  348.8000    97.2349    21.2957    19.4512
  348.9000    95.9890    21.2854    19.3951
  349.0000    94.2717    21.1475    19.3163
  349.1000    93.4489    21.0458    19.3163
  349.2000    92.7629    21.0003    19.3163
  349.3000    92.2703    20.9540    19.3163
  349.4000    91.8139    20.8542    19.2535
  349.5000    91.5467    20.8539    19.1824
  349.6000    91.5456    20.7449    19.1824
  349.7000    91.7136    20.6278    19.1824
  349.8000    91.9581    20.5113    19.1824
  349.9000    92.3718    20.3955    19.1129
  350.0000    93.3535    20.2802    19.0494
  350.1000    94.7226    20.6317    19.0304
  350.2000    97.2761    20.6139    18.9174
  350.3000    98.2350    20.4956    18.8170
  350.4000    98.8520    20.4195    18.7862
  350.5000    99.3455    20.4024    18.7862
  350.6000    99.6834    20.2768    18.7605
  350.7000    99.6574    20.2763    18.6560
  350.8000    99.3761    20.2757    18.6560
  350.9000    99.1567    20.2751    18.6560
  351.0000    99.0695    20.2746    18.5990
  351.1000    98.8492    20.2740    18.4944
  351.2000    98.4057    20.2733    18.3904
  351.3000    98.1553    20.2729    18.2707
  351.4000    97.9050    20.2723    18.2707
  351.5000    97.6546    20.2717    18.2081
  351.6000    97.2640    20.2712    18.1440
  351.7000    96.8518    20.2706    18.1440
  351.8000    96.6014    20.2700    18.1440
  351.9000    96.3285    20.1791    18.0514
  352.0000    95.8750    20.1284    17.9499
  352.1000    95.5482    20.1278    17.8489
  352.2000    95.4151    20.1115    17.7693
  352.3000    95.4127    19.9872    17.7693
  352.4000    95.4103    19.8813    17.7693
  352.5000    95.4074    19.7673    17.6953
  352.6000    95.4054    19.6538    17.6461
  352.7000    95.4030    19.5410    17.6461
  352.8000    95.4006    19.4217    17.6461
  352.9000    95.3982    19.1669    17.6461
  353.0000    95.3956    19.0734    17.5661
  353.1000    95.6272    19.0330    17.5238
  353.2000    95.6930    18.9867    17.4903
  353.3000    95.6906    18.8777    17.3919
  353.4000    95.7595    18.7685    17.2817
  353.5000    96.0050    18.6617    17.2817
  353.6000    96.2873    18.6373    17.2196
  353.7000    96.7069    18.5769    17.1619
  353.8000    97.3569    18.5071    17.1619
  353.9000    98.0983    18.5066    17.1619
  354.0000    98.7431    18.5060    17.1619
  354.1000    98.9945    18.4085    17.1619
  354.2000    98.9921    18.3767    17.1619
  354.3000    98.9897    18.3249    17.1619
  354.4000    98.9873    18.2483    17.1619
  354.5000    99.0645    18.2478    17.1619
  354.6000    99.3608    18.2472    17.1619
  354.7000   100.1882    18.3355    17.2011
  354.8000   101.0627    18.3737    17.2006
  354.9000   102.0520    18.3732    17.2002
  355.0000   103.0413    18.3941    17.2437
  355.1000   103.9740    18.5004    17.3192
  355.2000   104.7129    18.4999    17.3187
  355.3000   105.2064    18.4994    17.3182
  355.4000   105.6999    18.5583    17.3962
  355.5000   105.9094    18.6275    17.4380
  355.6000   105.8191    18.6270    17.4729
  355.7000   105.5015    18.6264    17.5723
  355.8000   104.6935    18.6259    17.6807
  355.9000   103.5544    18.6254    17.7730
  356.0000   102.1391    18.6249    17.8030
  356.1000   100.8871    18.6244    17.8515
  356.2000    99.8930    18.6238    17.9262
  356.3000    98.9202    18.6232    17.9257
  356.4000    98.3343    18.7129    17.9251
  356.5000    97.9235    18.7523    17.9247
  356.6000    97.8760    18.7518    17.9242
  356.7000    98.1215    18.7512    17.9237
  356.8000    98.3670    18.7507    17.9232
  356.9000    98.6247    18.7502    17.9227
  357.0000    98.8580    18.7497    17.9222
  357.1000    99.4665    18.8089    17.9217
  357.2000   100.0806    18.8795    17.8689
  357.3000   100.5740    18.8790    17.7966
  357.4000   101.0485    18.8784    17.7961
  357.5000   101.3290    18.8779    17.7955
  357.6000   101.5396    18.8774    17.7951
  357.7000   101.6266    18.9291    17.7300
  357.8000   101.5199    19.0081    17.6286
  357.9000   101.1693    19.0076    17.5480
  358.0000   100.4108    19.0070    17.5475
  358.1000    99.4328    19.0065    17.4489
  358.2000    98.2489    19.0060    17.4250
  358.3000    97.0069    19.0055    17.4245
  358.4000    95.8462    19.0050    17.4240
  358.5000    94.8792    19.0044    17.4127
  358.6000    94.0517    19.0039    17.3023
  358.7000    93.3867    19.0034    17.3019
  358.8000    92.8072    19.0028    17.3014
  358.9000    92.3089    19.0023    17.2562
  359.0000    91.8691    19.0018    17.1806
  359.1000    91.6187    19.0012    17.1784
  359.2000    91.3683    18.9024    17.0803
  359.3000    91.5140    18.8685    17.0601
  359.4000    91.6157    18.8680    17.0034
  359.5000    91.7029    18.8391    16.9410
  359.6000    91.9839    18.7361    16.9405
  359.7000    92.5146    18.7355    16.9400
