~VERSION INFORMATION
 VERS.                2.0:   CWLS LOG ASCII STANDARD - VERSION 2.0
 WRAP.                 NO:   ONE LINE PER DEPTH STEP
~WELL INFORMATION
#MNEM.UNIT      DATA TYPE    INFORMATION
#----------   ------------   ------------------------------
 STRT.F           12.0000:   START DEPTH
 STOP.F          551.0000:   STOP DEPTH
 STEP.F            0.5000:   STEP LENGTH
 NULL.          -999.2500:   NO VALUE
 COMP. LAWRENCE-ALLISON &AS:   COMPANY
 WELL. NPR 3 #58-46SX3LP4:   WELL
 FLD .             TEAPOT:   FIELD
 LOC .       S3 T38N R78W:   LOCATION
 CNTY.            NATRONA:   COUNTY
 STAT.            WYOMING:   STATE
 CTRY. UNITED STATES OF AMERICA:   COUNTRY
 SRVC.      Dresser Atlas:   SERVICE COMPANY
 DATE.        14-DEC-1984:   LOGDATE
 API .       490251099900:   API NUMBER
~CURVE INFORMATION
#MNEM.UNIT       API CODE    CURVE DESCRIPTION
#----------   ------------   ------------------------------
 DEPT.F                  :   
 RD  .OHMM   11 220 10 00:   RESISTIVITY DEEP
 RS  .OHMM   11 220 09 00:   RESISTIVITY SHALLOW
 SPR .MV     11 010 01 00:   SPONTANEOUS POTENTIAL FROM RES.
 AC  .US/F   60 520 00 00:   ACOUSTIC SONIC
 CALD.IN     45 280 60 00:   CALIPER FROM DENSITY
 CORR.G/C3   45 356 01 00:   DENSITY CORRECTION
 DEN .G/C3   45 350 01 00:   COMPENSATED BULK DENSTIY
 GRD .GAPI   45 310 01 00:   GAMMA RAY FROM DENSITY LOG
 PORD.DEC    45 890 12 00:   POROSITY DENSITY SANDSTONE
 CNC .DEC    42 890 03 00:   NEUTRON POROSITY SANDSTONE
~PARAMETER INFORMATION
#MNEM.UNIT          VALUE    DESCRIPTION
#----------   ------------   ------------------------------
 PD  .                 GL:   PERMANENT DATUM
 EPD .F              5201:   ELEVATION PERMANENT DATUM
 LMF .                 GL:   LOG MEASURED FROM
 DMF .                 GL:   DRILLING MEASURED FROM
 EGL .F              5201:   GROUND LEVEL
 DATE.        14-DEC-1984:   RUN DATE
 RUN .                  1:   RUN NUMBER
 DD  .F               552:   DEPTH DRILLER
 DL  .F               552:   DEPTH LOGGER
 BLI .F               550:   BOTTOM LOG INTERVAL
 TLI .F                20:   TOP LOG INTERVAL
 CS  .IN            8.625:   CASING SIZE
 CBD .F                20:   CASING BOTTOM DRILLER
 CBL .F                20:   CASING BOTTOM LOGGER
 BS  .IN            7.875:   BIT SIZE
 BSD .F               552:   BIT SIZE AT DEPTH
 DFT .          KCL WATER:   DRILLING FLUID TYPE
 MSS .            MUDTANK:   MUD SAMPLE SOURCE
 RMS .OHMM          0.152:   RESISTIVITY MUD SAMPLE
 MST .F                76:   MUD SAMPLE TEMPERATURE
 RMF .OHMM           0.11:   RESISTIVITY MUD FILTRATE SAMPLE
 MFST.F                76:   MUD FILTRATE SAMPLE TEMPERATURE
 RMC .OHMM           0.19:   RESISTIVITY MUD CAKE
 MCST.F                76:   MUD CAKE SAMPLE TEMPERATURE
 MFSS.               CALC:   MUD FILTRATE SAMPLE SOURCE
 MCSS.               CALC:   MUD CAKE SAMPLE SOURCE
 TCS .HRS               5:   TIME CURCULATED STOPPED
 MRT .F               100:   MAXIMUM RECORDED TEMPERATURE
 LUN .               6270:   LOGGING UNIT NUMBER
 ENGI.            LEBSOCK:   RECORDING ENGINEER
 WITN.        GREG GROOMS:   WITNESSED BY
 CLNT.            A2DTECH:   CLIENT CODE
 ORIG.           5" PRINT:   ORIGIN OF DATA
 UWI .       490251099900:   UNIQUE WELL ID
 DICO. A2D Technologies, Inc.:   DIGITIZING COMPANY
~OTHER INFORMATION
~A   DEPT       RD         RS        SPR         AC       CALD       CORR        DEN        GRD       PORD          CNC 
# ...
   45.5000   371.2263    21.3210   -69.1251   109.7493     7.7280     0.0456     2.4971   104.8562     0.1093     0.2952
   46.0000   366.3426    21.0403   -69.3834   109.8214     7.7131     0.0471     2.4880   105.0029     0.1132     0.2830
   46.5000   356.5615    20.9074   -69.6683   110.1182     7.7132     0.0546     2.4812   104.8464     0.1157     0.2769
   47.0000   344.6519    20.7753   -69.2084   110.4716     7.6819     0.0621     2.4797   104.5407     0.1169     0.2701
   47.5000   333.1402    20.6440   -68.8999   110.9391     7.6213     0.0650     2.4857   104.0847     0.1162     0.2679
   48.0000   326.4937    20.6559   -68.5913   111.1615     7.6365     0.0559     2.4948   102.1249     0.1108     0.2849
   48.5000   326.6818    20.6678   -68.2828   110.9331     7.6838     0.0541     2.4925    99.5636     0.1099     0.2942
   49.0000   326.8700    20.6797   -68.1255   110.4793     7.6388     0.0496     2.4902   100.0098     0.1139     0.2958
   49.5000   327.0582    20.6916   -68.4075   110.1007     7.6239     0.0450     2.4796   105.7192     0.1218     0.2891
   50.0000   327.9082    20.8493   -68.4226   110.0544     7.6842     0.0344     2.4622   107.2180     0.1309     0.2789
   50.5000   334.2764    20.7152   -68.6849   110.3182     7.7145     0.0207     2.4544   106.9121     0.1373     0.2740
   51.0000   331.9982    20.5851   -68.5237   110.6893     7.7146    -0.0036     2.4448   104.8023     0.1376     0.2755
   51.5000   327.8201    20.3180   -68.5134   110.9864     7.6846     0.0100     2.4497   102.2415     0.1352     0.2834
   52.0000   321.2926    20.0513   -68.5032   111.2061     7.6547     0.0265     2.4621   101.0351     0.1270     0.2898
   52.5000   312.7750    20.0636   -68.6438   111.2016     7.6549     0.0295     2.4644   102.3829     0.1265     0.2810
   53.0000   308.6250    19.9345   -68.9277   111.1219     7.6551     0.0218     2.4644   108.8446     0.1259     0.2783
   53.5000   306.6886    20.0883   -69.0683   111.0422     7.6702     0.0203     2.4674   111.5469     0.1244     0.2822
   54.0000   309.0528    20.2401   -69.0555   110.5869     7.6854     0.0338     2.4727   107.9334     0.1208     0.2980
   54.5000   311.3873    20.5346   -69.1961   109.9813     7.6705     0.0609     2.4810   105.2233     0.1190     0.3113
   55.0000   315.9146    20.6898   -69.4826   109.2255     7.6556     0.0684     2.4779   107.6237     0.1178     0.3164
   55.5000   320.5078    20.9908   -69.6207   108.8453     7.6558     0.0636     2.4817   109.4238     0.1166     0.3119
   56.0000   327.4223    21.1494   -69.7567   108.8407     7.6710     0.0577     2.4960   107.7652     0.1116     0.3025
   56.5000   332.1828    21.3093   -69.7459   108.9865     7.6862     0.0606     2.5021   103.8509     0.1054     0.2917
   57.0000   337.0125    21.3225   -69.8843   108.9068     7.7014     0.0545     2.5028   105.8013     0.1051     0.2763
   57.5000   339.5582    21.3358   -70.3188   108.2261     7.7015     0.0423     2.4869   108.2029     0.1092     0.2666
   58.0000   339.7673    21.3490   -70.7537   107.9961     7.7017     0.0284     2.4673   106.5443     0.1233     0.2672
   58.5000   339.9766    21.3895   -70.8917   108.1430     7.7168     0.0133     2.4703   105.1800     0.1230     0.2769
   59.0000   340.1859    21.5265   -70.7329   108.3025     7.6869     0.0087     2.4854   105.0316     0.1161     0.2784
   59.5000   342.7556    21.8397   -70.1291   108.3593     7.6871     0.0298     2.4884   103.9564     0.1131     0.2763
   60.0000   342.9667    21.8531   -69.9703   107.8938     7.6872     0.0312     2.4808   102.7669     0.1161     0.2582
   60.5000   347.9532    22.0183   -69.9599   107.4405     7.6874     0.0281     2.4702   104.3439     0.1261     0.2522
   61.0000   353.0122    22.0318   -70.0985   107.2938     7.6875     0.0190     2.4596   107.3113     0.1286     0.2522
   61.5000   358.1447    22.0453   -70.5307   107.4475     7.6877     0.0054     2.4604   107.8664     0.1286     0.2644
   62.0000   360.8500    22.0589   -70.6714   107.8878     7.6878     0.0159     2.4626   106.6578     0.1280     0.2718
   62.5000   363.5757    21.9204   -70.5102   108.4072     7.6729     0.0113     2.4634   103.7962     0.1268     0.2715
   63.0000   363.8019    21.9338   -70.0548   108.7783     7.6731     0.0112     2.4694   103.4909     0.1238     0.2797
   63.5000   364.0282    21.7927   -69.8961   108.7738     7.6733     0.0142     2.4747   104.8398     0.1217     0.2961
   64.0000   361.4475    21.6559   -69.7375   108.7693     7.6884     0.0398     2.4731   107.5421     0.1226     0.3042
   64.5000   352.0957    21.5199   -69.7272   108.5393     7.6886     0.0292     2.4670   107.6892     0.1272     0.3030
   65.0000   340.4013    21.3875   -69.5685   108.5249     7.6887     0.0125     2.4622   106.0294     0.1312     0.2928
   65.5000   326.7790    21.1072   -69.4099   108.9810     7.6889     0.0095     2.4531   105.5750     0.1336     0.2710
   66.0000   315.8768    20.9745   -69.3996   109.3522     7.6890     0.0426     2.4451   108.4265     0.1345     0.2680
   66.5000   307.4554    20.9876   -69.8344   109.8735     7.6892     0.0546     2.4572   109.6251     0.1306     0.2858
   67.0000   301.2870    20.8558   -70.1209   110.1695     7.6893     0.0590     2.4647   109.6206     0.1279     0.3094
   67.5000   299.3967    20.8688   -70.5557   110.3904     7.6895     0.0575     2.4609   108.8642     0.1285     0.3139
   68.0000   297.5183    20.8818   -70.6938   110.5372     7.7047     0.0423     2.4609   105.7019     0.1297     0.2698
   68.5000   297.7474    20.8948   -70.6835   110.3062     7.7048     0.0272     2.4617   102.3891     0.1295     0.2665
   69.0000   299.9964    20.9103   -70.8216   109.9260     7.7050     0.0151     2.4609   102.8358     0.1304     0.2665
   69.5000   304.3582    20.9232   -70.9599   109.3204     7.7051     0.0090     2.4526   105.3877     0.1331     0.2974
   70.0000   310.9243    21.0813   -70.9494   108.7899     7.7053     0.0059     2.4458   106.4370     0.1338     0.3273
   70.5000   317.6320    21.0943   -70.9391   108.5600     7.7054     0.0028     2.4578   104.7773     0.1310     0.3288
   71.0000   328.9996    21.2537   -70.4817   108.4803     7.6905     0.0210     2.4639   100.2615     0.1289     0.3028
   71.5000   333.7831    21.2668   -69.8798   108.4758     7.6907     0.0238     2.4593    99.8059     0.1293     0.2841
   72.0000   333.9886    21.2798   -69.5727   108.2459     7.6908     0.0145     2.4525   100.4029     0.1337     0.2835
   72.5000   329.6079    21.2929   -69.3942   107.7905     7.6910     0.0086     2.4487   101.4511     0.1360     0.2985
   73.0000   327.5319    21.1559   -69.2552   107.5606     7.6911     0.0191     2.4532   103.1158     0.1348     0.3025
   73.5000   327.7417    21.1722   -69.2428   107.4821     7.6913     0.0130     2.4547   105.5449     0.1339     0.3022
   74.0000   327.9435    21.1852   -69.2325   107.5527     7.6915    -0.0097     2.4517   107.0016     0.1354     0.2819
   74.5000   330.4206    21.1982   -69.2222   107.6984     7.6916     0.0083     2.4411   106.8271     0.1418     0.2706
   75.0000   335.2248    21.2113   -69.3629   107.4673     7.6918     0.0173     2.4366   104.7505     0.1421     0.2646
   75.5000   337.7590    21.2243   -69.3500   106.5612     7.6919     0.0233     2.4381   100.3709     0.1397     0.2606
   76.0000   340.3123    21.2374   -69.3397   106.4815     7.6770     0.0489     2.4509    99.9164     0.1340     0.2633
   76.5000   338.1731    21.1039   -69.3295   106.5533     7.6621     0.0473     2.4607   102.4672     0.1298     0.2950
   77.0000   333.3780    20.9714   -69.4701   106.9232     7.6623     0.0292     2.4622   101.2598     0.1283     0.2966
   77.5000   327.1425    20.8397   -69.4573   107.2352     7.6775    -0.0041     2.4591   100.8042     0.1298     0.2923
   78.0000   320.5791    20.7089   -69.4470   107.4412     7.6926    -0.0117     2.4584   100.9501     0.1307     0.2936
   78.5000   314.2441    20.7222   -69.1400   107.5978     7.6928     0.0049     2.4591   103.9531     0.1304     0.2945
