~VERSION INFORMATION
 VERS.                2.0:   CWLS LOG ASCII STANDARD - VERSION 2.0
 WRAP.                 NO:   ONE LINE PER DEPTH STEP
~WELL INFORMATION
#MNEM.UNIT      DATA TYPE    INFORMATION
#----------   ------------   ------------------------------
 STRT.F           31.0000:   START DEPTH
 STOP.F          600.0000:   STOP DEPTH
 STEP.F            0.5000:   STEP LENGTH
 NULL.          -999.2500:   NO VALUE
 COMP. FENIX & SCISSON INC:   COMPANY
 WELL.      NPR 3 #84 S-3:   WELL
 FLD .             TEAPOT:   FIELD
 LOC .       S3 T38N R78W:   LOCATION
 CNTY.            NATRONA:   COUNTY
 STAT.            WYOMING:   STATE
 CTRY. UNITED STATES OF AMERICA:   COUNTRY
 SRVC.              Welex:   SERVICE COMPANY
 DATE.        29-MAR-1977:   LOGDATE
 API .       490251032000:   API NUMBER
~CURVE INFORMATION
#MNEM.UNIT       API CODE    CURVE DESCRIPTION
#----------   ------------   ------------------------------
 DEPT.F                  :   
 CALD.IN     45 280 60 00:   CALIPER FROM DENSITY LOG
 GRD .GAPI   45 310 01 00:   GAMMA RAY FROM DENSITY LOG
 CORR.G/C3   45 356 01 00:   DENSITY CORRECTION
 DPHI.DEC    45 890 12 00:   DENSITY POROSITY SANDSTONE
 RHOB.G/C3   45 350 01 00:   BULK DENSITY
 SPR .MV     07 010 01 00:   SPONTANEOUS POTENTIAL
 ILD .OHMM   07 120 46 00:   INDUCTION LOG DEEP
 ILM .OHMM   07 120 44 00:   INDUCTION LOG MEDIUM
 SGRD.OHMM   07 221 05 00:   SHALLOW SHORT GUARD RESISTIVITY
~PARAMETER INFORMATION
#MNEM.UNIT          VALUE    DESCRIPTION
#----------   ------------   ------------------------------
 PD  .                 GL:   PERMANENT DATUM
 EPD .F              5146:   ELEVATION PERMANENT DATUM
 LMF .                 GL:   LOG MEASURED FROM
 DMF .                 GL:   DRILLING MEASURED FROM
 EGL .F              5146:   GROUND LEVEL
 DATE.        29-MAR-1977:   RUN DATE
 RUN .                  1:   RUN NUMBER
 DD  .F               610:   DEPTH DRILLER
 DL  .F               602:   DEPTH LOGGER
 BLI .F               600:   BOTTOM LOG INTERVAL
 TLI .F                30:   TOP LOG INTERVAL
 CS  .IN            8.625:   CASING SIZE
 BSD .F               610:   BIT SIZE AT DEPTH
 DFT .                KCL:   DRILLING FLUID TYPE
 DFD .                8.8:   DRILLING FLUID DENSITY
 BHT .F                63:   BOTTOM HOLE TEMPERATURE
 TCS .HRS            0500:   TIME CURCULATED STOPPED
 MRT .F                63:   MAXIMUM RECORDED TEMPERATURE
 ENGI.            C. DOAK:   RECORDING ENGINEER
 WITN.            R. LYON:   WITNESSED BY
 CLNT.            A2DTECH:   CLIENT CODE
 ORIG.           5" PRINT:   ORIGIN OF DATA
 UWI .       490251032000:   UNIQUE WELL ID
 DICO. A2D Technologies, Inc.:   DIGITIZING COMPANY
~OTHER INFORMATION
~A   DEPT     CALD        GRD       CORR       DPHI       RHOB        SPR        ILD        ILM       SGRD   
# ...
  213.5000     7.9031   106.8569     0.0120     0.1038     2.4743   -34.5171    10.4634    12.5258    14.5758
  214.0000     7.9195   108.3388     0.0182     0.0993     2.4819   -34.8549    10.4697    11.7767    17.0177
  214.5000     7.9210   109.2225     0.0213     0.0938     2.4887   -36.5963    10.4748    12.4530    15.4517
  215.0000     7.9228   108.9153     0.0230     0.0881     2.4970   -37.4413    10.2646    12.8072    14.8288
  215.5000     7.9392   108.1866     0.0246     0.0842     2.5083   -38.1694    10.1272    11.9582    14.6311
  216.0000     7.9407   107.3087     0.0262     0.0813     2.5114   -37.4116     9.9251    11.4760    14.1390
  216.5000     7.9422   106.4309     0.0279     0.0828     2.5062   -36.2081     9.6577    11.6430    14.1449
  217.0000     7.9437   105.2550     0.0310     0.0852     2.5033   -34.2616     9.3997    11.4886    14.1507
  217.5000     7.9451   103.4830     0.0327     0.0866     2.5026   -33.5038     9.1475    10.6517    13.9619
  218.0000     7.9466   100.8168     0.0358     0.0838     2.5079   -33.3441     9.0877    11.2635    13.4923
  218.5000     7.9481   100.3820     0.0390     0.0807     2.5148   -34.2171     9.0932    11.0374    13.3121
  219.0000     7.9343   102.3399     0.0421     0.0786     2.5148   -33.3108     9.0976    10.5937    13.3178
  219.5000     7.9362   103.3995     0.0438     0.0781     2.5112   -32.4044     9.1020    10.3798    13.6030
  220.0000     7.9224   103.5608     0.0454     0.0853     2.5007   -32.0961     9.0426    10.9760    13.7032
  220.5000     7.9090   101.3457     0.0471     0.0933     2.4941   -32.3784     8.9237    10.3899    13.5203
  221.0000     7.8956   101.9582     0.0487     0.1002     2.4829   -32.5122     8.8042    10.6880    13.2478
  221.5000     7.8822   104.5081     0.0503     0.1056     2.4717   -33.0880     8.6286    11.0683    12.8913
  222.0000     7.8542   106.9090     0.0535     0.1109     2.4628   -34.2619     8.4554    10.4786    13.1673
  222.5000     7.8110   106.9254     0.0536     0.1151     2.4569   -36.0338     8.3432    11.1573    13.5428
  223.0000     7.7380   106.6437     0.0522     0.1172     2.4562   -34.8266     8.3472    11.0844    13.0873
  223.5000     7.6500   105.7658     0.0464     0.1186     2.4525   -33.9202     8.4093    10.6388    12.3871
  224.0000     7.5915   104.1429     0.0374     0.1195     2.4496   -34.2062     8.4134    10.1419    12.4784
  224.5000     7.5487   102.6689     0.0240     0.1198     2.4504   -34.3363     8.4759    10.2173    12.5709
  225.0000     7.5800   101.7870     0.0076     0.1156     2.4588   -34.7672     8.4800    10.4367    12.1475
  225.5000     7.6411   102.1055    -0.0014     0.1084     2.4656   -35.7925     8.5430    10.6608    11.7390
  226.0000     7.7022   103.4632    -0.0028     0.1053     2.4679   -36.8215     8.6065    10.2322    12.6734
  226.5000     7.7782   105.4170    -0.0026     0.1110     2.4620   -35.9114     8.6705    10.3798    12.2472
  227.0000     7.8393   107.2217    -0.0020     0.1155     2.4553   -35.3022     8.7349    10.6763    12.9575
  227.5000     7.8855   108.5793    -0.0009     0.1184     2.4509   -34.9902     8.7998    10.3899    14.4872
  228.0000     7.9019   109.7880     0.0003     0.1178     2.4450   -34.8268     8.8652    10.1099    15.4108
  228.5000     7.9034   110.5495     0.0014     0.1193     2.4503   -34.6634     8.9311    10.2558    14.1566
  229.0000     7.9048   110.7149     0.0026     0.1169     2.4556   -34.8008     8.8727     9.5759    12.7050
  229.5000     7.8467   110.2841     0.0037     0.1130     2.4609   -34.9346     8.7561     9.9179    12.5355
  230.0000     7.7588   109.5554     0.0049     0.1090     2.4663   -35.5104     8.5803    10.2012    12.5407
  230.5000     7.8497   108.9756     0.0061     0.1048     2.4693   -38.1702     8.4081     9.9964    12.5460
  231.0000     7.8959   109.2900     0.0072     0.1054     2.4672   -41.5729     8.0701     9.2683    12.3717
  231.5000     7.9123   109.9025     0.0093     0.1075     2.4665   -42.1561     7.7456     8.9574    12.1218
  232.0000     7.8985   111.1111     0.0110     0.1084     2.4733   -40.8003     7.4858     8.9618    11.9671
  232.5000     7.8855   113.0649     0.0126     0.1032     2.4786   -40.3434     7.2850     8.6612    11.7179
  233.0000     7.8883   115.3167     0.0143     0.0999     2.4817   -43.8909     7.0896     8.2557    11.2369
  233.5000     7.8917   116.6744     0.0129     0.0972     2.4780   -45.5143     6.9955     8.3170    10.2492
  234.0000     7.8950   114.4553     0.0085     0.1014     2.4744   -44.3070     6.9498     8.1501     8.8708
  234.5000     7.8983   113.1304     0.0041     0.1043     2.4752   -40.8747     6.9540     8.0410     8.0809
  235.0000     7.9017   113.8919    -0.0003     0.1049     2.4738   -39.2291     6.9574     8.3292     9.6484
  235.5000     7.9050   115.5476    -0.0017     0.0998     2.4738   -41.5879     6.9607     8.2747    11.0010
  236.0000     7.9083   116.6072    -0.0031     0.0992     2.4732   -39.4929     7.0612     8.5121    11.3598
  236.5000     7.9117   115.8784    -0.0029     0.1030     2.4725   -36.2091     7.1136     8.7553    10.8791
  237.0000     7.9150   115.4436    -0.0028     0.1048     2.4741   -36.9372     7.1665     9.0054    10.5238
  237.5000     7.9184   115.0169    -0.0011     0.1009     2.4771   -39.7455     7.2699     8.5245    10.3947
  238.0000     7.9217   113.8411     0.0005     0.0979     2.4795   -40.0316     7.3748     8.4688    10.7785
  238.5000     7.9250   111.4729     0.0007     0.0988     2.4780   -38.6758     7.5331     9.3360    11.0726
  239.0000     7.9284   111.1871     0.0038     0.0999     2.4796   -37.4722     7.5891     9.6682    10.9246
  239.5000     7.9317   110.9095     0.0055     0.0975     2.4834   -39.6862     7.7521     9.1531    11.0053
  240.0000     7.9350   109.7337     0.0071     0.0957     2.4858   -38.1855     7.8097     8.6397    11.3200
  240.5000     7.9384   107.5145     0.0087     0.0969     2.4798   -39.3594     7.9774     8.4309    10.7889
  241.0000     7.9404   108.1270     0.0104     0.1004     2.4762   -42.7621     8.0366     8.9265    11.1736
  241.5000     7.9419   110.3789     0.0120     0.1022     2.4770   -42.4501     8.0405     9.1174    11.4129
  242.0000     7.9434   112.3327     0.0137     0.1004     2.4823   -41.5437     8.1003     9.5080    11.5769
  242.5000     7.9449   113.3922     0.0138     0.0959     2.4861   -40.6373     8.1042     9.9736    11.8248
  243.0000     7.9464   112.8084     0.0139     0.0952     2.4862   -41.8112     8.1081     9.1656    12.0780
  243.5000     7.9479   113.7230     0.0126     0.0982     2.4810   -40.9048     8.0561     9.0613    12.3367
  244.0000     7.9494   114.7826     0.0127     0.1003     2.4804   -40.1471     8.0600     9.7992    12.0881
  244.5000     7.9508   115.5441     0.0113     0.0985     2.4812   -39.5379     8.0074     9.7054    11.6009
  245.0000     7.9523   115.7054     0.0100     0.0981     2.4783   -38.3343     7.9560     9.3940    11.6864
  245.5000     7.9538   115.4237     0.0086     0.1008     2.4768   -39.5082     7.8504     9.6807    12.1872
  246.0000     7.9553   115.7423     0.0072     0.1065     2.4702   -42.3165     7.7472     9.3777    11.6154
  246.5000     7.9568   116.6528     0.0043     0.1103     2.4642   -43.9362     7.7510     8.9629    11.3801
  247.0000     7.9583   118.3085     0.0015     0.1133     2.4598   -45.4072     7.6472     8.9054    11.3860
  247.5000     7.9598   119.9642     0.0001     0.1124     2.4569   -46.1353     7.6519     9.2235    11.4699
  248.0000     7.9613   120.7258    -0.0028     0.1103     2.4577   -46.7149     7.6556     8.9140    10.7813
  248.5000     7.9627   120.8912    -0.0027     0.1079     2.4623   -46.8523     7.6055     9.0445    11.1658
  249.0000     7.9642   120.4604    -0.0040     0.1069     2.4654   -47.4281     7.6101     9.3035    11.8067
  249.5000     7.9657   118.0923    -0.0039     0.1096     2.4662   -48.3048     7.6138     9.1124    11.4889
