~VERSION INFORMATION
 VERS.                2.0:   CWLS LOG ASCII STANDARD - VERSION 2.0
 WRAP.                 NO:   ONE LINE PER DEPTH STEP
~WELL INFORMATION
#MNEM.UNIT      DATA TYPE    INFORMATION
#----------   ------------   ------------------------------
 STRT.F           10.0000:   START DEPTH
 STOP.F          472.5000:   STOP DEPTH
 STEP.F            0.5000:   STEP LENGTH
 NULL.          -999.2500:   NO VALUE
 COMP. FENIX & SCISSON INC:   COMPANY
 WELL. NAVAL PETROLEUM RESERVE 3 SX-1 #67-10:   WELL
 FLD .             TEAPOT:   FIELD
 LOC .      S10 T38N R78W:   LOCATION
 CNTY.            NATRONA:   COUNTY
 STAT.            WYOMING:   STATE
 CTRY. UNITED STATES OF AMERICA:   COUNTRY
 SRVC.           BIRDWELL:   SERVICE COMPANY
 DATE.        05-DEC-1978:   LOGDATE
 API .       490251075000:   API NUMBER
~CURVE INFORMATION
#MNEM.UNIT       API CODE    CURVE DESCRIPTION
#----------   ------------   ------------------------------
 DEPT.F                  :   
 SPR .MV     05 010 01 00:   SPONTANEOUS POTENTIAL FROM RES.
 SN  .OHMM   05 040 16 00:   SHORT NORMAL 16"
 IL  .OHMM   05 120 00 00:   INDUCTION LOG
 CALD.IN     45 280 60 00:   CALIPER
 GRD .GAPI   45 310 01 00:   GAMMA RAY FROM DENSITY LOG
 RHOB.G/C3   45 350 01 00:   BULK DENSITY
 DPHI.DEC    45 890 12 00:   DENSITY POROSITY SANDSTONE
 CORR.G/C3   45 356 01 00:   DENSITY CORRECTION
~PARAMETER INFORMATION
#MNEM.UNIT          VALUE    DESCRIPTION
#----------   ------------   ------------------------------
 PD  .                 GL:   PERMANENT DATUM
 EPD .F              5189:   ELEVATION PERMANENT DATUM
 LMF .                 KB:   LOG MEASURED FROM
 DAPD.F                 4:   FEET ABOVE PERMANENT DATUM
 DMF .                 KB:   DRILLING MEASURED FROM
 EKB .F              5193:   KELLING BUSHING
 EGL .F              5189:   GROUND LEVEL
 DATE.            12-5-78:   RUN DATE
 RUN .                  1:   RUN NUMBER
 DD  .F               475:   DEPTH DRILLER
 DL  .F               471:   DEPTH LOGGER
 BLI .F               465:   BOTTOM LOG INTERVAL
 TLI .F                40:   TOP LOG INTERVAL
 CS  .IN            8.625:   CASING SIZE
 CBD .F                40:   CASING BOTTOM DRILLER
 CBL .F                40:   CASING BOTTOM LOGGER
 BS  .IN            7.875:   BIT SIZE
 BSD .F               475:   BIT SIZE AT DEPTH
 DFT .                KCL:   DRILLING FLUID TYPE
 DFD .                8.8:   DRILLING FLUID DENSITY
 DFV .                 42:   DRILLING FLUID VISCOSITY
 DFPH.               12.2:   DRILLING FLUID PH
 DFL .               11.6:   DRILLING FLUID LOSS
 MSS .          FLOW LINE:   MUD SAMPLE SOURCE
 RMS .OHMM            .31:   RESISTIVITY MUD SAMPLE
 MST .F                60:   MUD SAMPLE TEMPERATURE
 RMF .OHMM            .29:   RESISTIVITY MUD FILTRATE SAMPLE
 MFST.F                61:   MUD FILTRATE SAMPLE TEMPERATURE
 RMC .OHMM            .42:   RESISTIVITY MUD CAKE
 MCST.F                63:   MUD CAKE SAMPLE TEMPERATURE
 MFSS.           MEASURED:   MUD FILTRATE SAMPLE SOURCE
 MCSS.           MEASURED:   MUD CAKE SAMPLE SOURCE
 RMB .OHMM            .33:   RESISTIVITY MUD AT BHT
 BHT .F                57:   BOTTOM HOLE TEMPERATURE
 TCS .HRS               3:   TIME CURCULATED STOPPED
 MRT .F                57:   MAXIMUM RECORDED TEMPERATURE
 LUN .               2958:   LOGGING UNIT NUMBER
 LUL .                CPR:   LOGGING UNIT LOCATION
 ENGI.            ROLLINS:   RECORDING ENGINEER
 WITN.              AMEND:   WITNESSED BY
 CLNT.            A2DTECH:   CLIENT CODE
 ORIG.       2", 5" PRINT:   ORIGIN OF DATA
 UWI .       490251075000:   UNIQUE WELL ID
 DICO. A2D Technologies, Inc.:   DIGITIZING COMPANY
~OTHER INFORMATION
~A   DEPT      SPR         SN         IL       CALD         GRD      RHOB       DPHI       CORR   
# ...
  334.0000   -54.6310    15.3810    19.2750     8.8080    83.5740     2.3720     0.1900     0.0280
  334.5000   -54.7570    15.3540    19.2740     8.8090    79.4710     2.3760     0.1820     0.0360
  335.0000   -54.8820    15.3270    19.2740     8.8100    76.4300     2.3950     0.1740     0.0440
  335.5000   -55.0080    15.3000    19.2750     8.8020    74.3200     2.4020     0.1700     0.0430
  336.0000   -55.1340    15.1300    19.2740     8.7940    72.6650     2.4070     0.1670     0.0420
  336.5000   -55.2600    14.9570    19.2740     8.7870    73.3980     2.4120     0.1640     0.0390
  337.0000   -55.3850    14.7850    18.5090     8.7790    75.3080     2.4150     0.1630     0.0330
  337.5000   -55.5110    14.6120    17.7370     8.7720    78.0050     2.4140     0.1640     0.0250
  338.0000   -55.6370    14.4620    17.3630     8.7640    80.1290     2.4060     0.1690     0.0220
  338.5000   -55.7630    14.3970    16.9890     8.7570    80.6370     2.3990     0.1740     0.0200
  339.0000   -55.8880    14.3320    16.6150     8.7500    80.5550     2.3950     0.1790     0.0190
  339.5000   -56.0140    14.2670    16.3220     8.7480    80.6810     2.3940     0.1780     0.0170
  340.0000   -56.1390    14.2030    16.3760     8.7470    84.1020     2.3950     0.1770     0.0160
  340.5000   -56.2480    14.1380    16.4210     8.7460    87.4240     2.3960     0.1760     0.0160
  341.0000   -56.3310    14.0730    16.4730     8.7440    89.2860     2.3980     0.1750     0.0160
  341.5000   -56.4150    14.0090    16.3010     8.7430    88.6820     2.3990     0.1750     0.0160
  342.0000   -56.4990    13.9440    16.0940     8.7420    86.3670     2.3990     0.1740     0.0170
  342.5000   -56.5830    13.8790    15.8870     8.7400    83.1320     2.3990     0.1740     0.0090
  343.0000   -56.6670    13.8140    15.7020     8.7390    79.7130     2.4000     0.1740     0.0060
  343.5000   -56.7500    13.7500    15.5870     8.7370    80.4750     2.4000     0.1740     0.0050
  344.0000   -56.8150    13.6850    15.4730     8.7360    81.8000     2.4000     0.1740     0.0090
  344.5000   -56.8140    13.6200    15.3580     8.7350    83.7750     2.4040     0.1680     0.0140
  345.0000   -56.8140    13.5560    15.2430     8.7330    84.8770     2.4130     0.1640     0.0140
  345.5000   -56.8140    13.4910    15.1590     8.7320    85.0810     2.4180     0.1640     0.0140
  346.0000   -56.8140    13.4440    15.1590     8.7310    85.2560     2.4200     0.1640     0.0140
  346.5000   -56.8120    13.4440    15.1590     8.7310    85.2360     2.4250     0.1600     0.0140
  347.0000   -56.8040    13.4440    15.1590     8.8030    85.1480     2.4300     0.1540     0.0140
  347.5000   -56.7960    13.4440    15.1590     8.8300    84.9250     2.4330     0.1510     0.0130
  348.0000   -56.7890    13.4440    15.1590     8.8270    84.0530     2.4320     0.1500     0.0100
  348.5000   -56.7810    13.4440    15.1590     8.8240    82.3500     2.4300     0.1550     0.0070
  349.0000   -56.7730    13.4430    15.1590     8.8200    81.7910     2.4210     0.1590     0.0070
  349.5000   -56.7660    13.4440    15.1590     8.8170    83.9120     2.4180     0.1630     0.0080
  350.0000   -56.7580    13.4430    15.1590     8.8140    85.1130     2.4180     0.1640     0.0090
  350.5000   -56.7500    13.4420    15.1590     8.8100    86.0560     2.4180     0.1640     0.0090
  351.0000   -56.7430    13.4930    15.1590     8.8090    86.2900     2.4180     0.1640     0.0100
  351.5000   -56.7350    13.5380    15.1590     8.8080    85.7610     2.4180     0.1640     0.0110
  352.0000   -56.7270    13.5670    15.1590     8.8070    83.0290     2.4180     0.1640     0.0120
  352.5000   -56.7200    13.5430    15.1590     8.8060    81.1390     2.4190     0.1640     0.0120
  353.0000   -56.7120    13.5240    15.1590     8.8050    79.9670     2.4200     0.1630     0.0130
  353.5000   -56.7050    13.5040    15.1600     8.8050    79.6440     2.4210     0.1610     0.0130
  354.0000   -56.6970    13.4850    15.1600     8.8040    79.3580     2.4220     0.1600     0.0130
  354.5000   -56.6890    13.4660    15.0540     8.8030    79.0550     2.4270     0.1590     0.0140
  355.0000   -56.6820    13.4470    14.9130     8.8020    78.2030     2.4290     0.1570     0.0140
  355.5000   -56.6740    13.4280    14.7730     8.8010    77.3510     2.4310     0.1560     0.0150
  356.0000   -56.6660    13.4080    14.6320     8.8000    77.0420     2.4350     0.1520     0.0180
  356.5000   -56.6590    13.3890    14.4920     8.7990    77.4830     2.4410     0.1470     0.0210
  357.0000   -56.6510    13.3690    14.3520     8.7980    80.4970     2.4470     0.1410     0.0240
  357.5000   -56.6430    13.3510    14.2100     8.7970    83.4230     2.4520     0.1390     0.0240
  358.0000   -56.6360    13.3200    14.2430     8.7960    83.3090     2.4500     0.1430     0.0240
  358.5000   -56.6280    13.4150    14.2760     8.7950    79.6710     2.4440     0.1470     0.0240
  359.0000   -56.6210    13.6540    14.3090     8.7940    80.0580     2.4340     0.1510     0.0240
  359.5000   -56.6040    13.8930    14.3420     8.7930    80.4280     2.4090     0.1670     0.0290
  360.0000   -56.4020    14.1320    14.8700     8.7930    79.7310     2.3850     0.1820     0.0340
  360.5000   -56.2000    14.3710    15.3910     8.7920    78.6590     2.3610     0.1950     0.0390
  361.0000   -55.9980    14.6100    16.2420     8.7930    77.7740     2.3450     0.2050     0.0400
  361.5000   -55.7690    15.0450    17.7710     8.8110    77.3790     2.3370     0.2080     0.0390
  362.0000   -54.9160    15.7340    19.3000     8.8570    76.9770     2.3280     0.2130     0.0350
  362.5000   -54.0520    16.4220    20.8300     8.5520    76.5760     2.3170     0.2180     0.0270
  363.0000   -53.6560    17.2690    22.3590     8.6030    76.3910     2.3030     0.2320     0.0200
  363.5000   -53.2680    18.5760    24.2280     8.6480    77.9610     2.2900     0.2450     0.0170
  364.0000   -52.8810    19.6090    26.4980     8.6090    77.8900     2.2850     0.2450     0.0170
  364.5000   -52.4920    20.3290    28.3940     8.5810    77.0730     2.2840     0.2440     0.0170
  365.0000   -52.0950    20.9210    29.2910     8.7500    76.5990     2.2870     0.2420     0.0180
  365.5000   -52.0200    21.4530    29.8890     8.7160    77.0480     2.2910     0.2400     0.0180
  366.0000   -52.0320    21.9360    30.1680     8.5830    77.4800     2.2960     0.2370     0.0190
  366.5000   -52.0470    21.9790    30.5140     8.5580    77.2980     2.3010     0.2340     0.0200
  367.0000   -52.0620    22.0180    30.9280     8.5790    75.8970     2.3060     0.2310     0.0200
  367.5000   -52.0780    22.0570    31.3410     8.8810    73.8890     2.3110     0.2290     0.0210
  368.0000   -52.0930    22.0970    31.7550     8.5240    71.7290     2.3150     0.2270     0.0220
  368.5000   -52.1090    22.1390    32.0360     8.5860    70.8730     2.3170     0.2250     0.0230
  369.0000   -52.1240    21.9710    31.4020     8.7220    72.7360     2.3190     0.2230     0.0240
  369.5000   -52.1400    21.7890    30.9220     8.8810    73.3430     2.3240     0.2210     0.0240
  370.0000   -52.1550    21.6070    30.4410     8.4150    73.5610     2.3330     0.2150     0.0250
  370.5000   -52.1710    21.4260    30.0160     8.6670    73.6540     2.3410     0.2090     0.0250
  371.0000   -52.1860    21.2440    29.9170     8.6330    74.2290     2.3430     0.2080     0.0260
  371.5000   -52.2000    21.0620    29.8170     8.8080    75.2880     2.3450     0.2080     0.0260
  372.0000   -52.2770    20.9450    29.4910     8.8100    76.3350     2.3460     0.2080     0.0260
  372.5000   -52.3600    21.0400    28.7650     8.8100    77.2730     2.3480     0.2080     0.0300
  373.0000   -52.4440    21.1100    28.0390     8.8100    75.5770     2.3500     0.2020     0.0380
  373.5000   -52.5280    21.1790    27.3130     8.8100    74.2800     2.3680     0.1880     0.0460
  374.0000   -52.6120    21.2490    26.1440     8.8100    74.3720     2.3980     0.1690     0.0480
