~VERSION INFORMATION
 VERS.                2.0:   CWLS LOG ASCII STANDARD - VERSION 2.0
 WRAP.                 NO:   ONE LINE PER DEPTH STEP
~WELL INFORMATION
#MNEM.UNIT      DATA TYPE    INFORMATION
#----------   ------------   ------------------------------
 STRT.F           10.0000:   START DEPTH
 STOP.F          833.5000:   STOP DEPTH
 STEP.F            0.5000:   STEP LENGTH
 NULL.          -999.2500:   NO VALUE
 COMP. FENIX & SCISSON INC:   COMPANY
 WELL.       NPR 3 #46-11:   WELL
 FLD .             TEAPOT:   FIELD
 LOC .      S11 T38N R78W:   LOCATION
 CNTY.            NATRONA:   COUNTY
 STAT.            WYOMING:   STATE
 CTRY. UNITED STATES OF AMERICA:   COUNTRY
 SRVC.           BIRDWELL:   SERVICE COMPANY
 DATE.        17-DEC-1978:   LOGDATE
 API .       490251075600:   API NUMBER
~CURVE INFORMATION
#MNEM.UNIT       API CODE    CURVE DESCRIPTION
#----------   ------------   ------------------------------
 DEPT.F                  :   
 GRD .GAPI   45 310 01 00:   GAMMA RAY FROM DENSITY LOG
 CALD.IN     45 280 60 00:   CALIPER
 CORR.G/C3   45 356 01 00:   DENSITY CORRECTION
 DPHI.DEC    45 890 12 00:   DENSITY POROSITY SANDSTONE
 RHOB.G/C3   45 350 01 00:   BULK DENSITY
 SPR .MV     05 010 01 00:   SPONTANEOUS POTENTIAL FROM RES.
 SN  .OHMM   05 040 16 00:   SHORT NORMAL 16"
 IL  .OHMM   05 120 00 00:   INDUCTION LOG
~PARAMETER INFORMATION
#MNEM.UNIT          VALUE    DESCRIPTION
#----------   ------------   ------------------------------
 PD  .                 GL:   PERMANENT DATUM
 EPD .F              5193:   ELEVATION PERMANENT DATUM
 LMF .                 KB:   LOG MEASURED FROM
 DAPD.F                 4:   FEET ABOVE PERMANENT DATUM
 DMF .                 KB:   DRILLING MEASURED FROM
 EKB .F              5197:   KELLING BUSHING
 EGL .F              5193:   GROUND LEVEL
 DATE.           12-17-78:   RUN DATE
 RUN .                  1:   RUN NUMBER
 DD  .F               845:   DEPTH DRILLER
 DL  .F               834:   DEPTH LOGGER
 BLI .F               827:   BOTTOM LOG INTERVAL
 TLI .F                60:   TOP LOG INTERVAL
 CS  .IN            8.625:   CASING SIZE
 CBD .F                40:   CASING BOTTOM DRILLER
 CBL .F                42:   CASING BOTTOM LOGGER
 BS  .IN            7.875:   BIT SIZE
 BSD .F               845:   BIT SIZE AT DEPTH
 DFT .                KCL:   DRILLING FLUID TYPE
 DFD .                8.8:   DRILLING FLUID DENSITY
 DFV .                 36:   DRILLING FLUID VISCOSITY
 DFPH.               10.5:   DRILLING FLUID PH
 MSS .          FLOW LINE:   MUD SAMPLE SOURCE
 RMS .OHMM            .34:   RESISTIVITY MUD SAMPLE
 MST .F                62:   MUD SAMPLE TEMPERATURE
 RMF .OHMM            .26:   RESISTIVITY MUD FILTRATE SAMPLE
 MFST.F                66:   MUD FILTRATE SAMPLE TEMPERATURE
 RMC .OHMM            .42:   RESISTIVITY MUD CAKE
 MCST.F                68:   MUD CAKE SAMPLE TEMPERATURE
 MFSS.           MEASURED:   MUD FILTRATE SAMPLE SOURCE
 MCSS.           MEASURED:   MUD CAKE SAMPLE SOURCE
 RMB .OHMM           .288:   RESISTIVITY MUD AT BHT
 BHT .F                73:   BOTTOM HOLE TEMPERATURE
 TCS .HRS               4:   TIME CURCULATED STOPPED
 MRT .F                73:   MAXIMUM RECORDED TEMPERATURE
 LUN .               3006:   LOGGING UNIT NUMBER
 LUL .             CASPER:   LOGGING UNIT LOCATION
 ENGI.         B. ROLLINS:   RECORDING ENGINEER
 WITN.         RICHARDSON:   WITNESSED BY
 CLNT.            A2DTECH:   CLIENT CODE
 ORIG.           5" PRINT:   ORIGIN OF DATA
 UWI .       490251075600:   UNIQUE WELL ID
 DICO. A2D Technologies, Inc.:   DIGITIZING COMPANY
~OTHER INFORMATION
~A   DEPT      GRD       CALD       CORR       DPHI       RHOB        SPR         SN         IL   
# ...
  334.0000   103.5370     8.1340    -0.0050     0.1190     2.4680   -23.4940     8.6180     8.7560
  334.5000   104.6730     8.1220    -0.0040     0.1160     2.4720   -23.4940     8.6850     8.8010
  335.0000   104.5160     8.1110    -0.0040     0.1140     2.4750   -23.4940     8.7190     8.8470
  335.5000   103.1460     8.0980    -0.0040     0.1120     2.4780   -23.4940     8.7310     8.8720
  336.0000   101.7970     8.0740    -0.0030     0.1100     2.4820   -23.4940     8.7440     8.8660
  336.5000   100.7150     8.0820    -0.0030     0.1110     2.4850   -23.4940     8.7570     8.8590
  337.0000   100.8730     8.1130    -0.0020     0.1130     2.4840   -23.4930     8.7700     8.8530
  337.5000   101.8060     8.1440    -0.0020     0.1140     2.4840   -23.4960     8.7820     8.8470
  338.0000   102.9030     8.1740    -0.0020     0.1120     2.4840   -23.4720     8.7950     8.8400
  338.5000   104.0110     8.2040    -0.0010     0.1110     2.4840   -23.4340     8.8080     8.8340
  339.0000   105.1210     8.2140    -0.0010     0.1090     2.4840   -23.3990     8.8210     8.8280
  339.5000   106.2310     8.1940    -0.0010     0.1090     2.4840   -23.3650     8.8330     8.8210
  340.0000   107.3400     8.1790     0.0000     0.1090     2.4840   -23.3290     8.8460     8.8150
  340.5000   108.4460     8.1630     0.0000     0.1090     2.4840   -23.2940     8.8590     8.8080
  341.0000   109.3610     8.1480     0.0010     0.1090     2.4840   -23.2590     8.8720     8.8020
  341.5000   110.0680     8.1320     0.0010     0.1090     2.4840   -23.2240     8.8840     8.7960
  342.0000   109.7390     8.1170     0.0020     0.1090     2.4830   -23.1890     8.8970     8.7890
  342.5000   109.0550     8.1100     0.0020     0.1110     2.4810   -23.1540     8.9100     8.7830
  343.0000   106.3680     8.1120     0.0020     0.1130     2.4800   -23.1190     8.9230     8.7760
  343.5000   103.6650     8.1150     0.0030     0.1160     2.4780   -23.0830     8.9350     8.7700
  344.0000   101.5820     8.1180     0.0030     0.1180     2.4770   -23.0480     8.9480     8.7640
  344.5000   100.7000     8.1210     0.0040     0.1180     2.4750   -23.0130     8.9610     8.7570
  345.0000   100.8450     8.1240     0.0030     0.1150     2.4760   -22.9780     8.9740     8.7510
  345.5000   101.8310     8.1270     0.0020     0.1120     2.4780   -22.9430     8.9860     8.7440
  346.0000   103.0600     8.1330     0.0010     0.1110     2.4790   -22.9080     8.9990     8.7380
  346.5000   104.3040     8.1580     0.0000     0.1110     2.4810   -22.8730     9.0120     8.7320
  347.0000   104.7040     8.1830    -0.0010     0.1120     2.4820   -22.8380     9.0250     8.7250
  347.5000   104.3550     8.2080    -0.0020     0.1130     2.4830   -22.8030     9.0370     8.7190
  348.0000   104.0100     8.1920    -0.0030     0.1130     2.4840   -22.7670     9.0500     8.7120
  348.5000   103.7050     8.1720    -0.0040     0.1130     2.4850   -22.7340     9.0630     8.7370
  349.0000   103.7010     8.1520    -0.0050     0.1120     2.4850   -22.6940     9.0760     8.7680
  349.5000   103.6970     8.1310    -0.0060     0.1110     2.4850   -22.6910     9.0880     8.8000
  350.0000   103.7240     8.1570    -0.0060     0.1100     2.4850   -22.6900     9.1010     8.8310
  350.5000   105.2470     8.1860    -0.0060     0.1080     2.4850   -22.6900     9.1140     8.8630
  351.0000   107.0010     8.2150    -0.0050     0.1110     2.4850   -22.6910     9.1260     8.8940
  351.5000   106.3850     8.2260    -0.0050     0.1140     2.4840   -22.6890     9.1390     8.9260
  352.0000   105.5650     8.2170    -0.0050     0.1170     2.4780   -22.6880     9.1520     8.9570
  352.5000   104.6590     8.2090    -0.0050     0.1200     2.4720   -22.6960     9.1650     8.9890
  353.0000   107.7610     8.2000    -0.0050     0.1230     2.4670   -22.6790     9.1770     9.0210
  353.5000   112.2960     8.1920    -0.0040     0.1230     2.4660   -22.6970     9.1900     9.0570
  354.0000   116.8110     8.1830    -0.0040     0.1190     2.4670   -22.7510     9.2020     9.1010
  354.5000   119.8660     8.1750    -0.0040     0.1150     2.4730   -23.4820     9.2290     9.1450
  355.0000   116.4160     8.1660    -0.0040     0.1110     2.4810   -24.1190     9.2890     9.1890
  355.5000   113.5740     8.1580    -0.0040     0.1050     2.4890   -24.3320     9.3480     9.2330
  356.0000   110.6980     8.1500    -0.0040     0.1070     2.4920   -24.3460     9.4070     9.2780
  356.5000   110.0360     8.1410    -0.0030     0.1110     2.4880   -24.3690     9.4660     9.3220
  357.0000   113.6670     8.1320    -0.0030     0.1150     2.4840   -24.4020     9.5250     9.3660
  357.5000   115.7890     8.1290    -0.0030     0.1170     2.4800   -24.4260     9.5830     9.4110
  358.0000   113.5630     8.1280    -0.0030     0.1120     2.4830   -24.4540     9.6420     9.4550
  358.5000   111.4140     8.1260    -0.0030     0.1090     2.4870   -24.4800     9.7010     9.4990
  359.0000   109.7890     8.1250    -0.0020     0.1060     2.4900   -24.5070     9.7600     9.5440
  359.5000   109.5230     8.1230    -0.0020     0.1030     2.4930   -24.5340     9.8190     9.5880
  360.0000   109.4330     8.1220    -0.0020     0.1050     2.4960   -24.5610     9.8780     9.6320
  360.5000   109.9380     8.1210    -0.0020     0.1060     2.4970   -24.5880     9.9370     9.6770
  361.0000   110.3920     8.1190    -0.0030     0.1040     2.4970   -24.6150     9.9970     9.7230
  361.5000   112.2090     8.1180    -0.0030     0.1030     2.4980   -24.6410    10.0560     9.7380
  362.0000   114.3440     8.1170    -0.0040     0.1010     2.4980   -24.6690    10.1150     9.7280
  362.5000   111.8610     8.1150    -0.0040     0.1020     2.4980   -24.7010    10.1740     9.7180
  363.0000   108.0990     8.1140    -0.0050     0.1020     2.4990   -24.7980    10.2330     9.7090
  363.5000   108.3490     8.1120    -0.0050     0.1030     2.4990   -24.9090    10.2920     9.7000
  364.0000   110.5220     8.1110    -0.0050     0.1030     2.5000   -25.0230    10.3510     9.6900
  364.5000   112.2350     8.1180    -0.0060     0.1020     2.5000   -25.1000    10.4100     9.6810
  365.0000   113.3580     8.1460    -0.0060     0.1010     2.5010   -25.0990    10.4690     9.6720
  365.5000   110.4030     8.1730    -0.0050     0.1000     2.5010   -25.1010    10.5280     9.6630
  366.0000   107.9420     8.2010    -0.0050     0.1010     2.5020   -25.1010    10.5870     9.6530
  366.5000   107.8710     8.2410    -0.0040     0.1010     2.5020   -25.1000    10.6460     9.6440
  367.0000   108.9360     8.2000    -0.0040     0.1010     2.5030   -25.1010    10.6930     9.6350
  367.5000   110.0140     8.1320    -0.0040     0.1010     2.5030   -25.1000    10.6930     9.6260
  368.0000   108.1190     8.0730    -0.0030     0.1010     2.5040   -25.1000    10.6930     9.6160
  368.5000   105.9200     8.1170    -0.0030     0.1000     2.5040   -25.1000    10.6930     9.6070
  369.0000   103.7090     8.1590    -0.0020     0.1020     2.5040   -25.1000    10.6930     9.5980
  369.5000   101.4280     8.1820    -0.0020     0.1030     2.5010   -25.1000    10.6930     9.5880
  370.0000   101.8630     8.1490    -0.0010     0.1050     2.4980   -25.1000    10.6930     9.5800
  370.5000   102.9950     8.1180    -0.0010     0.1070     2.4940   -25.1000    10.6930     9.5700
  371.0000   104.1360     8.0860     0.0000     0.1090     2.4910   -25.1000    10.6940     9.5620
  371.5000   105.6070     8.1040     0.0000     0.1100     2.4870   -25.1000    10.6940     9.5030
  372.0000   108.2070     8.1730    -0.0010     0.1120     2.4840   -25.1000    10.6950     9.4500
  372.5000   110.0130     8.1790    -0.0020     0.1140     2.4820   -25.1000    10.6600     9.3960
  373.0000   108.7110     8.1660    -0.0030     0.1120     2.4850   -25.1000    10.5280     9.3430
  373.5000   107.0430     8.1520    -0.0040     0.1080     2.4880   -25.1000    10.3980     9.2890
  374.0000   105.1680     8.1390    -0.0060     0.1050     2.4920   -25.1000    10.2670     9.2360
