~VERSION INFORMATION
 VERS.                2.0:   CWLS LOG ASCII STANDARD - VERSION 2.0
 WRAP.                 NO:   ONE LINE PER DEPTH STEP
~WELL INFORMATION
#MNEM.UNIT      DATA TYPE    INFORMATION
#----------   ------------   ------------------------------
 STRT.F          438.0000:   START DEPTH
 STOP.F         2175.0000:   STOP DEPTH
 STEP.F            0.5000:   STEP LENGTH
 NULL.          -999.2500:   NO VALUE
 COMP.   FLUOR DANIEL INC:   COMPANY
 WELL. NAVAL PETROLEUM RESERVE 3 X29 #74-29:   WELL
 FLD .            WLIDCAT:   FIELD
 LOC .      S29 T39N R78W:   LOCATION
 CNTY.            NATRONA:   COUNTY
 STAT.            WYOMING:   STATE
 CTRY. UNITED STATES OF AMERICA:   COUNTRY
 SRVC.            Unknown:   SERVICE COMPANY
 DATE.        05-JUN-1995:   LOGDATE
 API .       490252272900:   API NUMBER
~CURVE INFORMATION
#MNEM.UNIT       API CODE    CURVE DESCRIPTION
#----------   ------------   ------------------------------
 DEPT.F                  :   
 ROP .FT/HR  91 810 01 00:   RAT OF DRILLING PENETRATION
 TGAS.TC/CC  91 830 01 00:   TOTAL GAS UNIT
~PARAMETER INFORMATION
#MNEM.UNIT          VALUE    DESCRIPTION
#----------   ------------   ------------------------------
 EKB .F              5036:   KELLING BUSHING
 EGL .F              5026:   GROUND LEVEL
 DATE.        05-JUN-1995:   RUN DATE
 RUN .                  1:   RUN NUMBER
 BLI .F              2160:   BOTTOM LOG INTERVAL
 TLI .F               440:   TOP LOG INTERVAL
 ENGI.     R.HUSK/C.TOWER:   RECORDING ENGINEER
 CLNT.            A2DTECH:   CLIENT CODE
 ORIG.           5" PRINT:   ORIGIN OF DATA
 UWI .       490252272900:   UNIQUE WELL ID
 DICO. A2D Technologies, Inc.:   DIGITIZING COMPANY
~OTHER INFORMATION
~A   DEPT        ROP       TGAS 
# ...
 1045.5000     0.5751     2.4000
 1046.0000     0.5742     2.3835
 1046.5000     0.5733     2.3687
 1047.0000     0.5917     2.3540
 1047.5000     0.5909     2.3392
 1048.0000     0.5900     2.3244
 1048.5000     0.5890     2.4983
 1049.0000     0.5881     2.6723
 1049.5000     0.5874     2.6538
 1050.0000     0.5865     2.6391
 1050.5000     0.5856     2.6243
 1051.0000     0.5848     2.8019
 1051.5000     0.5743     2.8605
 1052.0000     0.5638     2.9585
 1052.5000     0.5628     2.9434
 1053.0000     0.5620     3.1170
 1053.5000     0.5612     3.1018
 1054.0000     0.5603     3.2755
 1054.5000     0.5595     3.2604
 1055.0000     0.5683     3.4348
 1055.5000     0.5770     3.4164
 1056.0000     0.5760     3.2129
 1056.5000     0.5655     3.1982
 1057.0000     0.5551     3.1834
 1057.5000     0.5667     3.1686
 1058.0000     0.5661     3.1547
 1058.5000     0.5654     3.1391
 1059.0000     0.5648     3.1244
 1059.5000     0.5641     2.9208
 1060.0000     0.5635     2.8621
 1060.5000     0.5532     2.6896
 1061.0000     0.5457     2.6218
 1061.5000     0.5421     2.4239
 1062.0000     0.5414     2.4147
 1062.5000     0.5408     2.4055
 1063.0000     0.5401     2.2076
 1063.5000     0.5395     2.3870
 1064.0000     0.5354     2.3755
 1064.5000     0.5285     2.3663
 1065.0000     0.5279     2.3570
 1065.5000     0.5272     2.5388
 1066.0000     0.5362     2.5273
 1066.5000     0.5353     2.5180
 1067.0000     0.5347     2.8885
 1067.5000     0.5438     3.0679
 1068.0000     0.5431     3.2451
 1068.5000     0.5423     3.2358
 1069.0000     0.5417     3.2264
 1069.5000     0.5314     3.0283
 1070.0000     0.5307     3.0172
 1070.5000     0.5301     3.0094
 1071.0000     0.5294     2.9987
 1071.5000     0.5288     2.9895
 1072.0000     0.5281     2.9803
 1072.5000     0.5273     2.9710
 1073.0000     0.5266     2.9618
 1073.5000     0.5164     2.9526
 1074.0000     0.5158     2.9434
 1074.5000     0.5248     2.9340
 1075.0000     0.5240     2.9245
 1075.5000     0.5330     2.9134
 1076.0000     0.5323     2.9042
 1076.5000     0.5317     2.8949
 1077.0000     0.5406     2.8857
 1077.5000     0.5398     2.8765
 1078.0000     0.5391     2.8672
 1078.5000     0.5385     2.8580
 1079.0000     0.5282     3.0377
 1079.5000     0.5179     3.0282
 1080.0000     0.5173     3.0189
 1080.5000     0.5166     2.9799
 1081.0000     0.5160     2.8096
 1081.5000     0.5153     2.6917
 1082.0000     0.5145     2.6025
 1082.5000     0.5138     2.5932
 1083.0000     0.5132     2.5840
 1083.5000     0.5125     2.5755
 1084.0000     0.5119     2.7565
 1084.5000     0.5112     2.7450
 1085.0000     0.5105     2.7358
 1085.5000     0.5195     2.7264
 1086.0000     0.5188     2.9060
 1086.5000     0.5278     2.8945
 1087.0000     0.5271     3.0762
 1087.5000     0.5361     3.2557
 1088.0000     0.5353     3.6238
 1088.5000     0.5444     3.6123
 1089.0000     0.5436     3.6030
 1089.5000     0.5429     3.5938
 1090.0000     0.5423     3.5846
 1090.5000     0.5416     3.5754
 1091.0000     0.5409     3.5660
 1091.5000     0.5403     3.5566
 1092.0000     0.5396     3.7364
 1092.5000     0.5388     3.7248
 1093.0000     0.5382     3.5269
 1093.5000     0.5375     3.5177
 1094.0000     0.5368     3.5085
 1094.5000     0.5362     3.3106
 1095.0000     0.5355     3.1127
 1095.5000     0.5349     3.1034
 1096.0000     0.5342     2.7169
 1096.5000     0.5336     2.7075
 1097.0000     0.5329     2.6981
 1097.5000     0.5321     2.6869
 1098.0000     0.5314     2.6776
 1098.5000     0.5308     2.6684
 1099.0000     0.5301     2.8502
 1099.5000     0.5294     2.8386
 1100.0000     0.5288     2.6407
 1100.5000     0.5281     2.6315
 1101.0000     0.5275     2.6223
 1101.5000     0.5268     2.6132
 1102.0000     0.5262     2.6038
 1102.5000     0.5255     2.5931
 1103.0000     0.5247     2.5849
 1103.5000     0.5240     2.5754
 1104.0000     0.5234     2.7547
 1104.5000     0.5227     2.7453
 1105.0000     0.5221     2.7358
 1105.5000     0.5214     2.7256
 1106.0000     0.5207     2.7164
 1106.5000     0.5201     2.7075
 1107.0000     0.5194     2.6981
 1107.5000     0.5188     2.6887
 1108.0000     0.5179     2.6792
 1108.5000     0.5187     2.6680
 1109.0000     0.5219     2.6587
 1109.5000     0.5252     2.8405
 1110.0000     0.5284     2.8290
 1110.5000     0.5309     2.8208
 1111.0000     0.5325     2.8113
 1111.5000     0.5503     2.8013
 1112.0000     0.5600     2.9811
 1112.5000     0.5697     2.9717
 1113.0000     0.5698     2.9623
 1113.5000     0.5699     2.9528
 1114.0000     0.5700     2.9415
 1114.5000     0.5701     2.9323
 1115.0000     0.5702     2.9231
 1115.5000     0.5703     2.9138
 1116.0000     0.5704     3.0933
 1116.5000     0.5705     3.0841
 1117.0000     0.5706     3.0748
 1117.5000     0.5707     3.0656
 1118.0000     0.5708     3.0564
 1118.5000     0.5709     3.0472
 1119.0000     0.5710     3.0377
 1119.5000     0.5711     2.9050
 1120.0000     0.5712     2.7169
 1120.5000     0.5713     2.7094
 1121.0000     0.5329     2.7019
 1121.5000     0.5137     2.6943
 1122.0000     0.4946     2.6642
 1122.5000     0.4947     2.4896
 1123.0000     0.4948     2.2943
 1123.5000     0.4949     2.2868
 1124.0000     0.4854     2.4675
 1124.5000     0.4759     2.4602
 1125.0000     0.4760     2.5471
 1125.5000     0.4761     2.6340
 1126.0000     0.4762     2.6264
 1126.5000     0.4763     2.6176
 1127.0000     0.4764     2.6103
 1127.5000     0.4861     2.6541
 1128.0000     0.4862     2.8066
 1128.5000     0.4959     2.9660
 1129.0000     0.4960     3.2277
 1129.5000     0.4961     3.3283
 1130.0000     0.4962     3.3208
 1130.5000     0.4963     3.3132
 1131.0000     0.4964     3.3057
 1131.5000     0.4964     3.2970
 1132.0000     0.4965     3.2906
 1132.5000     0.4966     3.2830
 1133.0000     0.4967     3.2749
 1133.5000     0.4968     3.2676
 1134.0000     0.4969     3.2604
 1134.5000     0.4986     3.2528
 1135.0000     0.5067     3.2453
 1135.5000     0.5164     3.2363
 1136.0000     0.5165     3.2290
 1136.5000     0.5166     3.2226
 1137.0000     0.5167     3.2143
 1137.5000     0.5264     3.2069
 1138.0000     0.5169     3.1996
 1138.5000     0.5170     3.0036
 1139.0000     0.5171     2.8075
 1139.5000     0.5172     2.8000
 1140.0000     0.5173     2.7910
 1140.5000     0.5270     2.7836
 1141.0000     0.5271     2.7763
 1141.5000     0.5368     2.7689
 1142.0000     0.5369     2.7616
 1142.5000     0.5370     2.7542
 1143.0000     0.5371     2.7469
 1143.5000     0.5372     2.7395
 1144.0000     0.5181     2.5434
 1144.5000     0.4893     2.3472
 1145.0000     0.4798     2.3383
 1145.5000     0.4799     2.1434
 1146.0000     0.4791     2.1349
 1146.5000     0.4705     2.1275
 1147.0000     0.4610     2.1208
 1147.5000     0.4707     2.1132
 1148.0000     0.4708     2.1055
 1148.5000     0.4709     2.0981
 1149.0000     0.4710     2.1811
 1149.5000     0.4711     2.2721
 1150.0000     0.4615     2.2642
 1150.5000     0.4421     2.2556
 1151.0000     0.4227     2.2482
 1151.5000     0.4225     2.0522
 1152.0000     0.4623     2.2354
 1152.5000     0.5183     2.2262
 1153.0000     0.5180     2.4075
 1153.5000     0.5179     2.5888
 1154.0000     0.5081     2.5796
 1154.5000     0.5079     2.9496
 1155.0000     0.5077     2.9423
 1155.5000     0.5075     2.9349
 1156.0000     0.5073     2.9276
 1156.5000     0.5071     2.9202
 1157.0000     0.5069     2.9129
 1157.5000     0.5067     2.9055
 1158.0000     0.5065     2.8981
 1158.5000     0.5063     2.8906
 1159.0000     0.5061     2.8830
 1159.5000     0.5059     2.8755
 1160.0000     0.5058     2.8669
 1160.5000     0.5056     2.8604
 1161.0000     0.5054     2.8522
 1161.5000     0.5148     2.8449
 1162.0000     0.5146     2.8375
 1162.5000     0.5144     2.8302
 1163.0000     0.5142     2.8226
 1163.5000     0.5140     2.8136
 1164.0000     0.5138     2.8063
 1164.5000     0.5136     2.7989
 1165.0000     0.5135     2.7160
 1165.5000     0.5133     2.6661
 1166.0000     0.5131     2.6550
 1166.5000     0.5121     2.6440
