~VERSION INFORMATION
 VERS.                2.0:   CWLS LOG ASCII STANDARD - VERSION 2.0
 WRAP.                 NO:   ONE LINE PER DEPTH STEP
~WELL INFORMATION
#MNEM.UNIT      DATA TYPE    INFORMATION
#----------   ------------   ------------------------------
 STRT.F            1.0000:   START DEPTH
 STOP.F          524.0000:   STOP DEPTH
 STEP.F            0.1000:   STEP LENGTH
 NULL.          -999.2500:   NO VALUE
 COMP.       F D SERV INC:   COMPANY
 WELL.    87-2 SX-3 #87-3:   WELL
 FLD .             TEAPOT:   FIELD
 LOC .       S3 T38N R78W:   LOCATION
 CNTY.            NATRONA:   COUNTY
 STAT.            WYOMING:   STATE
 CTRY. UNITED STATES OF AMERICA:   COUNTRY
 SRVC.     Atlas Wireline:   SERVICE COMPANY
 DATE.        20-OCT-1992:   LOGDATE
 API .       490252254700:   API NUMBER
~CURVE INFORMATION
#MNEM.UNIT       API CODE    CURVE DESCRIPTION
#----------   ------------   ------------------------------
 DEPT.F                  :   
 GRR .GAPI   07 310 01 00:   GAMMA RAY
 RILD.OHMM   07 120 46 00:   INDUCTION LOG DEEP RESISTIVITY
 RILM.OHMM   07 120 44 00:   INDUCTION LOG MEDIUM RESISTIVITY
~PARAMETER INFORMATION
#MNEM.UNIT          VALUE    DESCRIPTION
#----------   ------------   ------------------------------
 PD  .                 GL:   PERMANENT DATUM
 EPD .F              5124:   ELEVATION PERMANENT DATUM
 LMF .                 KB:   LOG MEASURED FROM
 DAPD.F                10:   FEET ABOVE PERMANENT DATUM
 DMF .                 KB:   DRILLING MEASURED FROM
 EKB .F              5134:   KELLING BUSHING
 EDF .F              5133:   DRILLING FLOOR
 EGL .F              5124:   GROUND LEVEL
 DATE.        20-OCT-1992:   RUN DATE
 RUN .                  1:   RUN NUMBER
 DD  .F               533:   DEPTH DRILLER
 DL  .F               532:   DEPTH LOGGER
 BLI .F               524:   BOTTOM LOG INTERVAL
 TLI .F                74:   TOP LOG INTERVAL
 CS  .IN            8.625:   CASING SIZE
 CBD .F                85:   CASING BOTTOM DRILLER
 CBL .F                74:   CASING BOTTOM LOGGER
 BS  .IN            7.875:   BIT SIZE
 BSD .F               533:   BIT SIZE AT DEPTH
 DFT .           AIR FOAM:   DRILLING FLUID TYPE
 TCS .HRS               3:   TIME CURCULATED STOPPED
 MRT .F                70:   MAXIMUM RECORDED TEMPERATURE
 LUN .            HL-6274:   LOGGING UNIT NUMBER
 LUL .             CASPER:   LOGGING UNIT LOCATION
 ENGI.             RAUTIO:   RECORDING ENGINEER
 WITN.        GARY STRONG:   WITNESSED BY
 CLNT.            A2DTECH:   CLIENT CODE
 ORIG.           5" PRINT:   ORIGIN OF DATA
 UWI .       490252254700:   UNIQUE WELL ID
 DICO. A2D Technologies, Inc.:   DIGITIZING COMPANY
~OTHER INFORMATION
~A    DEPT     GRR       RILD       RILM   
# ...
   73.8000   108.3590  -999.2500  -999.2500
   73.9000   109.7051  -999.2500  -999.2500
   74.0000   112.3763  -999.2500  -999.2500
   74.1000   115.6566 10102.2119  9970.3018
   74.2000   119.3133 10066.7783  9958.1504
   74.3000   123.0490 10030.4062  9898.7617
   74.4000   126.0965 10021.3184  9843.5342
   74.5000   128.7122  9959.0537  9786.7393
   74.6000   130.3365  9906.5967  9730.2549
   74.7000   131.6886  9811.4131  9658.8945
   74.8000   132.9052  9552.2334  9545.9639
   74.9000   133.3904  7932.6611  9354.5264
   75.0000   133.6368  2327.7988    51.6438
   75.1000   133.4928    24.9908    37.0874
   75.2000   132.8347    15.4184    22.5310
   75.3000   131.7721     5.8461     7.9747
   75.4000   130.5436     2.9119     3.6313
   75.5000   129.1382     2.6023     3.3642
   75.6000   127.6657     2.3242     3.2607
   75.7000   125.7927     1.9733     3.2425
   75.8000   123.9219     1.9201     3.2421
   75.9000   122.2391     1.9646     3.2867
   76.0000   120.6434     2.0145     3.3539
   76.1000   119.7416     2.0648     3.4444
   76.2000   118.9268     2.1313     3.5632
   76.3000   118.4105     2.2702     3.7005
   76.4000   118.2179     2.3641     3.8731
   76.5000   118.2185     2.4742     4.0608
   76.6000   118.2191     2.6088     4.3145
   76.7000   118.5859     2.7796     4.6636
   76.8000   119.4545     2.9810     5.0301
   76.9000   120.6842     3.3517     5.4976
   77.0000   121.9241     3.8135     5.8936
   77.1000   123.6851     4.5951     6.2923
   77.2000   124.2804     5.4875     6.7228
   77.3000   125.1591     5.9793     7.1594
   77.4000   125.9771     7.5531     7.8619
   77.5000   126.4441     8.2281     8.2800
   77.6000   126.7230     8.8940     9.2662
   77.7000   126.7235     9.8363    10.6247
   77.8000   126.7241    11.3821    11.9701
   77.9000   126.5285    12.4926    12.8159
   78.0000   126.0779    12.6209    12.7492
   78.1000   125.8155    12.8137    12.6756
   78.2000   125.1302    12.8061    12.6025
   78.3000   124.5643    12.4439    12.5147
   78.4000   123.9599    11.8088    12.3694
   78.5000   123.2787    10.4610    12.2308
   78.6000   122.7836     9.3891    12.0914
   78.7000   122.2966     8.5945    11.9535
   78.8000   121.8056     7.9792    11.8367
   78.9000   121.3145     7.4295    11.7640
   79.0000   120.8943     7.2346    11.6079
   79.1000   120.6491     7.1659    11.5520
   79.2000   120.3594     7.1087    11.4069
   79.3000   120.1586     7.0679    11.1892
   79.4000   119.9134     7.0332    10.9451
   79.5000   119.7542     7.0326    10.7435
   79.6000   119.7265     7.0322    10.6312
   79.7000   119.4520     7.0042    10.3488
   79.8000   119.4525     6.9822    10.0261
   79.9000   119.2943     6.9817     9.7811
   80.0000   119.1502     6.9812     9.6694
   80.1000   119.1073     6.9807     9.7235
   80.2000   118.8480     6.9802     9.7352
   80.3000   118.8486     6.9583     9.7642
   80.4000   118.8492     6.9184     9.8188
   80.5000   118.8498     6.8786     9.8737
   80.6000   118.7917     6.8333     9.9371
   80.7000   118.5475     6.7999    10.0332
   80.8000   118.5481     6.7609    10.1108
   80.9000   118.5487     6.6630    10.1903
   81.0000   118.4178     6.5051    10.3056
   81.1000   118.2464     6.5046    10.4299
   81.2000   118.2470     6.6090    10.4289
   81.3000   118.2477     6.7771    10.3038
   81.4000   118.0439     6.9915    10.1016
   81.5000   117.9454     7.2228     9.7554
   81.6000   117.9460     7.4306     9.0582
   81.7000   117.9780     7.6890     8.6565
   81.8000   118.2507     7.8842     8.2358
   81.9000   118.9099     8.0135     8.0725
   82.0000   119.4861     8.0894     8.1482
   82.1000   120.0826     8.1350     8.2968
   82.2000   120.8206     8.1868     8.5664
   82.3000   121.5921     8.1863     8.8248
   82.4000   122.2968     8.1857     9.1303
   82.5000   123.2119     8.1852     9.3566
   82.6000   124.3152     8.1846     9.4823
   82.7000   125.5450     8.1840     9.7097
   82.8000   126.7747     8.1834     9.7087
   82.9000   128.0044     8.2166     9.5895
   83.0000   129.0420     8.2861     9.4264
   83.1000   130.0259     8.3677     9.2795
   83.2000   131.0098     8.4164     9.1753
   83.3000   131.9553     8.5310     9.1119
   83.4000   132.5245     8.6090     9.0697
   83.5000   133.1472     8.6501     9.0468
   83.6000   133.8853     8.6665     9.0282
   83.7000   134.5313     8.7097     8.9819
   83.8000   134.9548     8.7089     8.9808
   83.9000   134.9554     8.6647     8.9800
   84.0000   134.5109     8.5830     8.9790
   84.1000   133.8549     8.4853     8.9781
   84.2000   133.0108     8.3887     8.9672
   84.3000   131.9290     8.2900     8.9137
   84.4000   130.4061     8.2894     8.9128
   84.5000   129.2180     8.2888     8.9118
   84.6000   127.9894     8.3123     8.8853
   84.7000   126.6385     8.3591     8.8340
   84.8000   125.0347     8.4062     8.7854
   84.9000   123.0899     8.4621     8.7843
   85.0000   121.8614     8.5012     8.7428
   85.1000   120.6328     8.5491     8.6923
   85.2000   119.5419     8.5973     8.6598
   85.3000   118.6392     8.6457     8.6525
   85.4000   117.9690     8.6992     8.5976
   85.5000   117.9697     8.6986     8.5529
   85.6000   118.3911     8.6980     8.5361
   85.7000   119.0361     8.6974     8.5138
   85.8000   119.8693     8.6968     8.4748
   85.9000   120.8532     8.6962     8.4739
   86.0000   121.9181     8.6956     8.4259
   86.1000   123.2723     8.6950     8.4132
   86.2000   124.5798     8.6685     8.4123
   86.3000   125.8096     8.6332     8.4114
   86.4000   126.9867     8.6326     8.4074
   86.5000   127.9909     8.6319     8.3509
   86.6000   128.9546     8.5905     8.3502
   86.7000   129.7554     8.5706     8.3493
   86.8000   130.3680     8.5517     8.3306
   86.9000   130.9281     8.5026     8.2895
   87.0000   131.6560     8.4497     8.2885
   87.1000   132.2435     8.4052     8.2446
   87.2000   132.6405     8.3245     8.2291
   87.3000   133.1328     8.2726     8.2069
   87.4000   133.5421     8.2506     8.1701
   87.5000   133.7886     8.1566     8.1693
   87.6000   134.0675     8.1098     8.1221
   87.7000   134.2814     8.0632     8.0753
   87.8000   134.5279     8.0416     8.0534
   87.9000   134.7743     8.0410     8.0525
   88.0000   134.9803     8.0405     8.0479
   88.1000   134.9809     8.0398     7.9946
   88.2000   134.5242     8.0005     7.9939
   88.3000   134.0332     7.9828     7.9931
   88.4000   133.5421     7.9822     7.9922
   88.5000   133.0511     7.9742     7.9914
   88.6000   132.5560     7.9254     7.9905
   88.7000   131.8252     7.9249     7.9897
   88.8000   131.2745     7.9244     7.9889
   88.9000   130.7834     7.9238     7.9881
   89.0000   130.4340     7.9233     7.9872
   89.1000   130.4214     7.9227     7.9864
   89.2000   130.1318     7.9222     7.9855
   89.3000   130.1323     7.9216     7.9847
   89.4000   130.1329     7.9210     7.9839
   89.5000   130.1335     7.9205     7.9830
   89.6000   130.1625     7.9199     7.9867
   89.7000   130.4383     7.9193     8.0372
   89.8000   130.4388     7.9188     8.0365
   89.9000   130.4395     7.9183     8.0356
   90.0000   130.4400     7.9177     8.0348
   90.1000   130.4407     7.9172     8.0340
   90.2000   130.4413     7.9166     8.0331
   90.3000   130.4419     7.9161     8.0323
   90.4000   130.6165     7.9155     8.0314
   90.5000   130.7466     7.9372     8.0306
   90.6000   130.8059     7.9699     8.0298
   90.7000   131.0513     7.9694     8.0274
   90.8000   131.0519     7.9687     7.9720
   90.9000   131.2417     7.9683     7.9713
   91.0000   131.4881     7.9938     7.9705
   91.1000   131.7345     8.0231     7.9541
   91.2000   132.0295     8.0225     7.9133
   91.3000   133.1795     8.0219     7.9124
   91.4000   134.2017     8.0214     7.9117
   91.5000   135.2848     8.0208     7.9108
   91.6000   136.3578     8.0203     7.8909
   91.7000   137.5561     8.0108     7.8541
   91.8000   138.6453     7.9632     7.8533
   91.9000   139.5239     7.9627     7.8525
