~VERSION INFORMATION
 VERS.                2.0:   CWLS LOG ASCII STANDARD - VERSION 2.0
 WRAP.                 NO:   ONE LINE PER DEPTH STEP
~WELL INFORMATION
#MNEM.UNIT      DATA TYPE    INFORMATION
#----------   ------------   ------------------------------
 STRT.F           11.0000:   START DEPTH
 STOP.F          804.0000:   STOP DEPTH
 STEP.F            0.1000:   STEP LENGTH
 NULL.          -999.2500:   NO VALUE
 COMP. BROWN JOHN E&C INC:   COMPANY
 WELL. 72-1 STX-34 #72-34:   WELL
 FLD .             TEAPOT:   FIELD
 LOC .      S34 T39N R78W:   LOCATION
 CNTY.            NATRONA:   COUNTY
 STAT.            WYOMING:   STATE
 CTRY. UNITED STATES OF AMERICA:   COUNTRY
 SRVC.     Atlas Wireline:   SERVICE COMPANY
 DATE.        31-JAN-1992:   LOGDATE
 API .       490252250200:   API NUMBER
~CURVE INFORMATION
#MNEM.UNIT       API CODE    CURVE DESCRIPTION
#----------   ------------   ------------------------------
 DEPT.F                  :   
 GRR .GAPI   07 310 01 00:   GAMMA RAY
 RILD.OHMM   07 120 46 00:   INDUCTION LOG DEEP RESISTIVITY
 RILM.OHMM   07 120 44 00:   INDUCTION LOG MEDIUM RESISTIVITY
~PARAMETER INFORMATION
#MNEM.UNIT          VALUE    DESCRIPTION
#----------   ------------   ------------------------------
 PD  .                 GL:   PERMANENT DATUM
 EPD .F              5069:   ELEVATION PERMANENT DATUM
 LMF .                 KB:   LOG MEASURED FROM
 DAPD.F                10:   FEET ABOVE PERMANENT DATUM
 DMF .                 KB:   DRILLING MEASURED FROM
 EKB .F              5079:   KELLING BUSHING
 EDF .F              5078:   DRILLING FLOOR
 EGL .F              5069:   GROUND LEVEL
 DATE.        31-JAN-1992:   RUN DATE
 RUN .                  1:   RUN NUMBER
 DD  .F               814:   DEPTH DRILLER
 DL  .F               813:   DEPTH LOGGER
 BLI .F               804:   BOTTOM LOG INTERVAL
 CS  .IN            9.625:   CASING SIZE
 CBD .F               100:   CASING BOTTOM DRILLER
 CBL .F               104:   CASING BOTTOM LOGGER
 BS  .IN             8.75:   BIT SIZE
 BSD .F               814:   BIT SIZE AT DEPTH
 DFT .                AIR:   DRILLING FLUID TYPE
 MRT .F                90:   MAXIMUM RECORDED TEMPERATURE
 LUN .           HL- 6274:   LOGGING UNIT NUMBER
 LUL .             CASPER:   LOGGING UNIT LOCATION
 ENGI.             RAUTIO:   RECORDING ENGINEER
 WITN.        GARY STRONG:   WITNESSED BY
 CLNT.            A2DTECH:   CLIENT CODE
 ORIG.           5" PRINT:   ORIGIN OF DATA
 UWI .       490252250200:   UNIQUE WELL ID
 DICO. A2D Technologies, Inc.:   DIGITIZING COMPANY
~OTHER INFORMATION
~A   DEPT       GRR      RILD       RILM   
# ...
  611.6000   159.7360     5.1129     5.0842
  611.7000   159.1339     5.1130     5.1375
  611.8000   158.7373     5.1333     5.1959
  611.9000   158.1073     5.1763     5.2550
  612.0000   157.2047     5.2218     5.3147
  612.1000   155.8978     5.2220     5.3750
  612.2000   153.6995     5.2519     5.4671
  612.3000   152.1937     5.2820     5.5364
  612.4000   150.1631     5.3286     5.6166
  612.5000   148.0589     5.4186     5.7126
  612.6000   146.1420     5.5744     5.8075
  612.7000   144.3317     5.7601     5.8837
  612.8000   143.1766     5.9302     5.9690
  612.9000   141.6036     6.0926     6.0926
  613.0000   140.2400     6.2189     6.2319
  613.1000   139.1421     6.3259     6.3742
  613.2000   137.6846     6.4430     6.5309
  613.3000   137.4418     6.6505     6.5651
  613.4000   137.3894     6.7998     6.6283
  613.5000   137.5250     6.8621     6.6860
  613.6000   137.9244     6.8623     6.7149
  613.7000   138.7190     6.8626     6.7148
  613.8000   140.4252     6.9019     6.7914
  613.9000   141.2538     6.9111     6.8386
  614.0000   142.2373     6.9326     6.8773
  614.1000   143.0365     6.9600     6.9041
  614.2000   143.5294     6.9633     6.9040
  614.3000   144.0680     7.0092     6.9038
  614.4000   144.2928     7.0094     6.9706
  614.5000   144.5406     7.0344     7.0251
  614.6000   144.6802     7.0590     7.0493
  614.7000   144.6826     7.0655     7.0555
  614.8000   144.6851     7.1089     7.0983
  614.9000   144.6875     7.1467     7.0982
  615.0000   144.5083     7.1592     7.0981
  615.1000   144.3897     7.1785     7.1168
  615.2000   144.3922     7.2196     7.1571
  615.3000   144.3946     7.2609     7.1976
  615.4000   144.3974     7.3025     7.2383
  615.5000   144.2017     7.3120     7.2474
  615.6000   143.8184     7.3350     7.2473
  615.7000   143.4133     7.3638     7.2472
  615.8000   143.1190     7.3639     7.2471
  615.9000   142.2914     7.3642     7.2470
  616.0000   141.8658     7.3643     7.2469
  616.1000   141.0644     7.3646     7.2724
  616.2000   139.7876     7.3648     7.2974
  616.3000   138.0315     7.3649     7.2973
  616.4000   135.9493     7.3652     7.2971
  616.5000   134.8028     7.4044     7.2970
  616.6000   133.4064     7.4173     7.2969
  616.7000   132.1669     7.4175     7.2969
  616.8000   131.3622     7.4177     7.2968
  616.9000   131.1201     7.4183     7.2966
  617.0000   131.3687     7.4608     7.2965
  617.1000   131.8051     7.4704     7.2964
  617.2000   132.4296     7.4706     7.2964
  617.3000   133.3907     7.4708     7.2962
  617.4000   134.8643     7.4710     7.2961
  617.5000   136.5813     7.4712     7.2960
  617.6000   137.6084     7.5079     7.2959
  617.7000   138.6893     7.5241     7.2958
  617.8000   139.4921     7.5243     7.2957
  617.9000   140.0184     7.5245     7.2956
  618.0000   140.8293     7.5247     7.2955
  618.1000   140.8315     7.5650     7.2954
  618.2000   140.8339     7.5779     7.2953
  618.3000   140.8363     7.5781     7.2952
  618.4000   140.8387     7.5784     7.2951
  618.5000   140.8412     7.5786     7.2950
  618.6000   140.6062     7.5788     7.2949
  618.7000   140.5434     7.5790     7.2948
  618.8000   140.3007     7.5792     7.2947
  618.9000   139.8780     7.5795     7.2946
  619.0000   139.6429     7.5796     7.2982
  619.1000   139.6454     7.5799     7.3453
  619.2000   139.4518     7.5800     7.3452
  619.3000   139.2089     7.5803     7.3714
  619.4000   138.9661     7.5977     7.3964
  619.5000   138.7231     7.6339     7.4033
  619.6000   138.4475     7.6341     7.4478
  619.7000   138.4496     7.6343     7.4477
  619.8000   138.4520     7.6345     7.4179
  619.9000   138.4545     7.6347     7.3959
  620.0000   138.4569     7.6350     7.3855
  620.1000   138.4595     7.6352     7.3436
  620.2000   138.4617     7.6354     7.3022
  620.3000   138.4641     7.6016     7.2932
  620.4000   138.8080     7.5588     7.2702
  620.5000   139.4331     7.5024     7.2424
  620.6000   139.6817     7.4217     7.2385
  620.7000   139.6841     7.3741     7.1919
  620.8000   139.8738     7.3742     7.1918
  620.9000   140.2515     7.3745     7.1917
  621.0000   140.5991     7.3747     7.1916
  621.1000   140.6015     7.3748     7.1985
  621.2000   140.6044     7.3751     7.2417
  621.3000   140.6064     7.3753     7.2415
  621.4000   140.4629     7.4054     7.2414
  621.5000   140.1315     7.4478     7.2414
  621.6000   139.6745     7.4904     7.2413
  621.7000   139.4060     7.5325     7.2420
  621.8000   138.5306     7.5327     7.2829
  621.9000   137.2274     7.5329     7.2915
  622.0000   135.8628     7.5093     7.2915
  622.1000   134.6867     7.4809     7.2914
  622.2000   133.6691     7.4769     7.2913
  622.3000   132.4930     7.4291     7.2911
  622.4000   131.4474     7.4293     7.2910
  622.5000   130.5898     7.4565     7.2909
  622.6000   129.9840     7.4992     7.3076
  622.7000   129.7476     7.5421     7.3417
  622.8000   130.0020     7.5877     7.3416
  622.9000   130.6385     7.5879     7.4205
  623.0000   131.2397     7.6501     7.4443
  623.1000   131.8927     7.7164     7.4646
  623.2000   132.8533     7.7606     7.4961
  623.3000   133.6960     7.8040     7.4988
  623.4000   134.5406     7.8042     7.6274
  623.5000   135.3704     7.8397     7.6884
  623.6000   135.9168     7.9099     7.7319
  623.7000   136.1259     7.9854     7.7903
  623.8000   136.1285     8.0265     7.8788
  623.9000   136.3572     8.0268     7.9800
  624.0000   136.6049     8.1069     8.0193
  624.1000   136.7407     8.1700     8.0647
  624.2000   136.6336     8.1977     8.0729
  624.3000   136.1404     8.1896     8.0272
  624.4000   135.1712     8.1410     7.9795
  624.5000   134.1927     8.0541     7.9368
  624.6000   133.4705     7.9957     7.8601
  624.7000   132.9111     7.9288     7.7715
  624.8000   132.1776     7.8507     7.6730
  624.9000   131.3142     7.8053     7.5446
  625.0000   131.1144     7.7173     7.4596
  625.1000   130.7271     7.6305     7.3757
  625.2000   130.3262     7.5445     7.3158
  625.3000   130.0832     7.4593     7.2472
  625.4000   129.8133     7.3751     7.1208
  625.5000   129.5975     7.2814     6.9412
  625.6000   129.3547     7.2098     6.8394
  625.7000   129.2151     7.1028     6.7243
  625.8000   129.1714     6.9991     6.5809
  625.9000   128.9175     6.9060     6.4030
  626.0000   128.9198     6.7432     6.2525
  626.1000   128.9222     6.6352     6.0548
  626.2000   128.9247     6.4969     5.6705
  626.3000   128.9891     6.3165     5.3081
  626.4000   129.2320     6.1045     5.0723
  626.5000   129.2345     5.9002     4.9343
  626.6000   129.4297     5.7355     4.9343
  626.7000   129.8129     5.6511     4.9120
  626.8000   130.3841     5.6053     4.8686
  626.9000   131.2280     5.5844     4.8229
  627.0000   133.4830     5.5811     4.7985
  627.1000   134.9485     5.5457     4.7984
  627.2000   136.6679     5.5184     4.8223
  627.3000   138.7653     5.5277     4.8318
  627.4000   141.2427     5.5462     4.8546
  627.5000   142.5721     5.5463     4.9045
  627.6000   144.1501     5.5465     4.9336
  627.7000   146.0377     5.5467     4.9603
  627.8000   148.1132     5.5468     5.0505
  627.9000   150.3226     5.5626     5.1659
  628.0000   152.5689     5.5860     5.2839
  628.1000   154.0189     5.5862     5.4035
  628.2000   155.6763     5.5864     5.5144
  628.3000   156.7627     5.6121     5.5902
  628.4000   157.0477     5.6627     5.6489
  628.5000   156.7810     5.7164     5.7143
  628.6000   155.9121     5.7491     5.8336
  628.7000   155.1139     5.7860     5.8706
  628.8000   153.9927     5.8739     5.9294
  628.9000   152.1706     5.9974     5.9747
  629.0000   149.3140     6.0768     5.9943
  629.1000   146.8469     6.0835     5.9942
  629.2000   144.9036     6.1198     5.9941
  629.3000   140.6313     6.1200     6.0266
  629.4000   136.6601     6.1967     6.1110
  629.5000   134.7892     6.2677     6.1979
  629.6000   133.2431     6.3229     6.2683
  629.7000   132.5480     6.4316     6.3420
