~VERSION INFORMATION
 VERS.                2.0:   CWLS LOG ASCII STANDARD - VERSION 2.0
 WRAP.                 NO:   ONE LINE PER DEPTH STEP
~WELL INFORMATION
#MNEM.UNIT      DATA TYPE    INFORMATION
#----------   ------------   ------------------------------
 STRT.F          598.0000:   START DEPTH
 STOP.F         2552.0000:   STOP DEPTH
 STEP.F            0.5000:   STEP LENGTH
 NULL.          -999.2500:   NO VALUE
 COMP. FENIX & SCISSON INC:   COMPANY
 WELL.     15-SHX-2 #15-2:   WELL
 FLD .             TEAPOT:   FIELD
 LOC .       S2 T38N R78W:   LOCATION
 CNTY.            NATRONA:   COUNTY
 STAT.            WYOMING:   STATE
 CTRY. UNITED STATES OF AMERICA:   COUNTRY
 SRVC.              Welex:   SERVICE COMPANY
 DATE.        03-JUN-1979:   LOGDATE
 API .       490251002100:   API NUMBER
~CURVE INFORMATION
#MNEM.UNIT       API CODE    CURVE DESCRIPTION
#----------   ------------   ------------------------------
 DEPT.F                  :   
 CALD.IN     45 280 60 00:   CALIPER
 GRD .GAPI   45 310 01 00:   GAMMA RAY FROM DENSITY LOG
 RHOB.G/C3   45 350 01 00:   BULK DENSITY
 DPHI.DEC    45 890 12 00:   DENSITY POROSITY SANDSTONE
 CORR.G/C3   45 356 01 00:   DENSITY CORRECTION
~PARAMETER INFORMATION
#MNEM.UNIT          VALUE    DESCRIPTION
#----------   ------------   ------------------------------
 PD  .                 GL:   PERMANENT DATUM
 EPD .F              5118:   ELEVATION PERMANENT DATUM
 LMF .                 KB:   LOG MEASURED FROM
 DAPD.F                10:   FEET ABOVE PERMANENT DATUM
 DMF .                 KB:   DRILLING MEASURED FROM
 EKB .F              5128:   KELLING BUSHING
 EGL .F              5118:   GROUND LEVEL
 DATE.             6-3-79:   RUN DATE
 RUN .                  1:   RUN NUMBER
 DD  .F              2569:   DEPTH DRILLER
 DL  .F              2554:   DEPTH LOGGER
 BLI .F              2552:   BOTTOM LOG INTERVAL
 TLI .F               622:   TOP LOG INTERVAL
 CS  .IN            9.625:   CASING SIZE
 CBD .F               622:   CASING BOTTOM DRILLER
 BS  .IN             8.75:   BIT SIZE
 BSD .F              2569:   BIT SIZE AT DEPTH
 DFT .        AIR DRILLED:   DRILLING FLUID TYPE
 TCS .HRS             2.5:   TIME CURCULATED STOPPED
 MRT .F               124:   MAXIMUM RECORDED TEMPERATURE
 ENGI.               REIN:   RECORDING ENGINEER
 WITN.              AMEND:   WITNESSED BY
 CLNT.            A2DTECH:   CLIENT CODE
 ORIG.           5" PRINT:   ORIGIN OF DATA
 UWI .       490251002100:   UNIQUE WELL ID
 DICO. A2D Technologies, Inc.:   DIGITIZING COMPANY
~OTHER INFORMATION
~A   DEPT     CALD         GRD      RHOB       DPHI       CORR   
# ...
 1879.0000     8.9372   116.5793     2.5502     0.0035     0.0364
 1879.5000     8.9325   111.7664     2.5480     0.0023     0.0376
 1880.0000     8.9277   108.3655     2.5326     0.0111     0.0388
 1880.5000     8.9230   108.0008     2.5171     0.0206     0.0354
 1881.0000     8.9182   108.5946     2.5023     0.0301     0.0306
 1881.5000     8.9135   109.9933     2.4951     0.0399     0.0258
 1882.0000     8.9087   111.3881     2.4952     0.0388     0.0210
 1882.5000     8.9040   111.5432     2.5021     0.0365     0.0171
 1883.0000     8.8992   110.5433     2.5133     0.0292     0.0187
 1883.5000     8.8945   109.3692     2.5177     0.0219     0.0203
 1884.0000     8.8897   105.4755     2.5173     0.0219     0.0218
 1884.5000     8.8849   105.5889     2.5176     0.0215     0.0233
 1885.0000     8.8805   106.3602     2.5213     0.0201     0.0248
 1885.5000     8.8456   103.2483     2.5250     0.0182     0.0263
 1886.0000     8.8386   100.7980     2.5281     0.0167     0.0278
 1886.5000     8.8386   103.1489     2.5267     0.0168     0.0290
 1887.0000     8.8386   103.4166     2.5250     0.0171     0.0278
 1887.5000     8.8386   102.6119     2.5215     0.0203     0.0247
 1888.0000     8.8386   103.5261     2.5150     0.0247     0.0217
 1888.5000     8.8386   104.8530     2.5085     0.0292     0.0186
 1889.0000     8.8386   106.1961     2.5021     0.0336     0.0155
 1889.5000     8.8385   107.5403     2.4968     0.0371     0.0169
 1890.0000     8.8440   108.8923     2.5007     0.0345     0.0192
 1890.5000     8.8502   110.2242     2.5066     0.0302     0.0211
 1891.0000     8.8567   110.6349     2.5126     0.0259     0.0217
 1891.5000     8.8497   108.6018     2.5158     0.0235     0.0230
 1892.0000     8.8369   107.2361     2.5151     0.0273     0.0218
 1892.5000     8.8239   106.0020     2.5158     0.0295     0.0210
 1893.0000     8.8108   103.9480     2.5251     0.0239     0.0226
 1893.5000     8.7990   102.0726     2.5359     0.0133     0.0242
 1894.0000     8.7961   102.7019     2.5457     0.0031     0.0258
 1894.5000     8.7932   105.6568     2.5417     0.0060     0.0269
 1895.0000     8.7902   108.5004     2.5374     0.0091     0.0245
 1895.5000     8.7872   111.3265     2.5357     0.0088     0.0221
 1896.0000     8.7842   112.4752     2.5368     0.0100     0.0199
 1896.5000     8.7812   111.0784     2.5324     0.0118     0.0169
 1897.0000     8.7782   113.5623     2.5301     0.0135     0.0176
 1897.5000     8.7753   116.4691     2.5298     0.0143     0.0189
 1898.0000     8.7723   119.3575     2.5244     0.0175     0.0190
 1898.5000     8.7693   119.2755     2.5190     0.0212     0.0190
 1899.0000     8.7663   116.6337     2.5137     0.0249     0.0199
 1899.5000     8.7633   113.2124     2.5094     0.0267     0.0210
 1900.0000     8.7603   109.7491     2.5165     0.0231     0.0234
 1900.5000     8.7573   108.1338     2.5236     0.0191     0.0277
 1901.0000     8.7543   109.9516     2.5364     0.0142     0.0320
 1901.5000     8.7513   112.2725     2.5549     0.0032     0.0364
 1902.0000     8.7483   114.6362     2.5678    -0.0077     0.0408
 1902.5000     8.7453   114.0359     2.5610    -0.0109     0.0420
 1903.0000     8.7422   113.2020     2.5496    -0.0018     0.0431
 1903.5000     8.7395   113.7375     2.5441     0.0055     0.0442
 1904.0000     8.7622   113.6731     2.5397     0.0063     0.0453
 1904.5000     8.7880   116.3841     2.5297     0.0115     0.0464
 1905.0000     8.8139   119.1188     2.5326     0.0132     0.0475
 1905.5000     8.8397   121.8549     2.5364     0.0104     0.0485
 1906.0000     8.8652   122.4919     2.5403     0.0076     0.0496
 1906.5000     8.8803   120.8571     2.5431     0.0067     0.0507
 1907.0000     8.8978   119.2358     2.5391     0.0098     0.0518
 1907.5000     8.9000   117.6174     2.5252     0.0133     0.0532
 1908.0000     8.9018   115.9997     2.5076     0.0176     0.0486
 1908.5000     8.9035   115.9410     2.4845     0.0311     0.0421
 1909.0000     8.9053   117.4252     2.4739     0.0492     0.0345
 1909.5000     8.9070   116.2212     2.4901     0.0492     0.0352
 1910.0000     8.9088   113.4887     2.5064     0.0316     0.0478
 1910.5000     8.9106   110.7578     2.4971     0.0343     0.0610
 1911.0000     8.9123   108.4271     2.4827     0.0397     0.0545
 1911.5000     8.9141   109.3286     2.4642     0.0547     0.0392
 1912.0000     8.9159   110.9838     2.4520     0.0546     0.0267
 1912.5000     8.9176   113.2420     2.5134     0.0163     0.0296
 1913.0000     8.9194   114.7453     2.5296     0.0152     0.0344
 1913.5000     8.9212   116.4933     2.5391     0.0127     0.0392
 1914.0000     8.9229   118.2744     2.5459     0.0079     0.0440
 1914.5000     8.9247   120.0580     2.5370     0.0047     0.0485
 1915.0000     8.9264   121.8426     2.5275     0.0158     0.0476
 1915.5000     8.9282   123.6368     2.5181     0.0243     0.0434
 1916.0000     8.9300   123.5064     2.5107     0.0255     0.0393
 1916.5000     8.9317   121.2427     2.5163     0.0259     0.0352
 1917.0000     8.9335   118.9968     2.5231     0.0198     0.0311
 1917.5000     8.9353   116.8617     2.5301     0.0173     0.0340
 1918.0000     8.9370   115.6530     2.5350     0.0165     0.0379
 1918.5000     8.9396   114.7845     2.5386     0.0105     0.0418
 1919.0000     8.9441   116.5560     2.5400     0.0083     0.0457
 1919.5000     8.9487   118.3655     2.5371     0.0087     0.0496
 1920.0000     8.9534   119.7063     2.5320     0.0143     0.0536
 1920.5000     8.9575   119.0427     2.5132     0.0223     0.0575
 1921.0000     8.9284   120.9583     2.4881     0.0354     0.0614
 1921.5000     8.8952   122.6849     2.4593     0.0567     0.0631
 1922.0000     8.8619   120.8045     2.4302     0.0780     0.0571
 1922.5000     8.8287   118.1588     2.4084     0.0907     0.0497
 1923.0000     8.7953   115.5039     2.4597     0.0822     0.0494
 1923.5000     8.7624   112.8503     2.5116     0.0397     0.0613
 1924.0000     8.7584   110.2010     2.5631     0.0051     0.0730
 1924.5000     8.7834   107.5463     2.5667    -0.0089     0.0850
 1925.0000     8.8181   106.2283     2.5293     0.0104     0.0809
 1925.5000     8.8531   106.8226     2.5052     0.0265     0.0710
 1926.0000     8.8891   107.4230     2.4808     0.0426     0.0607
 1926.5000     8.9169   106.9010     2.4562     0.0588     0.0575
 1927.0000     8.8921   106.8523     2.4204     0.0747     0.0533
 1927.5000     8.8539   108.0103     2.3681     0.1022     0.0475
 1928.0000     8.8158   109.1593     2.3158     0.1324     0.0415
 1928.5000     8.7780   110.2835     2.2480     0.1905     0.0356
 1929.0000     8.7689   109.5899     2.1515     0.2262     0.0311
 1929.5000     8.8051   109.0523     2.0088     0.2617     0.0337
 1930.0000     8.8582   108.8220     1.9986     0.2890     0.0325
 1930.5000     8.9109   104.0870     1.8655     0.1634     0.0080
 1931.0000     8.9580   106.7657     1.8314     0.1403    -0.0003
 1931.5000     8.9563   110.1131     2.4530     0.0704     0.0403
 1932.0000     8.9364   110.1452     2.4476     0.0672     0.0529
 1932.5000     8.9164   105.6978     2.4391     0.0724     0.0506
 1933.0000     8.8964   104.1460     2.4466     0.0772     0.0449
 1933.5000     8.8765   104.7845     2.4927     0.0439     0.0393
 1934.0000     8.8566   109.2615     2.5297     0.0250     0.0349
 1934.5000     8.8366   114.0057     2.5285     0.0147     0.0353
 1935.0000     8.8167   113.6314     2.5295     0.0146     0.0371
 1935.5000     8.7989   113.3475     2.5406     0.0092     0.0387
 1936.0000     8.7988   113.0686     2.5509     0.0043     0.0404
 1936.5000     8.7942   114.6699     2.5456     0.0030     0.0421
 1937.0000     8.7877   118.5250     2.5385     0.0027     0.0437
 1937.5000     8.7812   124.0870     2.5315     0.0090     0.0454
 1938.0000     8.7746   126.8259     2.5244     0.0159     0.0469
 1938.5000     8.7681   131.6867     2.5222     0.0215     0.0497
 1939.0000     8.7616   136.9745     2.5178     0.0223     0.0528
 1939.5000     8.7550   143.0228     2.5075     0.0271     0.0560
