~VERSION INFORMATION
 VERS.                2.0:   CWLS LOG ASCII STANDARD - VERSION 2.0
 WRAP.                 NO:   ONE LINE PER DEPTH STEP
~WELL INFORMATION
#MNEM.UNIT      DATA TYPE    INFORMATION
#----------   ------------   ------------------------------
 STRT.F            0.0000:   START DEPTH
 STOP.F          533.0000:   STOP DEPTH
 STEP.F            0.1000:   STEP LENGTH
 NULL.          -999.2500:   NO VALUE
 COMP.   FLUOR DANIEL INC:   COMPANY
 WELL.   84-4 X 10 #81-10:   WELL
 FLD .             TEAPOT:   FIELD
 LOC .      S10 T38N R78W:   LOCATION
 CNTY.            NATRONA:   COUNTY
 STAT.            WYOMING:   STATE
 CTRY. UNITED STATES OF AMERICA:   COUNTRY
 SRVC.     Atlas Wireline:   SERVICE COMPANY
 DATE.        25-SEP-1994:   LOGDATE
 API .       490252264000:   API NUMBER
~CURVE INFORMATION
#MNEM.UNIT       API CODE    CURVE DESCRIPTION
#----------   ------------   ------------------------------
 DEPT.F                  :   
 GRR .GAPI   07 310 01 00:   GAMMA RAY
 RILD.OHMM   07 120 46 00:   INDUCTION LOG DEEP RESISTIVITY
 RILM.OHMM   07 120 44 00:   INDUCTION LOG MEDIUM RESISTIVITY
~PARAMETER INFORMATION
#MNEM.UNIT          VALUE    DESCRIPTION
#----------   ------------   ------------------------------
 PD  .                 GL:   PERMANENT DATUM
 EPD .F              5150:   ELEVATION PERMANENT DATUM
 LMF .                 KB:   LOG MEASURED FROM
 DAPD.F                10:   FEET ABOVE PERMANENT DATUM
 DMF .                 KB:   DRILLING MEASURED FROM
 EKB .F              5160:   KELLING BUSHING
 EDF .F              5159:   DRILLING FLOOR
 EGL .F              5150:   GROUND LEVEL
 DATE.        25-SEP-1994:   RUN DATE
 RUN .                  1:   RUN NUMBER
 DD  .F               545:   DEPTH DRILLER
 DL  .F               541:   DEPTH LOGGER
 BLI .F               533:   BOTTOM LOG INTERVAL
 CS  .IN            9.625:   CASING SIZE
 CBD .F                76:   CASING BOTTOM DRILLER
 CBL .F                76:   CASING BOTTOM LOGGER
 BS  .IN             8.75:   BIT SIZE
 BSD .F               545:   BIT SIZE AT DEPTH
 DFT .                AIR:   DRILLING FLUID TYPE
 MRT .F                85:   MAXIMUM RECORDED TEMPERATURE
 LUN .            HL 6401:   LOGGING UNIT NUMBER
 LUL .         FT. MORGAN:   LOGGING UNIT LOCATION
 ENGI.    DAVE FREDERICKS:   RECORDING ENGINEER
 WITN.        GARY STRONG:   WITNESSED BY
 CLNT.            A2DTECH:   CLIENT CODE
 ORIG.           5' PRINT:   ORIGIN OF DATA
 UWI .       490252264000:   UNIQUE WELL ID
 DICO. A2D Technologies, Inc.:   DIGITIZING COMPANY
~OTHER INFORMATION
~A    DEPT      GRR      RILD       RILM   
# ...
   72.8000    95.0349  -999.2500  -999.2500
   72.9000    95.4256  -999.2500  -999.2500
   73.0000    95.6818  -999.2500  -999.2500
   73.1000    95.9659  -999.2500  -999.2500
   73.2000    96.5149  -999.2500  -999.2500
   73.3000    96.7525  -999.2500  -999.2500
   73.4000    97.0087  -999.2500  -999.2500
   73.5000    97.2649  -999.2500  -999.2500
   73.6000    97.5210  -999.2500  -999.2500
   73.7000    97.7772  -999.2500  -999.2500
   73.8000    98.0334  -999.2500  -999.2500
   73.9000    98.3318  -999.2500  -999.2500
   74.0000    98.5458  -999.2500  -999.2500
   74.1000    98.9690  -999.2500  -999.2500
   74.2000    99.3603  -999.2500  -999.2500
   74.3000    99.6165  -999.2500  -999.2500
   74.4000    99.8727  -999.2500  -999.2500
   74.5000   100.1481  -999.2500  -999.2500
   74.6000   100.3851  -999.2500  -999.2500
   74.7000   100.8312  -999.2500  -999.2500
   74.8000   101.3430  -999.2500  -999.2500
   74.9000   101.8548  -999.2500  -999.2500
   75.0000   102.3666  -999.2500  -999.2500
   75.1000   102.8822  -999.2500  -999.2500
   75.2000   103.7777  -999.2500  -999.2500
   75.3000   104.2040  -999.2500  -999.2500
   75.4000   104.8822  -999.2500  -999.2500
   75.5000   105.6495  -999.2500  -999.2500
   75.6000   106.4902  -999.2500  -999.2500
   75.7000   107.5132  -999.2500  -999.2500
   75.8000   108.6152  -999.2500  -999.2500
   75.9000   109.5592  -999.2500  -999.2500
   76.0000   110.5821  -999.2500  -999.2500
   76.1000   111.4622  -999.2500  -999.2500
   76.2000   112.5185  -999.2500  -999.2500
   76.3000   114.0029  -999.2500  -999.2500
   76.4000   115.2878  -999.2500  -999.2500
   76.5000   117.3808  -999.2500  -999.2500
   76.6000   118.4427  -999.2500  -999.2500
   76.7000   120.0528  -999.2500  -999.2500
   76.8000   121.7233  -999.2500  -999.2500
   76.9000   123.1847  -999.2500  -999.2500
   77.0000   124.3585  -999.2500  -999.2500
   77.1000   124.6351  -999.2500  -999.2500
   77.2000   125.5766  -999.2500  -999.2500
   77.3000   127.3544  -999.2500  -999.2500
   77.4000   129.1154  -999.2500  -999.2500
   77.5000   131.4149  -999.2500  -999.2500
   77.6000   134.7480  -999.2500  -999.2500
   77.7000   137.0385  -999.2500  -999.2500
   77.8000   138.5367  -999.2500  -999.2500
   77.9000   139.3839  -999.2500  -999.2500
   78.0000   139.9114 10180.2129  -999.2500
   78.1000   140.0489 10172.4131   187.8593
   78.2000   139.9053 10172.1318     7.5095
   78.3000   139.3692 10171.8496     4.8661
   78.4000   138.5402 10171.5684     4.4885
   78.5000   137.6022  9988.5049     4.1467
   78.6000   136.5804  8945.1211     3.9087
   78.7000   135.5587  2635.6250     3.8058
   78.8000   134.7271     2.4056     3.7685
   78.9000   134.1195     2.1485     3.7899
   79.0000   133.1037     2.1046     4.0744
   79.1000   132.8043     2.0725     4.3899
   79.2000   132.8048     2.0545     4.6505
   79.3000   132.9700     2.0381     4.9402
   79.4000   133.4622     2.0184     5.2700
   79.5000   134.3011     2.0473     5.6120
   79.6000   135.2991     2.1630     5.9472
   79.7000   136.1312     2.3195     6.3014
   79.8000   136.3658     2.4793     6.5416
   79.9000   136.4344     2.6142     6.8767
   80.0000   136.5760     2.7726     7.2025
   80.1000   136.8322     3.0237     7.4879
   80.2000   137.0405     3.3922     7.7562
   80.3000   137.0439     3.7407     8.0382
   80.4000   137.6460     4.1982     8.6640
   80.5000   137.6465     5.2484     9.1529
   80.6000   137.8111     6.5146    10.0473
   80.7000   138.0673     7.7934    11.3073
   80.8000   138.2526     9.4657    12.5622
   80.9000   138.2775    10.3420    13.2561
   81.0000   138.5559    10.8649    13.5861
   81.1000   138.5565    11.2542    13.9734
   81.2000   138.5571    11.4328    14.2592
   81.3000   138.6981    11.4728    14.5131
   81.4000   138.7666    11.4418    14.5895
   81.5000   138.5588    11.2859    14.4191
   81.6000   138.5595    10.7043    14.2398
   81.7000   138.5602     9.7134    13.8725
   81.8000   138.3509     8.7910    13.5166
   81.9000   138.2592     8.2189    13.0719
   82.0000   138.1430     7.8537    12.5807
   82.1000   137.8880     7.4461    12.0489
   82.2000   137.6567     7.0612    11.4713
   82.3000   137.6575     6.8231    10.8132
   82.4000   137.4252     6.7227     9.9528
   82.5000   137.1702     6.5791     9.6235
   82.6000   136.9152     6.4438     9.3053
   82.7000   136.6602     6.3422     9.1349
   82.8000   136.4518     6.2624     9.0970
   82.9000   136.4526     6.1490     9.0971
   83.0000   136.1512     6.0443     9.0973
   83.1000   135.9424     5.9940     9.1477
   83.2000   135.6874     5.9368     9.2017
   83.3000   135.5486     5.8825     9.2244
   83.4000   135.4796     5.8477     9.2466
   83.5000   135.2246     5.8166     9.2887
   83.6000   134.9463     5.8164     9.2916
   83.7000   134.4824     5.8163     9.3535
   83.8000   134.3432     5.8161     9.3536
   83.9000   134.4830     5.8160     9.3538
   84.0000   134.9245     5.8158     9.3539
   84.1000   135.6918     5.8156     9.3540
   84.2000   136.4604     5.8175     9.3542
   84.3000   137.6696     5.8557     9.3543
   84.4000   138.5047     5.9797     9.3544
   84.5000   139.3656     6.1224     9.3545
   84.6000   140.1329     6.3923     9.3201
   84.7000   140.9003     6.7801     9.2903
   84.8000   141.6902     7.1736     9.2754
   84.9000   142.8091     7.5211     9.2265
   85.0000   143.5045     8.1068     9.2266
   85.1000   144.0868     8.2702     9.1769
   85.2000   144.5986     8.3340     9.1632
   85.3000   144.8342     8.3338     9.1329
   85.4000   144.6247     8.3336     9.0795
   85.5000   144.6254     8.3261     9.0264
   85.6000   144.3240     8.2756     8.9755
   85.7000   143.9084     8.2753     8.9756
   85.8000   142.5901     8.2362     8.9307
   85.9000   140.5716     8.2178     8.8432
   86.0000   138.3405     8.1957     8.7657
   86.1000   136.3182     8.1606     8.7144
   86.2000   134.3578     8.1604     8.6560
   86.3000   133.4342     8.1602     8.5519
   86.4000   132.9660     8.1600     8.5034
   86.5000   133.1249     8.1597     8.4146
   86.6000   133.6367     8.1595     8.3164
   86.7000   134.1484     8.1792     8.2403
   86.8000   134.6635     8.2158     8.1921
   86.9000   134.9663     8.2187     8.1403
   87.0000   135.1742     8.2724     8.0363
   87.1000   135.4304     8.2722     7.9938
   87.2000   135.5722     8.2719     7.9811
   87.3000   135.6407     8.2983     8.0072
   87.4000   135.8755     8.3290     8.0723
   87.5000   135.5741     8.3287     8.1583
   87.6000   135.1138     8.3296     8.2074
   87.7000   134.6032     8.3861     8.3201
   87.8000   134.2300     8.3859     8.4030
   87.9000   133.8842     8.3857     8.4693
   88.0000   133.4179     8.4103     8.5193
   88.1000   133.1607     8.4435     8.5696
   88.2000   133.1614     8.4509     8.6202
   88.3000   133.3688     8.5017     8.6735
   88.4000   133.6250     8.5014     8.6736
   88.5000   134.1087     8.5012     8.6342
   88.6000   135.0107     8.5010     8.6140
   88.7000   136.3100     8.5007     8.5928
   88.8000   137.9988     8.5005     8.5549
   88.9000   139.1484     8.5003     8.5550
   89.0000   140.9768     8.5000     8.5551
   89.1000   143.0222     8.4998     8.5552
   89.2000   144.9772     8.4614     8.5553
   89.3000   146.6795     8.4407     8.5554
   89.4000   147.9722     8.4198     8.5556
   89.5000   148.8793     8.3820     8.5648
   89.6000   149.2923     8.3817     8.6152
   89.7000   149.4846     8.3815     8.6154
   89.8000   149.2588     8.3813     8.6154
   89.9000   148.6149     8.3810     8.6485
   90.0000   147.5931     8.3808     8.6755
   90.1000   146.4659     8.3806     8.6756
   90.2000   145.5496     8.3803     8.6758
   90.3000   144.5278     8.3801     8.6759
   90.4000   143.3700     8.3798     8.6760
   90.5000   141.8238     8.3796     8.6761
   90.6000   139.8659     8.3794     8.6762
   90.7000   138.3124     8.3792     8.6764
   90.8000   136.5004     8.3789     8.6765
   90.9000   135.6784     8.3866     8.6766
