~VERSION INFORMATION
 VERS.                2.0:   CWLS LOG ASCII STANDARD - VERSION 2.0
 WRAP.                 NO:   ONE LINE PER DEPTH STEP
~WELL INFORMATION
#MNEM.UNIT      DATA TYPE    INFORMATION
#----------   ------------   ------------------------------
 STRT.F           28.0000:   START DEPTH
 STOP.F          563.0000:   STOP DEPTH
 STEP.F            0.1000:   STEP LENGTH
 NULL.          -999.2500:   NO VALUE
 COMP.       F D SERV INC:   COMPANY
 WELL.    SX-3 62-4 #62-3:   WELL
 FLD .          N.P.R. #3:   FIELD
 LOC .       S3 T38N R78W:   LOCATION
 CNTY.            NATRONA:   COUNTY
 STAT.            WYOMING:   STATE
 CTRY. UNITED STATES OF AMERICA:   COUNTRY
 SRVC.     Atlas Wireline:   SERVICE COMPANY
 DATE.        03-MAY-1992:   LOGDATE
 API .       490252252100:   API NUMBER
~CURVE INFORMATION
#MNEM.UNIT       API CODE    CURVE DESCRIPTION
#----------   ------------   ------------------------------
 DEPT.F                  :   
 RILD.OHMM   07 120 46 00:   INDUCTION LOG DEEP RESISTIVITY
 RILM.OHMM   07 120 44 00:   INDUCTION LOG MEDIUM RESISTIVITY
 CALD.IN     45 280 60 00:   CALIPER FROM DENSITY LOG
 CORR.G/C3   45 356 01 00:   DENSITY CORRECTION
 DEN .G/C3   45 350 01 00:   COMPENSATED BULK DENSTIY
 GRD .GAPI   45 310 01 00:   GAMMA RAY FROM DENSITY LOG
 PORD.DEC    45 890 12 00:   POROSITY DENSITY SANDSTONE
~PARAMETER INFORMATION
#MNEM.UNIT          VALUE    DESCRIPTION
#----------   ------------   ------------------------------
 PD  .                 GL:   PERMANENT DATUM
 EPD .F              5156:   ELEVATION PERMANENT DATUM
 LMF .                 KB:   LOG MEASURED FROM
 DAPD.F                 5:   FEET ABOVE PERMANENT DATUM
 DMF .                 KB:   DRILLING MEASURED FROM
 EKB .F              5161:   KELLING BUSHING
 EGL .F              5156:   GROUND LEVEL
 DATE.        03-MAY-1992:   RUN DATE
 RUN .                  1:   RUN NUMBER
 DD  .F               565:   DEPTH DRILLER
 DL  .F               566:   DEPTH LOGGER
 BLI .F               564:   BOTTOM LOG INTERVAL
 TLI .F                50:   TOP LOG INTERVAL
 CS  .IN            8.625:   CASING SIZE
 CBD .F                49:   CASING BOTTOM DRILLER
 CBL .F                50:   CASING BOTTOM LOGGER
 BS  .IN            7.875:   BIT SIZE
 BSD .F               565:   BIT SIZE AT DEPTH
 DFT .        AIR DRILLED:   DRILLING FLUID TYPE
 LUN .             HL 632:   LOGGING UNIT NUMBER
 LUL .           RK. SPGS:   LOGGING UNIT LOCATION
 ENGI.               RALL:   RECORDING ENGINEER
 WITN.             STRONG:   WITNESSED BY
 CLNT.            A2DTECH:   CLIENT CODE
 ORIG.           5" PRINT:   ORIGIN OF DATA
 UWI .       490252252100:   UNIQUE WELL ID
 DICO. A2D Technologies, Inc.:   DIGITIZING COMPANY
~OTHER INFORMATION
~A   DEPT     RILD       RILM       CALD       CORR        DEN        GRD       PORD   
# ...
   82.6000     6.2325     6.6112     8.2321     0.0105     2.4884   167.5687     0.0974
   82.7000     6.2686     6.6109     8.2319     0.0117     2.4878   168.8890     0.0979
   82.8000     6.2972     6.6105     8.2317     0.0120     2.4872   169.6279     0.0984
   82.9000     6.2969     6.6315     8.2315     0.0120     2.4865   170.2130     0.0989
   83.0000     6.2965     6.6558     8.2313     0.0120     2.4861   170.4150     0.0993
   83.1000     6.3270     6.6554     8.2311     0.0122     2.4860   170.8146     0.0996
   83.2000     6.3397     6.6550     8.2309     0.0136     2.4853   171.3105     0.0996
   83.3000     6.3393     6.6547     8.2306     0.0136     2.4853   171.7053     0.0996
   83.4000     6.3490     6.6543     8.2304     0.0136     2.4853   171.7023     0.0998
   83.5000     6.3858     6.6777     8.2302     0.0136     2.4853   171.6992     0.1000
   83.6000     6.4267     6.6999     8.2300     0.0136     2.4853   171.3017     0.1000
   83.7000     6.4602     6.7086     8.2298     0.0136     2.4853   170.7998     0.1000
   83.8000     6.4708     6.7475     8.2296     0.0136     2.4860   170.3926     0.0998
   83.9000     6.4704     6.7923     8.2294     0.0136     2.4860   170.1402     0.0993
   84.0000     6.4827     6.7919     8.2292     0.0128     2.4864   169.8796     0.0990
   84.1000     6.5148     6.8181     8.2289     0.0120     2.4871   169.6353     0.0986
   84.2000     6.5144     6.8385     8.2288     0.0120     2.4878   169.3829     0.0981
   84.3000     6.5140     6.8381     8.2285     0.0120     2.4890   168.5755     0.0976
   84.4000     6.5137     6.8418     8.2283     0.0120     2.4890   166.9756     0.0974
   84.5000     6.5355     6.8849     8.2281     0.0120     2.4901   164.8360     0.0968
   84.6000     6.5583     6.9213     8.2295     0.0113     2.4909   163.2449     0.0963
   84.7000     6.5658     6.9614     8.2427     0.0105     2.4916   162.0711     0.0959
   84.8000     6.6032     6.9799     8.2425     0.0103     2.4922   161.0039     0.0952
   84.9000     6.6027     6.9937     8.2423     0.0090     2.4928   159.8717     0.0949
   85.0000     6.6346     7.0278     8.2421     0.0078     2.4935   158.9424     0.0944
   85.1000     6.6731     7.0273     8.2419     0.0066     2.4946   158.7188     0.0941
   85.2000     6.6939     7.0668     8.2417     0.0053     2.4950   158.7155     0.0939
   85.3000     6.6936     7.1404     8.2415     0.0041     2.4953   158.7128     0.0936
   85.4000     6.6963     7.1988     8.2413     0.0028     2.4959   158.8854     0.0934
   85.5000     6.7393     7.2234     8.2500     0.0015     2.4965   159.1318     0.0931
   85.6000     6.7743     7.2321     8.2559     0.0003     2.4973   159.3783     0.0929
   85.7000     6.7855     7.2740     8.2557     0.0000     2.4978   159.6463     0.0926
   85.8000     6.8057     7.3230     8.2555     0.0000     2.4984   160.2011     0.0924
   85.9000     6.8452     7.3586     8.2552     0.0004     2.4990   160.1985     0.0921
   86.0000     6.8792     7.4013     8.2550     0.0015     2.4996   160.1955     0.0918
   86.1000     6.8788     7.4241     8.2459     0.0015     2.5003   160.1925     0.0913
   86.2000     6.8784     7.4475     8.2396     0.0015     2.5010   160.0580     0.0911
   86.3000     6.9089     7.5270     8.2394     0.0024     2.5010   159.5561     0.0906
   86.4000     6.9490     7.5265     8.2392     0.0030     2.5014   158.9800     0.0904
   86.5000     6.9893     7.5656     8.2389     0.0033     2.5020   158.5524     0.0902
   86.6000     7.0299     7.6095     8.2387     0.0045     2.5026   158.0505     0.0898
   86.7000     7.0706     7.6304     8.2385     0.0045     2.5032   157.5487     0.0895
   86.8000     7.1187     7.6447     8.2383     0.0056     2.5040   157.0468     0.0893
   86.9000     7.1529     7.6827     8.2343     0.0068     2.5040   156.5378     0.0888
   87.0000     7.1944     7.6822     8.2229     0.0075     2.5044   155.6536     0.0885
   87.1000     7.2170     7.6818     8.2226     0.0078     2.5050   155.0352     0.0882
   87.2000     7.2278     7.6814     8.2224     0.0090     2.5056   154.4379     0.0880
   87.3000     7.2664     7.6810     8.2222     0.0090     2.5062   154.1414     0.0877
   87.4000     7.2660     7.6805     8.2220     0.0090     2.5062   154.1383     0.0875
   87.5000     7.2656     7.6801     8.2218     0.0098     2.5067   154.1353     0.0872
   87.6000     7.2652     7.6797     8.2216     0.0105     2.5070   154.1323     0.0870
   87.7000     7.2648     7.6792     8.2214     0.0105     2.5070   154.3274     0.0867
   87.8000     7.2644     7.6788     8.2212     0.0105     2.5070   154.5738     0.0865
   87.9000     7.2640     7.6784     8.2210     0.0093     2.5070   154.9157     0.0862
   88.0000     7.2636     7.6582     8.2208     0.0090     2.5069   155.4115     0.0862
   88.1000     7.2632     7.6245     8.2205     0.0090     2.5074   155.9217     0.0862
   88.2000     7.2628     7.6241     8.2203     0.0090     2.5077   156.4032     0.0863
   88.3000     7.2624     7.6236     8.2201     0.0090     2.5077   157.2808     0.0865
   88.4000     7.2620     7.6232     8.2311     0.0090     2.5077   157.9964     0.0865
   88.5000     7.2616     7.5922     8.2347     0.0079     2.5077   158.6687     0.0868
   88.6000     7.2612     7.5476     8.2345     0.0075     2.5071   159.7372     0.0868
   88.7000     7.2607     7.5170     8.2343     0.0075     2.5069   161.3171     0.0870
   88.8000     7.2604     7.5111     8.2341     0.0075     2.5065   162.0192     0.0872
   88.9000     7.2599     7.4641     8.2339     0.0075     2.5059   162.7645     0.0875
   89.0000     7.2405     7.4232     8.2337     0.0075     2.5053   163.2451     0.0877
   89.1000     7.2090     7.4118     8.2335     0.0075     2.5046   163.5725     0.0877
   89.2000     7.2054     7.3873     8.2333     0.0075     2.5040   164.0387     0.0878
   89.3000     7.1583     7.3439     8.2331     0.0075     2.5039   164.3065     0.0880
   89.4000     7.1580     7.3084     8.2328     0.0075     2.5035   164.3038     0.0881
   89.5000     7.1576     7.3080     8.2326     0.0075     2.5029   164.3008     0.0882
   89.6000     7.1358     7.2069     8.2324     0.0075     2.5022   164.1726     0.0884
   89.7000     7.1073     7.2066     8.2322     0.0086     2.5016   163.9202     0.0887
   89.8000     7.1012     7.1804     8.2320     0.0090     2.5010   163.6678     0.0891
   89.9000     7.0574     7.1206     8.2318     0.0090     2.5004   163.3861     0.0896
   90.0000     7.0570     7.0473     8.2316     0.0090     2.4990   163.1629     0.0906
   90.1000     7.0253     7.0058     8.2313     0.0090     2.4976   162.7413     0.0918
   90.2000     6.9840     6.9590     8.2312     0.0090     2.4969   162.3573     0.0924
   90.3000     6.9430     6.9238     8.2309     0.0090     2.4955   162.1048     0.0932
   90.4000     6.9021     6.8832     8.2307     0.0090     2.4943   161.8372     0.0936
   90.5000     6.8615     6.8427     8.2305     0.0090     2.4931   161.2627     0.0940
   90.6000     6.8141     6.8025     8.2303     0.0090     2.4922   160.8335     0.0942
   90.7000     6.7812     6.7667     8.2301     0.0090     2.4915   160.3316     0.0945
   90.8000     6.7413     6.7663     8.2299     0.0078     2.4909   159.9405     0.0947
   90.9000     6.7017     6.6940     8.2297     0.0075     2.4902   159.6880     0.0953
   91.0000     6.6724     6.6724     8.2295     0.0075     2.4902   159.4436     0.0958
   91.1000     6.6692     6.6511     8.2293     0.0075     2.4902   159.4401     0.0958
   91.2000     6.6255     6.6256     8.2291     0.0075     2.4902   159.6437     0.0957
   91.3000     6.5571     6.6189     8.2288     0.0075     2.4902   159.8901     0.0956
   91.4000     6.5070     6.5790     8.2286     0.0075     2.4903   160.0331     0.0954
   91.5000     6.4688     6.5414     8.2284     0.0075     2.4910   160.0822     0.0954
   91.6000     6.4187     6.5328     8.2341     0.0075     2.4910   160.3294     0.0958
