~VERSION INFORMATION
 VERS.                2.0:   CWLS LOG ASCII STANDARD - VERSION 2.0
 WRAP.                 NO:   ONE LINE PER DEPTH STEP
~WELL INFORMATION
#MNEM.UNIT      DATA TYPE    INFORMATION
#----------   ------------   ------------------------------
 STRT.F           34.0000:   START DEPTH
 STOP.F          582.0000:   STOP DEPTH
 STEP.F            0.5000:   STEP LENGTH
 NULL.          -999.2500:   NO VALUE
 COMP. FENIX & SCISSON INC:   COMPANY
 WELL. NPR 3 SX-33 #88-33:   WELL
 FLD .             TEAPOT:   FIELD
 LOC .      S33 T39N R78W:   LOCATION
 CNTY.            NATRONA:   COUNTY
 STAT.            WYOMING:   STATE
 CTRY. UNITED STATES OF AMERICA:   COUNTRY
 SRVC.           BIRDWELL:   SERVICE COMPANY
 DATE.        04-AUG-1978:   LOGDATE
 API .       490251068000:   API NUMBER
~CURVE INFORMATION
#MNEM.UNIT       API CODE    CURVE DESCRIPTION
#----------   ------------   ------------------------------
 DEPT.F                  :   
 SPR .MV     05 010 01 00:   SPONTANEOUS POTENTIAL FROM RES.
 ILD .OHMM   05 120 46 00:   INDUCTION LOG DEEP
 SN  .OHMM   05 040 16 00:   SHORT NORMAL 16"
 CALD.IN     45 280 60 00:   CALIPER
 GRD .GAPI   45 310 01 00:   GAMMA RAY FROM DENSITY LOG
 DEN .G/C3   45 350 01 00:   COMPENSATED BULK DENSTIY
 CORR.G/C3   45 356 01 00:   DENSITY CORRECTION
 DPHI.DEC    45 890 12 00:   DENSITY POROSITY SANDSTONE
~PARAMETER INFORMATION
#MNEM.UNIT          VALUE    DESCRIPTION
#----------   ------------   ------------------------------
 PD  .                 GL:   PERMANENT DATUM
 EPD .F              5146:   ELEVATION PERMANENT DATUM
 LMF .                 KB:   LOG MEASURED FROM
 DAPD.F                 4:   FEET ABOVE PERMANENT DATUM
 DMF .                 KB:   DRILLING MEASURED FROM
 EKB .F              5150:   KELLING BUSHING
 EGL .F              5146:   GROUND LEVEL
 DATE.             8-4-78:   RUN DATE
 RUN .                  1:   RUN NUMBER
 DD  .F               570:   DEPTH DRILLER
 DL  .F               588:   DEPTH LOGGER
 BLI .F               582:   BOTTOM LOG INTERVAL
 TLI .F                50:   TOP LOG INTERVAL
 CS  .IN            8.625:   CASING SIZE
 CBD .F                40:   CASING BOTTOM DRILLER
 BS  .IN            7.875:   BIT SIZE
 BSD .F               570:   BIT SIZE AT DEPTH
 DFT .                KCL:   DRILLING FLUID TYPE
 DFD .                8.7:   DRILLING FLUID DENSITY
 DFV .                 34:   DRILLING FLUID VISCOSITY
 DFPH.                  9:   DRILLING FLUID PH
 DFL .                9.6:   DRILLING FLUID LOSS
 MSS .          FLOW LINE:   MUD SAMPLE SOURCE
 RMS .OHMM            .24:   RESISTIVITY MUD SAMPLE
 MST .F                70:   MUD SAMPLE TEMPERATURE
 RMF .OHMM            .24:   RESISTIVITY MUD FILTRATE SAMPLE
 MFST.F                80:   MUD FILTRATE SAMPLE TEMPERATURE
 RMC .OHMM             .3:   RESISTIVITY MUD CAKE
 MCST.F                75:   MUD CAKE SAMPLE TEMPERATURE
 MFSS.               MEAS:   MUD FILTRATE SAMPLE SOURCE
 TCS .HRS               2:   TIME CURCULATED STOPPED
 LUN .               3006:   LOGGING UNIT NUMBER
 LUL .               CASP:   LOGGING UNIT LOCATION
 ENGI.             MILLER:   RECORDING ENGINEER
 WITN.           MCGINLEY:   WITNESSED BY
 CLNT.            A2DTECH:   CLIENT CODE
 ORIG.        2" 5" PRINT:   ORIGIN OF DATA
 UWI .       490251068000:   UNIQUE WELL ID
 DICO. A2D Technologies, Inc.:   DIGITIZING COMPANY
~OTHER INFORMATION
~A   DEPT      SPR        ILD         SN       CALD         GRD       DEN       CORR       DPHI   
# ...
  560.5000   -24.4306    11.3878    10.6352     7.4020    90.4022     2.5147     0.0319     0.1002
  561.0000   -24.4371    11.2313    10.5475     7.4408    92.1155     2.5165     0.0319     0.0901
  561.5000   -24.4436    11.0946    10.4690     7.4843    92.0283     2.5184     0.0319     0.0919
  562.0000   -24.4501    11.0187    10.3910     7.4901    92.4100     2.5203     0.0319     0.0936
  562.5000   -24.4566    10.9433    10.3137     7.4901    94.7321     2.5222     0.0319     0.0947
  563.0000   -24.4630    10.8685    10.2369     7.4900    95.4913     2.5241     0.0319     0.0933
  563.5000   -24.4695    10.7899    10.1607     7.4900    95.5098     2.5245     0.0319     0.0918
  564.0000   -24.4760    10.6969    10.0850     7.4900    95.4639     2.5211     0.0319     0.0922
  564.5000   -24.4825    10.6047    10.0099     7.4900    94.4029     2.5155     0.0296     0.1065
  565.0000   -24.4890    10.5132     9.9354     7.4906    93.2967     2.5089     0.0233     0.1064
  565.5000   -24.4955    10.4226     9.8617     7.4922    93.0976     2.5024     0.0171     0.1047
  566.0000   -24.5020    10.3327     9.7797     7.4937    93.0805     2.4989     0.0118     0.1034
  566.5000   -24.5085    10.2436     9.6987     7.4953    93.8809     2.5002     0.0131     0.1034
  567.0000   -24.5150    10.1553     9.6183     7.4968    94.9173     2.5002     0.0146     0.1086
  567.5000   -24.5215    10.0678     9.5386     7.4984    92.5281     2.4988     0.0161     0.1082
  568.0000   -24.5280     9.9810     9.4595     7.4999    91.4175     2.5036     0.0176     0.0898
  568.5000   -24.5345     9.8949     9.3811     7.5015    92.1260     2.5396     0.0260     0.0687
  569.0000   -24.5409     9.8096     9.3034     7.5030    93.1949     2.5504     0.0404     0.0784
  569.5000   -24.5474     9.7250     9.2263     7.5045    95.4223     2.5486     0.0515     0.0745
  570.0000   -24.5539     9.6413     9.1498     7.5061    97.6835     2.5460     0.0498     0.0739
  570.5000   -24.5604     9.5584     9.0740     7.5076    97.4892     2.5379     0.0432     0.0895
  571.0000   -24.5669     9.4359     8.9988     7.5092    95.1398     2.5241     0.0368     0.0952
  571.5000   -24.5734     9.2488     8.9242     7.5107    93.5152     2.5142     0.0304     0.0966
  572.0000   -24.5799     9.0654     8.8503     7.5123    93.3439     2.5130     0.0259     0.0981
  572.5000   -24.5864     8.9142     8.7769     7.5138    95.3877     2.5122     0.0262     0.0994
  573.0000   -24.5928     8.9039     8.7042     7.5154    97.0959     2.5114     0.0263     0.0998
  573.5000   -24.5999     8.8854     8.6570     7.5169    97.0825     2.5107     0.0265     0.1002
  574.0000   -24.5703     8.8669     8.6150     7.5185   100.0925     2.5076     0.0267     0.1006
  574.5000   -24.5238     8.8485     8.5731     7.5200   100.7219     2.5036     0.0269     0.1066
  575.0000   -24.4768     8.8075     8.5315     7.5216    96.3811     2.4995     0.0270     0.1058
  575.5000   -24.4298     8.6345     8.4901     7.5231    97.9718     2.4976     0.0272     0.1047
  576.0000   -24.3828     8.4650     8.4488     7.5247    95.2052     2.4979     0.0274     0.1042
  576.5000   -24.3358     8.2987     8.4078     7.5262    96.7569     2.4981     0.0276     0.1048
  577.0000   -24.2889     8.1357     8.3670     7.5277    98.4356     2.4984     0.0278     0.1053
  577.5000   -24.2419     7.9765     8.3263     7.5294   102.3748     2.4983     0.0279     0.1112
  578.0000   -24.1949     7.8368     8.2832     7.5202    99.8343     2.4976     0.0303     0.1138
  578.5000   -24.1479     7.8369     8.1728     7.5025    95.2616     2.5037     0.0329     0.1059
  579.0000   -24.1009     7.9432     8.0554     7.4780    98.9410     2.5169     0.0433     0.1015
  579.5000   -24.0536     8.1478     7.9400     7.4283    98.2721     2.5301     0.0556     0.0925
  580.0000   -24.0050     8.6307     7.8388     7.2525    96.2715     2.5368     0.0545     0.0842
  580.5000   -23.9988     9.2604     7.8388  -999.2500  -999.2500  -999.2500  -999.2500  -999.2500
  581.0000   -24.0498     9.8617     7.9811  -999.2500  -999.2500  -999.2500  -999.2500  -999.2500
  581.5000   -24.2467     9.9057     8.0578  -999.2500  -999.2500  -999.2500  -999.2500  -999.2500
  582.0000   -24.3975     9.7715     8.0578  -999.2500  -999.2500  -999.2500  -999.2500  -999.2500
