~VERSION INFORMATION
 VERS.                2.0:   CWLS LOG ASCII STANDARD - VERSION 2.0
 WRAP.                 NO:   ONE LINE PER DEPTH STEP
~WELL INFORMATION
#MNEM.UNIT      DATA TYPE    INFORMATION
#----------   ------------   ------------------------------
 STRT.F          484.0000:   START DEPTH
 STOP.F         2291.5000:   STOP DEPTH
 STEP.F            0.5000:   STEP LENGTH
 NULL.          -999.2500:   NO VALUE
 COMP. FENIX & SCISSON INC:   COMPANY
 WELL.     45 SHX 3 #45-3:   WELL
 FLD .             TEAPOT:   FIELD
 LOC .       S3 T38N R78W:   LOCATION
 CNTY.            NATRONA:   COUNTY
 STAT.            WYOMING:   STATE
 CTRY. UNITED STATES OF AMERICA:   COUNTRY
 SRVC.              Welex:   SERVICE COMPANY
 DATE.        20-APR-1980:   LOGDATE
 API .       490251080400:   API NUMBER
~CURVE INFORMATION
#MNEM.UNIT       API CODE    CURVE DESCRIPTION
#----------   ------------   ------------------------------
 DEPT.F                  :   
 CALD.IN     45 280 60 00:   CALIPER
 GRD .GAPI   45 310 01 00:   GAMMA RAY FROM DENSITY LOG
 CORR.G/C3   45 356 01 00:   DENSITY CORRECTION
 RHOB.G/C3   45 350 01 00:   BULK DENSITY
 DPHI.DEC    45 890 12 00:   DENSITY POROSITY SANDSTONE
~PARAMETER INFORMATION
#MNEM.UNIT          VALUE    DESCRIPTION
#----------   ------------   ------------------------------
 PD  .                 GL:   PERMANENT DATUM
 EPD .F              5186:   ELEVATION PERMANENT DATUM
 LMF .                 KB:   LOG MEASURED FROM
 DAPD.F                10:   FEET ABOVE PERMANENT DATUM
 DMF .                 KB:   DRILLING MEASURED FROM
 EKB .F              5196:   KELLING BUSHING
 EGL .F              5186:   GROUND LEVEL
 DATE.            4-20-80:   RUN DATE
 RUN .                  1:   RUN NUMBER
 DD  .F              2341:   DEPTH DRILLER
 DL  .F              2293:   DEPTH LOGGER
 BLI .F              2291:   BOTTOM LOG INTERVAL
 TLI .F               500:   TOP LOG INTERVAL
 CS  .IN            9.625:   CASING SIZE
 BS  .IN             8.75:   BIT SIZE
 BSD .F              2341:   BIT SIZE AT DEPTH
 DFT .                OIL:   DRILLING FLUID TYPE
 TCS .HRS               2:   TIME CURCULATED STOPPED
 MRT .F               218:   MAXIMUM RECORDED TEMPERATURE
 ENGI.            TOTHILL:   RECORDING ENGINEER
 WITN.           DINSMORE:   WITNESSED BY
 CLNT.            A2DTECH:   CLIENT CODE
 ORIG.           5" PRINT:   ORIGIN OF DATA
 UWI .       490251080400:   UNIQUE WELL ID
 DICO. A2D Technologies, Inc.:   DIGITIZING COMPANY
~OTHER INFORMATION
~A   DEPT     CALD         GRD      CORR       RHOB       DPHI   
# ...
 1094.0000     9.0739    71.3407    -0.0088     2.5069     0.0785
 1094.5000     9.0702    71.0983    -0.0170     2.4893     0.0887
 1095.0000     9.0646    70.6656    -0.0337     2.4795     0.0945
 1095.5000     9.0590    70.2290    -0.0384     2.4723     0.0995
 1096.0000     9.0547    69.8551    -0.0449     2.4699     0.1026
 1096.5000     9.0229    70.0451    -0.0516     2.4599     0.1083
 1097.0000     8.9706    70.2705    -0.0511     2.4572     0.0997
 1097.5000     8.9182    70.4723    -0.0327     2.4825     0.0896
 1098.0000     8.8714    70.4813    -0.0117     2.4985     0.0834
 1098.5000     8.8846    70.1452    -0.0089     2.5034     0.0805
 1099.0000     8.9005    69.7091    -0.0085     2.5088     0.0796
 1099.5000     8.9163    69.2758    -0.0130     2.5033     0.0815
 1100.0000     8.9321    69.0335    -0.0117     2.4986     0.0800
 1100.5000     8.9478    69.3607     0.0027     2.5088     0.0740
 1101.0000     8.9636    69.6658     0.0113     2.5201     0.0686
 1101.5000     8.9794    69.8428     0.0178     2.5264     0.0677
 1102.0000     8.9952    69.6305     0.0074     2.5158     0.0736
 1102.5000     9.0113    69.4229     0.0142     2.5136     0.0693
 1103.0000     9.0096    69.2150     0.0227     2.5286     0.0637
 1103.5000     9.0039    69.0074     0.0241     2.5323     0.0627
 1104.0000     8.9982    68.7997     0.0187     2.5237     0.0695
 1104.5000     8.9974    68.5914     0.0123     2.5218     0.0704
 1105.0000     9.0138    68.3846     0.0235     2.5288     0.0638
 1105.5000     9.0309    68.3598     0.0276     2.5361     0.0608
 1106.0000     9.0044    68.3619     0.0285     2.5366     0.0598
 1106.5000     8.9622    68.3369     0.0199     2.5265     0.0640
 1107.0000     8.9196    68.6932     0.0182     2.5228     0.0683
 1107.5000     8.8699    69.2967     0.0221     2.5291     0.0646
 1108.0000     8.9350    69.9743     0.0222     2.5290     0.0631
 1108.5000     9.0115    70.6640     0.0143     2.5154     0.0738
 1109.0000     9.0022    70.3789     0.0122     2.5133     0.0748
 1109.5000     8.9714    69.7364     0.0078     2.5006     0.0833
 1110.0000     8.9411    69.0294     0.0036     2.4951     0.0848
 1110.5000     8.9135    69.0048     0.0030     2.4904     0.0874
 1111.0000     8.9171    69.1127     0.0030     2.4928     0.0862
 1111.5000     8.9228    69.2166     0.0030     2.4963     0.0845
 1112.0000     8.9285    69.3193     0.0036     2.4934     0.0865
 1112.5000     8.9387    69.4215     0.0045     2.4909     0.0882
 1113.0000     8.9749    69.5242     0.0073     2.4945     0.0856
 1113.5000     9.0113    69.5168     0.0108     2.4982     0.0831
 1114.0000     9.0482    69.3704     0.0137     2.5018     0.0806
 1114.5000     9.0521    69.0703     0.0148     2.5044     0.0796
 1115.0000     9.0484    67.6915     0.0092     2.4998     0.0828
 1115.5000     9.0445    66.1653     0.0040     2.4955     0.0857
 1116.0000     9.0407    64.6220     0.0117     2.4967     0.0792
 1116.5000     9.0369    63.5665     0.0139     2.4971     0.0853
 1117.0000     9.0351    62.7752     0.0101     2.4958     0.0848
 1117.5000     9.0434    62.3004     0.0142     2.5001     0.0804
 1118.0000     9.0516    62.3238     0.0183     2.5034     0.0816
 1118.5000     9.0598    62.7384     0.0125     2.4940     0.0874
 1119.0000     9.0682    63.1789     0.0044     2.4859     0.0917
 1119.5000     9.0742    63.6201     0.0030     2.4887     0.0909
 1120.0000     9.0541    64.0677     0.0014     2.4943     0.0868
 1120.5000     9.0264    63.9861     0.0075     2.4999     0.0827
 1121.0000     8.9986    63.8066     0.0178     2.5055     0.0792
 1121.5000     8.9710    63.6301     0.0165     2.5042     0.0776
 1122.0000     8.9431    63.8270     0.0142     2.4988     0.0825
 1122.5000     8.9147    64.4441     0.0168     2.5067     0.0774
 1123.0000     8.9130    65.0566     0.0103     2.5085     0.0791
 1123.5000     8.9134    65.6721     0.0093     2.5025     0.0799
 1124.0000     8.9240    66.2853     0.0013     2.4958     0.0861
 1124.5000     8.9551    66.9059    -0.0023     2.4938     0.0870
 1125.0000     8.9859    67.0565    -0.0059     2.4895     0.0892
 1125.5000     9.0165    66.9175    -0.0097     2.4827     0.0916
 1126.0000     9.0294    66.1580    -0.0101     2.4836     0.0915
 1126.5000     9.0173    65.0658    -0.0112     2.4833     0.0926
 1127.0000     9.0055    63.9750    -0.0151     2.4832     0.0946
 1127.5000     8.9938    63.6388    -0.0106     2.4919     0.0845
 1128.0000     8.9826    63.4200    -0.0063     2.4981     0.0813
 1128.5000     8.9950    63.2010    -0.0019     2.5031     0.0797
 1129.0000     9.0024    62.9680     0.0006     2.5046     0.0798
 1129.5000     9.0129    63.2568    -0.0008     2.4986     0.0829
 1130.0000     9.0240    63.6937    -0.0022     2.5015     0.0813
 1130.5000     9.0350    64.1335    -0.0029     2.5054     0.0796
 1131.0000     9.0461    64.5762     0.0013     2.5045     0.0789
 1131.5000     9.0540    64.7080     0.0073     2.5107     0.0760
 1132.0000     9.0357    64.6436     0.0129     2.5189     0.0703
 1132.5000     9.0172    64.5766     0.0209     2.5270     0.0639
 1133.0000     8.9988    64.5088     0.0159     2.5237     0.0699
 1133.5000     8.9803    64.4405     0.0114     2.5122     0.0752
 1134.0000     8.9634    64.4697     0.0138     2.5155     0.0726
 1134.5000     8.9344    64.5808     0.0188     2.5214     0.0689
 1135.0000     8.9516    64.6901     0.0170     2.5221     0.0688
 1135.5000     8.9672    64.7255     0.0173     2.5243     0.0669
 1136.0000     8.9831    65.2300     0.0245     2.5314     0.0630
 1136.5000     8.9990    65.8573     0.0301     2.5337     0.0619
 1137.0000     9.0141    66.4867     0.0323     2.5317     0.0630
 1137.5000     9.0028    67.1139     0.0319     2.5328     0.0632
 1138.0000     8.9891    67.4567     0.0261     2.5233     0.0700
 1138.5000     8.9753    67.4545     0.0203     2.5163     0.0736
 1139.0000     8.9616    67.4551     0.0160     2.5146     0.0744
 1139.5000     8.9478    67.4549     0.0127     2.5056     0.0796
 1140.0000     8.9343    67.4554     0.0107     2.4954     0.0856
 1140.5000     8.9419    67.4654    -0.0069     2.4828     0.0921
 1141.0000     8.9527    66.9567    -0.0095     2.4755     0.0979
 1141.5000     8.8677    66.5801    -0.0126     2.4732     0.0990
 1142.0000     8.8160    66.7883    -0.0098     2.4751     0.0990
 1142.5000     8.8811    66.9881    -0.0057     2.4791     0.0966
 1143.0000     8.9217    67.1879    -0.0016     2.4741     0.0970
 1143.5000     8.8592    67.3967     0.0025     2.4779     0.0950
 1144.0000     8.7975    67.1395     0.0066     2.4823     0.0930
 1144.5000     8.8992    66.6853     0.0109     2.4876     0.0916
 1145.0000     8.9333    66.2233     0.0175     2.4941     0.0863
 1145.5000     8.9392    65.7476     0.0166     2.4969     0.0853
 1146.0000     8.9438    65.5925     0.0056     2.4897     0.0892
 1146.5000     8.9486    65.5209    -0.0084     2.4731     0.0956
 1147.0000     8.9543    65.4521    -0.0071     2.4782     0.0948
 1147.5000     8.9820    65.3834    -0.0048     2.4813     0.0934
 1148.0000     9.0108    65.3752    -0.0155     2.4693     0.1014
 1148.5000     9.0397    65.4569    -0.0110     2.4675     0.0967
 1149.0000     9.0685    65.5383    -0.0081     2.4826     0.0913
 1149.5000     9.0945    65.6151    -0.0095     2.4837     0.0921
 1150.0000     9.0934    65.8945    -0.0111     2.4902     0.0901
 1150.5000     9.0903    66.2490    -0.0130     2.4901     0.0894
 1151.0000     9.0873    66.6004    -0.0093     2.4851     0.0907
 1151.5000     9.0843    66.7115    -0.0026     2.4973     0.0844
 1152.0000     9.0814    66.2249     0.0066     2.5047     0.0788
 1152.5000     9.0784    65.7515     0.0107     2.5086     0.0763
 1153.0000     9.0758    65.3299     0.0183     2.5136     0.0736
 1153.5000     9.0496    65.4032     0.0216     2.5191     0.0727
 1154.0000     9.0158    65.5204     0.0113     2.5048     0.0784
 1154.5000     8.9819    65.6174     0.0149     2.5041     0.0765
