~VERSION INFORMATION
 VERS.                2.0:   CWLS LOG ASCII STANDARD - VERSION 2.0
 WRAP.                 NO:   ONE LINE PER DEPTH STEP
~WELL INFORMATION
#MNEM.UNIT      DATA TYPE    INFORMATION
#----------   ------------   ------------------------------
 STRT.F           30.0000:   START DEPTH
 STOP.F          440.0000:   STOP DEPTH
 STEP.F            0.5000:   STEP LENGTH
 NULL.          -999.2500:   NO VALUE
 COMP. FENIX & SCISSON INC:   COMPANY
 WELL.    54 SX 10 #54-10:   WELL
 FLD .             TEAPOT:   FIELD
 LOC .      S10 T38N R78W:   LOCATION
 CNTY.            NATRONA:   COUNTY
 STAT.            WYOMING:   STATE
 CTRY. UNITED STATES OF AMERICA:   COUNTRY
 SRVC.            Unknown:   SERVICE COMPANY
 DATE.        10-NOV-1978:   LOGDATE
 API .       490251072800:   API NUMBER
~CURVE INFORMATION
#MNEM.UNIT       API CODE    CURVE DESCRIPTION
#----------   ------------   ------------------------------
 DEPT.F                  :   
 CALD.IN     45 280 60 00:   CALIPER
 GRD .GAPI   45 310 01 00:   GAMMA RAY FROM DENSITY LOG
 DPHI.DEC    45 890 12 00:   DENSITY POROSITY SANDSTONE
 RHOB.G/C3   45 350 01 00:   BULK DENSITY
 CORR.G/C3   45 356 01 00:   DENSITY CORRECTION
 SPR .MV     05 010 01 00:   SPONTANEOUS POTENTIAL FROM RES.
 ILD .OHMM   05 120 46 00:   INDUCTION LOG DEEP
 SN  .OHMM   05 040 16 00:   SHORT NORMAL 16"
~PARAMETER INFORMATION
#MNEM.UNIT          VALUE    DESCRIPTION
#----------   ------------   ------------------------------
 PD  .                 GL:   PERMANENT DATUM
 EPD .F              5196:   ELEVATION PERMANENT DATUM
 LMF .                 KB:   LOG MEASURED FROM
 DAPD.F                 4:   FEET ABOVE PERMANENT DATUM
 DMF .                 KB:   DRILLING MEASURED FROM
 EKB .F              5200:   KELLING BUSHING
 EGL .F              5196:   GROUND LEVEL
 DATE.           11-10-78:   RUN DATE
 RUN .                  1:   RUN NUMBER
 DD  .F               435:   DEPTH DRILLER
 DL  .F               442:   DEPTH LOGGER
 BLI .F               436:   BOTTOM LOG INTERVAL
 TLI .F                50:   TOP LOG INTERVAL
 CS  .IN            8.625:   CASING SIZE
 CBD .F                40:   CASING BOTTOM DRILLER
 CBL .F                50:   CASING BOTTOM LOGGER
 BS  .IN            7.875:   BIT SIZE
 BSD .F               435:   BIT SIZE AT DEPTH
 DFT .            SEA MUD:   DRILLING FLUID TYPE
 DFD .                8.7:   DRILLING FLUID DENSITY
 DFV .                 34:   DRILLING FLUID VISCOSITY
 DFPH.                 10:   DRILLING FLUID PH
 MSS .            MUD PIT:   MUD SAMPLE SOURCE
 RMS .OHMM             .4:   RESISTIVITY MUD SAMPLE
 MST .F                57:   MUD SAMPLE TEMPERATURE
 RMF .OHMM            .34:   RESISTIVITY MUD FILTRATE SAMPLE
 MFST.F                64:   MUD FILTRATE SAMPLE TEMPERATURE
 RMC .OHMM            .44:   RESISTIVITY MUD CAKE
 MCST.F                60:   MUD CAKE SAMPLE TEMPERATURE
 MFSS.            MUD PIT:   MUD FILTRATE SAMPLE SOURCE
 MCSS.            MUD PIT:   MUD CAKE SAMPLE SOURCE
 RMB .OHMM            .36:   RESISTIVITY MUD AT BHT
 BHT .F                72:   BOTTOM HOLE TEMPERATURE
 TCS .HRS               1:   TIME CURCULATED STOPPED
 MRT .F                70:   MAXIMUM RECORDED TEMPERATURE
 LUN .               3006:   LOGGING UNIT NUMBER
 LUL .               CASP:   LOGGING UNIT LOCATION
 ENGI.             MILLER:   RECORDING ENGINEER
 WITN.           DINSMORE:   WITNESSED BY
 CLNT.            A2DTECH:   CLIENT CODE
 ORIG.           5" PRINT:   ORIGIN OF DATA
 UWI .       490251072800:   UNIQUE WELL ID
 DICO. A2D Technologies, Inc.:   DIGITIZING COMPANY
~OTHER INFORMATION
~A   DEPT     CALD         GRD      DPHI       RHOB       CORR        SPR        ILD         SN   
   30.0000  -999.2500    81.0537  -999.2500  -999.2500  -999.2500  -999.2500  -999.2500  -999.2500
   30.5000  -999.2500    81.0537  -999.2500  -999.2500  -999.2500  -999.2500  -999.2500  -999.2500
   31.0000  -999.2500    83.4394  -999.2500  -999.2500  -999.2500  -999.2500  -999.2500  -999.2500
   31.5000  -999.2500    81.4650  -999.2500  -999.2500  -999.2500  -999.2500  -999.2500  -999.2500
   32.0000  -999.2500    82.5020  -999.2500  -999.2500  -999.2500  -999.2500  -999.2500  -999.2500
   32.5000  -999.2500    83.3227  -999.2500  -999.2500  -999.2500  -999.2500  -999.2500  -999.2500
   33.0000  -999.2500    83.7488  -999.2500  -999.2500  -999.2500  -999.2500  -999.2500  -999.2500
   33.5000  -999.2500    84.1159  -999.2500  -999.2500  -999.2500  -999.2500  -999.2500  -999.2500
   34.0000  -999.2500    84.7498  -999.2500  -999.2500  -999.2500  -999.2500  -999.2500  -999.2500
   34.5000  -999.2500    87.5745  -999.2500  -999.2500  -999.2500  -999.2500  -999.2500  -999.2500
   35.0000  -999.2500    85.3824  -999.2500  -999.2500  -999.2500  -999.2500  -999.2500  -999.2500
   35.5000  -999.2500    82.7920  -999.2500  -999.2500  -999.2500  -999.2500  -999.2500  -999.2500
   36.0000  -999.2500    84.9338  -999.2500  -999.2500  -999.2500  -999.2500  -999.2500  -999.2500
   36.5000  -999.2500    86.2337  -999.2500  -999.2500  -999.2500  -999.2500  -999.2500  -999.2500
   37.0000  -999.2500    85.2561  -999.2500  -999.2500  -999.2500  -999.2500  -999.2500  -999.2500
   37.5000  -999.2500    84.8017  -999.2500  -999.2500  -999.2500  -999.2500  -999.2500  -999.2500
   38.0000  -999.2500    84.7276  -999.2500  -999.2500  -999.2500  -999.2500  -999.2500  -999.2500
   38.5000  -999.2500    84.6467  -999.2500  -999.2500  -999.2500  -999.2500  -999.2500  -999.2500
   39.0000  -999.2500    85.3842  -999.2500  -999.2500  -999.2500  -999.2500  -999.2500  -999.2500
   39.5000  -999.2500    86.5739  -999.2500  -999.2500  -999.2500  -999.2500  -999.2500  -999.2500
   40.0000  -999.2500    87.7685  -999.2500  -999.2500  -999.2500  -999.2500  -999.2500  -999.2500
   40.5000  -999.2500    88.6820  -999.2500  -999.2500  -999.2500  -999.2500  -999.2500  -999.2500
   41.0000  -999.2500    87.4154  -999.2500  -999.2500  -999.2500  -999.2500  -999.2500  -999.2500
   41.5000  -999.2500    86.1677  -999.2500  -999.2500  -999.2500  -999.2500  -999.2500  -999.2500
   42.0000  -999.2500    85.3810  -999.2500  -999.2500  -999.2500  -999.2500  -999.2500  -999.2500
   42.5000  -999.2500    86.8678  -999.2500  -999.2500  -999.2500  -999.2500  -999.2500  -999.2500
   43.0000  -999.2500    87.5780  -999.2500  -999.2500  -999.2500  -999.2500  -999.2500  -999.2500
   43.5000  -999.2500    87.0506  -999.2500  -999.2500  -999.2500  -999.2500  -999.2500  -999.2500
   44.0000  -999.2500    87.2007  -999.2500  -999.2500  -999.2500  -999.2500  -999.2500  -999.2500
   44.5000     8.1848    87.5552  -999.2500  -999.2500  -999.2500  -999.2500  -999.2500  -999.2500
   45.0000     8.2343    87.0938  -999.2500  -999.2500  -999.2500  -999.2500  -999.2500  -999.2500
   45.5000     8.2839    86.6421  -999.2500  -999.2500  -999.2500  -999.2500  -999.2500  -999.2500
   46.0000     8.3236    86.2346  -999.2500  -999.2500  -999.2500  -999.2500  -999.2500  -999.2500
   46.5000     8.3735    86.3551  -999.2500  -999.2500  -999.2500  -999.2500  -999.2500  -999.2500
   47.0000     8.4234    86.2475  -999.2500  -999.2500  -999.2500  -999.2500  -999.2500  -999.2500
   47.5000     8.4287    85.9079  -999.2500  -999.2500  -999.2500  -999.2500  -999.2500  -999.2500
   48.0000     8.4338    85.5647  -999.2500  -999.2500  -999.2500  -999.2500  -999.2500  -999.2500
   48.5000     9.3775    85.2131  -999.2500  -999.2500    -0.0703  -999.2500  -999.2500  -999.2500
   49.0000     8.4665    84.8724  -999.2500  -999.2500     0.0687  -999.2500  -999.2500  -999.2500
   49.5000     8.0389    85.6597  -999.2500  -999.2500     0.0866  -999.2500  -999.2500  -999.2500
   50.0000     7.9155    94.3620  -999.2500  -999.2500     0.1112   -53.1558     8.5438  -999.2500
   50.5000     7.8869   103.2386     0.0832     2.5093     0.2252   -53.1558     8.5438     8.2391
   51.0000     7.8588   111.2335     0.0955     2.5510     0.1713   -53.1558     8.5438     8.2156
   51.5000     7.8299   111.7051     0.1078     2.5335     0.1062   -53.1553     8.5889     8.2382
   52.0000     7.7948   112.0370     0.1152     2.5379     0.0492   -53.1587     8.5438     8.1706
   52.5000     7.7898   111.9041     0.1188     2.5102     0.0392   -53.1828     8.9024     8.1457
   53.0000     7.7901   111.7234     0.1252     2.4957     0.0343   -52.7946     9.3665     8.1208
   53.5000     7.7905   111.5002     0.1318     2.4811     0.0295   -51.4445     9.8547     8.0961
   54.0000     7.8031   113.2259     0.1385     2.4665     0.0245   -49.8648    10.3684     8.0714
   54.5000     7.8306   115.7700     0.1451     2.4549     0.0194   -48.8144    10.8189     8.0468
   55.0000     7.8580   118.3399     0.1484     2.4466     0.0182   -48.8629    10.8215     8.0222
   55.5000     7.8854   120.9749     0.1477     2.4399     0.0185   -48.8926    10.8383     7.9977
   56.0000     7.9128   121.2828     0.1469     2.4404     0.0189   -48.9268    10.8552     7.9732
   56.5000     7.9402   117.5592     0.1460     2.4409     0.0193   -48.9599    10.8720     7.9490
   57.0000     7.9676   114.9464     0.1451     2.4415     0.0196   -48.9911    10.8890     7.9452
   57.5000     7.9951   114.5953     0.1395     2.4435     0.0199   -48.9370    10.9059     8.0090
   58.0000     8.0225   114.6632     0.1341     2.4515     0.0212   -48.6997    10.9184     8.1048
   58.5000     8.0499   113.7692     0.1288     2.4594     0.0226   -48.4654    10.9221     8.2018
   59.0000     8.0774   113.2577     0.1279     2.4672     0.0244   -48.2301    10.9074     8.2999
   59.5000     8.1048   113.2499     0.1271     2.4722     0.0255   -47.9969    11.0891     8.3992
   60.0000     8.1310   112.5720     0.1262     2.4734     0.0252   -47.8516    11.2785     8.4997
   60.5000     8.0951   110.9062     0.1253     2.4747     0.0243   -47.9581    11.4712     8.6015
   61.0000     7.9724   109.3094     0.1237     2.4770     0.0238   -48.0573    11.6671     8.7047
   61.5000     7.9685   108.6950     0.1220     2.4794     0.0232   -48.1565    11.8664     8.8078
   62.0000     7.9690   108.1113     0.1217     2.4817     0.0239   -48.2556    12.0691     8.8610
   62.5000     7.9692   108.3610     0.1227     2.4829     0.0253   -48.3549    12.2855     8.8664
   63.0000     7.9692   109.1190     0.1276     2.4836     0.0259   -48.4544    12.2552     8.8754
   63.5000     7.9692   109.8468     0.1326     2.4797     0.0259   -48.5511    12.2236     8.8844
   64.0000     7.9691   109.5602     0.1340     2.4709     0.0258   -48.5665    12.1920     8.8934
   64.5000     7.9692   109.2245     0.1347     2.4635     0.0258   -48.4235    12.1605     8.9024
   65.0000     7.9743   108.8888     0.1351     2.4612     0.0258   -48.2012    12.1292     8.9114
   65.5000     8.0060   108.5250     0.1334     2.4599     0.0258   -47.9175    12.0977     8.9205
   66.0000     8.0374   109.3577     0.1310     2.4629     0.0258   -47.6323    12.0644     8.9295
   66.5000     8.0684   113.9829     0.1302     2.4669     0.0258   -47.3455    11.8907     8.9415
   67.0000     8.0913   118.6630     0.1315     2.4680     0.0258   -47.0546    11.7075     8.9397
   67.5000     8.0981   117.9108     0.1328     2.4667     0.0258   -47.0317    11.5271     9.0736
   68.0000     8.1052   115.3013     0.1336     2.4655     0.0258   -47.0257    11.3495     9.1879
   68.5000     8.1123   112.1503     0.1330     2.4643     0.0256   -47.0181    11.0145     9.3036
   69.0000     8.1193   111.6617     0.1295     2.4643     0.0302   -47.0101    11.0555     9.4207
   69.5000     8.1261   112.3245     0.1259     2.4692     0.0313   -47.0020    11.1015     9.5394
   70.0000     8.1543   112.9885     0.1223     2.4752     0.0323   -46.9940    11.1475     9.6595
