~VERSION INFORMATION
 VERS.                2.0:   CWLS LOG ASCII STANDARD - VERSION 2.0
 WRAP.                 NO:   ONE LINE PER DEPTH STEP
~WELL INFORMATION
#MNEM.UNIT      DATA TYPE    INFORMATION
#----------   ------------   ------------------------------
 STRT.F           12.0000:   START DEPTH
 STOP.F          793.0000:   STOP DEPTH
 STEP.F            0.5000:   STEP LENGTH
 NULL.          -999.2500:   NO VALUE
 COMP.   FLUOR DANIEL INC:   COMPANY
 WELL.   35-1-X-10 #35-10:   WELL
 FLD .            WILDCAT:   FIELD
 LOC .      S10 T38N R78W:   LOCATION
 CNTY.            NATRONA:   COUNTY
 STAT.            WYOMING:   STATE
 CTRY. UNITED STATES OF AMERICA:   COUNTRY
 SRVC.      Western Atlas:   SERVICE COMPANY
 DATE.        20-AUG-1996:   LOGDATE
 API .       490252282200:   API NUMBER
~CURVE INFORMATION
#MNEM.UNIT       API CODE    CURVE DESCRIPTION
#----------   ------------   ------------------------------
 DEPT.F                  :   
 RFOC.OHMM   07 220 04 00:   RESISTIVITY FOCUSED LOG
 RILD.OHMM   07 120 46 00:   INDUCTION LOG DEEP RESISTIVITY
 RILM.OHMM   07 120 44 00:   INDUCTION LOG MEDIUM RESISTIVITY
 SPR .MV     07 010 01 00:   SPONTANEOUS POTENTIAL
 CALD.IN     45 280 60 00:   CALIPER FROM DENSITY LOG
 GRD .GAPI   45 310 01 00:   GAMMA RAY FROM DENSITY LOG
 ZCOR.G/C3   45 356 01 00:   DENSITY CORRECTION
 ZDEN.G/C3   45 350 01 00:   BULK DENSITY
 PORZ.DEC    45 890 12 00:   DENSITY POROSITY SANDSTONE
 CNC .DEC    42 890 03 00:   NEUTRON POROSITY SANDSTONE
~PARAMETER INFORMATION
#MNEM.UNIT          VALUE    DESCRIPTION
#----------   ------------   ------------------------------
 PD  .                 GL:   PERMANENT DATUM
 EPD .F              5228:   ELEVATION PERMANENT DATUM
 LMF .                 KB:   LOG MEASURED FROM
 DAPD.F                10:   FEET ABOVE PERMANENT DATUM
 DMF .                 KB:   DRILLING MEASURED FROM
 EKB .F              5238:   KELLING BUSHING
 EGL .F              5228:   GROUND LEVEL
 DATE.        20-AUG-1996:   RUN DATE
 RUN .                  1:   RUN NUMBER
 DD  .F               794:   DEPTH DRILLER
 DL  .F               794:   DEPTH LOGGER
 BLI .F               793:   BOTTOM LOG INTERVAL
 TLI .F                12:   TOP LOG INTERVAL
 CS  .IN           13.375:   CASING SIZE
 CBD .F                58:   CASING BOTTOM DRILLER
 CBL .F                59:   CASING BOTTOM LOGGER
 BS  .IN            12.25:   BIT SIZE
 BSD .F               794:   BIT SIZE AT DEPTH
 DFT .           SPUD MUD:   DRILLING FLUID TYPE
 DFD .                9.2:   DRILLING FLUID DENSITY
 DFV .                 50:   DRILLING FLUID VISCOSITY
 DFPH.                  9:   DRILLING FLUID PH
 DFL .               13.8:   DRILLING FLUID LOSS
 MSS .              CIRC.:   MUD SAMPLE SOURCE
 RMS .OHMM           1.14:   RESISTIVITY MUD SAMPLE
 MST .F                77:   MUD SAMPLE TEMPERATURE
 RMF .OHMM           0.90:   RESISTIVITY MUD FILTRATE SAMPLE
 MFST.F                77:   MUD FILTRATE SAMPLE TEMPERATURE
 RMC .OHMM            1.4:   RESISTIVITY MUD CAKE
 MCST.F                77:   MUD CAKE SAMPLE TEMPERATURE
 MFSS.               CALC:   MUD FILTRATE SAMPLE SOURCE
 MCSS.               CALC:   MUD CAKE SAMPLE SOURCE
 RMB .OHMM            .84:   RESISTIVITY MUD AT BHT
 BHT .F               104:   BOTTOM HOLE TEMPERATURE
 TCS .HRS               3:   TIME CURCULATED STOPPED
 MRT .F               104:   MAXIMUM RECORDED TEMPERATURE
 LUN .            HL-6530:   LOGGING UNIT NUMBER
 LUL .             CASPER:   LOGGING UNIT LOCATION
 ENGI.           BROWNLOW:   RECORDING ENGINEER
 WITN.      SCHULTE/HARDY:   WITNESSED BY
 CLNT.            A2DTECH:   CLIENT CODE
 ORIG.           5" PRINT:   ORIGIN OF DATA
 UWI .       490252282200:   UNIQUE WELL ID
 DICO. A2D Technologies, Inc.:   DIGITIZING COMPANY
~OTHER INFORMATION
~A   DEPT     RFOC       RILD       RILM        SPR       CALD        GRD       ZCOR       ZDEN       PORZ        CNC   
# ...
  749.0000     8.9305     9.5116     9.3274   -27.5311    12.3370    82.8899     0.0434     2.5385     0.0668     0.3115
  749.5000     8.8656     9.6447     9.5891   -27.5326    12.3372    83.2224     0.0480     2.5347     0.0707     0.3142
  750.0000     8.8627     9.7796     9.7362   -27.5340    12.3374    83.8136     0.0540     2.5310     0.0738     0.3184
  750.5000     8.9112     9.8478     9.7909   -27.4990    12.3376    82.9615     0.0541     2.5294     0.0747     0.3208
  751.0000     8.9561     9.7119     9.7237   -27.4639    12.3226    81.1453     0.0526     2.5294     0.0743     0.3223
  751.5000     9.0011     9.5116     9.5905   -27.4288    12.3228    77.9549     0.0526     2.5317     0.0734     0.3220
  752.0000     9.0494     9.3804     9.3289   -27.3938    12.2927    76.4472     0.0556     2.5332     0.0713     0.3184
  752.5000     9.0494     9.3155     9.2010   -27.3732    12.2930    76.1480     0.0603     2.5269     0.0743     0.3171
  753.0000     9.0494     9.1870     9.0749   -27.3714    12.3234    77.3600     0.0677     2.5128     0.0798     0.3162
  753.5000     8.9867     9.1234     9.0755   -27.3695    12.3236    78.2692     0.0738     2.5052     0.0864     0.3156
  754.0000     8.8625     8.9975     9.0133   -27.3673    12.3389    77.9693     0.0768     2.5022     0.0885     0.3171
  754.5000     8.8011     8.9352     8.9516   -27.3655    12.3542    78.2750     0.0587     2.5090     0.0855     0.3210
  755.0000     8.7400     8.9352     8.8903   -27.3637    12.3846    79.4870     0.0421     2.5188     0.0794     0.3246
  755.5000     8.7400     8.8734     8.8295   -27.3619    12.4151    81.0004     0.0179     2.5241     0.0767     0.3300
  756.0000     8.7400     8.8734     8.7690   -27.3601    12.4456    81.9097     0.0179     2.5211     0.0795     0.3318
  756.5000     8.7400     8.8734     8.7091   -27.3582    12.4457    82.2146     0.0210     2.5210     0.0797     0.3318
  757.0000     8.8011     8.8734     8.7099   -27.3560    12.4459    82.5196     0.0226     2.5234     0.0773     0.3324
  757.5000     8.8011     8.9352     8.7711   -27.3542    12.4461    82.8253     0.0256     2.5271     0.0752     0.3330
  758.0000     8.8625     8.9975     8.8327   -27.3523    12.4463    82.8282     0.0301     2.5331     0.0715     0.3411
  758.5000     8.8625     8.9975     8.8947   -27.3505    12.4465    82.8310     0.0301     2.5361     0.0712     0.3536
  759.0000     8.8625     8.9975     8.9572   -27.3487    12.4315    82.8339     0.0332     2.5293     0.0733     0.3592
  759.5000     8.8625     8.9975     9.0203   -27.3464    12.4317    83.5116     0.0364     2.5301     0.0733     0.3513
  760.0000     8.8625     8.9975     9.0209   -27.3446    12.4319    84.9552     0.0379     2.5308     0.0730     0.3386
  760.5000     8.8011     8.9975     8.9590   -27.3428    12.4472    84.3538     0.0409     2.5225     0.0748     0.3305
  761.0000     8.7400     8.9352     8.8978   -27.4927    12.4475    84.3567     0.0424     2.5127     0.0791     0.3268
  761.5000     8.6795     8.8734     8.8316   -27.4905    12.4476    84.3595     0.0485     2.5074     0.0848     0.3205
  762.0000     8.6795     8.7510     8.6555   -27.4887    12.4478    84.6652     0.0545     2.5096     0.0863     0.3129
  762.5000     8.6193     8.6904     8.6562   -27.4868    12.4480    84.9702     0.0561     2.5142     0.0839     0.3117
  763.0000     8.6193     8.6904     8.5968   -27.4846    12.4482    85.2752     0.0606     2.5172     0.0814     0.3138
  763.5000     8.6193     8.7510     8.6574   -27.4828    12.4484    85.5802     0.0576     2.5126     0.0826     0.3192
  764.0000     8.6193     8.6904     8.6580   -27.4809    12.4486    85.2809     0.0485     2.5119     0.0838     0.3156
  764.5000     8.6193     8.6904     8.6587   -27.3278    12.4488    84.9817     0.0409     2.5119     0.0838     0.3147
  765.0000     8.6193     8.6904     8.6592   -27.3260    12.4490    84.9853     0.0316     2.5126     0.0841     0.3192
  765.5000     8.6193     8.6904     8.6598   -27.1725    12.4491    84.9881     0.0318     2.5141     0.0844     0.3255
  766.0000     8.5595     8.6904     8.6005   -27.0194    12.4342    85.5952     0.0333     2.5172     0.0829     0.3360
  766.5000     8.5595     8.6302     8.5920   -27.0175    12.4192    87.1541     0.0348     2.5232     0.0808     0.3318
  767.0000     8.4413     8.6302     8.4833   -26.8644    12.3892    89.5292     0.0364     2.5269     0.0772     0.3223
  767.5000     8.3827     8.5112     8.4251   -26.8626    12.3591    91.3447     0.0303     2.5322     0.0732     0.3185
  768.0000     8.3246     8.3938     8.3096   -26.8608    12.3290    91.6497     0.0242     2.5315     0.0717     0.3244
  768.5000     8.2096     8.2207     8.1958   -27.0103    12.3292    91.6526     0.0212     2.5275     0.0747     0.3276
  769.0000     8.1527     8.1638     8.0834   -27.1598    12.3294    91.6561     0.0197     2.5231     0.0781     0.3281
  769.5000     8.1527     8.1638     8.0281   -27.3092    12.3296    92.2632     0.0213     2.5201     0.0802     0.3263
  770.0000     8.1527     8.1638     8.1409   -27.3070    12.3298    93.4746     0.0303     2.5208     0.0792     0.3263
  770.5000     8.2096     8.2207     8.1981   -27.4565    12.3148    94.6859     0.0364     2.5201     0.0789     0.3238
  771.0000     8.2669     8.2780     8.3131   -27.6059    12.2697    94.3565     0.0485     2.5095     0.0816     0.3214
  771.5000     8.3246     8.3938     8.3717   -27.6040    12.2547    93.1818     0.0606     2.4989     0.0856     0.3220
  772.0000     8.3827     8.5112     8.4305   -27.6018    12.2095    93.1846     0.0776     2.4831     0.0952     0.3256
  772.5000     8.4413     8.6302     8.4897   -27.6000    12.1644    92.5833     0.1030     2.4543     0.1166     0.3262
  773.0000     8.5595     8.7510     8.5494   -27.5982    12.1040    91.6798     0.1227     2.4453     0.1236     0.3262
  773.5000     8.6193     8.8120     8.6123   -27.5964    12.0286    90.7770     0.1288     2.4566     0.1193     0.3262
  774.0000     8.6795     8.9352     8.7912   -27.5946    11.9531    90.7799     0.1212     2.4740     0.1079     0.3264
  774.5000     8.6795     9.0602     8.9146   -27.5923    11.8171    91.0849     0.1212     2.4966     0.0985     0.3270
  775.0000     8.7400     9.1870     9.0397   -27.4392    11.4794    90.7849     0.1227     2.5230     0.0825     0.3294
  775.5000     8.8625     9.2510     9.1032   -27.4374    11.0006    90.4864     0.1273     2.5291     0.0756     0.3333
  776.0000     8.9244     9.2510     9.1038   -27.2843    10.4410    90.4900     0.1273     2.5200     0.0766     0.3463
  776.5000     8.9867     9.1870     9.1045   -27.1312    10.0024    90.9366     0.1333     2.5094     0.0849     0.3535
  777.0000     8.9244     9.1234     9.0422   -27.1294    10.0329    29.6073     0.1379     2.5064     0.0876     0.3541
  777.5000     8.7400     8.9975     8.9182   -26.8245    10.0482     0.2443     0.1455     2.5063     0.0873     0.3529
  778.0000     8.6193     8.9352     8.8572   -26.6714    10.9026     0.1428     0.1470     2.5041     0.0882     0.3526
  778.5000     8.5595     8.9352     8.8578   -26.6696    11.1076  -999.2500     0.1470     2.5011     0.0897     0.3532
  779.0000     8.5595     8.8734     8.8585   -26.5165    11.0019  -999.2500     0.1500     2.4958     0.0924     0.3548
  779.5000     8.5595     8.8734     8.8591   -26.3634    10.6541  -999.2500     0.1515     2.4867     0.0972  -999.2500
  780.0000     8.6193     8.8734     8.8597   -26.2103    10.1929  -999.2500     0.1561     2.4656     0.1037  -999.2500
  780.5000     8.6795     8.9352     8.8603   -26.0319  -999.2500  -999.2500     0.1639     2.4535     0.1126  -999.2500
  781.0000     8.8011     8.9975     8.9225   -25.9036  -999.2500  -999.2500     0.1758     2.4376     0.1235  -999.2500
  781.5000     8.8625     9.1234     8.9853   -25.9018  -999.2500  -999.2500     0.1699     2.4293     0.1313  -999.2500
  782.0000     8.9244     9.1870     9.0485   -25.9000  -999.2500  -999.2500     0.1652     2.4371     0.1340  -999.2500
