~VERSION INFORMATION
 VERS.                2.0:   CWLS LOG ASCII STANDARD - VERSION 2.0
 WRAP.                 NO:   ONE LINE PER DEPTH STEP
~WELL INFORMATION
#MNEM.UNIT      DATA TYPE    INFORMATION
#----------   ------------   ------------------------------
 STRT.F            4.0000:   START DEPTH
 STOP.F          468.5000:   STOP DEPTH
 STEP.F            0.1000:   STEP LENGTH
 NULL.          -999.2500:   NO VALUE
 COMP. BROWN JOHN E&C INC:   COMPANY
 WELL.  SX-10 #1-14-SX-10:   WELL
 FLD .        N.P.R. No.3:   FIELD
 LOC .      S10 T38N R78W:   LOCATION
 CNTY.            NATRONA:   COUNTY
 STAT.            WYOMING:   STATE
 CTRY. UNITED STATES OF AMERICA:   COUNTRY
 SRVC.     Atlas Wireline:   SERVICE COMPANY
 DATE.        21-SEP-1991:   LOGDATE
 API .       490251125800:   API NUMBER
~CURVE INFORMATION
#MNEM.UNIT       API CODE    CURVE DESCRIPTION
#----------   ------------   ------------------------------
 DEPT.F                  :   
 GRR .GAPI   07 310 01 00:   GAMMA RAY FROM RES. LOG.
 ILD .OHMM   07 120 46 00:   INDUCTION LOG DEEP
 RILM.OHMM   07 120 44 00:   INDUCTION LOG MEDIUM RESISTIVITY
~PARAMETER INFORMATION
#MNEM.UNIT          VALUE    DESCRIPTION
#----------   ------------   ------------------------------
 PD  .                 GL:   PERMANENT DATUM
 EPD .F              5183:   ELEVATION PERMANENT DATUM
 LMF .                 KB:   LOG MEASURED FROM
 DAPD.F                10:   FEET ABOVE PERMANENT DATUM
 DMF .                 KB:   DRILLING MEASURED FROM
 EKB .F              5193:   KELLING BUSHING
 EGL .F              5183:   GROUND LEVEL
 DATE.            9-21-91:   RUN DATE
 RUN .                  1:   RUN NUMBER
 DD  .F               480:   DEPTH DRILLER
 DL  .F               478:   DEPTH LOGGER
 BLI .F               470:   BOTTOM LOG INTERVAL
 CS  .IN                7:   CASING SIZE
 CBD .F                90:   CASING BOTTOM DRILLER
 CBL .F                90:   CASING BOTTOM LOGGER
 BS  .IN             6.25:   BIT SIZE
 BSD .F               480:   BIT SIZE AT DEPTH
 DFT .                AIR:   DRILLING FLUID TYPE
 TCS .HRS               1:   TIME CURCULATED STOPPED
 MRT .F                80:   MAXIMUM RECORDED TEMPERATURE
 LUN .            HL-6307:   LOGGING UNIT NUMBER
 LUL .             CASPER:   LOGGING UNIT LOCATION
 ENGI.             RAUTIO:   RECORDING ENGINEER
 WITN.             STRONG:   WITNESSED BY
 CLNT.            A2DTECH:   CLIENT CODE
 ORIG.        2" 5" PRINT:   ORIGIN OF DATA
 UWI .       490251125800:   UNIQUE WELL ID
 DICO. A2D Technologies, Inc.:   DIGITIZING COMPANY
~OTHER INFORMATION
~A    DEPT       GRR      ILD       RILM   
# ...
  240.6000   137.4422     8.7793     9.1417
  240.7000   137.5340     8.7458     9.1674
  240.8000   137.6258     8.7123     9.1932
  240.9000   137.7176     8.6787     9.2189
  241.0000   137.8093     8.6452     9.2446
  241.1000   137.9018     8.6015     9.2767
  241.2000   137.9943     8.5578     9.3088
  241.3000   138.0868     8.5141     9.3409
  241.4000   138.1793     8.4704     9.3729
  241.5000   138.2718     8.4267     9.4050
  241.6000   138.0720     8.2968     9.2387
  241.7000   137.8723     8.1669     9.0723
  241.8000   137.6726     8.0369     8.9060
  241.9000   137.4729     7.9070     8.7396
  242.0000   137.2731     7.7771     8.5733
  242.1000   136.7542     7.5972     8.3780
  242.2000   136.2353     7.4172     8.1827
  242.3000   135.7164     7.2373     7.9874
  242.4000   135.1975     7.0573     7.7921
  242.5000   134.6786     6.8774     7.5968
  242.6000   134.4945     6.7181     7.4232
  242.7000   134.3105     6.5588     7.2495
  242.8000   134.1264     6.3995     7.0759
  242.9000   133.9424     6.2402     6.9023
  243.0000   133.7583     6.0809     6.7287
  243.1000   134.6486     5.9407     6.5634
  243.2000   135.5389     5.8004     6.3981
  243.3000   136.4292     5.6602     6.2328
  243.4000   137.3194     5.5199     6.0675
  243.5000   138.2097     5.3797     5.9022
  243.6000   140.0943     5.3597     5.9024
  243.7000   141.9789     5.3398     5.9026
  243.8000   143.8635     5.3198     5.9029
  243.9000   145.7481     5.2999     5.9031
  244.0000   147.6327     5.2799     5.9034
  244.1000   149.3571     5.2605     5.8812
  244.2000   151.0816     5.2411     5.8590
  244.3000   152.8060     5.2218     5.8368
  244.4000   154.5304     5.2024     5.8146
  244.5000   156.2548     5.1830     5.7924
  244.6000   157.2547     5.2995     5.8485
  244.7000   158.2545     5.4161     5.9045
  244.8000   159.2543     5.5327     5.9606
  244.9000   160.2541     5.6493     6.0166
  245.0000   161.2540     5.7659     6.0727
  245.1000   161.7465     5.8037     6.1423
  245.2000   162.2391     5.8415     6.2120
  245.3000   162.7317     5.8793     6.2817
  245.4000   163.2242     5.9171     6.3513
  245.5000   163.7168     5.9549     6.4210
  245.6000   161.3508     5.9940     6.5536
  245.7000   158.9847     6.0331     6.6862
  245.8000   156.6187     6.0721     6.8188
  245.9000   154.2527     6.1112     6.9514
  246.0000   151.8866     6.1502     7.0840
  246.1000   150.5389     6.2168     7.2261
  246.2000   149.1912     6.2835     7.3682
  246.3000   147.8435     6.3501     7.5103
  246.4000   146.4958     6.4167     7.6524
  246.5000   145.1481     6.4833     7.7945
  246.6000   143.8998     6.6514     7.9511
  246.7000   142.6515     6.8194     8.1077
  246.8000   141.4032     6.9875     8.2643
  246.9000   140.1550     7.1556     8.4208
  247.0000   138.9067     7.3237     8.5774
  247.1000   138.9001     7.5105     8.7497
  247.2000   138.8934     7.6974     8.9220
  247.3000   138.8868     7.8842     9.0942
  247.4000   138.8802     8.0710     9.2665
  247.5000   138.8735     8.2579     9.4388
  247.6000   138.8947     8.4546     9.6279
  247.7000   138.9158     8.6513     9.8170
  247.8000   138.9370     8.8480    10.0060
  247.9000   138.9581     9.0447    10.1951
  248.0000   138.9792     9.2414    10.3842
  248.1000   138.2627     9.4200    10.4506
  248.2000   137.5462     9.5986    10.5171
  248.3000   136.8297     9.7772    10.5835
  248.4000   136.1131     9.9557    10.6500
  248.5000   135.3966    10.1343    10.7164
  248.6000   134.8497    10.1390    10.7048
  248.7000   134.3027    10.1437    10.6932
  248.8000   133.7558    10.1484    10.6815
  248.9000   133.2089    10.1531    10.6699
  249.0000   132.6619    10.1578    10.6583
  249.1000   133.0470    10.1614    10.6492
  249.2000   133.4320    10.1650    10.6401
  249.3000   133.8171    10.1686    10.6311
  249.4000   134.2021    10.1722    10.6220
  249.5000   134.5872    10.1758    10.6129
  249.6000   134.7722    10.1797    10.6038
  249.7000   134.9572    10.1836    10.5948
  249.8000   135.1421    10.1875    10.5858
  249.9000   135.3271    10.1913    10.5767
  250.0000   135.5121    10.1952    10.5677
  250.1000   135.6311    10.1992    10.5579
  250.2000   135.7501    10.2032    10.5481
  250.3000   135.8690    10.2072    10.5383
  250.4000   135.9880    10.2112    10.5285
  250.5000   136.1070    10.2152    10.5187
  250.6000   135.8890    10.2684    10.6615
  250.7000   135.6711    10.3216    10.8043
  250.8000   135.4531    10.3749    10.9471
  250.9000   135.2351    10.4281    11.0900
  251.0000   135.0172    10.4813    11.2328
  251.1000   135.0373    10.6490    11.4008
  251.2000   135.0574    10.8167    11.5688
  251.3000   135.0775    10.9844    11.7367
  251.4000   135.0977    11.1521    11.9047
  251.5000   135.1178    11.3198    12.0727
  251.6000   135.1190    11.5009    12.2644
  251.7000   135.1202    11.6820    12.4561
  251.8000   135.1214    11.8631    12.6478
  251.9000   135.1226    12.0442    12.8395
  252.0000   135.1238    12.2253    13.0312
  252.1000   133.7692    12.4209    13.3316
  252.2000   132.4146    12.6165    13.6321
  252.3000   131.0599    12.8121    13.9326
  252.4000   129.7053    13.0077    14.2331
  252.5000   128.3506    13.2033    14.5335
  252.6000   126.5810    13.4232    14.8911
  252.7000   124.8114    13.6432    15.2486
  252.8000   123.0417    13.8631    15.6061
  252.9000   121.2721    14.0831    15.9637
  253.0000   119.5025    14.3030    16.3212
  253.1000   116.6857    14.6278    16.7227
  253.2000   113.8690    14.9526    17.1242
  253.3000   111.0522    15.2774    17.5257
  253.4000   108.2355    15.6022    17.9272
  253.5000   105.4188    15.9270    18.3288
  253.6000   102.2752    16.3044    18.7798
  253.7000    99.1317    16.6818    19.2308
  253.8000    95.9882    17.0592    19.6818
  253.9000    92.8446    17.4366    20.1328
  254.0000    89.7011    17.8141    20.5838
  254.1000    87.7666    18.2362    21.0905
  254.2000    85.8322    18.6583    21.5973
  254.3000    83.8978    19.0804    22.1041
  254.4000    81.9634    19.5025    22.6109
  254.5000    80.0289    19.9247    23.1177
  254.6000    80.5769    20.3979    23.6859
  254.7000    81.1248    20.8710    24.2542
  254.8000    81.6727    21.3442    24.8224
  254.9000    82.2206    21.8174    25.3906
  255.0000    82.7685    22.2906    25.9588
  255.1000    83.6867    22.7137    26.4465
  255.2000    84.6048    23.1368    26.9342
  255.3000    85.5229    23.5598    27.4219
  255.4000    86.4411    23.9829    27.9095
  255.5000    87.3593    24.4060    28.3972
  255.6000    87.4987    24.8410    28.9143
  255.7000    87.6381    25.2760    29.4315
  255.8000    87.7775    25.7110    29.9486
  255.9000    87.9169    26.1460    30.4657
  256.0000    88.0564    26.5810    30.9828
  256.1000    86.8973    26.7829    30.9712
  256.2000    85.7383    26.9848    30.9595
  256.3000    84.5793    27.1866    30.9479
  256.4000    83.4202    27.3885    30.9363
  256.5000    82.2612    27.5904    30.9246
  256.6000    82.0190    27.6357    30.9132
  256.7000    81.7767    27.6811    30.9018
  256.8000    81.5345    27.7264    30.8904
  256.9000    81.2923    27.7717    30.8790
  257.0000    81.0500    27.8170    30.8676
  257.1000    81.1761    27.8627    30.8562
  257.2000    81.3022    27.9084    30.8449
  257.3000    81.4283    27.9541    30.8335
  257.4000    81.5544    27.9998    30.8221
  257.5000    81.6805    28.0455    30.8107
  257.6000    81.8083    28.0915    30.7994
  257.7000    81.9361    28.1376    30.7880
  257.8000    82.0640    28.1837    30.7767
  257.9000    82.1918    28.2297    30.7653
  258.0000    82.3197    28.2758    30.7540
  258.1000    82.6399    28.3190    30.7426
  258.2000    82.9601    28.3622    30.7313
  258.3000    83.2803    28.4054    30.7200
  258.4000    83.6006    28.4486    30.7086
  258.5000    83.9208    28.4918    30.6973
  258.6000    84.5095    28.4582    30.6860
  258.7000    85.0983    28.4246    30.6747
