~VERSION INFORMATION
 VERS.                2.0:   CWLS LOG ASCII STANDARD - VERSION 2.0
 WRAP.                 NO:   ONE LINE PER DEPTH STEP
~WELL INFORMATION
#MNEM.UNIT      DATA TYPE    INFORMATION
#----------   ------------   ------------------------------
 STRT.F            0.0000:   START DEPTH
 STOP.F          547.0000:   STOP DEPTH
 STEP.F            0.1000:   STEP LENGTH
 NULL.          -999.2500:   NO VALUE
 COMP.     BROWN JOHN E&C:   COMPANY
 WELL.    NPR 3 #86-1-X-3:   WELL
 FLD .             TEAPOT:   FIELD
 LOC .       S3 T38N R78W:   LOCATION
 CNTY.            NATRONA:   COUNTY
 STAT.            WYOMING:   STATE
 CTRY. UNITED STATES OF AMERICA:   COUNTRY
 SRVC.     Atlas Wireline:   SERVICE COMPANY
 DATE.        09-FEB-1992:   LOGDATE
 API .       490252249800:   API NUMBER
~CURVE INFORMATION
#MNEM.UNIT       API CODE    CURVE DESCRIPTION
#----------   ------------   ------------------------------
 DEPT.F                  :   
 GRR .GAPI   07 310 01 00:   GAMMA RAY
 RFOC.OHMM   07 220 04 00:   RESISTIVITY FOCUSED LOG
 RILD.OHMM   07 120 46 00:   INDUCTION LOG DEEP RESISTIVITY
 RILM.OHMM   07 120 44 00:   INDUCTION LOG MEDIUM RESISTIVITY
 SPR .MV     07 010 01 00:   SPONTANEOUS POTENTIAL
~PARAMETER INFORMATION
#MNEM.UNIT          VALUE    DESCRIPTION
#----------   ------------   ------------------------------
 PD  .                 GL:   PERMANENT DATUM
 EPD .F              5145:   ELEVATION PERMANENT DATUM
 LMF .                 KB:   LOG MEASURED FROM
 DAPD.F                10:   FEET ABOVE PERMANENT DATUM
 DMF .                 KB:   DRILLING MEASURED FROM
 EKB .F              5155:   KELLING BUSHING
 EDF .F              5154:   DRILLING FLOOR
 EGL .F              5145:   GROUND LEVEL
 DATE.        09-FEB-1992:   RUN DATE
 RUN .                  1:   RUN NUMBER
 DD  .F               562:   DEPTH DRILLER
 DL  .F               550:   DEPTH LOGGER
 BLI .F               547:   BOTTOM LOG INTERVAL
 CS  .IN            8.625:   CASING SIZE
 CBD .F               183:   CASING BOTTOM DRILLER
 CBL .F               181:   CASING BOTTOM LOGGER
 BS  .IN            7.875:   BIT SIZE
 BSD .F               562:   BIT SIZE AT DEPTH
 DFT .            GEL BAR:   DRILLING FLUID TYPE
 DFD .               17.8:   DRILLING FLUID DENSITY
 DFV .                 52:   DRILLING FLUID VISCOSITY
 DFPH.                  9:   DRILLING FLUID PH
 DFL .                5.2:   DRILLING FLUID LOSS
 MSS .           FLOWLINE:   MUD SAMPLE SOURCE
 RMS .OHMM           1.78:   RESISTIVITY MUD SAMPLE
 MST .F                68:   MUD SAMPLE TEMPERATURE
 RMF .OHMM          1.335:   RESISTIVITY MUD FILTRATE SAMPLE
 MFST.F                68:   MUD FILTRATE SAMPLE TEMPERATURE
 RMC .OHMM          2.225:   RESISTIVITY MUD CAKE
 MCST.F                68:   MUD CAKE SAMPLE TEMPERATURE
 MFSS.               MEAS:   MUD FILTRATE SAMPLE SOURCE
 MCSS.               MEAS:   MUD CAKE SAMPLE SOURCE
 TCS .HRS               3:   TIME CURCULATED STOPPED
 LUN .            HL 6274:   LOGGING UNIT NUMBER
 LUL .             CASPER:   LOGGING UNIT LOCATION
 ENGI.       P. RASMUSSEN:   RECORDING ENGINEER
 WITN.          G. STRONG:   WITNESSED BY
 CLNT.            A2DTECH:   CLIENT CODE
 ORIG.           5" PRINT:   ORIGIN OF DATA
 UWI .       490252249800:   UNIQUE WELL ID
 DICO. A2D Technologies, Inc.:   DIGITIZING COMPANY
~OTHER INFORMATION
~A    DEPT      GRR      RFOC       RILD       RILM        SPR   
# ...
  231.8000    95.5777     7.6278     7.6147     6.9348   -14.7192
  231.9000    95.9755     7.6273     7.6154     6.9354   -14.6289
  232.0000    96.1054     7.6269     7.6160     6.9359   -14.6261
  232.1000    95.8580     7.6265     7.6167     6.9366   -14.6232
  232.2000    95.5753     7.6261     7.6173     6.9371   -14.5048
  232.3000    95.3631     7.6256     7.6179     6.9377   -14.4660
  232.4000    95.1157     7.6252     7.6133     6.9383   -14.3976
  232.5000    94.4023     7.6221     7.5662     6.9389   -14.3085
  232.6000    93.1409     7.5713     7.5668     6.9394   -14.3058
  232.7000    91.8795     7.5709     7.5674     6.9401   -14.3028
  232.8000    90.4446     7.5414     7.5450     6.9406   -14.1832
  232.9000    90.2312     7.5174     7.5160     6.9119   -14.1456
  233.0000    89.9838     7.5054     7.5166     6.8935   -14.1429
  233.1000    89.8541     7.4642     7.5173     6.8809   -14.1401
  233.2000    89.9275     7.4637     7.5179     6.8466   -14.1374
  233.3000    90.1702     7.4634     7.4865     6.8472   -14.1345
  233.4000    90.1771     7.4341     7.4668     6.8107   -14.1319
  233.5000    90.6221     7.4106     7.4674     6.8007   -14.0360
  233.6000    90.9658     7.3987     7.4621     6.8013   -13.9745
  233.7000    91.3443     7.3582     7.4167     6.8018   -13.9288
  233.8000    91.9258     7.3578     7.4173     6.7969   -13.8170
  233.9000    92.6923     7.3202     7.3859     6.7557   -13.8141
  234.0000    93.5570     7.3058     7.3669     6.7562   -13.6920
  234.1000    94.0044     7.2854     7.3527     6.7276   -13.6568
  234.2000    94.5175     7.2542     7.3167     6.6890   -13.5848
  234.3000    94.7903     7.2506     7.3174     6.6507   -13.4552
  234.4000    94.7964     7.2028     7.2776     6.6126   -13.3256
  234.5000    94.7832     7.1659     7.2677     6.5729   -13.1898
  234.6000    94.5053     7.1520     7.2449     6.5371   -13.0665
  234.7000    94.2884     7.1318     7.2183     6.4996   -13.0325
  234.8000    94.2128     7.0899     7.2123     6.4624   -12.9593
  234.9000    94.2188     7.0516     7.1692     6.4254   -12.8751
  235.0000    94.1540     7.0511     7.1298     6.3944   -12.8521
  235.1000    93.9266     7.0148     7.1205     6.3951   -12.7175
  235.2000    93.9338     7.0013     7.0978     6.3598   -12.7149
  235.3000    93.9392     6.9814     7.0571     6.3234   -12.6153
  235.4000    93.9453     6.9519     7.0166     6.2872   -12.5574
  235.5000    94.0740     6.9481     6.9751     6.2646   -12.5547
  235.6000    94.2614     6.9027     6.9364     6.2589   -12.5520
  235.7000    94.2675     6.9023     6.8967     6.2220   -12.5492
  235.8000    94.2742     6.8745     6.8571     6.1526   -12.4233
  235.9000    94.2796     6.8342     6.8178     6.1367   -12.3918
  236.0000    94.2857     6.8055     6.7787     6.1168   -12.3891
  236.1000    94.4156     6.8016     6.7390     6.0817   -12.3385
  236.2000    94.6018     6.7573     6.7012     6.0469   -12.2316
  236.3000    94.6079     6.7570     6.6327     6.0116   -12.2288
  236.4000    94.6146     6.7566     6.5785     5.9778   -12.2261
  236.5000    94.6201     6.7562     6.5408     5.9707   -12.2234
  236.6000    94.6261     6.7558     6.4963     5.9509   -12.2207
  236.7000    94.5072     6.7555     6.4205     5.9302   -12.2179
  236.8000    94.3344     6.7550     6.3476     5.9307   -12.2152
  236.9000    94.3404     6.7547     6.2745     5.9312   -12.2124
  237.0000    94.3471     6.7543     6.2023     5.8975   -12.2097
  237.1000    94.3526     6.7539     6.1170     5.8909   -12.2070
  237.2000    94.3587     6.7536     6.0046     5.8914   -12.2796
  237.3000    94.2385     6.7532     5.8659     5.8783   -12.3535
  237.4000    94.0669     6.7528     5.7651     5.8446   -12.3508
  237.5000    94.0223     6.7524     5.7185     5.8111   -12.3480
  237.6000    93.4717     6.7521     5.6659     5.7311   -12.3447
  237.7000    93.0204     6.7320     5.6137     5.4231   -12.4443
  237.8000    92.6975     6.7043     5.5815     5.1094   -12.4918
  237.9000    92.5775     6.6999     5.5495     4.9158   -12.4891
  238.0000    92.5066     6.6569     5.5116     4.8252   -12.4863
  238.1000    92.2592     6.6216     5.5120     4.7144   -12.4836
  238.2000    91.9884     6.5560     5.4929     4.6179   -12.4803
  238.3000    91.9939     6.4608     5.4614     4.5965   -12.4781
  238.4000    92.0000     6.3153     5.4301     4.5865   -12.4754
  238.5000    91.8774     6.1050     5.3995     4.5869   -12.4200
  238.6000    91.7082     5.9512     5.4000     4.5872   -12.3179
  238.7000    91.7143     5.8574     5.3747     4.5881   -12.3128
  238.8000    91.7209     5.7322     5.3632     4.6202   -12.1600
  238.9000    91.7264     5.5512     5.3637     4.6427   -12.0536
  239.0000    91.7325     5.3763     5.3641     4.6533   -11.9240
  239.1000    91.6087     5.3069     5.3646     4.6769   -11.8483
  239.2000    91.5201     5.1738     5.3651     4.7321   -11.8456
  239.3000    91.7508     5.0649     5.3655     4.7879   -11.8429
  239.4000    91.7574     4.9686     5.3659     4.8541   -11.8397
  239.5000    91.7629     4.8822     5.3664     4.8780   -11.8374
  239.6000    91.9506     4.8061     5.3668     4.9070   -11.8347
  239.7000    92.0790     4.7566     5.3673     4.9487   -11.8319
  239.8000    92.1657     4.7896     5.3678     5.0071   -11.7992
  239.9000    92.4253     4.8410     5.3682     5.0650   -11.6745
  240.0000    92.7057     4.9182     5.3686     5.0998   -11.6713
  240.1000    92.9445     5.0200     5.3691     5.1505   -11.6690
  240.2000    93.0213     5.1477     5.3695     5.1724   -11.6663
  240.3000    93.0274     5.2992     5.3714     5.1862   -11.6635
  240.4000    93.0334     5.4674     5.4081     5.2245   -11.6608
  240.5000    92.9767     5.8032     5.4085     5.2861   -11.6581
  240.6000    92.4381     6.1081     5.4295     5.3580   -11.6549
  240.7000    91.7404     6.3392     5.4617     5.4388   -11.7604
  240.8000    90.6180     6.5132     5.4941     5.5141   -11.8018
  240.9000    89.6237     6.6561     5.5250     5.5644   -11.9142
  241.0000    88.9524     6.7392     5.5255     5.6058   -12.1327
  241.1000    88.4841     6.7754     5.5815     5.6720   -12.2569
  241.2000    88.2193     6.7857     5.6257     5.7484   -12.3984
  241.3000    87.9893     6.8063     5.6744     5.8068   -12.5051
  241.4000    87.7418     6.8325     5.7414     5.8527   -12.6292
  241.5000    87.6292     6.8321     5.8092     5.8874   -12.7533
  241.6000    87.6353     6.8317     5.8871     5.9223   -12.8774
  241.7000    87.6752     6.8314     5.9777     5.9574   -13.0100
  241.8000    87.9518     6.8310     6.0838     5.9974   -13.2939
  241.9000    88.4312     6.8306     6.2089     6.0590   -13.4017
  242.0000    89.5034     6.8169     6.3456     6.1065   -13.4407
  242.1000    90.5051     6.7823     6.4580     6.1427   -13.4980
  242.2000    91.4427     6.7819     6.5869     6.1891   -13.5872
  242.3000    92.7513     6.7815     6.6893     6.2593   -13.5845
  242.4000    94.3712     6.7812     6.8353     6.3009   -13.5814
  242.5000    95.0911     6.8022     6.9577     6.3338   -13.6905
  242.6000    95.6701     6.8552     7.0516     6.3714   -13.7283
  242.7000    96.1832     6.9293     7.1660     6.4091   -13.7255
  242.8000    96.5228     6.9717     7.1667     6.4471   -13.7228
  242.9000    96.5289     7.0097     7.2043     6.4821   -13.7201
  243.0000    96.5353     7.0198     7.2471     6.4827   -13.7170
  243.1000    96.5410     7.0194     7.2901     6.5168   -13.7146
  243.2000    96.5471     7.0190     7.3209     6.5555   -13.7119
  243.3000    96.5532     7.0246     7.3215     6.5944   -13.6467
  243.4000    96.5593     7.0673     7.3222     6.6221   -13.5544
  243.5000    96.5279     7.0670     7.3227     6.6263   -13.5517
  243.6000    96.2678     7.0666     7.3233     6.6696   -13.5487
  243.7000    96.2736     7.0662     7.3239     6.6701   -13.6601
  243.8000    95.8995     7.0658     7.3246     6.6980   -13.6067
  243.9000    95.5382     7.0654     7.3252     6.7180   -13.5407
