~VERSION INFORMATION
 VERS.                2.0:   CWLS LOG ASCII STANDARD - VERSION 2.0
 WRAP.                 NO:   ONE LINE PER DEPTH STEP
~WELL INFORMATION
#MNEM.UNIT      DATA TYPE    INFORMATION
#----------   ------------   ------------------------------
 STRT.F          750.0000:   START DEPTH
 STOP.F         1490.0000:   STOP DEPTH
 STEP.F            0.5000:   STEP LENGTH
 NULL.          -999.2500:   NO VALUE
 COMP.    FENIX & SCISSON:   COMPANY
 WELL.  53 STX 15 #53 -15:   WELL
 FLD .             TEAPOT:   FIELD
 LOC .      S15 T38N R78W:   LOCATION
 CNTY.            NATRONA:   COUNTY
 STAT.            WYOMING:   STATE
 CTRY. UNITED STATES OF AMERICA:   COUNTRY
 SRVC.              Welex:   SERVICE COMPANY
 DATE.        01-JUN-1980:   LOGDATE
 API .       490251082000:   API NUMBER
~CURVE INFORMATION
#MNEM.UNIT       API CODE    CURVE DESCRIPTION
#----------   ------------   ------------------------------
 DEPT.F                  :   
 CALD.IN     45 280 60 00:   CALIPER
 GRD .GAPI   45 310 01 00:   GAMMA RAY FROM DENSITY LOG
 CORR.G/C3   45 356 01 00:   DENSITY CORRECTION
 RHOB.G/C3   45 350 01 00:   BULK DENSITY
 DPHI.DEC    45 890 12 00:   DENSITY POROSITY SANDSTONE
~PARAMETER INFORMATION
#MNEM.UNIT          VALUE    DESCRIPTION
#----------   ------------   ------------------------------
 PD  .                 GL:   PERMANENT DATUM
 EPD .F              5257:   ELEVATION PERMANENT DATUM
 LMF .                 KB:   LOG MEASURED FROM
 DAPD.F                10:   FEET ABOVE PERMANENT DATUM
 DMF .                 KB:   DRILLING MEASURED FROM
 EKB .F              5267:   KELLING BUSHING
 EGL .F              5257:   GROUND LEVEL
 DATE.             6-1-80:   RUN DATE
 RUN .                  1:   RUN NUMBER
 DD  .F              1498:   DEPTH DRILLER
 DL  .F              1492:   DEPTH LOGGER
 BLI .F              1490:   BOTTOM LOG INTERVAL
 TLI .F               750:   TOP LOG INTERVAL
 CS  .IN            9.625:   CASING SIZE
 CBD .F               772:   CASING BOTTOM DRILLER
 BS  .IN             8.75:   BIT SIZE
 BSD .F              1498:   BIT SIZE AT DEPTH
 DFT .        AIR DRILLED:   DRILLING FLUID TYPE
 TCS .HRS               4:   TIME CURCULATED STOPPED
 MRT .F                88:   MAXIMUM RECORDED TEMPERATURE
 ENGI.               REIN:   RECORDING ENGINEER
 WITN.            RHOADES:   WITNESSED BY
 CLNT.            A2DTECH:   CLIENT CODE
 ORIG.           5" PRINT:   ORIGIN OF DATA
 UWI .       490251082000:   UNIQUE WELL ID
 DICO. A2D Technologies, Inc.:   DIGITIZING COMPANY
~OTHER INFORMATION
~A   DEPT     CALD         GRD      CORR       RHOB       DPHI   
# ...
 1177.0000     9.2095    90.7887     0.0717     2.4932     0.0226
 1177.5000     9.1840    89.9846     0.0564     2.4717     0.0403
 1178.0000     9.1566    89.1810     0.0611     2.4745     0.0454
 1178.5000     9.1310    88.3774     0.0525     2.4600     0.0436
 1179.0000     9.1076    87.5738     0.0411     2.4444     0.0575
 1179.5000     9.1244    86.7702     0.0222     2.4333     0.0695
 1180.0000     9.1500    85.9655     0.0176     2.4357     0.0705
 1180.5000     9.1713    85.1575     0.0284     2.4558     0.0601
 1181.0000     9.1927    84.3855     0.0283     2.4620     0.0496
 1181.5000     9.2142    84.3739     0.0276     2.4535     0.0548
 1182.0000     9.2357    83.8754     0.0270     2.4427     0.0612
 1182.5000     9.2571    83.5534     0.0274     2.4543     0.0665
 1183.0000     9.2697    83.1909     0.0291     2.4614     0.0503
 1183.5000     9.2696    82.8211     0.0307     2.4390     0.0594
 1184.0000     9.2696    82.8469     0.0312     2.4286     0.0713
 1184.5000     9.2696    82.8602     0.0318     2.4277     0.0752
 1185.0000     9.2696    83.1646     0.0325     2.4334     0.0742
 1185.5000     9.2696    83.4725     0.0320     2.4447     0.0701
 1186.0000     9.2699    83.7815     0.0306     2.4506     0.0617
 1186.5000     9.2715    84.0213     0.0367     2.4484     0.0576
 1187.0000     9.2049    83.4020     0.0328     2.4438     0.0608
 1187.5000     9.1289    82.7873     0.0253     2.4393     0.0637
 1188.0000     9.0909    82.1763     0.0170     2.4340     0.0705
 1188.5000     9.0951    81.5681     0.0181     2.4522     0.0554
 1189.0000     9.1001    81.0206     0.0345     2.4506     0.0554
 1189.5000     9.1051    81.0338     0.0312     2.4578     0.0530
 1190.0000     9.1091    81.0361     0.0274     2.4491     0.0584
 1190.5000     9.1336    81.0362     0.0243     2.4417     0.0639
 1191.0000     9.1605    81.0362     0.0218     2.4364     0.0673
 1191.5000     9.1872    81.0365     0.0193     2.4258     0.0681
 1192.0000     9.2098    81.0375     0.0130     2.4050     0.0903
 1192.5000     9.2123    81.0314     0.0068     2.4177     0.0860
 1193.0000     9.2175    80.8257     0.0094     2.4304     0.0797
 1193.5000     9.2226    80.5971     0.0172     2.4288     0.0721
 1194.0000     9.2278    80.2014     0.0246     2.4275     0.0742
 1194.5000     9.2331    80.1257     0.0224     2.4305     0.0735
 1195.0000     9.2383    80.1302     0.0195     2.4296     0.0725
 1195.5000     9.2434    80.1128     0.0168     2.4315     0.0750
 1196.0000     9.2489    79.4799     0.0221     2.4476     0.0712
 1196.5000     9.2340    78.0882     0.0350     2.4548     0.0544
 1197.0000     9.2105    76.3577     0.0362     2.4455     0.0596
 1197.5000     9.1871    74.6080     0.0346     2.4424     0.0653
 1198.0000     9.1644    72.8507     0.0330     2.4538     0.0619
 1198.5000     9.1201    71.6192     0.0344     2.4486     0.0590
 1199.0000     9.0882    70.6361     0.0378     2.4539     0.0604
 1199.5000     9.1239    69.6544     0.0394     2.4532     0.0532
 1200.0000     9.1735    68.9541     0.0421     2.4621     0.0600
 1200.5000     9.2064    69.5974     0.0422     2.4892     0.0465
 1201.0000     9.1750    70.2942     0.0525     2.4937     0.0325
 1201.5000     9.1441    70.6587     0.0596     2.4973     0.0306
 1202.0000     9.1131    69.6705     0.0624     2.5021     0.0284
 1202.5000     9.0820    68.7203     0.0666     2.5053     0.0250
 1203.0000     9.0730    69.5435     0.0705     2.5108     0.0201
 1203.5000     9.1020    70.1587     0.0701     2.4969     0.0181
 1204.0000     9.1307    70.8144     0.0547     2.4834     0.0351
 1204.5000     9.1448    71.9969     0.0566     2.4889     0.0386
 1205.0000     9.1334    73.2638     0.0586     2.4901     0.0326
 1205.5000     9.1468    73.8024     0.0607     2.4898     0.0354
 1206.0000     9.1925    74.3082     0.0611     2.4962     0.0304
 1206.5000     9.2099    74.7210     0.0609     2.4874     0.0286
 1207.0000     9.2325    74.7805     0.0564     2.4832     0.0368
 1207.5000     9.2509    74.8456     0.0528     2.4745     0.0406
 1208.0000     9.2118    74.9120     0.0597     2.4697     0.0484
 1208.5000     9.1674    74.9828     0.0663     2.4890     0.0398
 1209.0000     9.1217    75.2061     0.0705     2.4955     0.0322
 1209.5000     9.0927    75.6387     0.0765     2.4666     0.0286
 1210.0000     9.0715    76.0785     0.0781     2.4369     0.0529
 1210.5000     9.0793    76.5006     0.0565     2.4244     0.0693
 1211.0000     9.1831    76.4102     0.0342     2.4119     0.0813
 1211.5000     9.1935    75.5960     0.0099     2.4138     0.0874
 1212.0000     9.1599    74.7735     0.0048     2.4204     0.0801
 1212.5000     9.2464    74.4217     0.0141     2.4308     0.0766
 1213.0000     9.2501    74.2808     0.0228     2.4342     0.0673
 1213.5000     9.2496    74.5898     0.0191     2.4353     0.0712
 1214.0000     9.2495    74.9051     0.0168     2.4406     0.0663
 1214.5000     9.2495    75.2238     0.0227     2.4514     0.0690
 1215.0000     9.2495    75.5485     0.0290     2.4548     0.0578
 1215.5000     9.2495    75.4874     0.0347     2.4638     0.0540
 1216.0000     9.2494    75.2989     0.0451     2.4753     0.0491
 1216.5000     9.2499    75.1085     0.0551     2.4892     0.0395
 1217.0000     9.2084    74.9989     0.0680     2.4896     0.0315
 1217.5000     9.1509    75.0018     0.0815     2.4830     0.0354
 1218.0000     9.1958    74.8954     0.0732     2.4762     0.0347
 1218.5000     9.2301    74.7395     0.0650     2.4646     0.0458
 1219.0000     9.1964    74.5818     0.0640     2.4543     0.0596
 1219.5000     9.1581    74.4236     0.0628     2.4685     0.0524
 1220.0000     9.1176    74.2626     0.0618     2.4766     0.0443
 1220.5000     9.1104    74.1228     0.0626     2.4760     0.0404
 1221.0000     9.2524    73.7393     0.0690     2.4805     0.0426
 1221.5000     9.3928    73.5065     0.0757     2.4837     0.0388
 1222.0000     9.4050    73.4880     0.0756     2.4769     0.0378
 1222.5000     9.3523    73.7357     0.0729     2.4734     0.0451
 1223.0000     9.3305    74.1832     0.0672     2.4786     0.0423
 1223.5000     9.3548    74.6313     0.0741     2.4827     0.0395
 1224.0000     9.2934    75.0799     0.0829     2.4874     0.0377
 1224.5000     9.1618    75.5288     0.0822     2.4901     0.0342
 1225.0000     9.1228    75.9781     0.0795     2.4824     0.0350
 1225.5000     9.1559    76.4271     0.0710     2.4720     0.0403
 1226.0000     9.1896    76.2389     0.0578     2.4630     0.0520
 1226.5000     9.2090    75.6128     0.0502     2.4741     0.0471
 1227.0000     9.1977    75.9917     0.0568     2.4883     0.0406
 1227.5000     9.1890    76.6076     0.0575     2.4957     0.0334
 1228.0000     9.1875    76.8275     0.0553     2.4899     0.0306
 1228.5000     9.1857    76.1051     0.0566     2.4839     0.0368
 1229.0000     9.1839    75.2880     0.0563     2.4775     0.0412
 1229.5000     9.1820    74.6864     0.0534     2.4712     0.0447
 1230.0000     9.1802    74.6972     0.0514     2.4683     0.0492
 1230.5000     9.1783    74.6975     0.0590     2.4755     0.0490
 1231.0000     9.1765    74.6930     0.0679     2.4823     0.0418
 1231.5000     9.1746    74.9437     0.0665     2.4825     0.0375
 1232.0000     9.1728    75.2811     0.0693     2.4567     0.0501
 1232.5000     9.1712    75.6205     0.0386     2.4244     0.0685
 1233.0000     9.1682    75.9600     0.0318     2.4328     0.0758
 1233.5000     9.1273    76.2980     0.0253     2.4424     0.0697
 1234.0000     9.0840    76.4998     0.0298     2.4578     0.0641
 1234.5000     9.0486    76.0597     0.0420     2.4754     0.0443
 1235.0000     9.0292    75.6218     0.0455     2.4568     0.0498
 1235.5000     9.0479    75.8556     0.0379     2.4556     0.0572
 1236.0000     9.1577    76.5003     0.0423     2.4805     0.0500
 1236.5000     9.2075    77.0951     0.0607     2.4974     0.0338
 1237.0000     9.1607    76.9140     0.0644     2.5057     0.0263
 1237.5000     9.0458    76.4376     0.0645     2.4940     0.0209
