~VERSION INFORMATION
 VERS.                2.0:   CWLS LOG ASCII STANDARD - VERSION 2.0
 WRAP.                 NO:   ONE LINE PER DEPTH STEP
~WELL INFORMATION
#MNEM.UNIT      DATA TYPE    INFORMATION
#----------   ------------   ------------------------------
 STRT.F            6.0000:   START DEPTH
 STOP.F          765.0000:   STOP DEPTH
 STEP.F            0.5000:   STEP LENGTH
 NULL.          -999.2500:   NO VALUE
 COMP. FENIX & SCISSON INC:   COMPANY
 WELL.      24 SX 2 #24-2:   WELL
 FLD .        TEAPOT DOME:   FIELD
 LOC .       S2 T38N R78W:   LOCATION
 CNTY.            NATRONA:   COUNTY
 STAT.            WYOMING:   STATE
 CTRY. UNITED STATES OF AMERICA:   COUNTRY
 SRVC.           BIRDWELL:   SERVICE COMPANY
 DATE.        20-JAN-1978:   LOGDATE
 API .       490251055700:   API NUMBER
~CURVE INFORMATION
#MNEM.UNIT       API CODE    CURVE DESCRIPTION
#----------   ------------   ------------------------------
 DEPT.F                  :   
 SPR .MV     05 010 01 00:   SPONTANEOUS POTENTIAL FROM RES.
 SN  .OHMM   05 040 16 00:   SHORT NORMAL 16"
 ILD .OHMM   05 120 46 00:   INDUCTION LOG DEEP
 CALD.IN     45 280 60 00:   CALIPER FROM DENSITY LOG
 CORR.G/C3   45 356 01 00:   DENSITY CORRECTION
 DEN .G/C3   45 350 01 00:   COMPENSATED BULK DENSTIY
 DPHI.DEC    45 890 12 00:   DENSITY POROSITY SANDSTONE
 GRD .GAPI   45 310 01 00:   GAMMA RAY FROM DENSITY LOG
~PARAMETER INFORMATION
#MNEM.UNIT          VALUE    DESCRIPTION
#----------   ------------   ------------------------------
 PD  .                 GL:   PERMANENT DATUM
 EPD .F              5131:   ELEVATION PERMANENT DATUM
 LMF .                 KB:   LOG MEASURED FROM
 DMF .                 KB:   DRILLING MEASURED FROM
 EKB .F              5134:   KELLING BUSHING
 EGL .F              5131:   GROUND LEVEL
 DATE.        20-JAN-1978:   RUN DATE
 RUN .                  1:   RUN NUMBER
 DD  .F               775:   DEPTH DRILLER
 DL  .F               770:   DEPTH LOGGER
 BLI .F               770:   BOTTOM LOG INTERVAL
 TLI .F                40:   TOP LOG INTERVAL
 CS  .IN            8.625:   CASING SIZE
 CBD .F                39:   CASING BOTTOM DRILLER
 CBL .F                39:   CASING BOTTOM LOGGER
 BS  .IN            7.875:   BIT SIZE
 BSD .F               775:   BIT SIZE AT DEPTH
 DFT .                KCL:   DRILLING FLUID TYPE
 DFD .                8.6:   DRILLING FLUID DENSITY
 DFV .                 33:   DRILLING FLUID VISCOSITY
 DFPH.                9.5:   DRILLING FLUID PH
 DFL .                  8:   DRILLING FLUID LOSS
 MSS .           FLOWLINE:   MUD SAMPLE SOURCE
 RMS .OHMM            .31:   RESISTIVITY MUD SAMPLE
 MST .F                54:   MUD SAMPLE TEMPERATURE
 RMF .OHMM            .28:   RESISTIVITY MUD FILTRATE SAMPLE
 MFST.F                64:   MUD FILTRATE SAMPLE TEMPERATURE
 RMC .OHMM             .8:   RESISTIVITY MUD CAKE
 MCST.F                64:   MUD CAKE SAMPLE TEMPERATURE
 MFSS.               MEAS:   MUD FILTRATE SAMPLE SOURCE
 MCSS.               MEAS:   MUD CAKE SAMPLE SOURCE
 RMB .OHMM            .22:   RESISTIVITY MUD AT BHT
 BHT .F                76:   BOTTOM HOLE TEMPERATURE
 TCS .HRS            0400:   TIME CURCULATED STOPPED
 MRT .F                76:   MAXIMUM RECORDED TEMPERATURE
 LUN .               2958:   LOGGING UNIT NUMBER
 LUL .             CASPER:   LOGGING UNIT LOCATION
 ENGI.            POINTER:   RECORDING ENGINEER
 WITN.           MCGINLEY:   WITNESSED BY
 CLNT.            A2DTECH:   CLIENT CODE
 ORIG.           5" PRINT:   ORIGIN OF DATA
 UWI .       490251055700:   UNIQUE WELL ID
 DICO. A2D Technologies, Inc.:   DIGITIZING COMPANY
~OTHER INFORMATION
~A    DEPT     SPR         SN        ILD       CALD       CORR        DEN       DPHI         GRD  
# ...
  370.5000   -43.8074     8.9435     8.3437     7.9890     0.1108     2.4312     0.1330    97.5904
  371.0000   -43.8179     9.0011     8.3414     7.9886     0.1048     2.4432     0.1257   100.0000
  371.5000   -43.8284     9.0610     8.3391     7.9881     0.1003     2.4530     0.1255   100.9036
  372.0000   -43.8389     9.0563     8.3953     7.9726     0.0988     2.4469     0.1320    98.1928
  372.5000   -44.1506     9.1165     8.4514     7.9421     0.0987     2.4393     0.1345    94.2771
  373.0000   -44.4623     9.1762     8.4485     7.9266     0.0987     2.4370     0.1356    94.2771
  373.5000   -44.6234     9.2353     8.5054     7.9111     0.0987     2.4339     0.1403    93.6415
  374.0000   -44.6339     9.2967     8.5025     7.8956     0.0986     2.4271     0.1439    91.1928
  374.5000   -44.6444     9.2919     8.5002     7.8651     0.0986     2.4247     0.1463    88.4799
  375.0000   -44.6549     9.2881     8.4391     7.8647     0.0978     2.4217     0.1464    87.9518
  375.5000   -44.6654     9.3498     8.3785     7.8641     0.0970     2.4217     0.1461    90.3614
  376.0000   -44.6759     9.3450     8.3762     7.8788     0.0955     2.4224     0.1446    99.0964
  376.5000   -44.5332     9.3411     8.3739     7.8934     0.0940     2.4238     0.1428   100.9036
  377.0000   -44.5463     9.2727     8.3716     7.9080     0.0917     2.4268     0.1404    99.0964
  377.5000   -44.5568     9.2688     8.3693     7.9075     0.0894     2.4298     0.1419    93.3735
  378.0000   -44.5673     9.2650     8.3669     7.9222     0.0894     2.4267     0.1492    89.4578
  378.5000   -44.4246     9.2611     8.3646     7.9367     0.0886     2.4078     0.1531    92.7711
  379.0000   -44.2845     9.2573     8.3623     7.9664     0.0863     2.4040     0.1573   101.2048
  379.5000   -44.2976     9.2535     8.4181     7.9658     0.0848     2.3994     0.1621   104.5181
  380.0000   -44.3081     9.2496     8.4158     7.9654     0.0848     2.3964     0.1613    97.2892
  380.5000   -44.3186     9.3112     8.4726     7.9801     0.0848     2.3948     0.1564    96.3855
  381.0000   -44.1759     9.3721     8.5291     7.9795     0.0847     2.3993     0.1516    99.3976
  381.5000   -44.0358     9.4335     8.7053     7.9791     0.0847     2.4075     0.1481   100.0000
  382.0000   -44.0489     9.4952     8.9475     7.9937     0.0839     2.4157     0.1445    98.7952
  382.5000   -43.7556     9.5574     9.1330     8.0083     0.0839     2.4240     0.1418    96.0843
  383.0000   -43.3169     9.6200     9.3871     8.0379     0.0839     2.4247     0.1394    93.9759
  383.5000   -42.8756     9.7504     9.7154     8.0374     0.0838     2.4261     0.1382    95.1807
  384.0000   -42.8861     9.8132     9.8490     8.0821     0.0845     2.4283     0.1410    96.3855
  384.5000   -43.0472     9.8777    10.0524     8.0967     0.0853     2.4267     0.1431    98.1928
  385.0000   -43.0577    10.0116    10.1899     8.0962     0.0852     2.4237     0.1433    99.4076
  385.5000   -43.2188    10.1471    10.3292     8.0958     0.0860     2.4229     0.1434    97.4521
  386.0000   -43.2293    10.2137    10.3989     8.0953     0.0859     2.4228     0.1443    86.7953
  386.5000   -43.2398    10.2805    10.5411     8.0949     0.0859     2.4228     0.1446    79.1736
  387.0000   -43.2503    10.4198    10.6115     8.1395     0.0851     2.4227     0.1446    75.9036
  387.5000   -43.2608    10.5611    10.7559     8.1542     0.0858     2.4212     0.1455    79.5181
  388.0000   -43.1207    10.7043    10.8285     8.1536     0.0895     2.4196     0.1479    81.9277
  388.5000   -43.1312    10.9250    10.9758     8.1532     0.0978     2.4173     0.1492    82.8313
  389.0000   -42.9911    11.1502    11.2041     8.1679     0.1052     2.4158     0.1489    79.5181
  389.5000   -43.0015    11.4594    11.4355     8.1825     0.1157     2.4165     0.1480    72.2892
  390.0000   -43.0120    11.8591    11.7537     8.1819     0.1217     2.4172     0.1447    69.8795
  390.5000   -42.8695    12.1036    11.9974     8.1814     0.1216     2.4179     0.1444    69.5783
  391.0000   -42.5812    12.2677    12.1615     8.1660     0.1270     2.4178     0.1495    69.5783
  391.5000   -42.4337    12.2625    12.1580     8.1505     0.1368     2.4050     0.1580    68.6747
  392.0000   -42.3010    12.2574    12.1546     8.1500     0.1448     2.3899     0.1622    68.0723
  392.5000   -42.3117    12.1676    12.1513     8.1346     0.1432     2.3981     0.1553    71.6867
  393.0000   -42.3223    12.0784    12.1479     8.1191     0.1425     2.4018     0.1544    74.6988
  393.5000   -42.3328    12.0734    11.9774     8.0885     0.1394     2.4017     0.1505    75.9036
  394.0000   -42.4940    11.9019    11.8093     8.0731     0.1379     2.4206     0.1442    80.7229
  394.5000   -42.5045    11.8024    11.4832     8.0275     0.1379     2.4227     0.1424    82.5301
  395.0000   -42.5151    11.5531    11.3220     8.0120     0.1379     2.4225     0.1433    82.5301
  395.5000   -42.5256    11.4023    11.1631     7.9815     0.1386     2.4196     0.1473    82.5301
  396.0000   -42.5382    11.3177    11.0064     7.9660     0.1385     2.4195     0.1461    82.8313
  396.5000   -42.3955    11.3130    10.9273     7.9501     0.1363     2.4232     0.1409    83.1325
  397.0000   -42.4086    11.2301    10.8489     7.9189     0.1317     2.4284     0.1386    84.3373
  397.5000   -42.4191    11.1478    10.8459     7.9045     0.1287     2.4314     0.1374    87.6858
  398.0000   -42.4296    11.1432    10.8429     7.8740     0.1264     2.4336     0.1353    88.2530
  398.5000   -42.4401    11.0616    10.8399     7.8434     0.1212     2.4343     0.1344    83.1325
  399.0000   -42.4506    11.0570    10.8369     7.8429     0.1136     2.4350     0.1350    75.6024
  399.5000   -42.4611    10.9000    10.8339     7.8425     0.1084     2.4357     0.1363    68.6747
  400.0000   -42.4851    10.8966    10.8309     7.8416     0.1031     2.4303     0.1379    66.2498
  400.5000   -42.6785    10.9669    10.8597     7.8353     0.1004     2.4289     0.1399    66.0649
  401.0000   -42.9434    11.0359    10.8885     7.8289     0.0970     2.4288     0.1399    65.9379
  401.5000   -43.2550    10.8778    10.8194     7.8261     0.0962     2.4288     0.1423    70.4441
  402.0000   -43.2654    10.7219    10.8157     7.8409     0.0961     2.4246     0.1441    72.2393
  402.5000   -43.2758    10.6419    10.8120     7.8707     0.0961     2.4165     0.1472    72.2274
  403.0000   -43.1355    10.4169    10.8083     7.9005     0.0960     2.4137     0.1496    71.9142
  403.5000   -42.9954    10.4111    10.6559     7.9001     0.0960     2.4136     0.1508    71.9023
  404.0000   -42.7046    10.4054    10.5786     7.9149     0.0959     2.4091     0.1520    73.3963
  404.5000   -42.7154    10.3997    10.5750     7.9297     0.0958     2.4045     0.1523    78.2036
  405.0000   -42.7259    10.3939    10.4983     7.9444     0.0958     2.4045     0.1550    81.2037
  405.5000   -42.7385    10.3163    10.4222     7.9591     0.0957     2.4045     0.1566    82.0984
  406.0000   -42.5957    10.3029    10.2676     7.9588     0.0957     2.4052     0.1557    82.0834
  406.5000   -42.4581    10.2235    10.1302     7.9886     0.0941     2.4059     0.1533    82.6739
  407.0000   -42.4685    10.0869     9.9873     8.0034     0.0926     2.4059     0.1512    86.5776
  407.5000   -42.4789     9.8725     9.8458     8.0030     0.0918     2.4044     0.1572    88.3758
  408.0000   -42.6399     9.7988     9.7069     8.0027     0.0917     2.4021     0.1575    88.0597
  408.5000   -43.1022     9.7934     9.6366     8.0024     0.0894     2.4013     0.1545    84.4333
  409.0000   -43.4138     9.7203     9.5667     8.0021     0.0871     2.3983     0.1575    73.8791
  409.5000   -43.7254     9.5811     9.4974     8.0018     0.0863     2.3922     0.1633    74.4696
  410.0000   -43.7358     9.5758     9.3635     8.0166     0.0863     2.3914     0.1642    76.8675
  410.5000   -43.7462     9.5043     9.3602     8.0162     0.0855     2.3936     0.1597    75.6505
