~VERSION INFORMATION
 VERS.                2.0:   CWLS LOG ASCII STANDARD - VERSION 2.0
 WRAP.                 NO:   ONE LINE PER DEPTH STEP
~WELL INFORMATION
#MNEM.UNIT      DATA TYPE    INFORMATION
#----------   ------------   ------------------------------
 STRT.F            0.0000:   START DEPTH
 STOP.F         4113.0000:   STOP DEPTH
 STEP.F            0.5000:   STEP LENGTH
 NULL.          -999.2500:   NO VALUE
 COMP. LAWRENCE/ALLISON INC:   COMPANY
 WELL.  NPR # #3 76 -MX-3:   WELL
 FLD .             TEAPOT:   FIELD
 LOC .       S3 T38N R78W:   LOCATION
 CNTY.            NATRONA:   COUNTY
 STAT.            WYOMING:   STATE
 CTRY. UNITED STATES OF AMERICA:   COUNTRY
 SRVC.      Dresser Atlas:   SERVICE COMPANY
 DATE.        04-SEP-1983:   LOGDATE
 API .       490251094300:   API NUMBER
~CURVE INFORMATION
#MNEM.UNIT       API CODE    CURVE DESCRIPTION
#----------   ------------   ------------------------------
 DEPT.F                  :   
 GRR .GAPI   07 310 01 00:   GAMMA RAY
 SPR .MV     07 010 01 00:   SPONTANEOUS POTENTIAL
 RILD.OHMM   07 120 46 00:   INDUCTION LOG DEEP RESISTIVITY
 RILM.OHMM   07 120 44 00:   INDUCTION LOG MEDIUM RESISTIVITY
 RFOC.OHMM   07 220 04 00:   RESISTIVITY FOCUSED LOG
 CNCF.DEC    42 890 03 00:   NEUTRON POROSITY SANDSTONE
 PORD.DEC    45 890 12 00:   POROSITY DENSITY SANDSTONE
 CALD.IN     45 280 60 00:   CALIPER FROM DENSITY LOG
 CORR.G/C3   45 356 01 00:   DENSITY CORRECTION
 DEN .G/C3   45 350 01 00:   COMPENSATED BULK DENSTIY
 AC  .US/F   60 520 00 00:   ACCOUSTIC
~PARAMETER INFORMATION
#MNEM.UNIT          VALUE    DESCRIPTION
#----------   ------------   ------------------------------
 PD  .                 GL:   PERMANENT DATUM
 EPD .F              5147:   ELEVATION PERMANENT DATUM
 LMF .                 KB:   LOG MEASURED FROM
 DAPD.F                10:   FEET ABOVE PERMANENT DATUM
 DMF .                 KB:   DRILLING MEASURED FROM
 EKB .F              5157:   KELLING BUSHING
 EGL .F              5147:   GROUND LEVEL
 DATE.        04-SEP-1983:   RUN DATE
 RUN .                  1:   RUN NUMBER
 DD  .F              4119:   DEPTH DRILLER
 DL  .F              4115:   DEPTH LOGGER
 BLI .F              4112:   BOTTOM LOG INTERVAL
 CS  .IN            9.625:   CASING SIZE
 CBD .F               491:   CASING BOTTOM DRILLER
 CBL .F               494:   CASING BOTTOM LOGGER
 BS  .IN             8.75:   BIT SIZE
 BSD .F              4119:   BIT SIZE AT DEPTH
 DFT .            KCL GEL:   DRILLING FLUID TYPE
 DFD .                8.9:   DRILLING FLUID DENSITY
 DFV .                 46:   DRILLING FLUID VISCOSITY
 DFPH.                9.0:   DRILLING FLUID PH
 DFL .               13.6:   DRILLING FLUID LOSS
 MSS .           MUD TANK:   MUD SAMPLE SOURCE
 RMS .OHMM           .315:   RESISTIVITY MUD SAMPLE
 MST .F                92:   MUD SAMPLE TEMPERATURE
 RMF .OHMM            .25:   RESISTIVITY MUD FILTRATE SAMPLE
 MFST.F                84:   MUD FILTRATE SAMPLE TEMPERATURE
 RMC .OHMM             .4:   RESISTIVITY MUD CAKE
 MCST.F                92:   MUD CAKE SAMPLE TEMPERATURE
 MFSS.               MEAS:   MUD FILTRATE SAMPLE SOURCE
 MCSS.               CALC:   MUD CAKE SAMPLE SOURCE
 RMB .OHMM            .22:   RESISTIVITY MUD AT BHT
 BHT .F               132:   BOTTOM HOLE TEMPERATURE
 TCS .HRS               4:   TIME CURCULATED STOPPED
 MRT .F               132:   MAXIMUM RECORDED TEMPERATURE
 LUN .               6274:   LOGGING UNIT NUMBER
 LUL .              GLTE.:   LOGGING UNIT LOCATION
 ENGI.             RAUTIO:   RECORDING ENGINEER
 WITN.             STRONG:   WITNESSED BY
 CLNT.            A2DTECH:   CLIENT CODE
 ORIG.        2" 5" PRINT:   ORIGIN OF DATA
 UWI .       490251094300:   UNIQUE WELL ID
 DICO. A2D Technologies, Inc.:   DIGITIZING COMPANY
~OTHER INFORMATION
~A    DEPT     GRR        SPR       RILD       RILM       RFOC       CNCF       PORD       CALD       CORR        DEN         AC   
# ...
  488.0000    81.4524  -999.2500  -999.2500  -999.2500  -999.2500     0.2958  -999.2500  -999.2500  -999.2500  -999.2500  -999.2500
  488.5000    66.5867  -999.2500  -999.2500  -999.2500  -999.2500     0.2919  -999.2500  -999.2500  -999.2500  -999.2500  -999.2500
  489.0000    58.1358  -999.2500  -999.2500  -999.2500  -999.2500     0.3008  -999.2500  -999.2500  -999.2500  -999.2500  -999.2500
  489.5000    58.7370  -999.2500  -999.2500  -999.2500  -999.2500     0.3198  -999.2500  -999.2500  -999.2500  -999.2500  -999.2500
  490.0000    64.6590  -999.2500  -999.2500  -999.2500  -999.2500     0.3439  -999.2500  -999.2500  -999.2500  -999.2500  -999.2500
  490.5000    73.7109  -999.2500  -999.2500  -999.2500  -999.2500     0.3526  -999.2500  -999.2500  -999.2500  -999.2500  -999.2500
  491.0000    82.7627  -999.2500  -999.2500  -999.2500  -999.2500     0.3538  -999.2500  -999.2500  -999.2500  -999.2500  -999.2500
  491.5000    99.3263  -999.2500  -999.2500  -999.2500  -999.2500     0.3123  -999.2500  -999.2500  -999.2500  -999.2500  -999.2500
  492.0000   109.3172  -999.2500  -999.2500  -999.2500  -999.2500     0.3057  -999.2500  -999.2500  -999.2500  -999.2500  -999.2500
  492.5000   108.0404  -999.2500  -999.2500  -999.2500  -999.2500     0.3090  -999.2500  -999.2500  -999.2500  -999.2500  -999.2500
  493.0000   104.2597  -999.2500  -999.2500  -999.2500  -999.2500     0.3202  -999.2500  -999.2500  -999.2500  -999.2500  -999.2500
  493.5000   102.0440  -999.2500  -999.2500  -999.2500  -999.2500     0.3391  -999.2500  -999.2500  -999.2500  -999.2500  -999.2500
  494.0000    98.2633  -999.2500  -999.2500  -999.2500  -999.2500     0.3457  -999.2500  -999.2500  -999.2500  -999.2500  -999.2500
  494.5000    93.5437    14.8896     2.9133     3.3727     4.9433     0.3451     0.2130    11.4916     0.2469     2.2910  -999.2500
  495.0000    85.3811     5.9380     1.9012     2.5798     5.2524     0.3195     0.2193    11.5205     0.0946     2.3308  -999.2500
  495.5000    81.2875     2.9460     1.7049     3.2729     5.3310     0.2880     0.1690    11.4133     0.0897     2.3925  -999.2500
  496.0000    80.3299     0.1142     1.6672     4.2131     5.4404     0.2687     0.1452    11.3365     0.2281     2.4046  -999.2500
  496.5000    86.5587    -4.8202     2.2398     5.0088     5.4838     0.2712     0.1591    11.1992     0.2777     2.3733  -999.2500
  497.0000    88.0988    -7.5099     4.5734     7.0321     5.6429     0.2805     0.1705    11.0774     0.2172     2.3638  -999.2500
  497.5000    89.6389   -10.2351     7.9099     8.6055     5.8391     0.2829     0.1747    10.9555     0.0878     2.3870  -999.2500
  498.0000    92.4310   -13.7556     8.9362     8.4166     5.9220     0.2847     0.1277    10.8787     0.0606     2.4735  -999.2500
  498.5000    94.2841   -16.8883     8.6132     8.1726     5.9620     0.2832     0.1056    10.8320     0.0530     2.4772  -999.2500
  499.0000    94.5728   -19.5668     8.3621     8.1658     5.9152     0.2783     0.1051    10.8451     0.0484     2.4719  -999.2500
  499.5000    94.5475   -22.8724     8.5390     8.4649     5.8696     0.2783     0.1081    10.8736     0.0468     2.4688  -999.2500
  500.0000    95.4617   -25.5509     8.4106     8.3997     5.8244     0.2805     0.1096    10.9198     0.0497     2.4688  -999.2500
  500.5000   102.5062   -28.0727     7.9330     7.8047     5.8215     0.2880     0.1087    10.9457     0.0601     2.4687  -999.2500
  501.0000   118.3747   -29.4974     7.7031     6.9967     5.8615     0.2979     0.1084    10.9591     0.0751     2.4686  -999.2500
  501.5000   119.4874   -30.6085     7.8647     6.4586     5.9432     0.2997     0.1096    10.9877     0.0781     2.4641  -999.2500
  502.0000   114.5374   -30.6225     8.0893     6.0905     6.0268     0.2904     0.1129    10.9857     0.0478     2.4633  -999.2500
  502.5000   107.5692   -29.5393     7.8534     5.7899     6.0683     0.2687     0.1135    10.9841     0.0206     2.4700  -999.2500
  503.0000   103.7573   -27.0454     7.0425     5.7503     5.8915     0.2702     0.1096    10.9674     0.0476     2.4978  -999.2500
  503.5000   103.7325   -19.3792     6.4535     5.8379     5.7205     0.2867     0.0935    10.9054     0.0927     2.5015  -999.2500
  504.0000   106.8376    -6.8540     5.9567     5.9130     5.4748     0.2931     0.0888    10.8587     0.1966     2.4608  -999.2500
  504.5000   110.8816    -1.8523     5.5780     6.0827     5.3159     0.2940     0.1223    10.8121     0.1227     2.4367  -999.2500
  505.0000   108.9789    -1.2393     5.3764     6.2580     5.3518     0.2964     0.1301    10.7654     0.0985     2.4472  -999.2500
  505.5000   103.9462    -0.3128     5.4507     6.4384     5.7090     0.3000     0.1117    10.6867     0.0653     2.4841  -999.2500
  506.0000   100.1655     0.9259     5.7324     6.6239     6.3603     0.2970     0.0967    10.6265     0.0893     2.4922  -999.2500
  506.5000    99.5210     2.7928     6.2031     6.9141     6.8341     0.2882     0.0966    10.5498     0.1027     2.4892  -999.2500
  507.0000   104.4978     4.1895     6.5742     7.1650     6.9814     0.2816     0.0963    10.5031     0.0996     2.4853  -999.2500
  507.5000   108.8548     5.1160     7.0089     7.4250     7.0787     0.2774     0.0976    10.4561     0.0890     2.4838  -999.2500
  508.0000   111.9599     5.4190     7.3701     7.7503     7.2304     0.2795     0.1000    10.4093     0.0633     2.4830  -999.2500
  508.5000   114.1260     5.7150     7.6289     8.0315     7.3862     0.2861     0.1021    10.3476     0.0482     2.4904  -999.2500
  509.0000   113.4752     5.8612     7.9495     8.2630     7.4361     0.2828     0.1015    10.3460     0.0616     2.4912  -999.2500
  509.5000   110.3205     5.8438     8.1765     8.3791     7.3779     0.2783     0.0963    10.3294     0.0736     2.4911  -999.2500
  510.0000   105.2879     5.8298     8.4100     8.3146     7.4286     0.2707     0.0936    10.3278     0.0735     2.4910  -999.2500
  510.5000   104.0173     5.8158     8.5277     8.1911     7.4780     0.2566     0.0951    10.3259     0.0659     2.4932  -999.2500
  511.0000   108.6811     5.8018     8.6455     8.0113     7.5285     0.2593     0.0966    10.3398     0.0417     2.4977  -999.2500
  511.5000   112.4122     5.3176     8.7019     7.9496     7.5793     0.2653     0.0966    10.3232     0.0325     2.5104  -999.2500
  512.0000   111.1354     4.5200     8.6941     7.8884     7.5208     0.2671     0.0942    10.3363     0.0294     2.5105  -999.2500
  512.5000   108.6067     3.7223     8.6879     7.8844     7.4090     0.2699     0.0866    10.3343     0.0384     2.5064  -999.2500
  513.0000   107.6429     2.7679     8.5573     7.7673     7.2989     0.2710     0.0876    10.3327     0.0564     2.4892  -999.2500
  513.5000   110.1220    -0.0674     8.4286     7.5968     7.1904     0.2638     0.0930    10.3312     0.0533     2.4771  -999.2500
  514.0000   117.9634    -0.5528     8.3620     7.5383     7.1868     0.2638     0.1029    10.3296     0.0502     2.4696  -999.2500
  514.5000   117.1720    -1.3505     8.2959     7.4803     7.2353     0.2768     0.1083    10.3431     0.0546     2.4703  -999.2500
  515.0000   107.9811    -2.4616     8.2899     7.4226     7.2317     0.2903     0.1086    10.3261     0.0651     2.4860  -999.2500
  515.5000   105.3279    -4.5132     8.2840     7.4737     7.2280     0.3044     0.1023    10.3245     0.0812     2.4935  -999.2500
  516.0000   110.6485    -7.1918     8.3395     7.4690     7.2244     0.3083     0.0954    10.2929     0.1100     2.4919  -999.2500
  516.5000   119.6758   -10.3406     8.3939     7.4652     7.1633     0.2930     0.0942    10.2456     0.1220     2.4851  -999.2500
  517.0000   114.3240   -13.6461     8.3864     7.4077     7.1134     0.2903     0.0987    10.1991     0.1204     2.4775  -999.2500
  517.5000   112.7404   -17.4218     8.2603     7.3507     7.0509     0.2858     0.1039    10.1825     0.1067     2.4699  -999.2500
  518.0000   114.9065   -21.8245     8.1950     7.2415     6.9449     0.2629     0.1059    10.1509     0.0735     2.4684  -999.2500
