~VERSION INFORMATION
 VERS.                2.0:   CWLS LOG ASCII STANDARD - VERSION 2.0
 WRAP.                 NO:   ONE LINE PER DEPTH STEP
~WELL INFORMATION
#MNEM.UNIT      DATA TYPE    INFORMATION
#----------   ------------   ------------------------------
 STRT.F            7.0000:   START DEPTH
 STOP.F          549.0000:   STOP DEPTH
 STEP.F            0.5000:   STEP LENGTH
 NULL.          -999.2500:   NO VALUE
 COMP. LAWRENCE-ALLISON &AS:   COMPANY
 WELL. NPR 3 #51-62-SX-10-LP3:   WELL
 FLD .             TEAPOT:   FIELD
 LOC .      S10 T38N R78W:   LOCATION
 CNTY.            NATRONA:   COUNTY
 STAT.            WYOMING:   STATE
 CTRY. UNITED STATES OF AMERICA:   COUNTRY
 SRVC.      Dresser Atlas:   SERVICE COMPANY
 DATE.        10-DEC-1984:   LOGDATE
 API .       490251099500:   API NUMBER
~CURVE INFORMATION
#MNEM.UNIT       API CODE    CURVE DESCRIPTION
#----------   ------------   ------------------------------
 DEPT.F                  :   
 SPR .MV     07 010 01 00:   SPONTANEOUS POTENTIAL
 RILD.OHMM   07 120 46 00:   INDUCTION LOG DEEP RESISTIVITY
 RILM.OHMM   07 120 44 00:   INDUCTION LOG MEDIUM RESISTIVITY
 RFOC.OHMM   07 220 04 00:   RESISTIVITY FOCUSED LOG
 DT  .US/F   60 520 00 00:   INTERVAL TRANSIT TIME
 PORD.DEC    45 890 12 00:   POROSITY DENSITY SANDSTONE
 CNCF.DEC    42 890 03 00:   NEUTRON POROSITY SANDSTONE
 CALD.IN     45 280 60 00:   CALIPER FROM DENSITY LOG
 GRD .GAPI   45 310 01 00:   GAMMA RAY FROM DENSITY LOG
 CORR.G/C3   45 356 01 00:   DENSITY CORRECTION
 DEN .G/C3   45 350 01 00:   COMPENSATED BULK DENSTIY
~PARAMETER INFORMATION
#MNEM.UNIT          VALUE    DESCRIPTION
#----------   ------------   ------------------------------
 PD  .                 GL:   PERMANENT DATUM
 EPD .F              5179:   ELEVATION PERMANENT DATUM
 LMF .                 GL:   LOG MEASURED FROM
 DMF .                 GL:   DRILLING MEASURED FROM
 EGL .F              5179:   GROUND LEVEL
 DATE.        10-DEC-1984:   RUN DATE
 RUN .                  1:   RUN NUMBER
 DD  .F               554:   DEPTH DRILLER
 DL  .F               551:   DEPTH LOGGER
 BLI .F               549:   BOTTOM LOG INTERVAL
 TLI .F                20:   TOP LOG INTERVAL
 CS  .IN            8.625:   CASING SIZE
 CBD .F                20:   CASING BOTTOM DRILLER
 CBL .F                20:   CASING BOTTOM LOGGER
 BS  .IN            7.875:   BIT SIZE
 BSD .F               554:   BIT SIZE AT DEPTH
 DFT .         KCL- WATER:   DRILLING FLUID TYPE
 MSS .           MUD TANK:   MUD SAMPLE SOURCE
 RMS .OHMM           .168:   RESISTIVITY MUD SAMPLE
 MST .F                77:   MUD SAMPLE TEMPERATURE
 RMF .OHMM           .126:   RESISTIVITY MUD FILTRATE SAMPLE
 MFST.F                77:   MUD FILTRATE SAMPLE TEMPERATURE
 RMC .OHMM            .21:   RESISTIVITY MUD CAKE
 MCST.F                77:   MUD CAKE SAMPLE TEMPERATURE
 MFSS.               CALC:   MUD FILTRATE SAMPLE SOURCE
 MCSS.               CALC:   MUD CAKE SAMPLE SOURCE
 RMB .OHMM            .15:   RESISTIVITY MUD AT BHT
 BHT .F                85:   BOTTOM HOLE TEMPERATURE
 TCS .HRS             3.5:   TIME CURCULATED STOPPED
 MRT .F               100:   MAXIMUM RECORDED TEMPERATURE
 LUN .               6270:   LOGGING UNIT NUMBER
 LUL .                 FM:   LOGGING UNIT LOCATION
 ENGI.          E. GOVETT:   RECORDING ENGINEER
 WITN.             GROOMS:   WITNESSED BY
 CLNT.            A2DTECH:   CLIENT CODE
 ORIG.           5" PRINT:   ORIGIN OF DATA
 UWI .       490251099500:   UNIQUE WELL ID
 DICO. A2D Technologies, Inc.:   DIGITIZING COMPANY
~OTHER INFORMATION
~A    DEPT     SPR       RILD       RILM       RFOC         DT       PORD         CNCF     CALD        GRD       CORR        DEN   
# ...
   98.5000   -58.3214     9.2668     9.0098    10.5617    97.8995     0.1289     0.2815     7.6302    87.8466     0.0273     2.4673
   99.0000   -58.1687     9.3330     9.0761    10.6400    98.1984     0.1295     0.2767     7.6287    87.9863     0.0239     2.4635
   99.5000   -58.0159     9.3350     9.0791    10.4261    98.9487     0.1391     0.2730     7.6275    88.4307     0.0253     2.4492
  100.0000   -57.5665     9.3300     8.8560    10.2875   100.6014     0.1416     0.2714     7.6208    91.2782     0.0373     2.4402
  100.5000   -57.4152     9.2447     8.6138    10.3630   101.9597     0.1434     0.2709     7.5940    89.4187     0.0404     2.4359
  101.0000   -57.5614     9.1593     8.3624    10.3666   102.6311     0.1464     0.2740     7.6224    82.9374     0.0432     2.4317
  101.5000   -58.0028     8.9664     8.0800    10.3702   102.7023     0.1530     0.2855     7.6800    81.7777     0.0354     2.4253
  102.0000   -58.0000     8.6642     7.7533    10.3013   102.6206     0.1555     0.2888     7.6174    83.7031     0.0205     2.4188
  102.5000   -58.2932     8.2570     7.3375    10.1639   102.5489     0.1546     0.2785     7.5996    91.3817     0.0325     2.4224
  103.0000   -59.0321     8.0900     7.1389     9.6195   102.6301     0.1534     0.2737     7.5979    91.2224     0.0550     2.4269
  103.5000   -59.4750     7.8717     7.0916     9.1674   102.8642     0.1510     0.2885     7.6107    90.7624     0.0595     2.4284
  104.0000   -59.4714     7.8201     7.0446     8.4393   103.8075     0.1522     0.2976     7.6085    90.7534     0.0248     2.4230
  104.5000   -59.4684     7.8228     7.0466     8.2679   104.7234     0.1558     0.2915     7.6515    90.8949     0.0126     2.4147
  105.0000   -59.4655     7.8835     6.9515     8.3289   104.4711     0.1586     0.2770     7.6643    91.3393     0.0065     2.4131
  105.5000   -59.4626     8.0481     6.9535     8.6253   103.7905     0.1592     0.2734     7.6615    92.5312    -0.0026     2.4130
  106.0000   -59.6080     8.1631     7.0038     9.1197   102.7636     0.1580     0.2770     7.6593    91.3192    -0.0056     2.4183
  106.5000   -59.9018     8.2906     7.1034     9.1863   102.6121     0.1531     0.2776     7.6571    90.5584     0.0003     2.4280
  107.0000   -60.0480     8.3988     7.1551     9.1894   103.2117     0.1494     0.2776     7.6548    93.1059     0.0244     2.4332
  107.5000   -59.7476     8.3437     7.2068     9.1291   103.8869     0.1484     0.2782     7.6833    97.0067     0.0364     2.4309
  108.0000   -59.4479     8.3465     7.2088     9.1957   103.5847     0.1502     0.2806     7.7106    95.3437     0.0363     2.4278
  108.5000   -59.2966     8.3494     7.2108     9.2629   103.2073     0.1505     0.2843     7.7084    91.2746     0.0363     2.4278
  109.0000   -59.2936     8.4103     7.2629     9.4027   102.9050     0.1499     0.2879     7.7062    88.8597     0.0347     2.4285
  109.5000   -59.4392     8.5898     7.3662     9.5958   102.6028     0.1496     0.2876     7.7040    90.0537     0.0346     2.4299
  110.0000   -59.5846     8.6525     7.4194     9.4024   102.6012     0.1484     0.2888     7.6867    96.0599     0.0361     2.4351
  110.5000   -59.7300     8.7156     7.4730     9.1487   102.5998     0.1430     0.2912     7.6844    94.2464     0.0466     2.4433
  111.0000   -60.1721     8.7792     7.4751     9.1518   102.6738     0.1364     0.2918     7.6822    91.2300     0.0420     2.4516
  111.5000   -60.3176     8.9046     7.5291     9.4121   102.5968     0.1361     0.2902     7.6793    87.0105     0.0358     2.4475
  112.0000   -60.1484     9.0319     7.5835     9.7470   102.1441     0.1437     0.2843     7.6626    87.0258     0.0037     2.4379
  112.5000   -60.0149     9.0350     7.7448     9.9551   101.6915     0.1449     0.2767     7.6604    89.7243    -0.0004     2.4386
  113.0000   -60.0113     8.9138     7.8550     9.9585   101.3893     0.1440     0.2691     7.6577    90.6689     0.0056     2.4453
  113.5000   -59.8600     8.8546     7.6956     9.9619   101.1622     0.1404     0.2649     7.6555    93.5684     0.0221     2.4460
  114.0000   -59.7087     8.6762     7.3844     9.9653   101.2359     0.1320     0.2673     7.6689    97.1892     0.0311     2.4633
  114.5000   -59.5574     8.6192     7.2345     9.9687   101.3848     0.1305     0.2740     7.6811    96.7292     0.0175     2.4609
  115.0000   -59.4061     8.5627     7.1369     9.7671   101.7592     0.1333     0.2776     7.6789    96.7202     0.0174     2.4571
  115.5000   -59.4032     8.5657     7.0897     9.5035   102.4344     0.1365     0.2815     7.6767    97.6136     0.0173     2.4510
  116.0000   -59.2519     8.6282     7.0916     9.2470   102.9592     0.1356     0.2879     7.6745   100.7625     0.0233     2.4555
  116.5000   -59.2489     8.6311     7.1429     9.0592   103.4089     0.1305     0.3064     7.6722   101.5055     0.0323     2.4615
  117.0000   -59.2460     8.6941     7.3469     8.9998   103.7081     0.1269     0.3170     7.6700   101.4966     0.0292     2.4682
  117.5000   -59.5398     8.7616     7.6064     9.0662   104.0074     0.1260     0.3209     7.6678   101.3373     0.0292     2.4711
  118.0000   -59.6860     8.8214     7.8281     9.2597   103.7803     0.1272     0.3148     7.6806   100.7268     0.0336     2.4688
  118.5000   -59.5339     8.7030     7.9335     9.4573   103.3277     0.1300     0.3000     7.6784    99.9660     0.0351     2.4627
  119.0000   -59.5310     8.5863     7.9909     9.7263   102.5743     0.1330     0.2885     7.6762    98.3030     0.0245     2.4581
  119.5000   -59.3797     8.5307     7.9935     9.9339   102.0465     0.1342     0.2767     7.6739    94.6850     0.0018     2.4558
  120.0000   -59.5252     8.5336     7.9957     9.8642   101.6691     0.1327     0.2670     7.6717    90.4656    -0.0043     2.4618
  120.5000   -59.6706     8.5959     7.9979     9.4632   102.1187     0.1318     0.2634     7.6543    87.7521     0.0047     2.4595
  121.0000   -59.8160     8.6586     8.0557     9.2788   102.5683     0.1354     0.2637     7.6700    88.6432     0.0137     2.4534
  121.5000   -60.1098     8.6615     8.0579     9.3473   103.0931     0.1406     0.2653     7.6801    91.6418     0.0136     2.4443
  122.0000   -60.2552     8.5453     8.0601     9.4154   103.1672     0.1415     0.2722     7.6773    95.6930     0.0168     2.4442
  122.5000   -60.1038     8.4299     8.0623     9.4841   102.9398     0.1415     0.2840     7.6600    98.0902     0.0286     2.4441
  123.0000   -60.1009     8.3168     8.0645     9.5525   102.7127     0.1440     0.2942     7.6428    98.2316     0.0270     2.4370
  123.5000   -60.3941     8.3204     8.0105     9.4898   102.6360     0.1468     0.2973     7.6405    97.7386     0.0239     2.4342
  124.0000   -60.5395     8.3233     7.8485     9.2987   102.5593     0.1464     0.2882     7.6383    92.9384     0.0163     2.4379
  124.5000   -60.6857     8.3840     7.6892     9.1106   102.6331     0.1404     0.2830     7.6361    93.2607     0.0042     2.4477
  125.0000   -60.9795     8.3868     7.5856     8.9876   102.9323     0.1295     0.2812     7.6339    94.4612     0.0162     2.4634
  125.5000   -61.2733     8.2743     7.4316     8.9914   103.2315     0.1295     0.2812     7.6166    95.7787     0.0282     2.4649
  126.0000   -61.5671     8.0510     7.3314     8.9945   103.3053     0.1353     0.2830     7.6143    98.6269     0.0221     2.4513
  126.5000   -61.7125     7.8882     7.2823     9.0593   103.2285     0.1416     0.2843     7.6273   101.9262     0.0024     2.4429
  127.0000   -61.5605     7.8363     7.1846     8.9999   103.1518     0.1452     0.2843     7.6551   103.4211     0.0024     2.4376
  127.5000   -61.7066     7.7313     7.1369     8.9416   103.2255     0.1467     0.2855     7.6528   100.5550     0.0144     2.4345
  128.0000   -61.7030     7.6276     7.0408     8.6403   103.4496     0.1495     0.2915     7.6050    95.7341     0.0219     2.4314
  128.5000   -61.7000     7.4217     6.8979     8.4655   103.7489     0.1495     0.2997     7.5881    92.8680     0.0158     2.4291
