~VERSION INFORMATION
 VERS.                2.0:   CWLS LOG ASCII STANDARD - VERSION 2.0
 WRAP.                 NO:   ONE LINE PER DEPTH STEP
~WELL INFORMATION
#MNEM.UNIT      DATA TYPE    INFORMATION
#----------   ------------   ------------------------------
 STRT.F           30.5000:   START DEPTH
 STOP.F          674.0000:   STOP DEPTH
 STEP.F            0.5000:   STEP LENGTH
 NULL.          -999.2500:   NO VALUE
 COMP. FENIX & SCISSON INC:   COMPANY
 WELL. NPR 3 #37 SX 34-34:   WELL
 FLD .        TEAPOT DOME:   FIELD
 LOC .      S34 T39N R78W:   LOCATION
 CNTY.            NATRONA:   COUNTY
 STAT.            WYOMING:   STATE
 CTRY. UNITED STATES OF AMERICA:   COUNTRY
 SRVC.           BIRDWELL:   SERVICE COMPANY
 DATE.        21-JAN-1979:   LOGDATE
 API .       490251074400:   API NUMBER
~CURVE INFORMATION
#MNEM.UNIT       API CODE    CURVE DESCRIPTION
#----------   ------------   ------------------------------
 DEPT.F                  :   
 SPR .MV     05 010 01 00:   SPONTANEOUS POTENTIAL FROM RES.
 SN  .OHMM   05 040 16 00:   SHORT NORMAL 16"
 IL  .OHMM   05 120 00 00:   INDUCTION LOG
 CALD.IN     45 280 60 00:   CALIPER
 GRD .GAPI   45 310 01 00:   GAMMA RAY FROM DENSITY LOG
 RHOB.G/C3   45 350 01 00:   BULK DENSITY
 DPHI.DEC    45 890 12 00:   DENSITY POROSITY SANDSTONE
 CORR.G/C3   45 356 01 00:   DENSITY CORRECTION
~PARAMETER INFORMATION
#MNEM.UNIT          VALUE    DESCRIPTION
#----------   ------------   ------------------------------
 PD  .                 GL:   PERMANENT DATUM
 EPD .F              5175:   ELEVATION PERMANENT DATUM
 LMF .                 KB:   LOG MEASURED FROM
 DAPD.F                 4:   FEET ABOVE PERMANENT DATUM
 DMF .                 KB:   DRILLING MEASURED FROM
 EKB .F              5179:   KELLING BUSHING
 EGL .F              5175:   GROUND LEVEL
 DATE.            1-21-79:   RUN DATE
 RUN .                  1:   RUN NUMBER
 DD  .F               674:   DEPTH DRILLER
 DL  .F               673:   DEPTH LOGGER
 BLI .F               666:   BOTTOM LOG INTERVAL
 TLI .F                40:   TOP LOG INTERVAL
 CS  .IN            8.625:   CASING SIZE
 CBD .F                40:   CASING BOTTOM DRILLER
 CBL .F                30:   CASING BOTTOM LOGGER
 BS  .IN            7.875:   BIT SIZE
 BSD .F               674:   BIT SIZE AT DEPTH
 DFT .                KCL:   DRILLING FLUID TYPE
 DFD .                8.8:   DRILLING FLUID DENSITY
 DFV .                 60:   DRILLING FLUID VISCOSITY
 DFPH.                9.5:   DRILLING FLUID PH
 DFL .                  8:   DRILLING FLUID LOSS
 MSS .           FLOWLINE:   MUD SAMPLE SOURCE
 RMS .OHMM            .23:   RESISTIVITY MUD SAMPLE
 MST .F                56:   MUD SAMPLE TEMPERATURE
 MFSS.           MEASURED:   MUD FILTRATE SAMPLE SOURCE
 MCSS.           MEASURED:   MUD CAKE SAMPLE SOURCE
 RMB .OHMM            .22:   RESISTIVITY MUD AT BHT
 BHT .F                60:   BOTTOM HOLE TEMPERATURE
 TCS .HRS               4:   TIME CURCULATED STOPPED
 MRT .F                60:   MAXIMUM RECORDED TEMPERATURE
 LUN .               3006:   LOGGING UNIT NUMBER
 LUL .             CASPER:   LOGGING UNIT LOCATION
 ENGI.            ROLLINS:   RECORDING ENGINEER
 WITN.           DINSMORE:   WITNESSED BY
 CLNT.            A2DTECH:   CLIENT CODE
 ORIG.       2", 5" PRINT:   ORIGIN OF DATA
 UWI .       490251074400:   UNIQUE WELL ID
 DICO. A2D Technologies, Inc.:   DIGITIZING COMPANY
~OTHER INFORMATION
~A   DEPT      SPR         SN         IL       CALD        GRD       RHOB       DPHI       CORR   
   30.5000   -34.2660  -999.2500  -999.2500  -999.2500  -999.2500  -999.2500  -999.2500  -999.2500
   31.0000   -35.9910  -999.2500  -999.2500  -999.2500  -999.2500  -999.2500  -999.2500  -999.2500
   31.5000   -36.5730  -999.2500  -999.2500  -999.2500  -999.2500  -999.2500  -999.2500  -999.2500
   32.0000   -36.5730  -999.2500  -999.2500  -999.2500  -999.2500  -999.2500  -999.2500  -999.2500
   32.5000   -36.5590  -999.2500  -999.2500  -999.2500  -999.2500  -999.2500  -999.2500  -999.2500
   33.0000   -36.0980  -999.2500  -999.2500  -999.2500    81.8040  -999.2500  -999.2500  -999.2500
   33.5000   -34.7160  -999.2500  -999.2500  -999.2500    86.1770  -999.2500  -999.2500  -999.2500
   34.0000   -33.2860  -999.2500  -999.2500  -999.2500    95.0410  -999.2500  -999.2500  -999.2500
   34.5000   -30.0860  -999.2500  -999.2500  -999.2500   101.9050  -999.2500  -999.2500  -999.2500
   35.0000   -28.5840  -999.2500  -999.2500  -999.2500   111.0700  -999.2500  -999.2500  -999.2500
   35.5000   -28.0020  -999.2500  -999.2500  -999.2500   119.9500  -999.2500  -999.2500  -999.2500
   36.0000   -27.9560     7.2590  -999.2500  -999.2500   123.3400  -999.2500  -999.2500  -999.2500
   36.5000   -27.9550     7.1220  -999.2500  -999.2500   125.9380  -999.2500  -999.2500  -999.2500
   37.0000   -27.9570     7.5270  -999.2500  -999.2500   125.8970  -999.2500  -999.2500  -999.2500
   37.5000   -27.9560     7.4300     2.0900  -999.2500   124.0210  -999.2500  -999.2500  -999.2500
   38.0000   -27.9640    11.6090     2.1980  -999.2500   120.0160  -999.2500  -999.2500  -999.2500
   38.5000   -28.3380    11.6040     2.3130  -999.2500   116.5750  -999.2500  -999.2500  -999.2500
   39.0000   -31.1700    11.6000     3.1930  -999.2500   110.4250  -999.2500  -999.2500  -999.2500
   39.5000   -33.2260    11.5950     3.9120  -999.2500   107.5180  -999.2500  -999.2500  -999.2500
   40.0000   -33.6030    11.5910     4.8700  -999.2500   100.1650  -999.2500  -999.2500  -999.2500
   40.5000   -33.8240    11.5870     5.8280  -999.2500    90.6800  -999.2500  -999.2500  -999.2500
   41.0000   -34.0450    11.5830     6.7860  -999.2500    87.9430  -999.2500  -999.2500  -999.2500
   41.5000   -34.2630    11.5790     7.7450  -999.2500    86.4150  -999.2500  -999.2500  -999.2500
   42.0000   -34.1400    11.5740     8.7030  -999.2500    91.7780  -999.2500  -999.2500  -999.2500
   42.5000   -33.3190    11.5700     9.0940  -999.2500    93.6440  -999.2500  -999.2500  -999.2500
   43.0000   -31.9160    11.5660     9.3050  -999.2500    91.1180  -999.2500  -999.2500  -999.2500
   43.5000   -30.4980    11.5620     9.0500  -999.2500    87.3390  -999.2500  -999.2500  -999.2500
   44.0000   -29.6300    11.5570     8.7300  -999.2500    83.5170  -999.2500  -999.2500  -999.2500
   44.5000   -29.4160    11.5530     8.3350  -999.2500    85.3410  -999.2500     0.1690     0.0270
   45.0000   -29.6090    11.5490     7.4690  -999.2500    88.7180  -999.2500     0.1730     0.0380
   45.5000   -29.7500    11.5450     6.2020  -999.2500    89.3970  -999.2500     0.1730     0.0400
   46.0000   -29.4020    11.5410     5.8990  -999.2500    90.7390  -999.2500     0.1720     0.0280
   46.5000   -28.3310    11.5360     5.4510  -999.2500   104.7970  -999.2500     0.1720     0.0110
   47.0000   -27.3350    11.5320     5.6020  -999.2500    85.1120  -999.2500     0.1720     0.0090
   47.5000   -26.3440    11.5280     5.7570  -999.2500    98.9660     2.3690     0.1720     0.0100
   48.0000   -25.3600    11.5240     5.7230     8.1450   119.3260     2.3700     0.1710     0.0110
   48.5000   -24.5230    11.5200     5.6890     8.1510   112.1460     2.3710     0.1710     0.0140
   49.0000   -24.4940    11.5150     5.6560     8.1560   105.3990     2.3720     0.1710     0.0240
   49.5000   -24.4420    11.5120     6.0890     8.1570    99.8550     2.3710     0.1700     0.0340
   50.0000   -24.3860    11.5050     7.4840     8.1650    95.7580     2.3700     0.1700     0.0350
   50.5000   -24.3310    11.5030     8.7980     8.1710    92.0830     2.3720     0.1710     0.0360
   51.0000   -24.2760    11.2860     9.4900     8.1760    92.5030     2.3840     0.1710     0.0360
   51.5000   -24.2220    10.9930     9.6240     8.1810    95.3980     2.3920     0.1720     0.0350
   52.0000   -24.1670    10.7010     9.7730     8.1860    96.4580     2.3970     0.1730     0.0350
   52.5000   -24.1120    10.4090     9.9220     8.1920    96.0580     2.3950     0.1770     0.0350
   53.0000   -24.0580    10.1100    10.0710     8.1970    95.4900     2.3900     0.1820     0.0350
   53.5000   -24.0040    10.1060    10.2210     8.1860    94.8870     2.3800     0.1870     0.0350
   54.0000   -23.9420    10.1030    10.3700     8.1720    90.8330     2.3670     0.1920     0.0340
   54.5000   -23.7040    10.1000    10.5530     8.1580    90.6840     2.3600     0.1940     0.0340
   55.0000   -23.4560    10.0970    10.8720     8.1430    90.4300     2.3560     0.1920     0.0330
   55.5000   -23.2080    10.0930    11.1920     8.1290    89.3680     2.3550     0.1900     0.0280
   56.0000   -22.9560    10.0900    11.4190     8.1170    89.1330     2.3590     0.1870     0.0220
   56.5000   -22.8920    10.0870    11.4640     8.1180    89.6870     2.3630     0.1840     0.0180
   57.0000   -22.8360    10.0840    11.5090     8.1180    90.2330     2.3670     0.1840     0.0190
   57.5000   -22.7800    10.0810    11.5550     8.1180    90.7780     2.3670     0.1840     0.0200
   58.0000   -22.7230    10.0780    11.6000     8.1180    91.3230     2.3670     0.1840     0.0210
   58.5000   -22.6660    10.0740    11.6450     8.1180    91.7650     2.3680     0.1840     0.0220
   59.0000   -22.6100    10.0710    11.6900     8.1180    91.4210     2.3650     0.1890     0.0240
   59.5000   -22.5530    10.0680    11.7350     8.1180    90.9530     2.3620     0.1920     0.0340
   60.0000   -22.4970    10.0650    11.7800     8.1180    89.5720     2.3590     0.1930     0.0440
   60.5000   -22.4400    10.0620    11.8250     8.1180    89.6950     2.3580     0.1910     0.0490
   61.0000   -22.3890    10.0580    11.9660     8.1180    90.3680     2.3580     0.1870     0.0460
   61.5000   -22.4740    10.0550    12.1050     8.1180    90.0800     2.3620     0.1840     0.0440
   62.0000   -22.9540    10.0520    12.2440     8.1180    90.0070     2.3670     0.1840     0.0420
   62.5000   -23.1260    10.0490    12.3830     8.1170    90.9840     2.3690     0.1840     0.0430
   63.0000   -23.0970    10.0460    12.4980     8.1170    91.8020     2.3680     0.1840     0.0440
   63.5000   -23.0670    10.0430    12.4980     8.0800    91.7480     2.3680     0.1850     0.0450
   64.0000   -23.0380    10.0390    12.4980     8.0160    91.6860     2.3680     0.1850     0.0470
   64.5000   -23.0060    10.0360    12.4980     7.9580    91.6080     2.3680     0.1850     0.0490
   65.0000   -22.9730    10.0330    12.4980     7.9570    92.4470     2.3680     0.1840     0.0500
   65.5000   -22.9790    10.0300    12.4980     7.9570    93.4580     2.3700     0.1800     0.0520
   66.0000   -23.8860    10.0270    12.5530     7.9570    93.3770     2.3740     0.1750     0.0560
   66.5000   -24.8190    10.0240    12.8590     7.9570    92.2240     2.3810     0.1700     0.0590
   67.0000   -25.7450    10.0200    13.2000     7.9570    91.0760     2.3890     0.1700     0.0620
   67.5000   -26.7600    10.0170    13.1440     7.9570    92.0480     2.3930     0.1710     0.0660
   68.0000   -27.3720    10.3610    13.0690     7.9570    93.1780     2.3950     0.1740     0.0750
   68.5000   -27.3690    10.7450    12.9940     7.9770    93.0330     2.3900     0.1760     0.0840
   69.0000   -27.3840    10.9840    12.9190     8.0200    91.2120     2.3850     0.1750     0.0880
   69.5000   -27.4010    10.9500    12.8440     8.0590    88.2740     2.3860     0.1610     0.0690
   70.0000   -27.4180    10.9210    12.7300     8.0670    87.4350     2.4060     0.1290     0.0480
   70.5000   -27.4330    10.8830    13.1450     8.0770    89.0010     2.4310     0.0930     0.0260
