~VERSION INFORMATION
 VERS.                2.0:   CWLS LOG ASCII STANDARD - VERSION 2.0
 WRAP.                 NO:   ONE LINE PER DEPTH STEP
~WELL INFORMATION
#MNEM.UNIT      DATA TYPE    INFORMATION
#----------   ------------   ------------------------------
 STRT.F            0.0000:   START DEPTH
 STOP.F          562.0000:   STOP DEPTH
 STEP.F            0.1000:   STEP LENGTH
 NULL.          -999.2500:   NO VALUE
 COMP. BROWN JOHN E&C INC:   COMPANY
 WELL.    73-1 SX-3 #73-3:   WELL
 FLD .             TEAPOT:   FIELD
 LOC .       S3 T38N R78W:   LOCATION
 CNTY.            NATRONA:   COUNTY
 STAT.            WYOMING:   STATE
 CTRY. UNITED STATES OF AMERICA:   COUNTRY
 SRVC.      Western Atlas:   SERVICE COMPANY
 DATE.        23-APR-1992:   LOGDATE
 API .       490252251200:   API NUMBER
~CURVE INFORMATION
#MNEM.UNIT       API CODE    CURVE DESCRIPTION
#----------   ------------   ------------------------------
 DEPT.F                  :   
 GRR .GAPI   07 310 01 00:   GAMMA RAY
 RILD.OHMM   07 120 46 00:   INDUCTION LOG DEEP RESISTIVITY
 RILM.OHMM   07 120 44 00:   INDUCTION LOG MEDIUM RESISTIVITY
 CILD.MMHO   07 110 46 00:   CONDUCTIVITY INDUCTION LOG DEEP
~PARAMETER INFORMATION
#MNEM.UNIT          VALUE    DESCRIPTION
#----------   ------------   ------------------------------
 PD  .                 GL:   PERMANENT DATUM
 EPD .F              5164:   ELEVATION PERMANENT DATUM
 LMF .                 KB:   LOG MEASURED FROM
 DAPD.F                 5:   FEET ABOVE PERMANENT DATUM
 DMF .                 KB:   DRILLING MEASURED FROM
 EKB .F              5169:   KELLING BUSHING
 EDF .F              5168:   DRILLING FLOOR
 EGL .F              5164:   GROUND LEVEL
 DATE.        23-APR-1992:   RUN DATE
 RUN .                  1:   RUN NUMBER
 DD  .F               561:   DEPTH DRILLER
 DL  .F               564:   DEPTH LOGGER
 BLI .F               562:   BOTTOM LOG INTERVAL
 CS  .IN            8.625:   CASING SIZE
 CBD .F                48:   CASING BOTTOM DRILLER
 CBL .F                49:   CASING BOTTOM LOGGER
 BS  .IN            7.875:   BIT SIZE
 BSD .F               561:   BIT SIZE AT DEPTH
 DFT .                AIR:   DRILLING FLUID TYPE
 TCS .HRS               2:   TIME CURCULATED STOPPED
 LUN .           HL- 6272:   LOGGING UNIT NUMBER
 LUL .             CASPER:   LOGGING UNIT LOCATION
 ENGI.            LEBSOCK:   RECORDING ENGINEER
 WITN.        GARY STRONG:   WITNESSED BY
 CLNT.            A2DTECH:   CLIENT CODE
 ORIG.       2", 5" PRINT:   ORIGIN OF DATA
 UWI .       490252251200:   UNIQUE WELL ID
 DICO. A2D Technologies, Inc.:   DIGITIZING COMPANY
~OTHER INFORMATION
~A    DEPT      GRR      RILD       RILM       CILD   
# ...
  379.6000   127.4274     6.9054     6.8690   149.1527
  379.7000   127.6690     6.9054     6.8859   148.9340
  379.8000   127.9105     6.9055     6.8862   148.6944
  379.9000   128.2086     6.9057     6.8893   148.4126
  380.0000   129.3372     6.9058     6.9348   148.2152
  380.1000   129.9426     6.9059     6.9349   147.9756
  380.2000   131.0969     6.9059     6.9351   147.7361
  380.3000   133.1360     6.9060     6.9354   147.6757
  380.4000   136.2106     6.9061     6.9355   147.6803
  380.5000   138.9728     6.9063     6.9357   147.6848
  380.6000   139.8043     6.8768     6.9359   147.6893
  380.7000   140.3255     6.8584     6.9361   147.6938
  380.8000   140.4771     6.8480     6.9363   147.6984
  380.9000   140.4765     6.8098     6.9365   147.7029
  381.0000   140.4758     6.7719     6.9367   147.7074
  381.1000   140.2612     6.7638     6.9714   147.7119
  381.2000   140.1735     6.7436     6.9857   147.7164
  381.3000   140.0769     6.7169     6.9859   147.7209
  381.4000   139.8711     6.7170     6.9860   147.7255
  381.5000   139.8704     6.7171     6.9862   147.7300
  381.6000   139.6498     6.6871     6.9864   147.7345
  381.7000   139.5681     6.6499     6.9606   147.7391
  381.8000   139.3636     6.6129     6.9382   147.8833
  381.9000   138.8788     6.5783     6.9315   148.3761
  382.0000   138.3614     6.5784     6.8904   148.8689
  382.1000   137.6826     6.5485     6.8546   149.3617
  382.2000   136.9555     6.5328     6.8428   149.8543
  382.3000   136.1205     6.5329     6.8259   150.3469
  382.4000   135.1513     6.5301     6.7956   150.9178
  382.5000   134.1416     6.4877     6.7958   152.1430
  382.6000   133.2125     6.4276     6.7596   153.3683
  382.7000   132.0700     6.3769     6.6952   154.6241
  382.8000   130.7446     6.3294     6.6381   157.5574
  382.9000   129.2908     6.2589     6.5928   160.4907
  383.0000   127.8132     6.1789     6.5181   163.6353
  383.1000   126.6214     6.1496     6.4468   165.2249
  383.2000   125.7685     6.0948     6.3229   166.9379
  383.3000   125.4018     6.0511     6.1828   168.9283
  383.4000   125.4012     6.0474     6.0539   169.5459
  383.5000   125.4025     6.0092     5.9528   170.2829
  383.6000   125.6443     6.0093     5.8539   171.0198
  383.7000   126.2563     5.9886     5.7499   171.3909
  383.8000   126.8559     5.9677     5.7399   171.6395
  383.9000   127.4065     5.9635     5.6311   171.8881
  384.0000   128.1403     5.9264     5.6312   171.8150
  384.1000   129.1083     5.9265     5.6119   171.5754
  384.2000   130.4593     5.9266     5.5807   171.3358
  384.3000   131.9119     5.9137     5.5537   171.0962
  384.4000   133.1446     5.8855     5.5927   170.8567
  384.5000   133.8424     5.8856     5.6208   170.6172
  384.6000   134.1288     5.8857     5.6526   170.3776
  384.7000   134.1283     5.8858     5.6845   170.1381
  384.8000   133.9896     5.8858     5.7166   169.8985
  384.9000   133.7467     5.8859     5.7518   169.5637
  385.0000   133.4838     5.8860     5.7815   169.0800
  385.1000   132.9210     5.8559     5.8142   168.5962
  385.2000   132.7173     5.8452     5.8611   168.2595
  385.3000   132.1862     5.8453     5.9214   168.2640
  385.4000   131.2884     5.8513     5.9569   168.2684
  385.5000   130.0509     5.8864     6.0201   168.2730
  385.6000   128.3999     5.9174     6.0882   168.2775
  385.7000   125.6798     5.9738     6.1728   168.2820
  385.8000   122.5316     6.0261     6.2703   168.2568
  385.9000   120.0201     6.0735     6.3438   168.0173
  386.0000   118.6946     6.1815     6.4129   167.7778
  386.1000   118.1560     6.2812     6.5119   167.4914
  386.2000   118.5859     6.3625     6.6048   165.7874
  386.3000   119.0696     6.4342     6.6795   164.0835
  386.4000   119.8445     6.5068     6.7559   162.2808
  386.5000   121.0925     6.5825     6.7937   160.4458
  386.6000   122.6710     6.6544     6.8896   158.4980
  386.7000   123.7769     6.7295     6.9672   156.2616
  386.8000   124.9871     6.7872     7.0269   155.2256
  386.9000   126.0940     6.8342     7.1458   154.0094
  387.0000   127.0619     6.9125     7.2266   152.7933
  387.1000   128.0897     6.9893     7.3402   151.2046
  387.2000   128.7712     7.0682     7.4872   149.5001
  387.3000   129.3287     7.1678     7.6571   147.7957
  387.4000   129.7031     7.2791     7.8290   145.2691
  387.5000   129.8946     7.3610     7.9623   142.3448
  387.6000   129.8940     7.4861     8.1342   139.4205
  387.7000   129.6600     7.5809     8.2675   137.3514
  387.8000   129.4172     7.6664     8.3466   135.8916
  387.9000   129.0592     7.7529     8.3966   134.4317
  388.0000   128.5183     7.8401     8.5090   133.3335
  388.1000   127.7825     7.9287     8.5484   132.6055
  388.2000   127.5425     8.0531     8.5967   131.8776
  388.3000   127.1194     8.1654     8.6453   130.8533
  388.4000   126.7558     8.2837     8.6941   129.3935
  388.5000   126.6376     8.4693     8.7511   127.9338
  388.6000   126.8759     8.6132     8.7513   126.1666
  388.7000   126.8753     8.6822     8.7515   123.7304
  388.8000   127.2473     8.7045     8.7518   121.2943
  388.9000   127.6038     8.6902     8.7466   119.3523
  389.0000   127.7771     8.6394     8.6914   119.1127
  389.1000   127.7765     8.5246     8.6495   118.8731
  389.2000   127.7759     8.4865     8.6014   118.6661
  389.3000   127.5829     8.4392     8.5535   118.9485
  389.4000   127.0733     8.3921     8.5123   119.1971
  389.5000   126.2719     8.3422     8.5126   119.4457
  389.6000   125.3027     8.2329     8.4704   119.6943
  389.7000   124.1583     8.2330     8.4539   119.9430
  389.8000   123.3647     8.2066     8.4350   120.2023
  389.9000   122.8131     8.1760     8.3880   120.2066
  390.0000   122.6506     8.1723     8.3374   120.2112
  390.1000   122.6499     8.1194     8.3376   120.2163
  390.2000   122.6493     8.0815     8.3379   120.2202
  390.3000   122.8532     8.0365     8.3181   120.2248
  390.4000   122.9494     8.0072     8.2803   120.2293
  390.5000   123.2076     8.0073     8.2806   120.2338
  390.6000   123.8792     8.0074     8.2808   120.2383
  390.7000   124.1523     8.0846     8.3136   120.2428
  390.8000   124.7830     8.1479     8.3820   120.0794
  390.9000   125.5088     8.2105     8.4667   119.8399
  391.0000   126.1424     8.3030     8.5161   119.6004
  391.1000   126.6932     8.4088     8.6094   119.0687
  391.2000   127.7638     8.4915     8.7068   118.3408
  391.3000   128.6292     8.5873     8.8292   117.6129
  391.4000   129.5970     8.7028     8.9671   116.7609
  391.5000   130.5651     8.8435     9.0693   115.7893
  391.6000   131.5337     8.9544     9.2743   114.8176
  391.7000   132.5801     9.0894     9.4853   113.6413
  391.8000   133.4696     9.2436     9.8210   112.1810
  391.9000   134.2740     9.3584    10.1560   110.7207
  392.0000   134.4781     9.4271    10.4020   109.2605
  392.1000   134.0385     9.6022    10.6980   107.8006
  392.2000   133.7819     9.7497    11.0638   106.3407
  392.3000   132.8669     9.9151    11.3911   104.7637
  392.4000   131.7284    10.1068    11.7140   102.8157
  392.5000   130.0756    10.3355    12.0254   100.8677
  392.6000   127.7931    10.5883    12.2934    98.9195
  392.7000   125.0440    10.8098    12.5015    96.9709
  392.8000   122.9325    11.0552    12.6563    95.0223
  392.9000   121.2788    11.3057    12.8380    93.0738
  393.0000   119.7089    11.5737    13.0771    91.1260
  393.1000   117.9559    11.9226    13.3682    89.1781
  393.2000   116.0048    12.1124    13.6387    87.1736
  393.3000   113.8388    12.3662    13.8873    85.9928
  393.4000   111.6585    12.6144    14.2462    84.7766
  393.5000   109.4786    12.8427    14.6494    83.4168
  393.6000   107.1719    13.1469    15.0580    81.9141
  393.7000   104.4954    13.3601    15.4628    80.2102
  393.8000   101.1047    13.5327    15.6755    78.5062
  393.9000    98.6499    13.7572    15.9915    76.6090
  394.0000    96.4692    14.0511    16.3525    74.6610
  394.1000    94.2895    14.2961    16.7212    72.7129
