~VERSION INFORMATION
 VERS.                2.0:   CWLS LOG ASCII STANDARD - VERSION 2.0
 WRAP.                 NO:   ONE LINE PER DEPTH STEP
~WELL INFORMATION
#MNEM.UNIT      DATA TYPE    INFORMATION
#----------   ------------   ------------------------------
 STRT.F            0.0000:   START DEPTH
 STOP.F         2182.0000:   STOP DEPTH
 STEP.F            0.1000:   STEP LENGTH
 NULL.          -999.2500:   NO VALUE
 COMP.       FLUOR DANIEL:   COMPANY
 WELL.   75-1 X 29 #75-29:   WELL
 FLD .             TEAPOT:   FIELD
 LOC .      S29 T39N R78W:   LOCATION
 CNTY.            NATRONA:   COUNTY
 STAT.            WYOMING:   STATE
 CTRY. UNITED STATES OF AMERICA:   COUNTRY
 SRVC.      Western Atlas:   SERVICE COMPANY
 DATE.        10-MAY-1996:   LOGDATE
 API .       490252279100:   API NUMBER
~CURVE INFORMATION
#MNEM.UNIT       API CODE    CURVE DESCRIPTION
#----------   ------------   ------------------------------
 DEPT.F                  :   
 GRR .GAPI   07 310 01 00:   GAMMA RAY
 RFOC.OHMM   07 220 04 00:   RESISTIVITY FOCUSED LOG
 RILD.OHMM   07 120 46 00:   INDUCTION LOG DEEP RESISTIVITY
 RILM.OHMM   07 120 44 00:   INDUCTION LOG MEDIUM RESISTIVITY
~PARAMETER INFORMATION
#MNEM.UNIT          VALUE    DESCRIPTION
#----------   ------------   ------------------------------
 PD  .                 GL:   PERMANENT DATUM
 EPD .F              5031:   ELEVATION PERMANENT DATUM
 LMF .                 KB:   LOG MEASURED FROM
 DAPD.F                10:   FEET ABOVE PERMANENT DATUM
 DMF .                 KB:   DRILLING MEASURED FROM
 EKB .F              5041:   KELLING BUSHING
 EDF .F              5040:   DRILLING FLOOR
 EGL .F              5031:   GROUND LEVEL
 DATE.        10-MAY-1996:   RUN DATE
 RUN .                  1:   RUN NUMBER
 DD  .F              2188:   DEPTH DRILLER
 DL  .F              2184:   DEPTH LOGGER
 BLI .F              2182:   BOTTOM LOG INTERVAL
 TLI .F               400:   TOP LOG INTERVAL
 CS  .IN                7:   CASING SIZE
 CBD .F               400:   CASING BOTTOM DRILLER
 CBL .F               400:   CASING BOTTOM LOGGER
 BS  .IN             6.25:   BIT SIZE
 BSD .F              2188:   BIT SIZE AT DEPTH
 DFT .                AIR:   DRILLING FLUID TYPE
 MRT .F                97:   MAXIMUM RECORDED TEMPERATURE
 LUN .            HL-6530:   LOGGING UNIT NUMBER
 LUL .             CASPER:   LOGGING UNIT LOCATION
 ENGI.           BROWNLOW:   RECORDING ENGINEER
 WITN.             LEBEAU:   WITNESSED BY
 CLNT.            A2DTECH:   CLIENT CODE
 ORIG.           5" PRINT:   ORIGIN OF DATA
 UWI .       490252279100:   UNIQUE WELL ID
 DICO. A2D Technologies, Inc.:   DIGITIZING COMPANY
~OTHER INFORMATION
~A    DEPT      GRR      RFOC       RILD       RILM   
# ...
 1693.6000   151.2473  -999.2500     2.3950     2.3759
 1693.7000   152.2500  -999.2500     2.3970     2.4316
 1693.8000   152.6510  -999.2500     2.4115     2.4886
 1693.9000   152.7499  -999.2500     2.4114     2.5422
 1694.0000   152.7481  -999.2500     2.4324     2.5884
 1694.1000   152.7463  -999.2500     2.4528     2.6540
 1694.2000   152.7444  -999.2500     2.4720     2.7257
 1694.3000   152.4915  -999.2500     2.5007     2.8178
 1694.4000   152.2383  -999.2500     2.5310     2.9267
 1694.5000   151.8340  -999.2500     2.5591     3.0416
 1694.6000   151.2284  -999.2500     2.5774     3.1488
 1694.7000   150.4726  -999.2500     2.5923     3.2660
 1694.8000   149.7170  -999.2500     2.6072     3.3756
 1694.9000   148.9614  -999.2500     2.6247     3.4645
 1695.0000   148.4064  -999.2500     2.6563     3.5340
 1695.1000   147.7511  -999.2500     2.6859     3.6035
 1695.2000   146.6931  -999.2500     2.7292     3.6842
 1695.3000   145.1820  -999.2500     2.7952     3.7502
 1695.4000   143.6730  -999.2500     2.8894     3.8144
 1695.5000   142.1632  -999.2500     3.0025     3.8989
 1695.6000   141.2562  -999.2500     3.0933     3.9903
 1695.7000   140.6510  -999.2500     3.1810     4.0837
 1695.8000   140.2470  -999.2500     3.2744     4.1841
 1695.9000   139.9938  -999.2500     3.3591     4.3066
 1696.0000   139.7406  -999.2500     3.4525     4.4270
 1696.1000   139.7384  -999.2500     3.5775     4.5110
 1696.2000   139.7369  -999.2500     3.7292     4.6168
 1696.3000   140.0369  -999.2500     3.9011     4.7249
 1696.4000   140.8391  -999.2500     4.0309     4.8355
 1696.5000   142.0434  -999.2500     4.1630     4.9484
 1696.6000   143.0484  -999.2500     4.3289     5.0834
 1696.7000   144.8557  -999.2500     4.5378     5.2088
 1696.8000   146.0614  -999.2500     4.7851     5.4028
 1696.9000   147.2655  -999.2500     4.9782     5.6113
 1697.0000   148.1683  -999.2500     5.2079     5.8006
 1697.1000   148.9710  -999.2500     5.4172     5.9663
 1697.2000   149.9754  -999.2500     5.5831     6.0847
 1697.3000   150.2747  -999.2500     5.7195     6.1771
 1697.4000   150.6758  -999.2500     5.8900     6.2853
 1697.5000   150.8748  -999.2500     5.9910     6.3953
 1697.6000   150.8730  -999.2500     6.1235     6.5072
 1697.7000   150.8211  -999.2500     6.2453     6.6209
 1697.8000   150.5677  -999.2500     6.3401     6.7491
 1697.9000   150.2639  -999.2500     6.4204     6.7840
 1698.0000   150.2624  -999.2500     6.5342     6.8231
 1698.1000   150.2607  -999.2500     6.6848     6.8625
 1698.2000   150.2589  -999.2500     6.8098     6.9021
 1698.3000   150.2570  -999.2500     6.9051     6.9420
 1698.4000   150.2552  -999.2500     6.9695     6.9851
 1698.5000   150.2530  -999.2500     7.0097     6.9849
 1698.6000   150.2516  -999.2500     7.0506     6.9846
 1698.7000   150.7022  -999.2500     7.0103     6.9843
 1698.8000   151.3540  -999.2500     7.0015     6.9840
 1698.9000   151.8550  -999.2500     7.0013     6.9837
 1699.0000   152.3560  -999.2500     7.0011     6.9834
 1699.1000   152.6554  -999.2500     7.0010     6.9832
 1699.2000   153.0562  -999.2500     7.0007     6.9828
 1699.3000   153.4064  -999.2500     7.0005     6.9826
 1699.4000   153.7565  -999.2500     7.0326     6.9823
 1699.5000   154.1568  -999.2500     7.0489     6.9820
 1699.6000   154.1551  -999.2500     7.0486     6.9817
 1699.7000   154.4044  -999.2500     7.0485     6.9814
 1699.8000   154.6541  -999.2500     7.0483     7.0130
 1699.9000   154.6020  -999.2500     7.0889     7.0293
 1700.0000   154.1078  -999.2500     7.0968     7.0437
 1700.1000   153.2525  -999.2500     7.0965     7.0804
 1700.2000   152.3973  -999.2500     7.0963     7.1170
 1700.3000   151.2295  -999.2500     7.0959     7.1537
 1700.4000   148.9841  -999.2500     7.1299     7.1904
 1700.5000   147.8036  -999.2500     7.1447     7.2271
 1700.6000   147.5900  -999.2500     7.1630     7.2637
 1700.7000   147.4987  -999.2500     7.1938     7.2767
 1700.8000   147.6119  -999.2500     7.1963     7.2767
 1700.9000   147.7967  -999.2500     7.2432     7.2767
 1701.0000   147.8128  -999.2500     7.2430     7.2767
 1701.1000   148.0945  -999.2500     7.2427     7.2767
 1701.2000   148.5389  -999.2500     7.2632     7.2767
 1701.3000   149.0431  -999.2500     7.2924     7.2767
 1701.4000   149.6731  -999.2500     7.2922     7.2767
 1701.5000   150.4309  -999.2500     7.2918     7.2767
 1701.6000   151.1600  -999.2500     7.2915     7.2767
 1701.7000   151.7036  -999.2500     7.2912     7.2767
 1701.8000   152.4035  -999.2500     7.2909     7.2767
 1701.9000   153.3459  -999.2500     7.2758     7.2767
 1702.0000   154.0832  -999.2500     7.2399     7.2767
 1702.1000   154.6759  -999.2500     7.2396     7.2767
 1702.2000   155.3543  -999.2500     7.1987     7.2767
 1702.3000   155.6144  -999.2500     7.1890     7.2767
 1702.4000   156.1021  -999.2500     7.1642     7.2767
 1702.5000   156.8024  -999.2500     7.1388     7.2767
 1702.6000   157.5598  -999.2500     7.1300     7.2767
 1702.7000   158.0205  -999.2500     7.0883     7.2767
 1702.8000   158.0696  -999.2500     7.0396     7.2767
 1702.9000   158.3186  -999.2500     7.0057     7.2767
 1703.0000   158.0148  -999.2500     6.9905     7.2767
 1703.1000   157.8064  -999.2500     6.9722     7.2767
 1703.2000   157.2347  -999.2500     6.9416     7.2767
 1703.3000   156.4730  -999.2500     6.9413     7.2767
 1703.4000   155.8345  -999.2500     6.9410     7.2767
 1703.5000   155.5929  -999.2500     6.9408     7.2767
 1703.6000   156.1940  -999.2500     6.9405     7.2767
 1703.7000   156.8456  -999.2500     6.9203     7.2767
 1703.8000   157.4341  -999.2500     6.8919     7.2767
 1703.9000   157.9390  -999.2500     6.8917     7.2767
 1704.0000   158.3712  -999.2500     6.8914     7.2888
 1704.1000   158.5987  -999.2500     6.8911     7.3272
 1704.2000   158.5965  -999.2500     6.8908     7.3272
 1704.3000   158.5948  -999.2500     6.8905     7.3272
 1704.4000   158.5930  -999.2500     6.8902     7.3272
 1704.5000   158.5912  -999.2500     6.8900     7.3494
 1704.6000   158.5894  -999.2500     6.8897     7.3781
 1704.7000   158.5876  -999.2500     6.9283     7.3781
 1704.8000   158.5857  -999.2500     6.9370     7.3781
 1704.9000   158.3445  -999.2500     6.9367     7.3781
 1705.0000   158.0895  -999.2500     6.9364     7.3781
 1705.1000   157.1218  -999.2500     6.9445     7.4023
 1705.2000   155.8831  -999.2500     6.9841     7.4294
 1705.3000   155.2129  -999.2500     6.9837     7.4294
 1705.4000   154.9550  -999.2500     7.0172     7.4294
 1705.5000   154.9532  -999.2500     7.0318     7.4294
 1705.6000   154.9514  -999.2500     7.0315     7.4294
 1705.7000   155.4103  -999.2500     7.0417     7.4556
 1705.8000   156.1677  -999.2500     7.0798     7.4810
 1705.9000   156.9820  -999.2500     7.0795     7.4907
 1706.0000   157.9848  -999.2500     7.1153     7.5330
 1706.1000   158.8637  -999.2500     7.1281     7.5330
 1706.2000   159.5005  -999.2500     7.1278     7.5700
 1706.3000   160.0939  -999.2500     7.1401     7.5854
 1706.4000   160.4826  -999.2500     7.1768     7.6056
 1706.5000   160.7340  -999.2500     7.1765     7.6500
 1706.6000   160.9666  -999.2500     7.1762     7.6912
 1706.7000   160.9645  -999.2500     7.2065     7.6912
 1706.8000   161.1866  -999.2500     7.2255     7.7308
 1706.9000   161.0876  -999.2500     7.2252     7.7758
 1707.0000   160.8326  -999.2500     7.2316     7.7984
 1707.1000   160.5776  -999.2500     7.2748     7.7984
 1707.2000   160.2631  -999.2500     7.2746     7.8038
 1707.3000   159.4454  -999.2500     7.3073     7.8526
 1707.4000   158.5059  -999.2500     7.3246     7.8526
 1707.5000   157.1189  -999.2500     7.3243     7.8526
 1707.6000   155.3227  -999.2500     7.3328     7.8526
 1707.7000   153.7410  -999.2500     7.3746     7.8526
 1707.8000   153.0204  -999.2500     7.3742     7.8526
 1707.9000   152.4965  -999.2500     7.3739     7.8526
 1708.0000   152.2494  -999.2500     7.3736     7.8970
 1708.1000   152.1913  -999.2500     7.3734     7.9072
