~VERSION INFORMATION
 VERS.                2.0:   CWLS LOG ASCII STANDARD - VERSION 2.0
 WRAP.                 NO:   ONE LINE PER DEPTH STEP
~WELL INFORMATION
#MNEM.UNIT      DATA TYPE    INFORMATION
#----------   ------------   ------------------------------
 STRT.F           21.0000:   START DEPTH
 STOP.F          543.0000:   STOP DEPTH
 STEP.F            0.5000:   STEP LENGTH
 NULL.          -999.2500:   NO VALUE
 COMP. FENIX & SCISSON INC:   COMPANY
 WELL.      NPR #3 #46-10:   WELL
 FLD .             TEAPOT:   FIELD
 LOC .      S10 T38N R78W:   LOCATION
 CNTY.            NATRONA:   COUNTY
 STAT.            WYOMING:   STATE
 CTRY. UNITED STATES OF AMERICA:   COUNTRY
 SRVC.              Welex:   SERVICE COMPANY
 DATE.        08-MAY-1980:   LOGDATE
 API .       490251081100:   API NUMBER
~CURVE INFORMATION
#MNEM.UNIT       API CODE    CURVE DESCRIPTION
#----------   ------------   ------------------------------
 DEPT.F                  :   
 SGRD.OHMM   07 220 05 00:   SHALLOW GUARD RESISTIVITY
 ILD .OHMM   07 120 46 00:   INDUCTION LOG DEEP RESISTIVITY
 ILM .OHMM   07 120 44 00:   INDUCTION LOG MEDIUM
 SPR .MV     07 010 01 00:   SPONTANEOUS POTENTIAL
 CALD.IN     45 280 60 00:   CALIPER
 GRD .GAPI   45 310 01 00:   GAMMA RAY FROM DENSITY LOG
 CORR.G/C3   45 356 01 00:   DENSITY CORRECTION
 RHOB.G/C3   45 350 01 00:   BULK DENSITY
 DPHI.DEC    45 890 12 00:   DENSITY POROSITY SANDSTONE
~PARAMETER INFORMATION
#MNEM.UNIT          VALUE    DESCRIPTION
#----------   ------------   ------------------------------
 PD  .                 GL:   PERMANENT DATUM
 EPD .F              5206:   ELEVATION PERMANENT DATUM
 LMF .                 KB:   LOG MEASURED FROM
 DAPD.F                 5:   FEET ABOVE PERMANENT DATUM
 DMF .                 KB:   DRILLING MEASURED FROM
 EKB .F              5211:   KELLING BUSHING
 EGL .F              5206:   GROUND LEVEL
 DATE.             5-8-80:   RUN DATE
 RUN .                  1:   RUN NUMBER
 DD  .F               530:   DEPTH DRILLER
 DL  .F               543:   DEPTH LOGGER
 BLI .F               541:   BOTTOM LOG INTERVAL
 TLI .F                30:   TOP LOG INTERVAL
 BS  .IN            7.875:   BIT SIZE
 BSD .F               530:   BIT SIZE AT DEPTH
 DFT .            KCL MUD:   DRILLING FLUID TYPE
 DFD .                9.1:   DRILLING FLUID DENSITY
 DFV .                 43:   DRILLING FLUID VISCOSITY
 MSS .                PIT:   MUD SAMPLE SOURCE
 RMS .OHMM            .89:   RESISTIVITY MUD SAMPLE
 MST .F                75:   MUD SAMPLE TEMPERATURE
 RMF .OHMM            .71:   RESISTIVITY MUD FILTRATE SAMPLE
 MFST.F                75:   MUD FILTRATE SAMPLE TEMPERATURE
 RMC .OHMM           1.08:   RESISTIVITY MUD CAKE
 MCST.F                75:   MUD CAKE SAMPLE TEMPERATURE
 MFSS.           MEASURED:   MUD FILTRATE SAMPLE SOURCE
 MCSS.           MEASURED:   MUD CAKE SAMPLE SOURCE
 BHT .F               100:   BOTTOM HOLE TEMPERATURE
 TCS .HRS               2:   TIME CURCULATED STOPPED
 MRT .F               100:   MAXIMUM RECORDED TEMPERATURE
 LUN .               9685:   LOGGING UNIT NUMBER
 LUL .             CASPER:   LOGGING UNIT LOCATION
 ENGI.            TOTHILL:   RECORDING ENGINEER
 WITN.              AMEND:   WITNESSED BY
 CLNT.            A2DTECH:   CLIENT CODE
 ORIG.           5" PRINT:   ORIGIN OF DATA
 UWI .       490251081100:   UNIQUE WELL ID
 DICO. A2D Technologies, Inc.:   DIGITIZING COMPANY
~OTHER INFORMATION
~A   DEPT     SGRD        ILD        ILM        SPR        CALD        GRD        CORR       RHOB     DPHI   
# ...
  240.0000     9.3046     4.8607     8.0610   -33.1328     7.8191    98.6571     0.0173     2.3679     0.1824
  240.5000     9.0086     5.0796     8.2536   -33.0729     7.8191    98.6528     0.0211     2.3823     0.1768
  241.0000     8.7998     5.3084     8.2536   -33.0120     7.8191    98.6471     0.0208     2.3953     0.1692
  241.5000     9.1355     5.5476     8.2536   -32.9511     7.8191    99.0076     0.0224     2.4044     0.1625
  242.0000     9.6519     5.7974     8.3463   -32.8902     7.8191    99.5881     0.0263     2.4237     0.1560
  242.5000     9.6275     5.9141     8.4560   -32.8295     7.8191   100.7537     0.0250     2.4244     0.1500
  243.0000     9.5780     5.9781     8.5637   -32.7809     7.8191   101.5073     0.0281     2.4364     0.1442
  243.5000     9.5288     6.0429     8.5637   -32.7820     7.8191   100.7056     0.0276     2.4458     0.1400
  244.0000     9.4778     6.1083     8.5639   -32.7821     7.8191   100.2801     0.0226     2.4225     0.1476
  244.5000     9.6349     6.1745     8.5983   -32.7821     7.8191   100.2092     0.0280     2.4393     0.1512
  245.0000     9.8134     6.2413     8.6589   -32.7821     7.8191   100.2995     0.0353     2.4457     0.1408
  245.5000     9.8341     6.3089     8.7197   -32.7820     7.8191   100.3772     0.0348     2.4406     0.1376
  246.0000     9.7927     6.3772     8.7809   -32.7811     7.8191   100.0395     0.0307     2.4330     0.1447
  246.5000     9.7407     6.4463     8.8426   -32.7875     7.8191    98.6270     0.0303     2.4298     0.1468
  247.0000     9.9084     6.4944     8.9185   -32.9181     7.8191    98.6499     0.0241     2.4100     0.1571
  247.5000    10.1540     6.6125     9.0290   -33.0480     7.8191    98.6529     0.0189     2.4046     0.1628
  248.0000    10.3931     6.7230     9.1400   -33.1770     7.8190    98.6473     0.0221     2.4084     0.1620
  248.5000    10.4894     6.8337     9.2518   -33.3059     7.8134    98.9682     0.0253     2.4152     0.1570
  249.0000    10.4894     6.8638     9.3712   -33.4355     7.8016    99.4167     0.0244     2.4201     0.1532
  249.5000    10.7630     6.8638     9.4832   -33.5632     7.7898    99.4657     0.0230     2.4207     0.1532
  250.0000    10.9842     6.8639     9.4177   -33.6859     7.7795    99.1182     0.0272     2.4288     0.1509
  250.5000    10.8358     6.8638     9.3273   -33.5419     7.7819    98.9822     0.0325     2.4247     0.1468
  251.0000    10.6846     6.8638     9.3046   -33.3836     7.7844    99.2276     0.0296     2.4365     0.1439
  251.5000    10.5865     6.8638     9.3546   -33.1984     7.7869    99.4751     0.0281     2.4266     0.1504
  252.0000    10.8834     6.8638     9.4188   -33.0105     7.7893   100.2750     0.0335     2.4419     0.1396
  252.5000    10.4451     6.8642     9.4778   -32.8236     7.7918   101.2779     0.0309     2.4377     0.1434
  253.0000    10.0168     6.8208     9.2345   -32.6302     7.7942   102.3168     0.0247     2.4204     0.1506
  253.5000     9.9160     6.7598     9.0162   -32.5728     7.7967   102.6014     0.0210     2.4110     0.1596
  254.0000    10.3946     6.6995     8.8031   -32.5526     7.7991   102.7138     0.0214     2.4097     0.1568
  254.5000    10.0655     6.6314     8.6430   -32.5333     7.7985   102.8260     0.0174     2.3974     0.1661
  255.0000     9.8338     6.5265     8.6430   -32.5135     7.7976   102.6700     0.0199     2.4006     0.1645
  255.5000     9.9730     6.4232     8.6430   -32.4937     7.7969   102.4389     0.0222     2.4040     0.1630
  256.0000    10.1096     6.3215     8.6430   -32.4739     7.7961   102.1216     0.0246     2.4114     0.1608
  256.5000     9.7737     6.2215     8.5637   -32.4542     7.7952   101.3644     0.0251     2.4079     0.1588
  257.0000     9.3514     6.1449     8.4851   -32.4343     7.7944   100.6137     0.0257     2.4086     0.1602
  257.5000     8.8039     5.9768     8.2612   -32.4144     7.7937    99.8620     0.0296     2.4125     0.1578
  258.0000     7.9223     5.8181     8.0285   -32.3937     7.7929    99.9272     0.0334     2.4124     0.1560
  258.5000     7.3793     5.6556     7.8289   -32.3924     7.7920   100.2150     0.0303     2.3984     0.1644
  259.0000     7.1241     5.3398     7.4632   -32.4079     7.7913   100.5582     0.0273     2.3838     0.1729
  259.5000     6.7384     5.0281     7.1217   -32.5158     7.7905   101.1279     0.0258     2.3689     0.1824
  260.0000     6.1754     4.7442     6.8223   -32.7374     7.7896   101.0346     0.0232     2.3495     0.1934
  260.5000     5.6696     4.2485     6.4994   -32.7871     7.7888   100.4337     0.0161     2.3278     0.2051
  261.0000     5.2535     3.8223     6.0505   -32.7827     7.7881   100.4482     0.0106     2.3063     0.2170
  261.5000     4.8786     3.4309     5.4484   -32.7828     7.7873   100.4579     0.0112     2.2877     0.2288
  262.0000     4.3632     3.0375     4.9063   -32.7917     7.7864   100.8864     0.0121     2.2674     0.2407
  262.5000     3.9158     2.7050     4.4181   -32.4290     7.7856   101.7017     0.0186     2.2576     0.2490
  263.0000     3.5302     2.5576     4.0958   -31.9961     7.7849   101.8618     0.0234     2.2499     0.2528
  263.5000     3.1932     2.3955     4.0465   -31.5619     7.7840   102.2522     0.0281     2.2476     0.2567
  264.0000     3.1639     2.2443     4.0196   -31.1286     7.7832   102.9328     0.0315     2.2467     0.2569
  264.5000     3.5347     2.1073     4.0582   -30.6994     7.7825   103.0520     0.0309     2.2533     0.2512
  265.0000     3.8897     2.1085     4.1769   -30.4966     7.7817   102.9382     0.0315     2.2746     0.2412
  265.5000     4.0582     2.1783     4.5657   -30.6203     7.7808   103.1134     0.0310     2.2932     0.2312
  266.0000     4.0582     2.2703     5.0633   -30.7406     7.7800   104.2726     0.0236     2.3043     0.2201
  266.5000     4.4786     2.3724     5.1575   -30.8640     7.7793   105.3870     0.0126     2.2998     0.2239
  267.0000     5.9940     2.5063     5.2053   -30.9729     7.7793   106.5008     0.0166     2.3152     0.2269
  267.5000     7.9548     2.7318     5.3558   -31.2990     7.7793   107.6649     0.0208     2.3450     0.2058
  268.0000     7.4700     2.9775     5.8426   -31.6178     7.7793   107.7503     0.0222     2.3748     0.1883
  268.5000     7.1876     3.2580     6.3758   -31.9439     7.7793   108.0582     0.0263     2.4032     0.1670
  269.0000     7.6690     3.5984     6.3468   -32.2672     7.7793   108.8540     0.0306     2.4144     0.1576
  269.5000     6.9914     3.9744     6.2918   -32.5881     7.7793   109.6600     0.0313     2.4106     0.1576
  270.0000     6.9268     4.2146     6.2018   -32.7816     7.7793   110.2558     0.0303     2.4046     0.1614
  270.5000     7.2525     4.4211     6.1449   -32.7963     7.7793   110.6000     0.0332     2.4037     0.1644
  271.0000     7.5267     4.5330     6.1944   -32.5568     7.7793   110.3505     0.0369     2.4065     0.1619
  271.5000     7.4576     4.5750     6.3173   -32.1423     7.7793   110.7601     0.0331     2.3925     0.1673
  272.0000     7.3892     4.4621     6.2714   -31.7229     7.7793   111.2192     0.0335     2.3776     0.1777
  272.5000     6.6583     4.2597     6.1849   -31.3089     7.7766   111.6766     0.0384     2.3790     0.1792
  273.0000     5.7483     4.0676     6.1003   -30.8937     7.7688   112.1335     0.0420     2.3759     0.1763
  273.5000     4.9626     3.8844     6.0179   -30.8352     7.7616   112.5899     0.0426     2.3692     0.1817
  274.0000     4.7469     3.7082     5.9225   -30.8843     7.7330   113.0420     0.0479     2.3798     0.1813
  274.5000     5.9527     3.5983     5.8896   -30.9812     7.7319   113.2467     0.0532     2.3949     0.1694
  275.0000     6.4433     3.6003     5.8681   -31.0780     7.7514   113.0075     0.0511     2.4024     0.1623
  275.5000     6.3689     3.5999     5.9773   -31.1730     7.7717   112.3579     0.0430     2.3985     0.1652
  276.0000     6.7429     3.5999     6.2813   -31.2187     7.7733   111.8780     0.0361     2.3956     0.1679
