~VERSION INFORMATION
 VERS.                2.0:   CWLS LOG ASCII STANDARD - VERSION 2.0
 WRAP.                 NO:   ONE LINE PER DEPTH STEP
~WELL INFORMATION
#MNEM.UNIT      DATA TYPE    INFORMATION
#----------   ------------   ------------------------------
 STRT.F            0.0000:   START DEPTH
 STOP.F          635.0000:   STOP DEPTH
 STEP.F            0.1000:   STEP LENGTH
 NULL.          -999.2500:   NO VALUE
 COMP.   FLUOR DANIEL INC:   COMPANY
 WELL. NAVAL PETROLEUM RESERVE 3 SX-3 #72-7-3:   WELL
 FLD .             TEAPOT:   FIELD
 LOC .       S3 T38N R78W:   LOCATION
 CNTY.            NATRONA:   COUNTY
 STAT.            WYOMING:   STATE
 CTRY. UNITED STATES OF AMERICA:   COUNTRY
 SRVC.      Western Atlas:   SERVICE COMPANY
 DATE.        11-JAN-1995:   LOGDATE
 API .       490252264900:   API NUMBER
~CURVE INFORMATION
#MNEM.UNIT       API CODE    CURVE DESCRIPTION
#----------   ------------   ------------------------------
 DEPT.F                  :   
 GRR .GAPI   07 310 01 00:   GAMMA RAY
 RILD.OHMM   07 120 46 00:   INDUCTION LOG DEEP RESISTIVITY
 RILM.OHMM   07 120 44 00:   RESITIVITY LONG MEDIUM
~PARAMETER INFORMATION
#MNEM.UNIT          VALUE    DESCRIPTION
#----------   ------------   ------------------------------
 PD  .                 GL:   PERMANENT DATUM
 EPD .F              5144:   ELEVATION PERMANENT DATUM
 LMF .                 KB:   LOG MEASURED FROM
 DAPD.F                10:   FEET ABOVE PERMANENT DATUM
 DMF .                 KB:   DRILLING MEASURED FROM
 EKB .F              5154:   KELLING BUSHING
 EDF .F              5153:   DRILLING FLOOR
 EGL .F              5144:   GROUND LEVEL
 DATE.        11-JAN-1995:   RUN DATE
 RUN .                  1:   RUN NUMBER
 DD  .F               641:   DEPTH DRILLER
 DL  .F               642:   DEPTH LOGGER
 BLI .F               635:   BOTTOM LOG INTERVAL
 CS  .IN            9.625:   CASING SIZE
 CBD .F                97:   CASING BOTTOM DRILLER
 CBL .F                97:   CASING BOTTOM LOGGER
 BS  .IN             8.75:   BIT SIZE
 BSD .F               641:   BIT SIZE AT DEPTH
 DFT .                AIR:   DRILLING FLUID TYPE
 MRT .F                89:   MAXIMUM RECORDED TEMPERATURE
 LUN .            HL 6530:   LOGGING UNIT NUMBER
 LUL .             CASPER:   LOGGING UNIT LOCATION
 ENGI.      PAT RASMUSSEN:   RECORDING ENGINEER
 WITN.        STEVE HARDY:   WITNESSED BY
 CLNT.            A2DTECH:   CLIENT CODE
 ORIG.           5" PRINT:   ORIGIN OF DATA
 UWI .       490252264900:   UNIQUE WELL ID
 DICO. A2D Technologies, Inc.:   DIGITIZING COMPANY
~OTHER INFORMATION
~A    DEPT      GRR      RILD       RILM   
# ...
  582.4000    94.8752    11.6303    11.6405
  582.5000    95.3676    11.7092    11.6922
  582.6000    95.6388    11.7099    11.6929
  582.7000    95.9458    11.7107    11.6936
  582.8000    96.1652    11.7520    11.7757
  582.9000    96.4310    11.8235    11.7762
  583.0000    96.6969    11.8767    11.8228
  583.1000    97.0573    11.8775    11.8595
  583.2000    97.5308    11.8783    11.8602
  583.3000    97.7965    11.9471    11.8608
  583.4000    98.0899    11.9626    11.8615
  583.5000    98.0937    11.9634    11.8622
  583.6000    97.9038    11.9991    11.8628
  583.7000    97.6463    12.0483    11.8634
  583.8000    97.3889    12.0491    11.8641
  583.9000    97.0590    12.0512    11.8648
  584.0000    96.5397    12.1347    11.8830
  584.1000    96.0044    12.1354    11.9487
  584.2000    95.4050    12.1878    11.9494
  584.3000    94.9827    12.2215    12.0173
  584.4000    94.1189    12.2224    12.0338
  584.5000    93.0766    12.2232    12.0345
  584.6000    92.2172    12.2240    12.0691
  584.7000    91.7491    12.2250    12.1196
  584.8000    91.4916    12.2257    12.1317
  584.9000    91.2047    12.2834    12.2053
  585.0000    90.9768    12.3125    12.2061
  585.1000    90.9106    12.3133    12.2066
  585.2000    90.7641    12.3142    12.2073
  585.3000    90.6169    12.3261    12.2080
  585.4000    90.5515    12.4015    12.2087
  585.5000    90.3228    12.4025    12.2094
  585.6000    90.3277    12.4033    12.2100
  585.7000    90.0304    12.4041    12.2108
  585.8000    90.0338    12.4050    12.2114
  585.9000    90.0381    12.4058    12.2677
  586.0000    89.9134    12.4228    12.2977
  586.1000    89.6559    12.4938    12.2984
  586.2000    89.4457    12.4948    12.2991
  586.3000    89.4508    12.4956    12.3097
  586.4000    89.4555    12.4964    12.3861
  586.5000    89.4592    12.4973    12.3869
  586.6000    89.4634    12.4982    12.3874
  586.7000    89.4677    12.4990    12.3881
  586.8000    89.4719    12.4999    12.4270
  586.9000    89.4761    12.5008    12.5025
  587.0000    89.4804    12.5018    12.5633
  587.1000    89.4848    12.5025    12.5640
  587.2000    89.4888    12.5034    12.5647
  587.3000    89.4930    12.5421    12.6326
  587.4000    89.4973    12.5921    12.6535
  587.5000    89.5015    12.5929    12.6982
  587.6000    89.5057    12.5938    12.7430
  587.7000    89.5100    12.5948    12.7437
  587.8000    89.5141    12.5956    12.7444
  587.9000    89.2169    12.5964    12.7451
  588.0000    88.9949    12.5973    12.7458
  588.1000    88.7375    12.5982    12.7465
  588.2000    88.4801    12.5990    12.7472
  588.3000    88.1186    12.5999    12.7479
  588.4000    87.5996    12.6008    12.7486
  588.5000    87.0806    12.6017    12.7493
  588.6000    86.5272    12.6025    12.7501
  588.7000    86.0426    12.6034    12.7509
  588.8000    85.5236    12.6043    12.7515
  588.9000    85.0044    12.6052    12.7522
  589.0000    84.4853    12.6060    12.7529
  589.1000    84.0488    12.6069    12.7536
  589.2000    83.7493    12.6079    12.7543
  589.3000    83.2318    12.6087    12.7550
  589.4000    82.9360    12.6095    12.7558
  589.5000    82.9396    12.6104    12.7564
  589.6000    82.7618    12.6113    12.7571
  589.7000    82.6459    12.6122    12.7578
  589.8000    82.7513    12.6130    12.7585
  589.9000    82.9565    12.6140    12.7593
  590.0000    83.0010    12.5451    12.7600
  590.1000    83.5695    12.5285    12.7607
  590.2000    83.8148    12.4835    12.7615
  590.3000    84.0806    12.4437    12.7621
  590.4000    84.5066    12.4446    12.7628
  590.5000    84.9144    12.4454    12.7635
  590.6000    85.1803    12.4463    12.7642
  590.7000    85.4848    12.4473    12.7649
  590.8000    86.0157    12.4480    12.7656
  590.9000    86.6248    12.3983    12.7664
  591.0000    87.0675    12.3638    12.7670
  591.1000    87.7740    12.3646    12.7677
  591.2000    88.4246    12.3655    12.7685
  591.3000    88.9520    12.3663    12.7692
  591.4000    89.4795    12.3673    12.7699
  591.5000    89.9899    12.3014    12.7706
  591.6000    90.2795    12.2835    12.7713
  591.7000    90.7598    12.2843    12.6839
  591.8000    91.0897    12.2852    12.6844
  591.9000    91.3555    12.3067    12.6851
  592.0000    91.5045    12.3723    12.6858
  592.1000    91.5852    12.3732    12.6865
  592.2000    91.8151    12.4603    12.6872
  592.3000    91.8194    12.4610    12.6879
  592.4000    91.8243    12.4618    12.6887
  592.5000    91.8278    12.4627    12.6894
  592.6000    91.6561    12.4895    12.6901
  592.7000    91.5341    12.5511    12.6908
  592.8000    91.5384    12.5520    12.6915
  592.9000    91.4881    12.5530    12.6922
  593.0000    91.2307    12.5537    12.6929
  593.1000    90.9473    12.5546    12.6936
  593.2000    90.2454    12.5555    12.6943
  593.3000    89.4646    12.5255    12.6950
  593.4000    88.5294    12.4705    12.6470
  593.5000    87.4874    12.4713    12.6086
  593.6000    86.5919    12.4723    12.6093
  593.7000    86.0726    12.4731    12.6100
  593.8000    85.5385    12.4739    12.6094
  593.9000    85.2413    12.4748    12.5244
  594.0000    85.0312    12.4401    12.4603
  594.1000    84.9468    12.3904    12.4391
  594.2000    84.9511    12.3789    12.3987
  594.3000    84.9553    12.3057    12.3545
  594.4000    84.9595    12.2225    12.3374
  594.5000    84.9748    12.1607    12.2704
  594.6000    85.2706    12.1396    12.2712
  594.7000    85.5066    12.0618    12.2036
  594.8000    85.9641    11.9742    12.1313
  594.9000    86.4916    11.9584    12.1041
  595.0000    87.0192    11.8931    12.0713
  595.1000    87.6170    11.8940    11.9998
  595.2000    88.4359    11.8293    11.9393
  595.3000    89.5295    11.8135    11.9400
  595.4000    90.4407    11.7712    11.8583
  595.5000    90.8650    11.7335    11.7993
  595.6000    91.3925    11.7134    11.7775
  595.7000    91.9200    11.6540    11.7410
  595.8000    92.3585    11.6549    11.6713
  595.9000    92.5758    11.5753    11.6172
  596.0000    92.5638    11.5184    11.6136
  596.1000    91.9806    11.4968    11.5383
  596.2000    91.7551    11.4976    11.5388
  596.3000    91.4976    11.4733    11.4877
  596.4000    91.0920    11.4055    11.4196
  596.5000    90.6807    11.3417    11.3818
  596.6000    90.3561    11.3426    11.3631
  596.7000    89.8370    11.2824    11.3043
  596.8000    89.2909    11.2157    11.3050
  596.9000    89.2949    11.1887    11.2276
  597.0000    89.2991    11.1606    11.2281
  597.1000    89.3033    11.0947    11.1844
  597.2000    89.3076    11.0369    11.1518
  597.3000    89.3978    11.0378    11.1524
  597.4000    89.6636    11.0387    11.1401
  597.5000    89.9347    10.9859    11.0765
  597.6000    90.5335    10.9210    11.0772
  597.7000    90.5372    10.8888    11.0193
  597.8000    90.9128    10.8896    11.0018
  597.9000    91.2951    10.8782    10.9648
  598.0000    91.5609    10.8139    10.8998
  598.1000    91.7625    10.7420    10.8352
  598.2000    91.7905    10.7427    10.7776
  598.3000    92.0734    10.6972    10.7783
  598.4000    92.3223    10.6340    10.7177
  598.5000    92.5881    10.5970    10.7049
  598.6000    92.8539    10.5977    10.7055
  598.7000    93.1198    10.5985    10.6753
  598.8000    93.3857    10.5993    10.6119
  598.9000    93.6516    10.6000    10.5597
  599.0000    93.9173    10.5509    10.5604
  599.1000    94.2224    10.5282    10.5611
  599.2000    94.4492    10.5289    10.5073
  599.3000    94.7150    10.5096    10.4892
  599.4000    94.9809    10.4575    10.4553
  599.5000    95.3484    10.4584    10.4178
  599.6000    95.8147    10.4592    10.4184
  599.7000    96.1013    10.4066    10.4190
  599.8000    96.6686    10.3451    10.4196
  599.9000    96.0725    10.3173    10.3624
  600.0000    96.4752    10.3178    10.3487
  600.1000    96.9698    10.3062    10.2420
  600.2000    97.3726    10.2467    10.1834
  600.3000    97.5831    10.2467    10.1370
  600.4000    97.5831    10.2467    10.1375
  600.5000    97.5831    10.2117    10.1380
