~VERSION INFORMATION
 VERS.                2.0:   CWLS LOG ASCII STANDARD - VERSION 2.0
 WRAP.                 NO:   ONE LINE PER DEPTH STEP
~WELL INFORMATION
#MNEM.UNIT      DATA TYPE    INFORMATION
#----------   ------------   ------------------------------
 STRT.F           67.0000:   START DEPTH
 STOP.F          510.0000:   STOP DEPTH
 STEP.F            0.5000:   STEP LENGTH
 NULL.          -999.2500:   NO VALUE
 COMP.       F D SERV INC:   COMPANY
 WELL.    77-5 SX 3 #77-3:   WELL
 FLD .             TEAPOT:   FIELD
 LOC .       S3 T38N R78W:   LOCATION
 CNTY.            NATRONA:   COUNTY
 STAT.            WYOMING:   STATE
 CTRY. UNITED STATES OF AMERICA:   COUNTRY
 SRVC.     Atlas Wireline:   SERVICE COMPANY
 DATE.        24-NOV-1992:   LOGDATE
 API .       490252254400:   API NUMBER
~CURVE INFORMATION
#MNEM.UNIT       API CODE    CURVE DESCRIPTION
#----------   ------------   ------------------------------
 DEPT.F                  :   
 PORZ.DEC    45 890 12 00:   DENSITY POROSITY
 NPOR.DEC    42 890 03 00:   NEUTRON POROSITY SANDSTONE
 C13 .IN     45 280 13 00:   CALIPER 1 - 3
 GRD .GAPI   45 310 01 00:   GAMMA RAY FROM DENSITY LOG
 ZCOR.G/C3   45 356 01 00:   DENSITY CORRECTION
 ZDEN.G/C3   45 350 01 00:   BULK DENSITY
~PARAMETER INFORMATION
#MNEM.UNIT          VALUE    DESCRIPTION
#----------   ------------   ------------------------------
 PD  .                 GL:   PERMANENT DATUM
 EPD .F              5137:   ELEVATION PERMANENT DATUM
 LMF .                 KB:   LOG MEASURED FROM
 DAPD.F                10:   FEET ABOVE PERMANENT DATUM
 DMF .                 KB:   DRILLING MEASURED FROM
 EKB .F              5147:   KELLING BUSHING
 EDF .F              5146:   DRILLING FLOOR
 EGL .F              5137:   GROUND LEVEL
 DATE.        24-NOV-1992:   RUN DATE
 RUN .                  1:   RUN NUMBER
 DD  .F               510:   DEPTH DRILLER
 DL  .F               512:   DEPTH LOGGER
 BLI .F               510:   BOTTOM LOG INTERVAL
 TLI .F                99:   TOP LOG INTERVAL
 CS  .IN            8.625:   CASING SIZE
 CBD .F                97:   CASING BOTTOM DRILLER
 CBL .F                99:   CASING BOTTOM LOGGER
 BS  .IN            7.875:   BIT SIZE
 BSD .F               510:   BIT SIZE AT DEPTH
 DFT .           AIR FOAM:   DRILLING FLUID TYPE
 MRT .F                70:   MAXIMUM RECORDED TEMPERATURE
 LUN .            HL-6274:   LOGGING UNIT NUMBER
 LUL .             CASPER:   LOGGING UNIT LOCATION
 WITN.           G.STRONG:   WITNESSED BY
 CLNT.            A2DTECH:   CLIENT CODE
 ORIG.           5" PRINT:   ORIGIN OF DATA
 UWI .       490252254400:   UNIQUE WELL ID
 DICO. A2D Technologies, Inc.:   DIGITIZING COMPANY
~OTHER INFORMATION
~A   DEPT     PORZ       NPOR        C13        GRD       ZCOR       ZDEN   
# ...
  379.0000     0.1086     0.2687     8.0987   138.2963     0.0113     2.4694
  379.5000     0.1104     0.2690     8.0979   141.6287     0.0053     2.4679
  380.0000     0.1126     0.2706     8.0972   143.4452     0.0038     2.4664
  380.5000     0.1153     0.2721     8.0964   134.9400     0.0053     2.4618
  381.0000     0.1329     0.2709     8.0957   127.6503     0.0083     2.4307
  381.5000     0.1562     0.2664     8.0950   117.6292     0.0144     2.3928
  382.0000     0.1873     0.2577     8.0942   113.0709     0.0253     2.3390
  382.5000     0.2088     0.2494     8.1087   111.5475     0.0339     2.2897
  383.0000     0.2247     0.2467     8.0918   112.4520     0.0370     2.2609
  383.5000     0.2401     0.2455     8.0464   114.2669     0.0385     2.2518
  384.0000     0.2407     0.2470     8.0302   117.2959     0.0385     2.2510
  384.5000     0.2299     0.2513     8.0449   118.8074     0.0354     2.2828
  385.0000     0.2166     0.2577     8.0895   119.1049     0.0324     2.3024
  385.5000     0.2055     0.2604     8.0888   118.1870     0.0234     2.3115
  386.0000     0.2038     0.2598     8.0881   118.4845     0.0158     2.3160
  386.5000     0.2114     0.2532     8.0721   118.4785     0.0156     2.3032
  387.0000     0.2177     0.2510     8.0562   119.0796     0.0173     2.2864
  387.5000     0.2247     0.2523     8.0250   120.8946     0.0189     2.2788
  388.0000     0.2287     0.2513     7.9939   122.7110     0.0251     2.2712
  388.5000     0.2251     0.2484     7.9627   121.1861     0.0372     2.2772
  389.0000     0.2154     0.2487     7.9620   119.0557     0.0415     2.2991
  389.5000     0.2043     0.2499     7.9613   119.3533     0.0339     2.3218
  390.0000     0.1925     0.2524     7.9605   122.0787     0.0294     2.3438
  390.5000     0.1807     0.2539     7.9596   122.6981     0.0309     2.3559
  391.0000     0.1750     0.2500     7.9588   119.6271     0.0460     2.3619
  391.5000     0.1717     0.2446     7.9581   116.8749     0.0475     2.3657
  392.0000     0.1669     0.2436     7.9573   116.9440     0.0385     2.3733
  392.5000     0.1632     0.2488     7.9720   119.9230     0.0309     2.3810
  393.0000     0.1636     0.2522     7.9864   125.0764     0.0339     2.3800
  393.5000     0.1660     0.2531     8.0009   128.7123     0.0460     2.3761
  394.0000     0.1684     0.2513     8.0000   130.5273     0.0475     2.3701
  394.5000     0.1671     0.2516     7.9992   130.5213     0.0396     2.3731
  395.0000     0.1638     0.2571     7.9985   131.7293     0.0143     2.3791
  395.5000     0.1658     0.2607     7.9977   132.0283     0.0038     2.3813
  396.0000     0.1741     0.2616     7.9970   130.5034     0.0128     2.3533
  396.5000     0.1852     0.2610     8.0114   130.1940     0.0279     2.3366
  397.0000     0.1943     0.2626     7.9953   131.4020     0.0294     2.3297
  397.5000     0.1883     0.2644     7.9945   131.7097     0.0264     2.3320
  398.0000     0.1831     0.2666     8.0092   130.7709     0.0173     2.3456
  398.5000     0.1816     0.2663     7.9931   129.8321     0.0249     2.3508
  399.0000     0.1804     0.2654     7.9923   128.9487     0.0279     2.3516
  399.5000     0.1780     0.2657     7.9764   128.0323     0.0234     2.3546
  400.0000     0.1749     0.2666     7.9755   126.1299     0.0228     2.3606
  400.5000     0.1662     0.2675     7.9737   123.4799     0.0279     2.3697
  401.0000     0.1532     0.2597     7.9720   125.0048     0.0400     2.3840
  401.5000     0.1322     0.2410     7.9702   125.9212     0.0475     2.4120
  402.0000     0.1113     0.2222     7.9684   125.8540     0.0475     2.4533
  402.5000     0.0826     0.2062     7.9666   117.2736     0.0428     2.4942
  403.0000     0.0627     0.1887     7.9648   113.1939     0.0143     2.5345
  403.5000     0.0614     0.1938     7.9631   112.5913    -0.0038     2.5499
  404.0000     0.0889     0.2128     7.9613   116.5441     0.0008     2.5070
  404.5000     0.1323     0.2340     7.9595   122.3164     0.0158     2.4639
  405.0000     0.1455     0.2510     7.9574   128.3921     0.0249     2.4097
  405.5000     0.1594     0.2553     7.9571   133.2539     0.0294     2.3817
  406.0000     0.1724     0.2531     7.9416   133.5618     0.0309     2.3695
  406.5000     0.1687     0.2525     7.9413   130.5343     0.0309     2.3665
  407.0000     0.1606     0.2553     7.9410   129.3263     0.0294     2.3755
  407.5000     0.1569     0.2611     7.9560   129.6358     0.0294     2.3862
  408.0000     0.1576     0.2611     7.9556   129.5449     0.0264     2.3929
  408.5000     0.1633     0.2590     7.9553   127.2197     0.0234     2.3785
  409.0000     0.1715     0.2563     7.9550   127.5306     0.0219     2.3671
  409.5000     0.1749     0.2557     7.9547   128.4470     0.0234     2.3626
  410.0000     0.1712     0.2575     7.9543   130.2738     0.0234     2.3603
  410.5000     0.1634     0.2594     7.9541   131.7957     0.0264     2.3732
  411.0000     0.1552     0.2588     7.9538   128.4648     0.0309     2.3830
  411.5000     0.1504     0.2606     7.9687   126.6483     0.0339     2.3921
  412.0000     0.1482     0.2633     7.9988   127.8696     0.0339     2.3996
  412.5000     0.1473     0.2649     8.0137   126.0546     0.0339     2.4049
  413.0000     0.1471     0.2643     8.0134   125.4536     0.0249     2.4064
  413.5000     0.1474     0.2634     7.9979   132.1378     0.0172     2.4064
  414.0000     0.1474     0.2616     7.9976   130.9297     0.0143     2.4064
  414.5000     0.1474     0.2613     7.9821   128.8112     0.0158     2.4056
  415.0000     0.1468     0.2628     7.9818   127.6032     0.0173     2.4064
  415.5000     0.1444     0.2637     7.9814   128.5196     0.0189     2.4116
  416.0000     0.1382     0.2644     7.9811   129.7395     0.0204     2.4200
  416.5000     0.1335     0.2644     7.9808   130.0489     0.0234     2.4283
  417.0000     0.1308     0.2644     7.9805   130.3584     0.0294     2.4328
  417.5000     0.1329     0.2647     7.9650   130.6678     0.0324     2.4344
  418.0000     0.1335     0.2664     7.9647   130.9772     0.0294     2.4335
  418.5000     0.1302     0.2678     7.9644   130.9833     0.0204     2.4336
  419.0000     0.1275     0.2663     7.9489   131.5975     0.0157     2.4373
  419.5000     0.1248     0.2648     7.9486   131.9055     0.0140     2.4426
  420.0000     0.1239     0.2651     7.9483   127.3605     0.0128     2.4441
  420.5000     0.1233     0.2666     7.9480   124.9385     0.0143     2.4456
  421.0000     0.1196     0.2685     7.9477   125.2480     0.0189     2.4486
  421.5000     0.1163     0.2703     7.9474   128.2888     0.0219     2.4524
  422.0000     0.1142     0.2700     7.9623   131.0261     0.0234     2.4562
  422.5000     0.1140     0.2673     7.9924   131.4163     0.0234     2.4599
  423.0000     0.1125     0.2652     7.9921   128.3066     0.0219     2.4637
  423.5000     0.1132     0.2661     7.9766   129.5751     0.0189     2.4660
  424.0000     0.1144     0.2664     7.9459   133.2636     0.0158     2.4635
  424.5000     0.1135     0.2664     7.9304   136.2166     0.0174     2.4599
  425.0000     0.1108     0.2662     7.8997   138.0435     0.0254     2.4629
  425.5000     0.1090     0.2659     7.8994   137.4424     0.0294     2.4666
  426.0000     0.1093     0.2659     7.8838   135.9309     0.0234     2.4712
  426.5000     0.1108     0.2656     7.8835   133.8124     0.0189     2.4704
  427.0000     0.1111     0.2641     7.8832   131.9974     0.0204     2.4666
  427.5000     0.1099     0.2632     7.8829   132.3068     0.0189     2.4658
  428.0000     0.1075     0.2629     7.8826   133.5267     0.0219     2.4666
  428.5000     0.1048     0.2629     7.8823   135.0501     0.0234     2.4719
  429.0000     0.1024     0.2629     7.8820   135.6631     0.0219     2.4803
  429.5000     0.1048     0.2630     7.8818   134.7061     0.0189     2.4824
  430.0000     0.1085     0.2630     7.8815   135.9798     0.0219     2.4748
  430.5000     0.1088     0.2642     7.8812   140.2346     0.0234     2.4710
