~VERSION INFORMATION
 VERS.                2.0:   CWLS LOG ASCII STANDARD - VERSION 2.0
 WRAP.                 NO:   ONE LINE PER DEPTH STEP
~WELL INFORMATION
#MNEM.UNIT      DATA TYPE    INFORMATION
#----------   ------------   ------------------------------
 STRT.F           42.0000:   START DEPTH
 STOP.F         3140.0000:   STOP DEPTH
 STEP.F            0.5000:   STEP LENGTH
 NULL.          -999.2500:   NO VALUE
 COMP. LAWRENCE-ALLISON & AS:   COMPANY
 WELL.     88 X 33 #88-33:   WELL
 FLD .             NPR #3:   FIELD
 LOC .      S33 T39N R78W:   LOCATION
 CNTY.            NATRONA:   COUNTY
 STAT.            WYOMING:   STATE
 CTRY. UNITED STATES OF AMERICA:   COUNTRY
 SRVC.       Schlumberger:   SERVICE COMPANY
 DATE.        13-DEC-1987:   LOGDATE
 API .       490251120300:   API NUMBER
~CURVE INFORMATION
#MNEM.UNIT       API CODE    CURVE DESCRIPTION
#----------   ------------   ------------------------------
 DEPT.F                  :   
 GRR .GAPI   07 310 01 00:   GAMMA RAY FROM RES
 SPR .MV     07 010 01 00:   SPONTANEOUS POTENTIAL
 ILD .OHMM   07 120 46 00:   INDUCTION LOG DEEP RES
 ILM .OHMM   07 120 44 00:   INDUCTION LOG MEDIUM RES
 SFLU.OHMM   07 220 01 00:   SPHERICALLY FOCUSED LOG UNAVERAGED RES
 DPHI.DEC    45 890 12 00:   DENSITY POROSITY SANDSTONE
 NPHI.DEC    42 890 03 00:   NEUTRON POROSITY SANDSTONE
 CALD.IN     45 280 60 00:   CALIPER FROM DENSITY LOG
 DRHO.G/C3   45 356 01 00:   DENSITY CORRECTION
 RHOB.G/C3   45 350 01 00:   BULK DENSITY
~PARAMETER INFORMATION
#MNEM.UNIT          VALUE    DESCRIPTION
#----------   ------------   ------------------------------
 PD  .                 GL:   PERMANENT DATUM
 EPD .F              5746:   ELEVATION PERMANENT DATUM
 LMF .                 KB:   LOG MEASURED FROM
 DAPD.F                11:   FEET ABOVE PERMANENT DATUM
 DMF .                 KB:   DRILLING MEASURED FROM
 EKB .F              5157:   KELLING BUSHING
 EGL .F              5146:   GROUND LEVEL
 DATE.        13-DEC-1987:   RUN DATE
 RUN .                  1:   RUN NUMBER
 DD  .F              3155:   DEPTH DRILLER
 DL  .F              3140:   DEPTH LOGGER
 BLI .F              3132:   BOTTOM LOG INTERVAL
 TLI .F               614:   TOP LOG INTERVAL
 CS  .IN            9.625:   CASING SIZE
 CBD .F               608:   CASING BOTTOM DRILLER
 CBL .F               614:   CASING BOTTOM LOGGER
 BS  .IN            7.875:   BIT SIZE
 BSD .F              3155:   BIT SIZE AT DEPTH
 DFT .       KCL DIS. PAC:   DRILLING FLUID TYPE
 DFD .                  9:   DRILLING FLUID DENSITY
 DFV .                 41:   DRILLING FLUID VISCOSITY
 DFPH.                9.5:   DRILLING FLUID PH
 DFL .                8.4:   DRILLING FLUID LOSS
 MSS .           FLOWLINE:   MUD SAMPLE SOURCE
 RMS .OHMM          0.523:   RESISTIVITY MUD SAMPLE
 MST .F                63:   MUD SAMPLE TEMPERATURE
 RMF .OHMM          0.435:   RESISTIVITY MUD FILTRATE SAMPLE
 MFST.F                63:   MUD FILTRATE SAMPLE TEMPERATURE
 RMC .OHMM          0.489:   RESISTIVITY MUD CAKE
 MCST.F                63:   MUD CAKE SAMPLE TEMPERATURE
 MFSS.              PRESS:   MUD FILTRATE SAMPLE SOURCE
 MCSS.               CALC:   MUD CAKE SAMPLE SOURCE
 RMB .OHMM          0.288:   RESISTIVITY MUD AT BHT
 BHT .F               120:   BOTTOM HOLE TEMPERATURE
 TCS .HRS            0600:   TIME CURCULATED STOPPED
 TLAB.HRS            1430:   TIME LOGGER AT BOTTOM
 MRT .F               120:   MAXIMUM RECORDED TEMPERATURE
 LUN .               8198:   LOGGING UNIT NUMBER
 LUL .             CASPER:   LOGGING UNIT LOCATION
 ENGI.          W. BENSON:   RECORDING ENGINEER
 WITN.        GARY STRONG:   WITNESSED BY
 CLNT.            A2DTECH:   CLIENT CODE
 ORIG.           5" PRINT:   ORIGIN OF DATA
 UWI .       490251120300:   UNIQUE WELL ID
 DICO. A2D Technologies, Inc.:   DIGITIZING COMPANY
~OTHER INFORMATION
~A   DEPT      GRR        SPR        ILD        ILM       SFLU       DPHI       NPHI       CALD       DRHO       RHOB   
# ...
 2588.0000   140.0602   -89.0484     6.7029     6.5978     8.3438     0.0557     0.2260     8.7328    -0.0278     2.5512
 2588.5000   141.1898   -89.0529     6.6112     6.5513     8.0047     0.0542     0.2230     8.7333    -0.0263     2.5580
 2589.0000   141.4157   -89.0574     6.5659     6.6418     7.6265     0.0548     0.2215     8.7187    -0.0264     2.5557
 2589.5000   139.1566   -89.0620     6.7044     6.7336     7.4611     0.0576     0.2187     8.7192    -0.0293     2.5483
 2590.0000   130.5723   -88.9157     6.8457     6.8743     7.8418     0.0620     0.2181     8.7196    -0.0323     2.5415
 2590.5000   123.7952   -88.7687     6.9418     6.9691     8.4631     0.0644     0.2203     8.7051    -0.0330     2.5363
 2591.0000   124.6988   -88.4720     7.0881     7.0654     8.8227     0.0635     0.2207     8.7055    -0.0315     2.5361
 2591.5000   126.5060   -88.1753     7.2375     7.1630     9.0086     0.0614     0.2199     8.6910    -0.0315     2.5416
 2592.0000   127.1837   -87.8786     7.3901     7.2619     9.1348     0.0605     0.2198     8.6615    -0.0315     2.5439
 2592.5000   124.2470   -88.0349     7.4937     7.3623     9.1990     0.0620     0.2224     8.6319    -0.0307     2.5431
 2593.0000   124.6988   -88.4912     7.4424     7.3612     9.1996     0.0629     0.2290     8.6324    -0.0307     2.5402
 2593.5000   127.4096   -88.9476     7.3404     7.3094     9.0737     0.0620     0.2353     8.6328    -0.0300     2.5379
 2594.0000   130.2563   -89.1027     7.2399     7.2078     8.8878     0.0599     0.2437     8.6326    -0.0300     2.5410
 2594.5000   135.4815   -89.2578     7.1904     7.0585     8.5859     0.0590     0.2510     8.6306    -0.0300     2.5447
 2595.0000   138.7795   -89.1106     7.0919     6.9123     8.2943     0.0608     0.2585     8.6286    -0.0300     2.5448
 2595.5000   139.3825   -88.9759     6.8986     6.7691     7.9023     0.0632     0.2582     8.6266    -0.0300     2.5403
 2596.0000   135.8744   -88.5249     6.7105     6.5831     7.4770     0.0686     0.2538     8.6246    -0.0300     2.5351
 2596.5000   134.6385   -88.3756     6.5728     6.4468     7.3745     0.0731     0.2393     8.6225    -0.0337     2.5231
 2597.0000   135.8365   -88.5279     6.4827     6.3572     7.6350     0.0728     0.2329     8.6205    -0.0344     2.5223
 2597.5000   137.3494   -88.6803     6.3499     6.3124     7.7958     0.0713     0.2319     8.6185    -0.0337     2.5269
 2598.0000   137.0927   -88.9834     6.3503     6.3115     7.8505     0.0686     0.2331     8.6165    -0.0330     2.5321
 2598.5000   134.5726   -89.7391     6.3508     6.3106     7.6366     0.0671     0.2365     8.6145    -0.0315     2.5337
 2599.0000   128.0425   -89.5897     6.3954     6.3097     7.4283     0.0668     0.2307     8.6125    -0.0315     2.5337
 2599.5000   123.7881   -89.5913     6.3958     6.2653     7.2761     0.0655     0.2268     8.6105    -0.0330     2.5352
 2600.0000   122.8916   -89.5928     6.3986     6.3146     7.1765     0.0649     0.2279     8.6077    -0.0337     2.5367
 2600.5000   128.5367   -89.5943     6.4279     6.3976     7.7446     0.0655     0.2348     8.5960    -0.0345     2.5360
 2601.0000   131.9230   -89.2941     6.3952     6.3105     7.9072     0.0667     0.2406     8.5842    -0.0382     2.5353
 2601.5000   134.1798   -88.9939     6.3948     6.3561     8.0175     0.0679     0.2460     8.5725    -0.0419     2.5330
 2602.0000   133.9516   -88.9955     6.3502     6.3131     7.9621     0.0706     0.2475     8.5608    -0.0501     2.5284
 2602.5000   129.2054   -89.1478     6.3059     6.2712     7.6912     0.0757     0.2463     8.5475    -0.0479     2.5193
 2603.0000   124.4592   -89.1493     6.2187     6.1434     7.4810     0.0787     0.2442     8.5196    -0.0405     2.5151
 2603.5000   122.8756   -89.3017     6.0065     6.0182     7.1766     0.0763     0.2448     8.5020    -0.0360     2.5189
 2604.0000   124.6805   -89.1523     5.9234     5.9363     6.8370     0.0757     0.2490     8.4600    -0.0346     2.5197
 2604.5000   128.9705   -89.1538     5.8414     5.7755     6.4685     0.0775     0.2595     8.4451    -0.0353     2.5137
 2605.0000   130.3242   -89.1554     5.7208     5.6578     6.3355     0.0784     0.2625     8.4303    -0.0376     2.5137
 2605.5000   129.6437   -89.0060     5.6417     5.6199     6.4239     0.0763     0.2577     8.4154    -0.0361     2.5175
 2606.0000   129.4161   -89.0075     5.5637     5.5822     6.6043     0.0730     0.2562     8.4156    -0.0339     2.5243
 2606.5000   133.0277   -88.8582     5.4867     5.5065     6.7429     0.0711     0.2559     8.3858    -0.0317     2.5258
 2607.0000   132.5736   -88.7088     5.4108     5.3571     6.7429     0.0726     0.2613     8.3709    -0.0302     2.5228
 2607.5000   128.9569   -88.7107     5.3359     5.2118     6.7429     0.0753     0.2667     8.3411    -0.0295     2.5168
 2608.0000   126.0179   -88.5610     5.2258     5.1411     6.6502     0.0759     0.2631     8.3113    -0.0288     2.5191
 2608.5000   130.0819   -88.4117     5.0826     5.0713     6.5135     0.0741     0.2595     8.2814    -0.0280     2.5221
 2609.0000   132.7905   -88.2624     5.0123     4.8997     6.2484     0.0726     0.2598     8.2665    -0.0280     2.5244
 2609.5000   128.4961   -87.8117     4.9429     4.8668     5.8303     0.0729     0.2682     8.2517    -0.0295     2.5244
 2610.0000   121.9426   -87.3608     4.9426     4.8342     5.5930     0.0747     0.2733     8.2369    -0.0347     2.5192
 2610.5000   119.9072   -86.6081     5.0461     5.0069     5.8708     0.0774     0.2616     8.2220    -0.0333     2.5140
 2611.0000   120.8086   -85.7046     5.2236     5.2193     6.1624     0.0804     0.2298     8.2072    -0.0296     2.5117
 2611.5000   120.8063   -84.4995     5.4829     5.3690     6.1122     0.0846     0.1943     8.2074    -0.0274     2.5043
 2612.0000   117.1896   -83.7469     6.0411     5.6457     6.3795     0.0855     0.1461     8.2075    -0.0237     2.5070
 2612.5000   100.2446   -82.2401     6.8909     6.5382     7.1270     0.0777     0.1172     8.1926    -0.0215     2.5253
 2613.0000    85.5586   -80.5824     7.9148     7.9014     9.4671     0.0680     0.1050     8.1928    -0.0200     2.5448
 2613.5000    75.3907   -78.9248     9.0909    10.2334    20.9934     0.0569     0.1116     8.1780    -0.0178     2.5531
 2614.0000    69.2890   -77.8705    11.1137    13.4119    28.2752     0.0593     0.1380     8.1781    -0.0217     2.5404
 2614.5000    68.3831   -76.0621    14.3612    16.2875    70.0472     0.0788     0.1709     8.1783    -0.0260     2.4827
 2615.0000    69.9622   -74.4044    18.0503    20.1952   100.4111     0.1095     0.1951     8.1634    -0.0237     2.4355
 2615.5000    70.4123   -73.0485    21.4634    24.0205    92.4042     0.1468     0.2042     8.1636    -0.0200     2.4092
 2616.0000    71.5390   -72.4467    24.8241    26.1089    60.1486     0.1552     0.2048     8.1637    -0.0170     2.3808
 2616.5000    76.9585   -70.7891    26.2374    27.2231    36.0304     0.1649     0.2054     8.1639    -0.0179     2.3733
 2617.0000    81.0225   -69.8856    26.6023    27.6088    25.8409     0.1691     0.2072     8.1640    -0.0179     2.3643
 2617.5000    82.8280   -68.9821    25.8727    26.4898    20.5618     0.1700     0.2111     8.1642    -0.0187     2.3606
 2618.0000    79.2107   -68.2295    24.1387    24.7213    20.5618     0.1651     0.2144     8.1643    -0.0187     2.3696
 2618.5000    75.1422   -67.7781    22.6775    22.4400    21.4341     0.1567     0.2132     8.1645    -0.0194     2.3906
 2619.0000    74.6881   -67.3275    22.3638    20.6536    22.1893     0.1566     0.2099     8.1646    -0.0209     2.3884
 2619.5000    76.2672   -66.8765    22.2079    19.5437    22.6551     0.1609     0.2072     8.1648    -0.0232     2.3794
 2620.0000    78.9758   -66.4255    21.9007    19.2787    22.6551     0.1672     0.2068     8.1649    -0.0254     2.3637
 2620.5000    80.7808   -65.8237    21.3004    19.1472    22.0361     0.1642     0.2090     8.1651    -0.0262     2.3735
 2621.0000    82.3598   -65.6740    20.7166    18.2386    20.8485     0.1570     0.2114     8.1652    -0.0232     2.3878
