~VERSION INFORMATION
 VERS.                2.0:   CWLS LOG ASCII STANDARD - VERSION 2.0
 WRAP.                 NO:   ONE LINE PER DEPTH STEP
~WELL INFORMATION
#MNEM.UNIT      DATA TYPE    INFORMATION
#----------   ------------   ------------------------------
 STRT.F            6.0000:   START DEPTH
 STOP.F          528.0000:   STOP DEPTH
 STEP.F            0.5000:   STEP LENGTH
 NULL.          -999.2500:   NO VALUE
 COMP.       F D SERV INC:   COMPANY
 WELL.  82-3 SX-10 #82-10:   WELL
 FLD .             TEAPOT:   FIELD
 LOC .      S10 T38N R78W:   LOCATION
 CNTY.            NATRONA:   COUNTY
 STAT.            WYOMING:   STATE
 CTRY. UNITED STATES OF AMERICA:   COUNTRY
 SRVC.     Atlas Wireline:   SERVICE COMPANY
 DATE.        08-DEC-1992:   LOGDATE
 API .       490252257800:   API NUMBER
~CURVE INFORMATION
#MNEM.UNIT       API CODE    CURVE DESCRIPTION
#----------   ------------   ------------------------------
 DEPT.F                  :   
 GRR .GAPI   07 310 01 00:   GAMMA RAY
 RILD.OHMM   07 120 46 00:   INDUCTION LOG DEEP RESISTIVITY
 RILM.OHMM   07 120 44 00:   INDUCTION LOG MEDIUM RESISTIVITY
~PARAMETER INFORMATION
#MNEM.UNIT          VALUE    DESCRIPTION
#----------   ------------   ------------------------------
 PD  .                 GL:   PERMANENT DATUM
 EPD .F              5168:   ELEVATION PERMANENT DATUM
 LMF .                 KB:   LOG MEASURED FROM
 DAPD.F                10:   FEET ABOVE PERMANENT DATUM
 DMF .                 KB:   DRILLING MEASURED FROM
 EKB .F              5178:   KELLING BUSHING
 EDF .F              5177:   DRILLING FLOOR
 EGL .F              5168:   GROUND LEVEL
 DATE.        08-DEC-1992:   RUN DATE
 RUN .                  1:   RUN NUMBER
 DD  .F               530:   DEPTH DRILLER
 DL  .F               530:   DEPTH LOGGER
 BLI .F               522:   BOTTOM LOG INTERVAL
 CS  .IN            8.625:   CASING SIZE
 CBD .F                97:   CASING BOTTOM DRILLER
 CBL .F                98:   CASING BOTTOM LOGGER
 BS  .IN            7.875:   BIT SIZE
 BSD .F               530:   BIT SIZE AT DEPTH
 DFT .           AIR FOAM:   DRILLING FLUID TYPE
 MRT .F                71:   MAXIMUM RECORDED TEMPERATURE
 LUN .            HL 6321:   LOGGING UNIT NUMBER
 LUL .        RK. SPRINGS:   LOGGING UNIT LOCATION
 ENGI.        J. THOMPSON:   RECORDING ENGINEER
 WITN.          G. STRONG:   WITNESSED BY
 CLNT.            A2DTECH:   CLIENT CODE
 ORIG.           5" PRINT:   ORIGIN OF DATA
 UWI .       490252257800:   UNIQUE WELL ID
 DICO. A2D Technologies, Inc.:   DIGITIZING COMPANY
~OTHER INFORMATION
~A    DEPT     GRR       RILD       RILM   
# ...
  279.0000   189.3233     4.9098     4.8063
  279.5000   185.1128     4.9459     4.9770
  280.0000   187.5188     5.0519     5.0482
  280.5000   193.5338     5.4545     5.3550
  281.0000   194.1353     6.1401     6.0045
  281.5000   192.9323     6.3153     6.3043
  282.0000   195.6391     6.3617     6.4834
  282.5000   197.1429     6.5432     6.5309
  283.0000   197.7444     6.5914     6.4444
  283.5000   192.9323     6.3256     6.2281
  284.0000   189.2994     6.0701     5.9366
  284.5000   184.8120     5.6270     5.4503
  285.0000   189.9248     5.2521     4.9998
  285.5000   195.9398     5.1459     4.7326
  286.0000   202.6526     5.0770     4.6699
  286.5000   209.7744     5.0091     4.7372
  287.0000   215.1880     4.9764     4.8382
  287.5000   213.6842     5.0484     5.0101
  288.0000   199.7574     5.2286     5.2240
  288.5000   193.2331     5.4585     5.6780
  289.0000   194.7368     5.6874     6.0028
  289.5000   198.9474     6.3573     6.3902
  290.0000   202.2958     6.7695     6.7092
  290.5000   203.7594     7.1144     7.0936
  291.0000   195.0376     7.4147     7.3457
  291.5000   187.5188     7.5736     7.5543
  292.0000   188.1203     7.7358     7.6623
  292.5000   193.2331     7.7928     7.7192
  293.0000   197.1429     7.9605     7.8295
  293.5000   192.9323     8.0748     7.9415
  294.0000   183.3083     8.1908     7.9996
  294.5000   180.9023     8.2511     8.1148
  295.0000   183.3083     8.1973     8.1742
  295.5000   192.0301     8.2013     8.1212
  296.0000   197.7444     8.1470     8.0129
  296.5000   200.1504     8.1510     8.0168
  297.0000   200.7519     8.0978     8.0199
  297.5000   200.1504     8.1582     8.0231
  298.0000   198.3459     8.1614     8.0818
  298.5000   195.6391     8.1646     8.0857
  299.0000   192.9323     8.1686     8.1441
  299.5000   190.1594     8.1718     8.0356
  300.0000   185.1128     8.1177     7.9842
  300.5000   178.4962     7.9482     7.7703
  301.0000   172.4812     7.3760     7.2049
  301.5000   166.7328     7.0302     6.8204
  302.0000   168.2707     6.9844     6.5916
  302.5000   174.8872     7.0867     6.5489
  303.0000   189.3233     7.1399     6.8293
  303.5000   201.3534     7.1935     7.3711
  304.0000   203.7594     7.3521     8.0665
  304.5000   193.2331     7.7194     8.4693
  305.0000   194.1353     8.1642     9.0159
  305.5000   197.1429     8.8775     9.5317
  306.0000   193.5338     9.5864     9.8034
  306.5000   189.4968     9.9991     9.9437
  307.0000   184.5539    10.2148    10.0860
  307.5000   182.7515    10.3631    10.3012
  308.0000   188.4694    10.5234    10.3767
  308.5000   191.7806    10.8917    10.8949
  309.0000   189.6783    11.7615    11.8917
  309.5000   175.9429    12.5258    13.9816
  310.0000   160.5119    13.6202    15.9479
  310.5000   149.6877    15.3327    18.4435
  311.0000   141.8710    17.3808    20.7487
  311.5000   132.8514    19.4584    22.5500
  312.0000   126.2378    22.1828    24.2032
  312.5000   123.2331    23.6242    25.2065
  313.0000   125.1127    24.8128    25.5672
  313.5000   132.2622    25.7021    25.9330
  314.0000   137.6787    26.2566    26.1231
  314.5000   141.2906    26.4535    26.4968
  315.0000   141.8943    26.8374    28.4023
  315.5000   136.1836    26.8523    29.2121
  316.0000   127.4647    27.0569    29.6301
  316.5000   122.5984    27.4495    29.8473
  317.0000   125.0652    27.8479    30.0660
  317.5000   129.2787    28.2520    30.2864
  318.0000   130.4846    28.4639    30.7198
  318.5000   131.6905    28.0869    30.4936
  319.0000   134.7009    27.7023    29.7040
  319.5000   138.6136    27.1624    28.1190
  320.0000   138.2958    26.7990    27.1757
  320.5000   137.4164    26.2613    26.6266
  321.0000   139.5253    26.0938    26.4563
  321.5000   141.0319    26.1113    26.2850
  322.0000   141.0349    25.7655    26.4803
  322.5000   138.9325    25.7793    26.6744
  323.0000   138.3338    25.6149    26.8699
  323.5000   136.4902    26.1710    27.2544
  324.0000   132.3254    26.5508    28.2229
  324.5000   130.8238    26.9361    29.2279
  325.0000   134.1357    27.7087    29.8499
  325.5000   137.1461    28.1108    29.8643
  326.0000   138.0513    28.1259    29.8762
  326.5000   139.5580    28.1412    29.6795
  327.0000   141.4757    28.1599    29.4871
  327.5000   146.1810    27.9765    28.8970
  328.0000   147.3869    28.1901    28.5120
  328.5000   146.1868    28.0066    28.1351
  329.0000   138.3702    28.0254    27.3796
  329.5000   134.7633    27.8461    27.3905
  330.0000   138.6767    27.6690    27.4014
  330.5000   143.5609    27.3025    27.6023
  331.0000   145.5998    27.1284    27.6134
  331.5000   135.9794    26.9554    27.4370
  332.0000   129.9673    26.4180    26.5165
  332.5000   131.4739    26.0681    25.6270
  333.0000   135.6874    25.3685    24.5968
  333.5000   139.6001    24.3476    23.2844
  334.0000   143.8856    23.1957    22.8161
  334.5000   148.6291    22.2753    22.0293
  335.0000   151.0381    21.6746    21.3131
  335.5000   151.6425    21.2425    20.8845
  336.0000   151.6454    20.8163    20.4625
  336.5000   150.4453    20.3986    20.1899
  337.0000   149.5459    20.2681    20.0609
  337.5000   148.3208    20.2794    19.9309
  338.0000   147.7479    20.4318    19.9393
  338.5000   147.4494    20.5875    19.9476
  339.0000   147.7537    20.5985    20.5163
  339.5000   148.3581    20.7530    20.8098
  340.0000   149.2633    20.7642    20.9603
  340.5000   151.6722    20.9199    20.8243
  341.0000   156.5916    21.0768    20.6911
  341.5000   159.4983    21.2351    20.6996
  342.0000   154.3884    21.2492    20.8517
  342.5000   148.3763    21.2606    20.8617
  343.0000   150.1837    21.4200    21.0126
  343.5000   153.4949    21.4315    20.7327
  344.0000   152.8963    21.2948    20.6003
  344.5000   151.3684    21.0128    20.3259
  345.0000   150.7968    20.8788    20.1941
  345.5000   152.3042    20.7456    20.2041
  346.0000   153.5101    20.7595    20.2122
  346.5000   153.5130    20.7707    20.0791
  347.0000   152.9137    20.3539    19.8136
  347.5000   155.9249    20.0843    19.6849
  348.0000   160.5233    19.8183    19.2893
  348.5000   164.0517    19.5558    19.0323
  349.0000   162.2501    19.2967    18.6515
  349.5000   156.8394    19.0437    18.4030
  350.0000   153.5341    18.7889    18.1579
  350.5000   150.2287    18.7110    17.9160
  351.0000   153.5399    18.4173    17.6774
  351.5000   157.2390    18.2972    17.8073
  352.0000   158.3585    18.3062    17.8160
  352.5000   155.9553    18.3152    17.8231
  353.0000   152.9507    18.3224    17.9536
  353.5000   149.9461    18.3296    17.9607
  354.0000   149.6475    18.5930    18.2176
  354.5000   151.1549    18.8603    18.4800
  355.0000   155.4886    18.7371    18.3583
  355.5000   158.9810    18.4863    18.2391
  356.0000   159.5854    18.2388    17.9961
  356.5000   158.9868    17.8720    17.7556
  357.0000   154.4784    17.5126    17.4009
  357.5000   146.1062    17.2764    17.0509
  358.0000   144.3060    16.9290    16.8236
  358.5000   150.9296    16.8186    16.7159
  359.0000   154.5503    16.8269    16.7228
  359.5000   155.1515    16.9507    16.8469
  360.0000   155.4594    17.0753    16.8535
  360.5000   154.8622    17.2009    16.9769
  361.0000   153.0648    17.3438    16.9836
  361.5000   148.0943    17.4566    17.1082
  362.0000   146.7604    17.1039    16.7656
  362.5000   150.0758    16.6425    16.5405
  363.0000   151.2845    16.4197    16.2078
  363.5000   151.8917    16.0879    15.8834
  364.0000   150.6958    15.7628    15.5513
  364.5000   149.4971    15.4443    15.1011
  365.0000   151.0079    15.0291    14.6387
  365.5000   158.5324    14.6251    14.3372
  366.0000   164.1283    14.4293    14.1531
  366.5000   162.1543    14.4350    14.2582
  367.0000   153.1374    14.3409    14.2638
  367.5000   150.7357    14.3479    14.2695
  368.0000   151.3444    14.2529    14.1769
  368.5000   150.7485    14.0635    14.0849
  369.0000   150.1527    13.9718    13.8986
  369.5000   152.5658    13.7754    13.7120
