~VERSION INFORMATION
 VERS.                2.0:   CWLS LOG ASCII STANDARD - VERSION 2.0
 WRAP.                 NO:   ONE LINE PER DEPTH STEP
~WELL INFORMATION
#MNEM.UNIT      DATA TYPE    INFORMATION
#----------   ------------   ------------------------------
 STRT.F            2.0000:   START DEPTH
 STOP.F          592.0000:   STOP DEPTH
 STEP.F            0.1000:   STEP LENGTH
 NULL.          -999.2500:   NO VALUE
 COMP. BROWN JOHN E&C INC:   COMPANY
 WELL. NAVAL PETROLEUM RESERVE 3 SX-3 #73-3:   WELL
 FLD .             TEAPOT:   FIELD
 LOC .       S3 T38N R78W:   LOCATION
 CNTY.            NATRONA:   COUNTY
 STAT.            WYOMING:   STATE
 CTRY. UNITED STATES OF AMERICA:   COUNTRY
 SRVC.     Atlas Wireline:   SERVICE COMPANY
 DATE.        22-APR-1992:   LOGDATE
 API .       490252251000:   API NUMBER
~CURVE INFORMATION
#MNEM.UNIT       API CODE    CURVE DESCRIPTION
#----------   ------------   ------------------------------
 DEPT.F                  :   
 GRR .GAPI   07 310 01 00:   GAMMA RAY
 RILD.OHMM   07 120 46 00:   INDUCTION LOG DEEP RESISTIVITY
 RILM.OHMM   07 120 44 00:   INDUCTION LOG MEDIUM RESISTIVITY
~PARAMETER INFORMATION
#MNEM.UNIT          VALUE    DESCRIPTION
#----------   ------------   ------------------------------
 PD  .                 GL:   PERMANENT DATUM
 EPD .F              5148:   ELEVATION PERMANENT DATUM
 LMF .                 KB:   LOG MEASURED FROM
 DAPD.F                 5:   FEET ABOVE PERMANENT DATUM
 DMF .                 KB:   DRILLING MEASURED FROM
 EKB .F              5153:   KELLING BUSHING
 EDF .F              5152:   DRILLING FLOOR
 EGL .F              5148:   GROUND LEVEL
 DATE.        22-APR-1992:   RUN DATE
 RUN .                  1:   RUN NUMBER
 DD  .F               600:   DEPTH DRILLER
 DL  .F               601:   DEPTH LOGGER
 BLI .F               592:   BOTTOM LOG INTERVAL
 TLI .F                51:   TOP LOG INTERVAL
 CS  .IN            8.625:   CASING SIZE
 CBD .F                48:   CASING BOTTOM DRILLER
 CBL .F                51:   CASING BOTTOM LOGGER
 BS  .IN            7.875:   BIT SIZE
 BSD .F               600:   BIT SIZE AT DEPTH
 DFT .                AIR:   DRILLING FLUID TYPE
 LUN .            HL-5272:   LOGGING UNIT NUMBER
 LUL .             CASPER:   LOGGING UNIT LOCATION
 ENGI.       P. RAGMUSSEN:   RECORDING ENGINEER
 WITN.          G. STRONG:   WITNESSED BY
 CLNT.            A2DTECH:   CLIENT CODE
 ORIG.           5" PRINT:   ORIGIN OF DATA
 UWI .       490252251000:   UNIQUE WELL ID
 DICO. A2D Technologies, Inc.:   DIGITIZING COMPANY
~OTHER INFORMATION
~A    DEPT      GRR      RILD       RILM   
# ...
   74.8000   127.3707     6.4237     6.4069
   74.9000   127.0183     6.4672     6.4074
   75.0000   126.5760     6.4975     6.4375
   75.1000   126.3244     6.5347     6.4744
   75.2000   126.0838     6.5722     6.5115
   75.3000   125.8376     6.6048     6.5488
   75.4000   125.7210     6.6052     6.5901
   75.5000   125.7217     6.6393     6.6582
   75.6000   125.7222     6.6519     6.7088
   75.7000   125.7229     6.6522     6.7472
   75.8000   125.9320     6.6605     6.7859
   75.9000   126.6372     6.6993     6.8254
   76.0000   127.8180     6.6996     6.9024
   76.1000   129.2583     6.6999     6.9515
   76.2000   130.5671     6.7002     6.9914
   76.3000   130.7994     6.7005     7.0433
   76.4000   131.0466     6.7033     7.1212
   76.5000   131.1740     6.7480     7.1687
   76.6000   131.2387     6.7483     7.2031
   76.7000   131.4778     6.7486     7.2195
   76.8000   131.1759     6.7634     7.2200
   76.9000   130.9772     6.7963     7.2264
   77.0000   130.5879     6.7967     7.2712
   77.1000   130.0078     6.7970     7.3095
   77.2000   129.2997     6.8239     7.3228
   77.3000   128.7583     6.8451     7.3232
   77.4000   128.0918     6.8544     7.3236
   77.5000   127.0195     6.8936     7.3240
   77.6000   125.4723     6.9331     7.3661
   77.7000   123.5374     6.9728     7.3439
   77.8000   121.6025     7.0127     7.3252
   77.9000   119.6675     7.0404     7.3256
   78.0000   117.7326     7.0440     7.3260
   78.1000   115.8581     7.0903     7.3265
   78.2000   114.2403     7.1249     7.3268
   78.3000   113.1226     7.1657     7.3015
   78.4000   112.0573     7.1906     7.2607
   78.5000   111.2950     7.1910     7.2267
   78.6000   110.9143     7.1913     7.2272
   78.7000   110.9153     7.1916     7.1894
   78.8000   111.1624     7.2208     7.1778
   78.9000   111.2187     7.2232     7.1589
   79.0000   111.3545     7.1927     7.1189
   79.1000   111.7602     7.1924     7.0798
   79.2000   112.4777     7.1521     7.0801
   79.3000   113.0367     7.1438     7.0805
   79.4000   113.8941     7.1216     7.0809
   79.5000   114.7230     7.0948     7.0813
   79.6000   115.8734     7.0912     7.0857
   79.7000   117.9275     7.0463     7.1317
   79.8000   121.5117     7.0466     7.1320
   79.9000   123.1742     7.0469     7.1324
   80.0000   124.1753     7.0472     7.1494
   80.1000   124.6648     7.0476     7.1831
   80.2000   124.8424     7.0479     7.1834
   80.3000   124.8429     7.0482     7.1838
   80.4000   124.8437     7.0485     7.1842
   80.5000   124.8442     7.0489     7.1846
   80.6000   124.8448     7.0492     7.1850
   80.7000   124.7524     7.0495     7.1854
   80.8000   124.5433     7.0499     7.1859
   80.9000   124.5441     7.0824     7.1862
   81.0000   124.5446     7.1229     7.2101
   81.1000   124.5453     7.1497     7.2372
   81.2000   124.5459     7.1547     7.2424
   81.3000   124.5464     7.2004     7.2887
   81.4000   124.5515     7.2007     7.2891
   81.5000   124.7989     7.2278     7.3166
   81.6000   124.8509     7.2516     7.3408
   81.7000   124.8514     7.2520     7.3494
   81.8000   124.9356     7.2523     7.3929
   81.9000   125.2382     7.2925     7.3933
   82.0000   126.0636     7.3036     7.3937
   82.1000   126.5011     7.3040     7.4154
   82.2000   126.9949     7.3159     7.4461
   82.3000   127.3823     7.3557     7.4466
   82.4000   127.6297     7.3561     7.4471
   82.5000   127.8820     7.3564     7.4474
   82.6000   127.8826     7.3567     7.4478
   82.7000   128.0691     7.3570     7.4482
   82.8000   128.0564     7.3574     7.4487
   82.9000   127.8844     7.3578     7.4491
   83.0000   127.8850     7.3581     7.4495
   83.1000   127.8857     7.3584     7.4216
   83.2000   127.6772     7.3587     7.3986
   83.3000   127.5843     7.3591     7.3901
   83.4000   127.4876     7.3595     7.3481
   83.5000   127.2828     7.3598     7.3485
   83.6000   127.2835     7.3601     7.3176
   83.7000   127.0519     7.3387     7.2767
   83.8000   126.9822     7.3097     7.2481
   83.9000   126.9828     7.3074     7.2485
   84.0000   127.0480     7.2598     7.2490
   84.1000   127.2865     7.2601     7.2152
   84.2000   127.2873     7.2355     7.1994
   84.3000   127.4873     7.2103     7.1999
   84.4000   127.7346     7.2106     7.1942
   84.5000   128.2453     7.2110     7.1507
   84.6000   129.2323     7.1740     7.1511
   84.7000   130.3159     7.1338     7.1515
   84.8000   130.9845     7.1123     7.1334
   84.9000   131.3916     7.1035     7.1027
   85.0000   131.6389     7.0636     7.1031
   85.1000   131.8311     7.0639     7.1035
   85.2000   131.8318     7.0335     7.1039
   85.3000   131.5866     7.0156     7.1042
   85.4000   131.1503     7.0159     7.0921
   85.5000   130.3893     7.0130     7.0557
   85.6000   129.4033     6.9679     7.0562
   85.7000   128.3719     6.9682     7.0565
   85.8000   126.6918     6.9685     7.0570
   85.9000   125.8394     6.9688     7.0574
   86.0000   125.1679     6.9692     7.0578
   86.1000   124.7766     6.9695     7.0581
   86.2000   124.5760     6.9698     7.0585
   86.3000   124.5767     6.9701     7.0589
   86.4000   124.8137     6.9705     7.0404
   86.5000   125.0610     6.9708     7.0107
   86.6000   125.3083     6.9711     7.0111
   86.7000   125.6933     6.9714     7.0115
   86.8000   126.4978     6.9408     7.0119
   86.9000   128.8165     6.9237     6.9902
   87.0000   129.8354     6.9240     6.9640
   87.1000   130.6260     6.9205     6.9644
   87.2000   131.0281     6.8767     6.9648
   87.3000   131.2393     6.8770     6.9310
   87.4000   131.2400     6.8773     6.9173
   87.5000   131.2405     6.8776     6.9016
   87.6000   131.2411     6.8780     6.8699
   87.7000   131.3569     6.8783     6.8704
   87.8000   131.5449     6.8417     6.8708
   87.9000   131.5490     6.8311     6.8432
   88.0000   131.7961     6.8315     6.8239
   88.1000   131.8493     6.8318     6.8243
   88.2000   131.9883     6.8308     6.8246
   88.3000   132.1531     6.7851     6.8251
   88.4000   132.1537     6.7854     6.8254
   88.5000   132.1544     6.7857     6.8258
   88.6000   132.1549     6.7860     6.8261
   88.7000   132.1555     6.7863     6.8265
   88.8000   132.1561     6.7866     6.8270
   88.9000   132.1567     6.7869     6.8273
   89.0000   132.1573     6.7872     6.8277
   89.1000   131.9172     6.7875     6.8281
   89.2000   131.6713     6.7879     6.8285
   89.3000   131.4252     6.7882     6.8288
   89.4000   131.1790     6.7885     6.8292
   89.5000   130.9500     6.7888     6.8296
   89.6000   130.9508     6.7891     6.8300
   89.7000   130.7433     6.7894     6.8303
   89.8000   130.8015     6.7897     6.8307
   89.9000   131.1449     6.7901     6.8312
   90.0000   131.6387     6.7904     6.8315
   90.1000   132.1640     6.7907     6.8318
   90.2000   132.3956     6.8049     6.8322
   90.3000   132.8182     6.8387     6.8326
   90.4000   133.1930     6.8391     6.8330
   90.5000   133.3768     6.8394     6.8334
   90.6000   133.3850     6.8397     6.8338
   90.7000   133.6806     6.8400     6.8341
   90.8000   133.6811     6.8404     6.8345
   90.9000   133.6817     6.8407     6.8349
   91.0000   133.5955     6.8410     6.8735
   91.1000   133.3495     6.8413     6.8834
   91.2000   133.0784     6.8417     6.8838
   91.3000   132.6356     6.8420     6.8842
   91.4000   131.9769     6.8422     6.8845
   91.5000   131.1274     6.8426     6.8850
   91.6000   130.0334     6.8429     6.8853
   91.7000   128.5428     6.8432     6.9095
   91.8000   127.3191     6.8435     6.9342
   91.9000   126.2750     6.8438     6.9346
   92.0000   125.5552     6.8442     6.9350
   92.1000   125.1397     6.8445     6.9354
   92.2000   124.8935     6.8448     6.9629
   92.3000   124.6131     6.8451     6.9846
   92.4000   124.8259     6.8455     6.9850
   92.5000   124.9168     6.8458     6.9854
   92.6000   125.3192     6.8460     6.9857
   92.7000   126.3515     6.8464     7.0167
   92.8000   127.6418     6.8467     7.0353
   92.9000   129.0550     6.8470     7.0357
