~VERSION INFORMATION
 VERS.                2.0:   CWLS LOG ASCII STANDARD - VERSION 2.0
 WRAP.                 NO:   ONE LINE PER DEPTH STEP
~WELL INFORMATION
#MNEM.UNIT      DATA TYPE    INFORMATION
#----------   ------------   ------------------------------
 STRT.F           20.0000:   START DEPTH
 STOP.F          565.0000:   STOP DEPTH
 STEP.F            0.5000:   STEP LENGTH
 NULL.          -999.2500:   NO VALUE
 COMP. FENIX & SCISSON INC:   COMPANY
 WELL.     NPR-3 #12-SX-3:   WELL
 FLD .        TEAPOT DOME:   FIELD
 LOC .       S3 T38N R78W:   LOCATION
 CNTY.            NATRONA:   COUNTY
 STAT.            WYOMING:   STATE
 CTRY. UNITED STATES OF AMERICA:   COUNTRY
 SRVC.           BIRDWELL:   SERVICE COMPANY
 DATE.        29-JUL-1978:   LOGDATE
 API .       490251067000:   API NUMBER
~CURVE INFORMATION
#MNEM.UNIT       API CODE    CURVE DESCRIPTION
#----------   ------------   ------------------------------
 DEPT.F                  :   
 SPR .MV     05 010 01 00:   SPONTANEOUS POTENTIAL FROM RES.
 SN  .OHMM   05 040 16 00:   SHORT NORMAL 16"
 IL  .OHMM   05 120 00 00:   INDUCTION LOG
 GRD .GAPI   45 310 01 00:   GAMMA RAY FROM DENSITY LOG
 CALD.IN     45 280 60 00:   CALIPER
 CORR.G/C3   45 356 01 00:   DENSITY CORRECTION
 RHOB.G/C3   45 350 01 00:   BULK DENSITY
 DPHI.DEC    45 890 12 00:   DENSITY POROSITY SANDSTONE
~PARAMETER INFORMATION
#MNEM.UNIT          VALUE    DESCRIPTION
#----------   ------------   ------------------------------
 PD  .                 GL:   PERMANENT DATUM
 EPD .F              5191:   ELEVATION PERMANENT DATUM
 LMF .                 KB:   LOG MEASURED FROM
 DAPD.F                 4:   FEET ABOVE PERMANENT DATUM
 DMF .                 KB:   DRILLING MEASURED FROM
 EKB .F              5195:   KELLING BUSHING
 EGL .F              5191:   GROUND LEVEL
 DATE.            7-29-78:   RUN DATE
 RUN .                  1:   RUN NUMBER
 DD  .F               565:   DEPTH DRILLER
 DL  .F               571:   DEPTH LOGGER
 BLI .F               565:   BOTTOM LOG INTERVAL
 TLI .F                40:   TOP LOG INTERVAL
 CS  .IN            8.625:   CASING SIZE
 CBD .F                40:   CASING BOTTOM DRILLER
 CBL .F                40:   CASING BOTTOM LOGGER
 BS  .IN            7.875:   BIT SIZE
 BSD .F               565:   BIT SIZE AT DEPTH
 DFT .                KCL:   DRILLING FLUID TYPE
 DFD .                8.6:   DRILLING FLUID DENSITY
 DFV .                 31:   DRILLING FLUID VISCOSITY
 DFPH.                  9:   DRILLING FLUID PH
 RMS .OHMM            .32:   RESISTIVITY MUD SAMPLE
 MST .F                70:   MUD SAMPLE TEMPERATURE
 TCS .HRS               1:   TIME CURCULATED STOPPED
 LUN .               2958:   LOGGING UNIT NUMBER
 LUL .               CASP:   LOGGING UNIT LOCATION
 ENGI.              HONEA:   RECORDING ENGINEER
 WITN.              AMEND:   WITNESSED BY
 CLNT.            A2DTECH:   CLIENT CODE
 ORIG.           5" PRINT:   ORIGIN OF DATA
 UWI .       490251067000:   UNIQUE WELL ID
 DICO. A2D Technologies, Inc.:   DIGITIZING COMPANY
~OTHER INFORMATION
~A   DEPT      SPR         SN         IL         GRD      CALD       CORR       RHOB       DPHI   
# ...
  101.0000   -45.0135     8.7452     6.9879    79.0682     7.6734     0.0267     2.4606     0.1308
  101.5000   -44.9859     8.7956     7.1257    78.7582     7.6700     0.0203     2.4681     0.1305
  102.0000   -44.6446     8.8463     7.2663    79.3483     7.6665     0.0138     2.4609     0.1259
  102.5000   -44.0978     8.8972     7.4096    79.9223     7.6630     0.0074     2.4710     0.1212
  103.0000   -43.6931     8.9485     7.5558    79.4604     7.6594     0.0050     2.4828     0.1268
  103.5000   -43.2816     9.0001     7.7051    76.6487     7.6563     0.0109     2.4757     0.1269
  104.0000   -42.9799     9.0519     7.8568    74.0208     7.6700     0.0092     2.4658     0.1244
  104.5000   -42.9855     9.0998     7.9989    75.1046     7.7349     0.0048     2.4797     0.1308
  105.0000   -42.9859     9.1840     7.9989    76.8902     7.7331     0.0087     2.4697     0.1308
  105.5000   -42.9860     9.1789     7.9256    78.6751     7.7316     0.0197     2.4601     0.1252
  106.0000   -42.9860     9.1851     7.9256    79.7239     7.7302     0.0297     2.4599     0.1209
  106.5000   -42.9860     9.1840     7.9186    77.7670     7.7288     0.0275     2.4859     0.1214
  107.0000   -42.9860     9.1840     7.9041    75.9334     7.7274     0.0247     2.4872     0.1225
  107.5000   -42.9860     9.1840     7.8896    74.6804     7.7259     0.0273     2.4779     0.1223
  108.0000   -42.9860     9.1840     7.8751    75.9574     7.7245     0.0392     2.4773     0.1192
  108.5000   -42.9860     9.1840     7.8606    78.0991     7.7231     0.0398     2.4683     0.1173
  109.0000   -42.9860     9.1840     7.8462    80.2256     7.7217     0.0397     2.4929     0.1179
  109.5000   -42.9860     9.1840     7.8318    81.5378     7.7203     0.0399     2.4915     0.1191
  110.0000   -42.9860     9.1840     7.8174    79.0384     7.7189     0.0446     2.4820     0.1201
  110.5000   -42.9860     9.1840     7.8032    78.4745     7.7175     0.0476     2.4776     0.1181
  111.0000   -42.9860     9.1840     7.7887    80.0150     7.7161     0.0419     2.4801     0.1161
  111.5000   -42.9860     9.1840     7.7798    81.5559     7.7147     0.0361     2.4942     0.1149
  112.0000   -42.9860     9.1840     7.6689    80.5211     7.7133     0.0303     2.4982     0.1205
  112.5000   -42.9860     9.1840     7.6252    78.7822     7.7119     0.0253     2.4858     0.1277
  113.0000   -42.9860     9.1840     7.5802    77.1827     7.7105     0.0248     2.4733     0.1303
  113.5000   -42.9866     9.1840     7.5354    78.0736     7.7091     0.0266     2.4705     0.1318
  114.0000   -42.9901     9.1840     7.4908    78.9719     7.7077     0.0284     2.4512     0.1295
  114.5000   -42.8373     9.1840     7.4465    79.3626     7.7063     0.0276     2.4604     0.1268
  115.0000   -42.6611     9.1840     7.3650    80.8186     7.7049     0.0266     2.4720     0.1281
  115.5000   -42.4842     9.1840     7.3598    83.7915     7.7035     0.0256     2.4742     0.1294
  116.0000   -42.3077     9.1840     7.2914    84.3153     7.7021     0.0246     2.4706     0.1308
  116.5000   -42.1310     9.1840     7.2921    84.3226     7.7007     0.0233     2.4669     0.1308
  117.0000   -41.9538     9.1839     7.3554    84.3127     7.6993     0.0220     2.4632     0.1296
  117.5000   -41.7875     9.1837     7.3978    84.3286     7.6979     0.0254     2.4618     0.1283
  118.0000   -41.7826     9.1832     7.4405    83.3416     7.6965     0.0290     2.4617     0.1278
  118.5000   -41.7834     9.2261     7.4833    82.6757     7.6951     0.0361     2.4618     0.1257
  119.0000   -41.7836     9.2672     7.4995    82.5299     7.6923     0.0432     2.4615     0.1230
  119.5000   -41.7839     9.3085     7.5183    79.7251     7.6791     0.0456     2.4781     0.1204
  120.0000   -41.7713     9.3500     7.5630    75.9660     7.6658     0.0438     2.5013     0.1185
  120.5000   -41.7564     9.3917     7.6080    75.0682     7.6524     0.0420     2.4959     0.1188
  121.0000   -41.7415     9.4335     7.6532    79.5205     7.6391     0.0417     2.4894     0.1191
  121.5000   -41.7265     9.4756     7.6988    84.4114     7.6257     0.0437     2.4886     0.1197
  122.0000   -41.7116     9.5178     7.7446    84.8316     7.6124     0.0464     2.4883     0.1204
  122.5000   -41.6967     9.5602     7.7809    82.1156     7.5991     0.0473     2.4815     0.1235
  123.0000   -41.6818     9.6028     7.7809    81.5810     7.5857     0.0442     2.4724     0.1197
  123.5000   -41.6668     9.6457     7.8087    84.6574     7.5723     0.0411     2.4801     0.1224
  124.0000   -41.6519     9.6887     7.8363    86.1377     7.5593     0.0398     2.4869     0.1260
  124.5000   -41.6370     9.7303     7.8641    87.0840     7.5285     0.0425     2.4733     0.1271
  125.0000   -41.6220     9.7710     7.8921    88.0262     7.4906     0.0499     2.4727     0.1262
  125.5000   -41.6086     9.8118     7.9206    88.9979     7.4523     0.0558     2.4661     0.1239
  126.0000   -41.5972     9.8513     7.9665    90.0166     7.4139     0.0551     2.4797     0.1209
  126.5000   -41.5275     9.8913     8.0354    90.6454     7.3754     0.0544     2.4732     0.1179
  127.0000   -41.2358     9.8008     8.1049    88.2896     7.3374     0.0533     2.4842     0.1165
  127.5000   -41.0790    10.1079     8.1476    85.7203     7.3357     0.0454     2.4964     0.1182
  128.0000   -40.9817    10.3538     8.2364    84.5917     7.3359     0.0359     2.4968     0.1201
  128.5000   -40.8825    10.3515     8.2709    87.2585     7.3360     0.0266     2.4893     0.1280
  129.0000   -40.7849    10.3642     8.3056    90.0595     7.3360     0.0197     2.4725     0.1284
  129.5000   -40.7809    10.3743     8.3403    93.0103     7.3362     0.0200     2.4715     0.1337
  130.0000   -40.7814    10.3844     8.3751    90.7149     7.3348     0.0266     2.4693     0.1396
  130.5000   -40.7817    10.3946     8.4102    87.1591     7.3568     0.0309     2.4430     0.1396
  131.0000   -40.7810    10.4048     8.4454    84.9354     7.3737     0.0353     2.4500     0.1385
  131.5000   -40.7590    10.4150     8.5279    85.3334     7.3997     0.0396     2.4460     0.1366
  132.0000   -40.7356    10.4253     8.6250    85.9569     7.4259     0.0398     2.4459     0.1387
  132.5000   -40.7124    10.4354     8.7233    86.0589     7.4520     0.0397     2.4566     0.1411
  133.0000   -40.6891    10.4447     8.8226    85.9313     7.4781     0.0400     2.4427     0.1399
  133.5000   -40.6658    10.5454     8.9231    86.0527     7.5043     0.0449     2.4466     0.1387
  134.0000   -40.6426    10.6737     9.0247    87.0079     7.5304     0.0458     2.4482     0.1376
  134.5000   -40.6197    10.8036     9.1275    87.9496     7.5565     0.0367     2.4455     0.1277
  135.0000   -40.5946    10.9350     9.2314    88.5557     7.5826     0.0279     2.4572     0.1260
  135.5000   -40.5748    11.0681     9.3365    87.7453     7.6088     0.0201     2.4702     0.1249
  136.0000   -40.3683    11.2028     9.4429    86.9693     7.6350     0.0179     2.4717     0.1239
  136.5000   -40.3449    11.3391     9.5504    87.3547     7.6532     0.0179     2.4717     0.1230
  137.0000   -40.3064    11.4559     9.6591    88.7947     7.6748     0.0179     2.4748     0.1220
  137.5000   -40.2635    11.4559     9.7691    89.7295     7.6714     0.0180     2.4805     0.1221
  138.0000   -40.2210    11.4559     9.8862    86.3754     7.6698     0.0223     2.4798     0.1224
  138.5000   -40.1784    11.4271    10.0875    82.6819     7.6679     0.0270     2.4775     0.1227
  139.0000   -40.1358    11.3748    10.1195    79.4577     7.6661     0.0296     2.4750     0.1233
  139.5000   -40.0933    11.3226    10.1516    79.9318     7.6643     0.0212     2.4803     0.1262
  140.0000   -40.0510    11.2707    10.1840    81.1717     7.6624     0.0180     2.4851     0.1299
  140.5000   -40.0097    11.2190    10.2163    82.1540     7.6606     0.0180     2.4679     0.1320
  141.0000   -39.9733    11.1676    10.2571    81.5903     7.6588     0.0150     2.4646     0.1320
