~VERSION INFORMATION
 VERS.                2.0:   CWLS LOG ASCII STANDARD - VERSION 2.0
 WRAP.                 NO:   ONE LINE PER DEPTH STEP
~WELL INFORMATION
#MNEM.UNIT      DATA TYPE    INFORMATION
#----------   ------------   ------------------------------
 STRT.F           20.0000:   START DEPTH
 STOP.F          565.0000:   STOP DEPTH
 STEP.F            0.5000:   STEP LENGTH
 NULL.          -999.2500:   NO VALUE
 COMP. FENIX & SCISSON INC:   COMPANY
 WELL.     NPR-3 #12-SX-3:   WELL
 FLD .        TEAPOT DOME:   FIELD
 LOC .       S3 T38N R78W:   LOCATION
 CNTY.            NATRONA:   COUNTY
 STAT.            WYOMING:   STATE
 CTRY. UNITED STATES OF AMERICA:   COUNTRY
 SRVC.           BIRDWELL:   SERVICE COMPANY
 DATE.        29-JUL-1978:   LOGDATE
 API .       490251067000:   API NUMBER
~CURVE INFORMATION
#MNEM.UNIT       API CODE    CURVE DESCRIPTION
#----------   ------------   ------------------------------
 DEPT.F                  :   
 SPR .MV     05 010 01 00:   SPONTANEOUS POTENTIAL FROM RES.
 SN  .OHMM   05 040 16 00:   SHORT NORMAL 16"
 IL  .OHMM   05 120 00 00:   INDUCTION LOG
 GRD .GAPI   45 310 01 00:   GAMMA RAY FROM DENSITY LOG
 CALD.IN     45 280 60 00:   CALIPER
 CORR.G/C3   45 356 01 00:   DENSITY CORRECTION
 RHOB.G/C3   45 350 01 00:   BULK DENSITY
 DPHI.DEC    45 890 12 00:   DENSITY POROSITY SANDSTONE
~PARAMETER INFORMATION
#MNEM.UNIT          VALUE    DESCRIPTION
#----------   ------------   ------------------------------
 PD  .                 GL:   PERMANENT DATUM
 EPD .F              5191:   ELEVATION PERMANENT DATUM
 LMF .                 KB:   LOG MEASURED FROM
 DAPD.F                 4:   FEET ABOVE PERMANENT DATUM
 DMF .                 KB:   DRILLING MEASURED FROM
 EKB .F              5195:   KELLING BUSHING
 EGL .F              5191:   GROUND LEVEL
 DATE.            7-29-78:   RUN DATE
 RUN .                  1:   RUN NUMBER
 DD  .F               565:   DEPTH DRILLER
 DL  .F               571:   DEPTH LOGGER
 BLI .F               565:   BOTTOM LOG INTERVAL
 TLI .F                40:   TOP LOG INTERVAL
 CS  .IN            8.625:   CASING SIZE
 CBD .F                40:   CASING BOTTOM DRILLER
 CBL .F                40:   CASING BOTTOM LOGGER
 BS  .IN            7.875:   BIT SIZE
 BSD .F               565:   BIT SIZE AT DEPTH
 DFT .                KCL:   DRILLING FLUID TYPE
 DFD .                8.6:   DRILLING FLUID DENSITY
 DFV .                 31:   DRILLING FLUID VISCOSITY
 DFPH.                  9:   DRILLING FLUID PH
 RMS .OHMM            .32:   RESISTIVITY MUD SAMPLE
 MST .F                70:   MUD SAMPLE TEMPERATURE
 TCS .HRS               1:   TIME CURCULATED STOPPED
 LUN .               2958:   LOGGING UNIT NUMBER
 LUL .               CASP:   LOGGING UNIT LOCATION
 ENGI.              HONEA:   RECORDING ENGINEER
 WITN.              AMEND:   WITNESSED BY
 CLNT.            A2DTECH:   CLIENT CODE
 ORIG.           5" PRINT:   ORIGIN OF DATA
 UWI .       490251067000:   UNIQUE WELL ID
 DICO. A2D Technologies, Inc.:   DIGITIZING COMPANY
~OTHER INFORMATION
~A   DEPT      SPR         SN         IL         GRD      CALD       CORR       RHOB       DPHI   
# ...
   60.5000   -47.1944     9.0852     7.4666    63.4892     7.7494     0.0157     2.4653     0.1363
   61.0000   -47.1944     9.0535     7.4995    63.6650     7.7504     0.0194     2.4625     0.1366
   61.5000   -47.1944     9.0220     7.5324    72.5013     7.7514     0.0199     2.4492     0.1346
   62.0000   -47.1944     8.9906     7.5689    79.7176     7.7524     0.0199     2.4549     0.1326
   62.5000   -47.1944     8.9593     7.5702    80.6171     7.7534     0.0199     2.4537     0.1319
   63.0000   -47.1944     8.9281     7.4628    81.3207     7.7517     0.0199     2.4537     0.1317
   63.5000   -47.1944     8.8970     7.3820    82.0302     7.7491     0.0199     2.4617     0.1314
   64.0000   -47.1944     8.8660     7.2951    82.3129     7.7466     0.0199     2.4612     0.1312
   64.5000   -47.1942     8.8351     7.2951    80.6063     7.7441     0.0199     2.4600     0.1309
   65.0000   -47.1951     8.8043     7.4123    80.8429     7.7415     0.0199     2.4598     0.1312
   65.5000   -47.2313     8.7706     7.5448    81.2670     7.7389     0.0198     2.4672     0.1342
   66.0000   -47.2700     8.6902     7.6389    80.1455     7.7364     0.0189     2.4684     0.1360
   66.5000   -47.3087     8.6902     7.4601    78.3528     7.7339     0.0180     2.4565     0.1357
   67.0000   -47.3473     8.6997     7.3623    76.5418     7.7313     0.0171     2.4612     0.1360
   67.5000   -47.3859     8.7314     7.6038    77.3969     7.7288     0.0163     2.4574     0.1369
   68.0000   -47.4245     8.7632     7.7690    80.7432     7.7262     0.0159     2.4539     0.1378
   68.5000   -47.4632     8.7951     7.8539    82.2321     7.7237     0.0159     2.4551     0.1388
   69.0000   -47.5018     8.8271     7.6394    76.4823     7.7211     0.0159     2.4452     0.1368
   69.5000   -47.5404     8.8594     7.4991    78.2683     7.7186     0.0159     2.4542     0.1398
   70.0000   -47.5797     8.8916     7.3626    81.4387     7.7160     0.0160     2.4483     0.1408
   70.5000   -47.5985     8.9337     7.2951    83.9713     7.7135     0.0180     2.4457     0.1425
   71.0000   -47.4496     8.8620     7.2951    83.9357     7.7109     0.0203     2.4476     0.1439
   71.5000   -47.2642     8.7605     7.2951    82.7557     7.7084     0.0278     2.4411     0.1438
   72.0000   -47.0778     8.6602     7.2354    81.0708     7.7058     0.0355     2.4348     0.1433
   72.5000   -46.8918     8.5611     7.1816    80.3162     7.7033     0.0432     2.4345     0.1427
   73.0000   -46.7073     8.4534     7.1281    84.7001     7.7007     0.0457     2.4379     0.1409
   73.5000   -46.5965     8.4534     7.0751    88.1225     7.6982     0.0457     2.4414     0.1392
   74.0000   -46.6104     8.4534     7.0225    88.1380     7.6957     0.0492     2.4450     0.1374
   74.5000   -46.6222     8.4424     6.9702    85.0660     7.6938     0.0538     2.4494     0.1269
   75.0000   -46.6345     8.4299     6.9184    81.8248     7.6939     0.0476     2.4604     0.1271
   75.5000   -46.6466     8.4176     6.8712    78.6013     7.6979     0.0407     2.4712     0.1296
   76.0000   -46.6588     8.4053     6.8396    76.0045     7.7025     0.0338     2.4691     0.1324
   76.5000   -46.6710     8.3930     6.8396    78.0692     7.7070     0.0278     2.4653     0.1352
   77.0000   -46.6832     8.3808     6.8396    80.7828     7.7117     0.0291     2.4620     0.1372
   77.5000   -46.6953     8.3685     6.8396    78.2026     7.7033     0.0303     2.4588     0.1443
   78.0000   -46.7075     8.3563     6.8396    77.3788     7.6839     0.0315     2.4478     0.1523
   78.5000   -46.7197     8.3441     6.8396    76.8694     7.6646     0.0320     2.4206     0.1514
   79.0000   -46.7318     8.3319     6.8396    76.3620     7.6451     0.0470     2.4226     0.1486
   79.5000   -46.7440     8.3195     6.8396    76.4316     7.6257     0.0625     2.4242     0.1423
   80.0000   -46.7562     8.3066     6.8397    79.3768     7.6065     0.0614     2.4366     0.1353
   80.5000   -46.7683     8.3022     6.8383    82.1703     7.5943     0.0514     2.4516     0.1292
   81.0000   -46.7805     8.5316     6.9203    83.2049     7.5945     0.0283     2.4667     0.1295
   81.5000   -46.7927     8.7735     6.9828    84.2683     7.5932     0.0185     2.4718     0.1302
   82.0000   -46.8049     8.7731     7.0460    84.5919     7.5912     0.0094     2.4678     0.1308
   82.5000   -46.8170     8.7706     7.1098    82.8075     7.5893     0.0039     2.4637     0.1302
   83.0000   -46.8292     8.7706     7.1741    81.0736     7.5873     0.0040     2.4597     0.1290
   83.5000   -46.8414     8.7674     7.2391    79.7154     7.5853     0.0049     2.4638     0.1279
   84.0000   -46.8535     8.7628     7.3046    79.7807     7.5833     0.0061     2.4684     0.1268
   84.5000   -46.8657     8.7582     7.3707    78.2119     7.5813     0.0072     2.4622     0.1280
   85.0000   -46.8779     8.7536     7.4307    76.3962     7.5793     0.0084     2.4736     0.1315
   85.5000   -46.8900     8.7491     7.4307    75.9482     7.5773     0.0096     2.4652     0.1348
   86.0000   -46.9022     8.7445     7.3288    76.3884     7.5753     0.0123     2.4550     0.1345
   86.5000   -46.9144     8.7399     7.2704    78.3019     7.5733     0.0172     2.4508     0.1341
   87.0000   -46.9266     8.7353     7.2432    80.1421     7.5713     0.0197     2.4523     0.1338
   87.5000   -46.9387     8.7308     7.2160    82.0603     7.5693     0.0192     2.4585     0.1340
   88.0000   -46.9509     8.7262     7.1889    82.5845     7.5674     0.0186     2.4613     0.1399
   88.5000   -46.9631     8.7216     7.1619    82.7192     7.5654     0.0182     2.4413     0.1385
   89.0000   -46.9753     8.7171     7.1351    82.8377     7.5634     0.0159     2.4439     0.1363
   89.5000   -46.9880     8.7125     7.1083    82.9656     7.5614     0.0158     2.4480     0.1342
   90.0000   -46.9979     8.7080     7.0816    83.0898     7.5594     0.0222     2.4519     0.1313
   90.5000   -46.8561     8.7034     7.0550    84.3876     7.5574     0.0279     2.4559     0.1279
   91.0000   -46.6956     8.6988     7.0312    86.2844     7.5554     0.0278     2.4598     0.1241
   91.5000   -46.5345     8.6943     7.1619    86.5846     7.5534     0.0268     2.4709     0.1187
   92.0000   -46.3739     8.6902     7.1619    82.8069     7.5514     0.0258     2.4872     0.1145
   92.5000   -46.2132     8.8314     7.1619    77.8967     7.5494     0.0247     2.4984     0.1167
   93.0000   -46.0526     9.0371     7.2282    76.8960     7.5475     0.0239     2.4984     0.1204
   93.5000   -45.8919     9.2689     7.3966    76.8024     7.5455     0.0253     2.4839     0.1313
   94.0000   -45.7312     9.3547     7.5882    77.8823     7.5435     0.0292     2.4653     0.1340
   94.5000   -45.5700     9.3547     7.7849    80.7530     7.5415     0.0274     2.4577     0.1340
   95.0000   -45.4111     9.3547     7.9989    83.4438     7.5395     0.0234     2.4550     0.1340
   95.5000   -45.3940     9.3547     7.9989    81.9571     7.5375     0.0193     2.4617     0.1368
   96.0000   -45.3403     9.2952     7.9989    79.4313     7.5351     0.0180     2.4589     0.1424
   96.5000   -45.1876     9.2296     7.8366    78.5962     7.5621     0.0206     2.4494     0.1480
   97.0000   -45.1617     9.1645     7.6919    79.3006     7.6039     0.0268     2.4281     0.1515
   97.5000   -45.1439     9.0998     7.5498    79.6241     7.6463     0.0330     2.4233     0.1433
   98.0000   -45.1257     9.0355     7.4104    76.9366     7.6886     0.0338     2.4337     0.1360
   98.5000   -45.1071     8.9717     7.2736    76.4361     7.6909     0.0338     2.4440     0.1320
   99.0000   -45.0885     8.9084     7.1392    73.2569     7.6874     0.0338     2.4543     0.1296
   99.5000   -45.0700     8.8111     7.0074    72.4095     7.6839     0.0338     2.4646     0.1298
  100.0000   -45.0514     8.7706     6.8780    77.4503     7.6804     0.0338     2.4708     0.1301
  100.5000   -45.0335     8.6902     6.8396    80.3781     7.6769     0.0331     2.4658     0.1303
