~VERSION INFORMATION
 VERS.                2.0:   CWLS LOG ASCII STANDARD - VERSION 2.0
 WRAP.                 NO:   ONE LINE PER DEPTH STEP
~WELL INFORMATION
#MNEM.UNIT      DATA TYPE    INFORMATION
#----------   ------------   ------------------------------
 STRT.F           34.0000:   START DEPTH
 STOP.F          582.0000:   STOP DEPTH
 STEP.F            0.5000:   STEP LENGTH
 NULL.          -999.2500:   NO VALUE
 COMP. FENIX & SCISSON INC:   COMPANY
 WELL. NPR 3 SX-33 #88-33:   WELL
 FLD .             TEAPOT:   FIELD
 LOC .      S33 T39N R78W:   LOCATION
 CNTY.            NATRONA:   COUNTY
 STAT.            WYOMING:   STATE
 CTRY. UNITED STATES OF AMERICA:   COUNTRY
 SRVC.           BIRDWELL:   SERVICE COMPANY
 DATE.        04-AUG-1978:   LOGDATE
 API .       490251068000:   API NUMBER
~CURVE INFORMATION
#MNEM.UNIT       API CODE    CURVE DESCRIPTION
#----------   ------------   ------------------------------
 DEPT.F                  :   
 SPR .MV     05 010 01 00:   SPONTANEOUS POTENTIAL FROM RES.
 ILD .OHMM   05 120 46 00:   INDUCTION LOG DEEP
 SN  .OHMM   05 040 16 00:   SHORT NORMAL 16"
 CALD.IN     45 280 60 00:   CALIPER
 GRD .GAPI   45 310 01 00:   GAMMA RAY FROM DENSITY LOG
 DEN .G/C3   45 350 01 00:   COMPENSATED BULK DENSTIY
 CORR.G/C3   45 356 01 00:   DENSITY CORRECTION
 DPHI.DEC    45 890 12 00:   DENSITY POROSITY SANDSTONE
~PARAMETER INFORMATION
#MNEM.UNIT          VALUE    DESCRIPTION
#----------   ------------   ------------------------------
 PD  .                 GL:   PERMANENT DATUM
 EPD .F              5146:   ELEVATION PERMANENT DATUM
 LMF .                 KB:   LOG MEASURED FROM
 DAPD.F                 4:   FEET ABOVE PERMANENT DATUM
 DMF .                 KB:   DRILLING MEASURED FROM
 EKB .F              5150:   KELLING BUSHING
 EGL .F              5146:   GROUND LEVEL
 DATE.             8-4-78:   RUN DATE
 RUN .                  1:   RUN NUMBER
 DD  .F               570:   DEPTH DRILLER
 DL  .F               588:   DEPTH LOGGER
 BLI .F               582:   BOTTOM LOG INTERVAL
 TLI .F                50:   TOP LOG INTERVAL
 CS  .IN            8.625:   CASING SIZE
 CBD .F                40:   CASING BOTTOM DRILLER
 BS  .IN            7.875:   BIT SIZE
 BSD .F               570:   BIT SIZE AT DEPTH
 DFT .                KCL:   DRILLING FLUID TYPE
 DFD .                8.7:   DRILLING FLUID DENSITY
 DFV .                 34:   DRILLING FLUID VISCOSITY
 DFPH.                  9:   DRILLING FLUID PH
 DFL .                9.6:   DRILLING FLUID LOSS
 MSS .          FLOW LINE:   MUD SAMPLE SOURCE
 RMS .OHMM            .24:   RESISTIVITY MUD SAMPLE
 MST .F                70:   MUD SAMPLE TEMPERATURE
 RMF .OHMM            .24:   RESISTIVITY MUD FILTRATE SAMPLE
 MFST.F                80:   MUD FILTRATE SAMPLE TEMPERATURE
 RMC .OHMM             .3:   RESISTIVITY MUD CAKE
 MCST.F                75:   MUD CAKE SAMPLE TEMPERATURE
 MFSS.               MEAS:   MUD FILTRATE SAMPLE SOURCE
 TCS .HRS               2:   TIME CURCULATED STOPPED
 LUN .               3006:   LOGGING UNIT NUMBER
 LUL .               CASP:   LOGGING UNIT LOCATION
 ENGI.             MILLER:   RECORDING ENGINEER
 WITN.           MCGINLEY:   WITNESSED BY
 CLNT.            A2DTECH:   CLIENT CODE
 ORIG.        2" 5" PRINT:   ORIGIN OF DATA
 UWI .       490251068000:   UNIQUE WELL ID
 DICO. A2D Technologies, Inc.:   DIGITIZING COMPANY
~OTHER INFORMATION
~A   DEPT      SPR        ILD         SN       CALD         GRD       DEN       CORR       DPHI   
# ...
  398.5000    -3.1904    24.6867    15.4379     8.1748    62.9608     2.2198     0.0281     0.2615
  399.0000    -3.6272    24.6074    15.4192     8.1448    62.7579     2.2504     0.0431     0.2433
  399.5000    -4.0490    24.5284    15.4005     8.0684    60.2888     2.2868     0.0562     0.2303
  400.0000    -4.4707    24.4496    15.3819     7.9451    58.0317     2.2975     0.0536     0.2360
  400.5000    -4.7339    24.3711    15.3632     7.8827    58.2600     2.2901     0.0511     0.2407
  401.0000    -4.8384    24.2928    15.3446     7.8608    61.2502     2.2836     0.0514     0.2273
  401.5000    -4.9434    23.9464    15.3260     7.8388    64.8777     2.3043     0.0815     0.1927
  402.0000    -5.0458    23.3433    15.3120     7.8164    66.8209     2.3532     0.1219     0.1625
  402.5000    -5.2769    22.7542    15.2985     7.8132    65.9946     2.4017     0.1398     0.1474
  403.0000    -5.5570    22.1372    15.2850     7.8193    66.2657     2.4456     0.1499     0.1391
  403.5000    -5.8381    22.2431    15.2715     7.8257    67.5751     2.4438     0.1278     0.1538
  404.0000    -6.1191    22.3755    15.2580     7.8396    69.4100     2.4268     0.0961     0.1650
  404.5000    -6.4000    22.5091    15.2445     7.8733    71.0045     2.4085     0.0636     0.1687
  405.0000    -6.6810    22.6426    15.2311     7.9066    68.9551     2.3948     0.0512     0.1698
  405.5000    -6.9623    22.7768    15.2177     7.9396    72.2231     2.3936     0.0476     0.1732
  406.0000    -7.2424    22.9117    15.2042     7.9954    70.6566     2.3863     0.0427     0.1786
  406.5000    -7.4342    23.4503    15.1908     8.0601    68.8070     2.3780     0.0340     0.1844
  407.0000    -7.6152    24.1818    15.1474     8.1245    64.5684     2.3687     0.0268     0.1898
  407.5000    -7.7961    24.6875    15.0745     8.1700    64.4435     2.3590     0.0235     0.1967
  408.0000    -7.9772    24.4077    15.0018     8.1609    66.4138     2.3492     0.0219     0.2048
  408.5000    -8.1583    23.6955    14.9294     8.1525    66.4354     2.3398     0.0256     0.2049
  409.0000    -8.3393    23.0063    14.8574     8.1442    65.1391     2.3398     0.0306     0.2004
  409.5000    -8.5102    22.4326    14.7858     8.1358    63.8205     2.3457     0.0356     0.1985
  410.0000    -8.6550    22.3136    14.7145     8.1233    63.5009     2.3521     0.0414     0.1898
  410.5000    -8.8002    22.2811    14.6436     8.1000    63.4981     2.3640     0.0479     0.1803
  411.0000    -8.9455    22.2487    14.5730     8.0769    63.4988     2.3776     0.0544     0.1763
  411.5000    -9.0907    22.2162    14.5027     8.0539    64.3484     2.3891     0.0601     0.1719
  412.0000    -9.2360    22.1839    14.4328     8.0309    66.0515     2.3902     0.0589     0.1720
  412.5000    -9.3812    22.1516    14.3632     8.0041    67.5131     2.3898     0.0575     0.1728
  413.0000    -9.5264    22.1193    14.2939     7.9473    68.9226     2.3894     0.0561     0.1728
  413.5000    -9.6715    22.0871    14.2250     7.8899    70.4606     2.3888     0.0547     0.1804
  414.0000    -9.8137    22.0549    14.1564     7.8327    72.3130     2.3809     0.0507     0.1864
  414.5000   -10.1405    22.0228    14.0882     7.7773    72.5058     2.3614     0.0413     0.1919
  415.0000   -10.5429    21.9910    14.0202     7.7661    70.6506     2.3558     0.0320     0.1936
  415.5000   -10.6561    21.9594    13.9526     7.8005    69.4792     2.3526     0.0280     0.1890
  416.0000   -10.6580    21.9269    13.8853     7.7899    70.9326     2.3618     0.0293     0.1804
  416.5000   -10.6576    21.2555    13.8342     7.7500    72.7761     2.3743     0.0333     0.1785
  417.0000   -10.6574    20.5357    13.7989     7.7301    70.7953     2.3814     0.0372     0.1814
  417.5000   -10.6574    19.8395    13.7638     7.7366    70.9514     2.3806     0.0411     0.1832
  418.0000   -10.6574    19.1684    13.7288     7.7440    72.0565     2.3774     0.0449     0.1750
  418.5000   -10.6574    18.5718    13.6938     7.7514    70.4112     2.3798     0.0560     0.1692
  419.0000   -10.6574    18.4559    13.6589     7.7589    72.1235     2.3982     0.0692     0.1657
  419.5000   -10.6574    18.3407    13.6241     7.7663    75.0733     2.3997     0.0736     0.1672
  420.0000   -10.6571    18.2262    13.5894     7.8069    75.1974     2.3988     0.0652     0.1697
  420.5000   -10.6555    18.0898    13.5548     7.8809    77.2752     2.3979     0.0574     0.1661
  421.0000   -10.6593    18.1913    13.5203     7.9548    76.7559     2.3971     0.0559     0.1703
  421.5000   -11.0402    18.3536    13.4858     8.0290    76.8503     2.3945     0.0544     0.1744
  422.0000   -11.4678    18.5175    13.4515     8.1023    73.6741     2.3908     0.0438     0.1728
  422.5000   -11.9096    18.6828    13.4172     8.1237    76.5198     2.3953     0.0343     0.1672
  423.0000   -12.0409    18.8495    13.3830     8.1386    73.7900     2.4030     0.0382     0.1609
  423.5000   -12.0306    19.0178    13.3489     8.1536    72.8092     2.4103     0.0417     0.1605
  424.0000   -12.0171    19.1025    13.3149     8.1684    73.2679     2.4041     0.0428     0.1714
  424.5000   -12.0039    19.1025    13.2810     8.1700    75.1722     2.3867     0.0362     0.1850
  425.0000   -11.9910    19.1025    13.2471     8.1700    76.3312     2.3696     0.0299     0.1908
  425.5000   -11.9781    19.1025    13.2173     8.1700    74.6857     2.3619     0.0258     0.1853
  426.0000   -11.9651    19.1025    13.1916     8.1702    76.5816     2.3669     0.0326     0.1775
  426.5000   -11.9522    19.1025    13.1658     8.1698    77.9236     2.3799     0.0433     0.1709
  427.0000   -11.9393    19.1025    13.1401     8.1301    75.6089     2.3928     0.0521     0.1705
  427.5000   -11.9263    19.1025    13.1145     8.0856    76.4794     2.3960     0.0523     0.1721
  428.0000   -11.9134    19.1025    13.0889     8.0411    77.1058     2.3976     0.0527     0.1721
  428.5000   -11.9004    19.1025    13.0633     7.9967    76.4588     2.3992     0.0531     0.1689
  429.0000   -11.8872    19.1025    13.0378     7.9522    75.7432     2.4008     0.0536     0.1637
  429.5000   -11.8736    19.1025    13.0124     7.8856    75.0995     2.4050     0.0551     0.1584
  430.0000   -11.8637    19.1025    12.9870     7.7968    75.1226     2.4170     0.0617     0.1433
  430.5000   -12.0351    19.1025    12.9616     7.7497    74.0562     2.4295     0.0682     0.1473
  431.0000   -12.6781    19.1025    12.9363     7.7658    72.4518     2.4290     0.0733     0.1538
  431.5000   -13.2438    19.1026    12.9111     7.7872    76.5277     2.4227     0.0710     0.1587
  432.0000   -13.2490    19.1021    12.8859     7.7654    75.4434     2.4165     0.0681     0.1613
  432.5000   -13.2461    19.1037    12.8607     7.7024    74.2107     2.4116     0.0672     0.1621
  433.0000   -13.2919    18.9390    12.8356     7.6414    73.0001     2.4124     0.0743     0.1560
  433.5000   -13.7153    18.7090    12.8105     7.5926    72.4766     2.4205     0.0811     0.1503
  434.0000   -14.1419    18.4813    12.7856     7.4242    73.7979     2.4305     0.0879     0.1493
  434.5000   -14.4561    17.9510    12.7606     7.3006    74.2780     2.4339     0.0929     0.1443
  435.0000   -14.4790    17.3106    12.7357     7.2088    72.6833     2.4369     0.0979     0.1393
  435.5000   -14.5069    16.6922    12.7108     7.1767    70.8875     2.4464     0.1083     0.1316
  436.0000   -14.5348    16.0958    12.6860     7.1576    74.2926     2.4570     0.1213     0.1269
  436.5000   -14.5629    15.5218    12.6613     7.1387    79.2144     2.4615     0.1335     0.1333
  437.0000   -14.5909    15.1493    12.6365     7.1191    77.7558     2.4530     0.1259     0.1350
  437.5000   -14.6190    15.0453    12.6119     7.1306    75.8612     2.4507     0.1128     0.1385
  438.0000   -14.6470    15.1199    12.5873     7.1622    74.7467     2.4404     0.0984     0.1482
  438.5000   -14.6751    15.2271    12.5627     7.2072    76.7899     2.4252     0.0819     0.1579
