~VERSION INFORMATION
 VERS.                2.0:   CWLS LOG ASCII STANDARD - VERSION 2.0
 WRAP.                 NO:   ONE LINE PER DEPTH STEP
~WELL INFORMATION
#MNEM.UNIT      DATA TYPE    INFORMATION
#----------   ------------   ------------------------------
 STRT.F           44.0000:   START DEPTH
 STOP.F          462.0000:   STOP DEPTH
 STEP.F            0.5000:   STEP LENGTH
 NULL.          -999.2500:   NO VALUE
 COMP. FENIX & SCISSON INC:   COMPANY
 WELL.    35-SX-3F0 #55-3:   WELL
 FLD .             TEAPOT:   FIELD
 LOC .       S3 T38N R78W:   LOCATION
 CNTY.            NATRONA:   COUNTY
 STAT.            WYOMING:   STATE
 CTRY. UNITED STATES OF AMERICA:   COUNTRY
 SRVC.              Welex:   SERVICE COMPANY
 DATE.        11-JUL-1980:   LOGDATE
 API .       490251083300:   API NUMBER
~CURVE INFORMATION
#MNEM.UNIT       API CODE    CURVE DESCRIPTION
#----------   ------------   ------------------------------
 DEPT.F                  :   
 GRD .GAPI   45 310 01 00:   GAMMA RAY FROM DENSITY LOG
 CALD.IN     45 280 60 00:   CALIPER
 RHOB.G/C3   45 350 01 00:   BULK DENSITY
 CORR.G/C3   45 356 01 00:   DENSITY CORRECTION
 DPHI.DEC    45 890 12 00:   DENSITY POROSITY SANDSTONE
~PARAMETER INFORMATION
#MNEM.UNIT          VALUE    DESCRIPTION
#----------   ------------   ------------------------------
 PD  .                 GL:   PERMANENT DATUM
 EPD .F              5171:   ELEVATION PERMANENT DATUM
 LMF .                 KB:   LOG MEASURED FROM
 DAPD.F                 5:   FEET ABOVE PERMANENT DATUM
 DMF .                 KB:   DRILLING MEASURED FROM
 EKB .F              5176:   KELLING BUSHING
 EGL .F              5171:   GROUND LEVEL
 DATE.            7-11-80:   RUN DATE
 RUN .                  1:   RUN NUMBER
 DD  .F               470:   DEPTH DRILLER
 DL  .F               470:   DEPTH LOGGER
 BLI .F               462:   BOTTOM LOG INTERVAL
 TLI .F                48:   TOP LOG INTERVAL
 CS  .IN                7:   CASING SIZE
 CBD .F                48:   CASING BOTTOM DRILLER
 BS  .IN             6.25:   BIT SIZE
 BSD .F               470:   BIT SIZE AT DEPTH
 DFT .        AIR DRILLED:   DRILLING FLUID TYPE
 BHT .F                75:   BOTTOM HOLE TEMPERATURE
 TCS .HRS               2:   TIME CURCULATED STOPPED
 MRT .F                75:   MAXIMUM RECORDED TEMPERATURE
 ENGI.           PFRIMMER:   RECORDING ENGINEER
 WITN.              AMEND:   WITNESSED BY
 CLNT.            A2DTECH:   CLIENT CODE
 ORIG.           5" PRINT:   ORIGIN OF DATA
 UWI .       490251083300:   UNIQUE WELL ID
 DICO. A2D Technologies, Inc.:   DIGITIZING COMPANY
~OTHER INFORMATION
~A   DEPT       GRD        CALD     RHOB       CORR       DPHI   
# ...
  166.0000   104.2548     6.8081     2.4883     0.0608     0.1158
  166.5000   103.6326     6.8064     2.4848     0.0514     0.1192
  167.0000   103.7404     6.8048     2.4723     0.0416     0.1252
  167.5000   105.1924     6.8044     2.4598     0.0317     0.1319
  168.0000   105.2199     6.7845     2.4487     0.0293     0.1370
  168.5000   105.0936     6.7884     2.4484     0.0336     0.1389
  169.0000   104.9155     6.7919     2.4474     0.0375     0.1439
  169.5000   101.9986     6.7956     2.4435     0.0395     0.1497
  170.0000    99.4586     6.7993     2.4325     0.0416     0.1513
  170.5000    98.4340     6.8027     2.4464     0.0440     0.1404
  171.0000    97.3966     6.8028     2.4636     0.0472     0.1305
  171.5000    96.2306     6.8028     2.4809     0.0505     0.1205
  172.0000    97.5628     6.8028     2.4843     0.0510     0.1200
  172.5000    99.2642     6.8028     2.4801     0.0510     0.1220
  173.0000   100.9707     6.8028     2.4827     0.0519     0.1196
  173.5000   102.6912     6.8028     2.4941     0.0589     0.1141
  174.0000   104.2441     6.8028     2.5025     0.0659     0.1086
  174.5000   103.2561     6.8028     2.4981     0.0670     0.1076
  175.0000   104.3073     6.8028     2.4941     0.0656     0.1127
  175.5000   105.3437     6.8028     2.4900     0.0598     0.1138
  176.0000   105.7102     6.8028     2.4860     0.0542     0.1180
  176.5000   104.7307     6.8028     2.4819     0.0486     0.1209
  177.0000   103.3851     6.8028     2.4779     0.0430     0.1239
  177.5000   102.8379     6.8028     2.4750     0.0395     0.1259
  178.0000   103.7672     6.8028     2.4752     0.0416     0.1254
  178.5000   103.3710     6.8028     2.4687     0.0405     0.1282
  179.0000   101.5826     6.8028     2.4604     0.0339     0.1335
  179.5000   101.2320     6.8028     2.4520     0.0287     0.1389
  180.0000   101.9681     6.8028     2.4461     0.0235     0.1420
  180.5000   103.1522     6.8037     2.4500     0.0227     0.1401
  181.0000   101.7535     6.8060     2.4536     0.0257     0.1364
  181.5000    99.9410     6.8084     2.4572     0.0289     0.1328
  182.0000   100.3739     6.8107     2.4609     0.0320     0.1335
  182.5000   101.0908     6.8130     2.4621     0.0351     0.1327
  183.0000   102.5169     6.8153     2.4619     0.0384     0.1337
  183.5000   104.5561     6.8177     2.4541     0.0354     0.1387
  184.0000   103.4943     6.8200     2.4456     0.0305     0.1437
  184.5000   103.8706     6.8223     2.4370     0.0256     0.1485
  185.0000   104.2940     6.8246     2.4399     0.0289     0.1474
  185.5000   104.1737     6.8270     2.4420     0.0345     0.1459
  186.0000   104.0759     6.8293     2.4422     0.0402     0.1444
  186.5000   103.4171     6.8316     2.4461     0.0458     0.1429
  187.0000   102.7331     6.8339     2.4499     0.0515     0.1413
  187.5000   102.5518     6.8362     2.4474     0.0572     0.1406
  188.0000   102.1211     6.8386     2.4527     0.0629     0.1372
  188.5000   101.0643     6.8409     2.4640     0.0685     0.1335
  189.0000   101.5602     6.8420     2.4602     0.0726     0.1336
  189.5000   103.0019     6.8387     2.4560     0.0694     0.1363
  190.0000   103.7020     6.8356     2.4484     0.0664     0.1392
  190.5000   102.9185     6.8324     2.4366     0.0635     0.1503
  191.0000   101.9241     6.8293     2.4248     0.0604     0.1543
  191.5000   102.1643     6.8262     2.4189     0.0572     0.1585
  192.0000   102.0940     6.8230     2.4158     0.0656     0.1603
  192.5000   102.0791     6.8199     2.4129     0.0759     0.1621
  193.0000   103.1379     6.8168     2.4075     0.0865     0.1655
  193.5000   104.5035     6.8136     2.3996     0.0853     0.1783
  194.0000   102.9299     6.8105     2.3677     0.0755     0.1958
  194.5000   100.9761     6.8074     2.3344     0.0655     0.2133
  195.0000    98.9343     6.8042     2.3111     0.0556     0.2228
  195.5000    99.3974     6.8011     2.2985     0.0475     0.2309
  196.0000   100.6137     6.7980     2.2887     0.0532     0.2365
  196.5000   100.6074     6.7948     2.2967     0.0587     0.2323
  197.0000    99.5189     6.7917     2.3110     0.0644     0.2252
  197.5000    97.3994     6.7885     2.3296     0.0584     0.2154
  198.0000    95.2001     6.7854     2.3535     0.0489     0.1989
  198.5000    94.5703     6.7849     2.3773     0.0408     0.1824
  199.0000   101.3589     6.7980     2.4011     0.0425     0.1686
  199.5000   106.3365     6.8110     2.4256     0.0442     0.1556
  200.0000   110.0629     6.8239     2.4501     0.0468     0.1426
  200.5000   110.3867     6.8368     2.4751     0.0504     0.1296
  201.0000   110.8880     6.8425     2.4783     0.0540     0.1236
  201.5000   112.0759     6.8426     2.4716     0.0557     0.1289
  202.0000   113.2799     6.8426     2.4618     0.0468     0.1345
  202.5000   114.8574     6.8426     2.4521     0.0381     0.1401
  203.0000   114.3268     6.8426     2.4424     0.0294     0.1457
  203.5000   113.7641     6.8426     2.4326     0.0207     0.1508
  204.0000   113.0363     6.8426     2.4221     0.0131     0.1565
  204.5000   111.4023     6.8426     2.4198     0.0165     0.1570
  205.0000   109.7886     6.8426     2.4194     0.0196     0.1575
  205.5000   108.8825     6.8426     2.4191     0.0228     0.1581
  206.0000   111.6147     6.8426     2.4165     0.0260     0.1612
  206.5000   115.3473     6.8390     2.4123     0.0288     0.1645
  207.0000   119.1644     6.8274     2.4062     0.0253     0.1683
  207.5000   120.7043     6.8160     2.3935     0.0217     0.1738
  208.0000   119.8704     6.8045     2.3809     0.0181     0.1793
  208.5000   118.8171     6.7930     2.3761     0.0157     0.1845
  209.0000   116.4955     6.7828     2.3884     0.0216     0.1755
  209.5000   112.8724     6.7854     2.4051     0.0275     0.1660
  210.0000   109.6012     6.7877     2.4066     0.0320     0.1639
  210.5000   109.0180     6.7900     2.4033     0.0343     0.1638
  211.0000   108.1013     6.7923     2.4104     0.0364     0.1632
  211.5000   107.3065     6.7946     2.4261     0.0459     0.1555
  212.0000   109.0890     6.7969     2.4401     0.0562     0.1481
  212.5000   110.9208     6.7991     2.4495     0.0654     0.1409
  213.0000   111.2650     6.8014     2.4592     0.0724     0.1358
  213.5000   108.6501     6.8028     2.4619     0.0795     0.1326
  214.0000   106.0879     6.8028     2.4602     0.0866     0.1328
  214.5000   104.8569     6.8028     2.4584     0.0936     0.1337
  215.0000   108.9359     6.8028     2.4569     0.1007     0.1346
  215.5000   108.4451     6.8028     2.4562     0.1080     0.1372
  216.0000   110.5274     6.8028     2.4499     0.1148     0.1418
  216.5000   115.5782     6.8028     2.4380     0.1219     0.1465
  217.0000   114.9262     6.8034     2.4263     0.1255     0.1517
  217.5000   114.1138     6.7836     2.4195     0.1266     0.1569
  218.0000   114.0889     6.7612     2.4302     0.1351     0.1524
  218.5000   113.5097     6.7387     2.4427     0.1546     0.1453
  219.0000   112.8861     6.7165     2.4540     0.1739     0.1382
  219.5000   113.0312     6.7058     2.4531     0.1926     0.1357
  220.0000   114.3487     6.7126     2.4520     0.2017     0.1352
  220.5000   115.6578     6.7192     2.4538     0.2114     0.1347
  221.0000   115.8347     6.7259     2.4583     0.2208     0.1367
  221.5000   114.9588     6.7325     2.4494     0.2183     0.1406
  222.0000   114.0275     6.7390     2.4335     0.2149     0.1481
  222.5000   115.1177     6.7365     2.4255     0.2114     0.1532
  223.0000   116.6508     6.7202     2.4347     0.2080     0.1450
  223.5000   117.5031     6.7042     2.4503     0.2039     0.1397
  224.0000   112.9152     6.6880     2.4544     0.1952     0.1396
  224.5000   111.1574     6.6718     2.4802     0.1864     0.1260
  225.0000   112.6064     6.6558     2.4898     0.1806     0.1141
  225.5000   114.0736     6.6503     2.4986     0.1799     0.1127
  226.0000   114.3331     6.6876     2.4928     0.1787     0.1116
  226.5000   113.0546     6.7238     2.4802     0.1709     0.1224
