~VERSION INFORMATION
 VERS.                2.0:   CWLS LOG ASCII STANDARD - VERSION 2.0
 WRAP.                 NO:   ONE LINE PER DEPTH STEP
~WELL INFORMATION
#MNEM.UNIT      DATA TYPE    INFORMATION
#----------   ------------   ------------------------------
 STRT.F           20.0000:   START DEPTH
 STOP.F          710.0000:   STOP DEPTH
 STEP.F            0.5000:   STEP LENGTH
 NULL.          -999.2500:   NO VALUE
 COMP. FENIX & SCISSON INC:   COMPANY
 WELL.     NPR-3 #42SX-34:   WELL
 FLD .             TEAPOT:   FIELD
 LOC .      S34 T39N R78W:   LOCATION
 CNTY.            NATRONA:   COUNTY
 STAT.            WYOMING:   STATE
 CTRY. UNITED STATES OF AMERICA:   COUNTRY
 SRVC.           BIRDWELL:   SERVICE COMPANY
 DATE.        30-AUG-1978:   LOGDATE
 API .       490251070800:   API NUMBER
~CURVE INFORMATION
#MNEM.UNIT       API CODE    CURVE DESCRIPTION
#----------   ------------   ------------------------------
 DEPT.F                  :   
 SPR .MV     05 010 01 00:   SPONTANEOUS POTENTIAL
 SN  .OHMM   05 040 16 00:   SHORT NORMAL 16'
 ILD .OHMM   05 120 46 00:   INDUCTION LOG DEEP RESISTIVITY
 GRD .GAPI   45 310 01 00:   GAMMA RAY FROM DENSITY LOG
 CALD.IN     45 280 60 00:   CALIPER
 RHOB.G/C3   45 350 01 00:   BULK DENSITY
 DPHI.DEC    45 890 12 00:   DENSITY POROSITY SANDSTONE
 CORR.G/C3   45 356 01 00:   DENSITY CORRECTION
~PARAMETER INFORMATION
#MNEM.UNIT          VALUE    DESCRIPTION
#----------   ------------   ------------------------------
 PD  .                 GL:   PERMANENT DATUM
 EPD .F              5079:   ELEVATION PERMANENT DATUM
 LMF .                 KB:   LOG MEASURED FROM
 DAPD.F                 4:   FEET ABOVE PERMANENT DATUM
 DMF .                 KB:   DRILLING MEASURED FROM
 EKB .F              5083:   KELLING BUSHING
 EGL .F              5079:   GROUND LEVEL
 DATE.            8-30-78:   RUN DATE
 RUN .                  1:   RUN NUMBER
 DD  .F               705:   DEPTH DRILLER
 DL  .F               708:   DEPTH LOGGER
 BLI .F               702:   BOTTOM LOG INTERVAL
 TLI .F                50:   TOP LOG INTERVAL
 CS  .IN            8.625:   CASING SIZE
 CBD .F                40:   CASING BOTTOM DRILLER
 CBL .F                40:   CASING BOTTOM LOGGER
 BS  .IN            7.875:   BIT SIZE
 BSD .F               705:   BIT SIZE AT DEPTH
 DFT .                KCL:   DRILLING FLUID TYPE
 DFD .                8.6:   DRILLING FLUID DENSITY
 DFV .                 34:   DRILLING FLUID VISCOSITY
 DFPH.                  9:   DRILLING FLUID PH
 DFL .                7.4:   DRILLING FLUID LOSS
 MSS .           FLOWLINE:   MUD SAMPLE SOURCE
 RMS .OHMM             .3:   RESISTIVITY MUD SAMPLE
 MST .F                80:   MUD SAMPLE TEMPERATURE
 RMF .OHMM             .4:   RESISTIVITY MUD FILTRATE SAMPLE
 MFST.F                80:   MUD FILTRATE SAMPLE TEMPERATURE
 RMC .OHMM             .5:   RESISTIVITY MUD CAKE
 MCST.F                82:   MUD CAKE SAMPLE TEMPERATURE
 MFSS.               MEAS:   MUD FILTRATE SAMPLE SOURCE
 MCSS.               MEAS:   MUD CAKE SAMPLE SOURCE
 RMB .OHMM            .32:   RESISTIVITY MUD AT BHT
 BHT .F                73:   BOTTOM HOLE TEMPERATURE
 TCS .HRS               3:   TIME CURCULATED STOPPED
 MRT .F                73:   MAXIMUM RECORDED TEMPERATURE
 LUN .               3006:   LOGGING UNIT NUMBER
 LUL .               CASP:   LOGGING UNIT LOCATION
 ENGI.            POINTER:   RECORDING ENGINEER
 WITN.              AMEND:   WITNESSED BY
 CLNT.            A2DTECH:   CLIENT CODE
 ORIG.           5" PRINT:   ORIGIN OF DATA
 UWI .       490251070800:   UNIQUE WELL ID
 DICO. A2D Technologies, Inc.:   DIGITIZING COMPANY
~OTHER INFORMATION
~A   DEPT      SPR         SN        ILD         GRD      CALD       RHOB       DPHI       CORR   
# ...
  141.5000   -46.5995     9.1349     8.8740    85.8861     8.9642     2.4709     0.1296     0.0329
  142.0000   -46.5992     9.0727     8.7917    84.2875     8.9667     2.4711     0.1286     0.0325
  142.5000   -46.6000     9.0108     8.7102    82.5403     8.9692     2.4711     0.1334     0.0320
  143.0000   -46.6001     8.9073     8.6295    82.1174     8.9717     2.4683     0.1381     0.0315
  143.5000   -46.6001     8.7486     8.5495    84.1399     8.9742     2.4592     0.1421     0.0310
  144.0000   -46.6012     8.5927     8.4703    85.9457     8.9768     2.4500     0.1445     0.0305
  144.5000   -46.6005     8.4398     8.3914    88.0494     8.9793     2.4481     0.1431     0.0301
  145.0000   -46.6004     8.2895     8.3132    88.4077     8.9817     2.4506     0.1398     0.0301
  145.5000   -46.6073     8.1420     8.2356    86.6263     8.9842     2.4529     0.1404     0.0317
  146.0000   -46.5412     8.0358     8.1587    89.1784     8.9870     2.4516     0.1425     0.0331
  146.5000   -46.4305     8.0620     8.0826    91.2073     8.9889     2.4505     0.1444     0.0347
  147.0000   -46.3242     8.0918     8.0334    85.7646     8.9913     2.4492     0.1425     0.0361
  147.5000   -46.2045     8.1217     8.0890    87.1447     8.9758     2.4541     0.1397     0.0376
  148.0000   -45.8389     8.1517     8.1864    89.8899     8.9580     2.4582     0.1369     0.0367
  148.5000   -45.3805     8.1852     8.2851    91.5161     8.9541     2.4606     0.1341     0.0349
  149.0000   -44.9225     8.2766     8.3850    89.8601     8.9663     2.4635     0.1316     0.0332
  149.5000   -44.4700     8.3810     8.4860    88.2998     8.9781     2.4644     0.1339     0.0314
  150.0000   -44.0182     8.4868     8.5879    87.7068     8.9890     2.4619     0.1360     0.0297
  150.5000   -43.5533     8.5940     8.6910    87.9504     9.0011     2.4596     0.1380     0.0280
  151.0000   -43.3867     8.7025     8.7953    88.2152     9.0140     2.4568     0.1391     0.0260
  151.5000   -43.3979     8.8123     8.9008    87.7269     9.0212     2.4549     0.1407     0.0273
  152.0000   -43.3997     8.9236     9.0075    86.4998     9.0658     2.4552     0.1376     0.0303
  152.5000   -43.3973     8.9749     9.1154    85.2974     9.0708     2.4592     0.1332     0.0333
  153.0000   -43.3994     8.9908     9.2247    84.2224     9.0597     2.4635     0.1324     0.0340
  153.5000   -43.3994     9.0046     9.3353    82.9443     9.0470     2.4668     0.1316     0.0340
  154.0000   -43.4010     9.0184     9.4472    84.3200     9.0357     2.4657     0.1339     0.0340
  154.5000   -43.4001     9.0323     9.4848    85.9556     9.0243     2.4631     0.1368     0.0340
  155.0000   -43.3996     9.0461     9.4098    87.6784     9.0125     2.4571     0.1396     0.0340
  155.5000   -43.4090     9.0600     9.3263    89.5398     9.0010     2.4563     0.1401     0.0340
  156.0000   -43.3122     9.0739     9.2436    89.1033     8.9894     2.4556     0.1393     0.0340
  156.5000   -43.1304     9.0878     9.1616    87.1015     8.9778     2.4550     0.1391     0.0340
  157.0000   -42.9581     9.1018     9.0803    85.6806     8.9662     2.4550     0.1398     0.0340
  157.5000   -42.7870     9.1157     8.9749    85.1778     8.9546     2.4550     0.1405     0.0340
  158.0000   -42.6143     9.1297     8.9835    84.5677     8.9431     2.4573     0.1352     0.0340
  158.5000   -42.4432     9.1418     9.0120    81.8254     8.9313     2.4592     0.1324     0.0340
  159.0000   -42.2657     9.2578     9.0406    79.8278     8.9199     2.4635     0.1338     0.0341
  159.5000   -42.1935     9.4144     9.0693    79.9782     8.9119     2.4652     0.1356     0.0332
  160.0000   -42.1993     9.5736     9.0978    82.4980     8.9240     2.4654     0.1286     0.0317
  160.5000   -42.1994     9.7356     9.1428    85.0401     8.9376     2.4754     0.1159     0.0298
  161.0000   -42.1978     9.9003     9.1399    84.4965     8.9516     2.4845     0.1148     0.0200
  161.5000   -42.2001    10.0677     9.1587    82.9861     8.9658     2.4935     0.1257     0.0162
  162.0000   -42.2000    10.2101     9.2197    80.3717     8.9794     2.4839     0.1340     0.0254
  162.5000   -42.2782    10.2101     9.2814    78.1858     8.9911     2.4657     0.1299     0.0336
  163.0000   -42.3822    10.2101     9.4911    79.7917     8.9829     2.4656     0.1263     0.0338
  163.5000   -42.4865    10.2101     9.4792    81.2773     8.9755     2.4707     0.1227     0.0341
  164.0000   -42.5893    10.2088     9.5125    82.7842     8.9670     2.4779     0.1188     0.0339
  164.5000   -42.6916    10.2121     9.5537    84.4393     8.9592     2.4864     0.1276     0.0340
  165.0000   -42.7975    10.0775     9.5951    82.7984     8.9526     2.4823     0.1347     0.0342
  165.5000   -42.8992     9.9623     9.6366    80.6047     8.9371     2.4666     0.1368     0.0384
  166.0000   -42.9899     9.8485     9.6612    80.6348     8.8840     2.4592     0.1380     0.0429
  166.5000   -43.0578     9.7360     9.6302    80.7877     8.9053     2.4630     0.1370     0.0476
  167.0000   -43.1711     9.6247     9.5062    81.6031     8.9526     2.4622     0.1361     0.0522
  167.5000   -43.2719     9.5145     9.3837    84.4320     9.0001     2.4612     0.1352     0.0567
  168.0000   -43.3725     9.4055     9.2629    87.0364     9.0321     2.4616     0.1342     0.0615
  168.5000   -43.4227     9.2978     9.1436    89.0583     9.0318     2.4633     0.1340     0.0662
  169.0000   -43.4804     9.1913     9.0259    87.4090     9.0323     2.4651     0.1340     0.0749
  169.5000   -43.5365     9.0860     8.9096    88.6493     9.0323     2.4660     0.1264     0.0838
  170.0000   -43.5968     8.9819     8.7949    93.1248     9.0322     2.4725     0.1171     0.0898
  170.5000   -43.6510     8.8111     8.6678    97.4164     9.0323     2.4924     0.1078     0.0901
  171.0000   -43.7094     8.8391     8.7075   100.6477     9.0322     2.5081     0.1052     0.0792
  171.5000   -43.7820     8.9235     8.7874    96.6505     9.0322     2.5114     0.1097     0.0626
  172.0000   -43.6627     8.9890     8.8681    93.0957     9.0321     2.5117     0.1177     0.0529
  172.5000   -43.2679     9.0246     8.9495    89.1990     9.0322     2.4912     0.1257     0.0532
  173.0000   -42.8878     9.0604     9.0317    85.9968     9.0322     2.4719     0.1292     0.0524
  173.5000   -42.5104     9.0964     9.1146    84.1858     9.0321     2.4725     0.1276     0.0515
  174.0000   -42.1287     9.1325     9.1983    85.7545     9.0323     2.4733     0.1247     0.0510
  174.5000   -41.7381     9.2843     9.2827    84.8096     9.0321     2.4820     0.1205     0.0504
  175.0000   -41.3739     9.4794     9.3680    83.8233     9.0318     2.4892     0.1171     0.0480
  175.5000   -41.0305     9.6785     9.4540    83.3696     9.0244     2.4910     0.1164     0.0441
  176.0000   -41.3634     9.8819     9.6965    83.5147     9.0169     2.4866     0.1235     0.0403
  176.5000   -41.6860    10.0895     9.8357    82.4369     9.0090     2.4758     0.1292     0.0366
  177.0000   -42.0419    10.3015     9.9769    80.8548     9.0013     2.4770     0.1224     0.0328
  177.5000   -42.4017    10.3999    10.1202    79.9821     8.9936     2.4838     0.1196     0.0291
  178.0000   -42.6928    10.3999    10.2101    83.3750     8.9859     2.4851     0.1242     0.0251
  178.5000   -42.8833    10.3999    10.1984    86.8745     8.9781     2.4783     0.1281     0.0216
  179.0000   -43.0899    10.3999    10.1447    89.7389     8.9705     2.4722     0.1320     0.0185
  179.5000   -43.3124    10.4000    10.0913    89.7299     8.9628     2.4658     0.1364     0.0257
  180.0000   -43.3742    10.3996    10.0381    88.9566     8.9548     2.4632     0.1351     0.0326
  180.5000   -43.2853    10.3995    10.0237    90.5045     8.9515     2.4647     0.1336     0.0399
  181.0000   -43.2090    10.3114     9.9671    90.7319     8.9518     2.4659     0.1324     0.0471
  181.5000   -43.1343    10.2200     9.8679    88.9179     8.9518     2.4671     0.1285     0.0543
