~VERSION INFORMATION
 VERS.                2.0:   CWLS LOG ASCII STANDARD - VERSION 2.0
 WRAP.                 NO:   ONE LINE PER DEPTH STEP
~WELL INFORMATION
#MNEM.UNIT      DATA TYPE    INFORMATION
#----------   ------------   ------------------------------
 STRT.F          534.0000:   START DEPTH
 STOP.F         1820.0000:   STOP DEPTH
 STEP.F            0.5000:   STEP LENGTH
 NULL.          -999.2500:   NO VALUE
 COMP.   FLUOR DANIEL INC:   COMPANY
 WELL. NAVAL PETROLEUM RESERVE 3 X-29 #45-29:   WELL
 FLD .             TEAPOT:   FIELD
 LOC .      S29 T39N R78W:   LOCATION
 CNTY.            NATRONA:   COUNTY
 STAT.            WYOMING:   STATE
 CTRY. UNITED STATES OF AMERICA:   COUNTRY
 SRVC.            Unknown:   SERVICE COMPANY
 DATE.        30-SEP-1994:   LOGDATE
 API .       490252265100:   API NUMBER
~CURVE INFORMATION
#MNEM.UNIT       API CODE    CURVE DESCRIPTION
#----------   ------------   ------------------------------
 DEPT.F                  :   
 ROP .FT/HR  91 810 01 00:   RAT OF DRILLING PENETRATION
 TGAS.TC/CC  91 830 01 00:   TOTAL GAS UNIT
~PARAMETER INFORMATION
#MNEM.UNIT          VALUE    DESCRIPTION
#----------   ------------   ------------------------------
 EKB .F              5023:   KELLING BUSHING
 EGL .F              5013:   GROUND LEVEL
 DATE.        30-SEP-1994:   RUN DATE
 RUN .                  1:   RUN NUMBER
 BLI .F              1820:   BOTTOM LOG INTERVAL
 TLI .F               540:   TOP LOG INTERVAL
 WITN.     C.TOWER/R.HUSK:   WITNESSED BY
 CLNT.            A2DTECH:   CLIENT CODE
 ORIG.           5" PRINT:   ORIGIN OF DATA
 UWI .       490252265100:   UNIQUE WELL ID
 DICO. A2D Technologies, Inc.:   DIGITIZING COMPANY
~OTHER INFORMATION
~A   DEPT        ROP       TGAS 
# ...
  777.0000     0.5010     1.1042
  777.5000     0.5005     1.2857
  778.0000     0.4998     1.2782
  778.5000     0.4991     1.2706
  779.0000     0.5079     1.2616
  779.5000     0.5167     1.0651
  780.0000     0.5159     1.0577
  780.5000     0.5152     1.0503
  781.0000     0.5146     1.0429
  781.5000     0.5140     1.0355
  782.0000     0.4003     1.0281
  782.5000     0.3997     1.2116
  783.0000     0.3990     1.2023
  783.5000     0.3984     1.1949
  784.0000     0.3977     1.1874
  784.5000     0.4065     1.3692
  785.0000     0.4057     1.3599
  785.5000     0.4051     1.3525
  786.0000     0.3950     1.3451
  786.5000     0.3944     1.3377
  787.0000     0.4033     1.3302
  787.5000     0.4119     1.5119
  788.0000     0.4113     1.5045
  788.5000     0.4106     1.3080
  789.0000     0.4099     1.4899
  789.5000     0.4092     1.4823
  790.0000     0.4086     1.6639
  790.5000     0.4079     1.8456
  791.0000     0.4073     1.8363
  791.5000     0.4067     1.8289
  792.0000     0.4060     1.8215
  792.5000     0.4054     1.8141
  793.0000     0.4047     1.8067
  793.5000     0.4133     1.9902
  794.0000     0.4127     1.9809
  794.5000     0.4121     1.9735
  795.0000     0.4114     1.7770
  795.5000     0.4014     1.7696
  796.0000     0.4103     1.7622
  796.5000     0.4189     1.7546
  797.0000     0.4277     1.7471
  797.5000     0.4365     1.7381
  798.0000     0.4357     1.7307
  798.5000     0.4350     1.7233
  799.0000     0.4250     1.7159
  799.5000     0.4243     1.7085
  800.0000     0.4312     1.7011
  800.5000     0.4420     1.6960
  801.0000     0.4413     1.6903
  801.5000     0.4500     1.6847
  802.0000     0.4495     1.6779
  802.5000     0.4489     1.6724
  803.0000     0.4483     1.8572
  803.5000     0.4477     1.8503
  804.0000     0.4471     1.8447
  804.5000     0.4465     1.8391
  805.0000     0.4459     2.0240
  805.5000     0.4452     2.2075
  806.0000     0.4446     2.2005
  806.5000     0.4440     2.1949
  807.0000     0.4434     2.1893
  807.5000     0.4428     2.1837
  808.0000     0.4422     2.1781
  808.5000     0.4416     2.1725
  809.0000     0.4410     2.1668
  809.5000     0.4403     2.1611
  810.0000     0.4397     2.1544
  810.5000     0.4391     2.1488
  811.0000     0.4385     2.1432
  811.5000     0.4379     2.3281
  812.0000     0.4373     2.3211
  812.5000     0.4367     2.3155
  813.0000     0.4361     2.3099
  813.5000     0.4355     2.3044
  814.0000     0.4348     2.2988
  814.5000     0.4342     2.1041
  815.0000     0.4336     2.0985
  815.5000     0.4235     2.0929
  816.0000     0.4229     2.0874
  816.5000     0.4223     2.2708
  817.0000     0.4312     2.2834
  817.5000     0.4306     2.4488
  818.0000     0.4538     2.4418
  818.5000     0.4778     2.6267
  819.0000     0.4853     2.6197
  819.5000     0.4941     2.4250
  820.0000     0.5029     2.4194
  820.5000     0.5021     2.2262
  821.0000     0.5204     2.4096
  821.5000     0.5293     2.4027
  822.0000     0.5286     2.3971
  822.5000     0.5186     2.5806
  823.0000     0.5180     2.5750
  823.5000     0.5174     2.3803
  824.0000     0.5168     2.3747
  824.5000     0.5256     2.3691
  825.0000     0.5250     2.3634
  825.5000     0.5242     2.3578
  826.0000     0.5236     2.3510
  826.5000     0.5231     2.3454
  827.0000     0.5253     2.3398
  827.5000     0.5313     2.3342
  828.0000     0.5307     2.3286
  828.5000     0.5207     2.3231
  829.0000     0.5106     2.3175
  829.5000     0.5100     2.3119
  830.0000     0.5094     2.3063
  830.5000     0.5087     2.3007
  831.0000     0.5081     2.2954
  831.5000     0.5076     2.2895
  832.0000     0.5070     2.2840
  832.5000     0.5063     2.2784
  833.0000     0.5057     2.2727
  833.5000     0.5051     2.2670
  834.0000     0.4951     2.2602
  834.5000     0.4662     2.2546
  835.0000     0.4656     2.2490
  835.5000     0.4839     2.2435
  836.0000     0.4832     2.2379
  836.5000     0.4731     2.2323
  837.0000     0.4725     2.2267
  837.5000     0.4719     2.4107
  838.0000     0.4714     2.5937
  838.5000     0.4707     2.5881
  839.0000     0.4701     2.5825
  839.5000     0.4695     2.5769
  840.0000     0.4785     2.5713
  840.5000     0.4777     2.3767
  841.0000     0.4865     2.1819
  841.5000     0.5014     2.1763
  842.0000     0.5136     2.1706
  842.5000     0.5128     2.3543
  843.0000     0.5218     2.3473
  843.5000     0.5306     2.3418
  844.0000     0.5122     2.5266
  844.5000     0.4633     2.5197
  845.0000     0.4627     2.5141
  845.5000     0.4622     2.5090
  846.0000     0.4522     2.5029
  846.5000     0.4498     2.4973
  847.0000     0.4415     2.4920
  847.5000     0.4409     2.4861
  848.0000     0.4403     2.2915
  848.5000     0.4401     2.4750
  849.0000     0.4404     2.4693
  849.5000     0.4406     2.4439
  850.0000     0.4409     2.2689
  850.5000     0.4412     2.4512
  851.0000     0.4414     2.4456
  851.5000     0.4417     2.4401
  852.0000     0.4420     2.2454
  852.5000     0.4423     2.0507
  853.0000     0.4425     2.0452
  853.5000     0.4428     1.8505
  854.0000     0.4431     2.0354
  854.5000     0.4433     2.0284
  855.0000     0.4436     2.0231
  855.5000     0.4439     2.0172
  856.0000     0.4441     2.0116
  856.5000     0.4444     2.1952
  857.0000     0.4447     2.1866
  857.5000     0.4449     1.9947
  858.0000     0.4452     1.9891
  858.5000     0.4455     1.9823
  859.0000     0.4457     1.9767
  859.5000     0.4460     1.9711
  860.0000     0.4463     1.9655
  860.5000     0.4466     1.9600
  861.0000     0.4468     2.1448
  861.5000     0.4471     2.3275
  862.0000     0.4474     2.3214
  862.5000     0.4476     2.3158
  863.0000     0.4479     2.4993
  863.5000     0.4482     2.4937
  864.0000     0.4484     2.4881
  864.5000     0.4487     2.4825
  865.0000     0.4490     2.2878
  865.5000     0.4492     2.2821
  866.0000     0.4495     2.4657
  866.5000     0.4498     2.4588
  867.0000     0.4500     2.4532
  867.5000     0.4503     2.4476
  868.0000     0.4506     2.4429
  868.5000     0.4509     2.4364
  869.0000     0.4511     2.4315
  869.5000     0.4514     2.4252
  870.0000     0.4517     2.4197
  870.5000     0.4519     2.4145
  871.0000     0.4522     2.4088
  871.5000     0.4525     2.4029
  872.0000     0.4527     2.3973
  872.5000     0.4530     2.3918
  873.0000     0.4533     2.1971
  873.5000     0.4535     2.1914
  874.0000     0.4538     2.1857
  874.5000     0.4541     2.1789
  875.0000     0.4543     2.1733
  875.5000     0.4537     2.1677
  876.0000     0.4626     2.1621
  876.5000     0.4995     2.1566
  877.0000     0.5084     2.1510
  877.5000     0.4983     2.1454
  878.0000     0.4977     2.1398
  878.5000     0.4877     2.1347
  879.0000     0.4871     2.1286
  879.5000     0.4865     2.1230
  880.0000     0.4859     2.1175
  880.5000     0.4853     2.3011
  881.0000     0.4941     2.2954
  881.5000     0.4933     2.2897
  882.0000     0.4928     2.2840
  882.5000     0.4911     2.2784
  883.0000     0.4822     2.2716
  883.5000     0.4816     2.0770
  884.0000     0.4809     2.0714
  884.5000     0.4803     2.0658
  885.0000     0.4703     2.0602
  885.5000     0.4697     2.0546
  886.0000     0.4691     2.0490
  886.5000     0.4685     2.0434
  887.0000     0.4732     2.0379
  887.5000     0.4767     2.2216
  888.0000     0.4855     2.2160
  888.5000     0.4942     2.2102
  889.0000     0.4842     2.3937
  889.5000     0.4837     2.3880
  890.0000     0.4830     2.3824
  890.5000     0.4824     2.3767
  891.0000     0.4818     2.3699
  891.5000     0.4907     2.5548
  892.0000     0.4900     2.7383
  892.5000     0.4894     2.7313
  893.0000     0.4888     2.7257
  893.5000     0.4882     2.7201
  894.0000     0.4897     2.9050
  894.5000     0.4869     2.8980
  895.0000     0.4863     2.8925
  895.5000     0.4857     2.8872
  896.0000     0.4851     2.8813
  896.5000     0.4845     2.8757
  897.0000     0.4839     2.8701
  897.5000     0.4833     2.8597
  898.0000     0.4827     2.6697
