~VERSION INFORMATION
 VERS.                2.0:   CWLS LOG ASCII STANDARD - VERSION 2.0
 WRAP.                 NO:   ONE LINE PER DEPTH STEP
~WELL INFORMATION
#MNEM.UNIT      DATA TYPE    INFORMATION
#----------   ------------   ------------------------------
 STRT.F           30.5000:   START DEPTH
 STOP.F          674.0000:   STOP DEPTH
 STEP.F            0.5000:   STEP LENGTH
 NULL.          -999.2500:   NO VALUE
 COMP. FENIX & SCISSON INC:   COMPANY
 WELL. NPR 3 #37 SX 34-34:   WELL
 FLD .        TEAPOT DOME:   FIELD
 LOC .      S34 T39N R78W:   LOCATION
 CNTY.            NATRONA:   COUNTY
 STAT.            WYOMING:   STATE
 CTRY. UNITED STATES OF AMERICA:   COUNTRY
 SRVC.           BIRDWELL:   SERVICE COMPANY
 DATE.        21-JAN-1979:   LOGDATE
 API .       490251074400:   API NUMBER
~CURVE INFORMATION
#MNEM.UNIT       API CODE    CURVE DESCRIPTION
#----------   ------------   ------------------------------
 DEPT.F                  :   
 SPR .MV     05 010 01 00:   SPONTANEOUS POTENTIAL FROM RES.
 SN  .OHMM   05 040 16 00:   SHORT NORMAL 16"
 IL  .OHMM   05 120 00 00:   INDUCTION LOG
 CALD.IN     45 280 60 00:   CALIPER
 GRD .GAPI   45 310 01 00:   GAMMA RAY FROM DENSITY LOG
 RHOB.G/C3   45 350 01 00:   BULK DENSITY
 DPHI.DEC    45 890 12 00:   DENSITY POROSITY SANDSTONE
 CORR.G/C3   45 356 01 00:   DENSITY CORRECTION
~PARAMETER INFORMATION
#MNEM.UNIT          VALUE    DESCRIPTION
#----------   ------------   ------------------------------
 PD  .                 GL:   PERMANENT DATUM
 EPD .F              5175:   ELEVATION PERMANENT DATUM
 LMF .                 KB:   LOG MEASURED FROM
 DAPD.F                 4:   FEET ABOVE PERMANENT DATUM
 DMF .                 KB:   DRILLING MEASURED FROM
 EKB .F              5179:   KELLING BUSHING
 EGL .F              5175:   GROUND LEVEL
 DATE.            1-21-79:   RUN DATE
 RUN .                  1:   RUN NUMBER
 DD  .F               674:   DEPTH DRILLER
 DL  .F               673:   DEPTH LOGGER
 BLI .F               666:   BOTTOM LOG INTERVAL
 TLI .F                40:   TOP LOG INTERVAL
 CS  .IN            8.625:   CASING SIZE
 CBD .F                40:   CASING BOTTOM DRILLER
 CBL .F                30:   CASING BOTTOM LOGGER
 BS  .IN            7.875:   BIT SIZE
 BSD .F               674:   BIT SIZE AT DEPTH
 DFT .                KCL:   DRILLING FLUID TYPE
 DFD .                8.8:   DRILLING FLUID DENSITY
 DFV .                 60:   DRILLING FLUID VISCOSITY
 DFPH.                9.5:   DRILLING FLUID PH
 DFL .                  8:   DRILLING FLUID LOSS
 MSS .           FLOWLINE:   MUD SAMPLE SOURCE
 RMS .OHMM            .23:   RESISTIVITY MUD SAMPLE
 MST .F                56:   MUD SAMPLE TEMPERATURE
 MFSS.           MEASURED:   MUD FILTRATE SAMPLE SOURCE
 MCSS.           MEASURED:   MUD CAKE SAMPLE SOURCE
 RMB .OHMM            .22:   RESISTIVITY MUD AT BHT
 BHT .F                60:   BOTTOM HOLE TEMPERATURE
 TCS .HRS               4:   TIME CURCULATED STOPPED
 MRT .F                60:   MAXIMUM RECORDED TEMPERATURE
 LUN .               3006:   LOGGING UNIT NUMBER
 LUL .             CASPER:   LOGGING UNIT LOCATION
 ENGI.            ROLLINS:   RECORDING ENGINEER
 WITN.           DINSMORE:   WITNESSED BY
 CLNT.            A2DTECH:   CLIENT CODE
 ORIG.       2", 5" PRINT:   ORIGIN OF DATA
 UWI .       490251074400:   UNIQUE WELL ID
 DICO. A2D Technologies, Inc.:   DIGITIZING COMPANY
~OTHER INFORMATION
~A   DEPT      SPR         SN         IL       CALD        GRD       RHOB       DPHI       CORR   
# ...
  152.0000   -46.1530     6.9380     6.6450     8.1790   107.1790     2.4730     0.1230     0.0250
  152.5000   -46.1470     6.8010     6.5550     8.1790   109.9510     2.4740     0.1220     0.0240
  153.0000   -46.1410     6.8090     6.5650     8.1790   109.4120     2.4760     0.1210     0.0230
  153.5000   -46.1360     6.8210     6.5740     8.1780   107.4250     2.4770     0.1210     0.0210
  154.0000   -46.1300     6.8330     6.5840     8.1770   106.2620     2.4760     0.1220     0.0170
  154.5000   -46.1240     6.8450     6.5930     8.1720   108.8300     2.4740     0.1230     0.0120
  155.0000   -46.1180     6.8570     6.6030     8.1680   111.1420     2.4740     0.1220     0.0110
  155.5000   -46.1130     6.8910     6.6120     8.1640   112.0650     2.4750     0.1210     0.0120
  156.0000   -46.1070     6.9520     6.6710     8.1590   111.2530     2.4760     0.1220     0.0130
  156.5000   -46.1010     7.0130     6.7560     8.1550   108.7200     2.4770     0.1240     0.0140
  157.0000   -46.0950     7.0740     6.8400     8.1510   104.4610     2.4730     0.1270     0.0150
  157.5000   -46.0890     7.1350     6.9240     8.1460   103.1690     2.4680     0.1280     0.0160
  158.0000   -46.0840     7.1960     6.9920     8.1420   103.1160     2.4670     0.1280     0.0170
  158.5000   -46.0780     7.2540     6.9920     8.1380   105.3840     2.4670     0.1280     0.0180
  159.0000   -46.0720     7.2540     6.9920     8.1390   110.1260     2.4670     0.1260     0.0190
  159.5000   -46.0660     7.2540     6.9880     8.1410   111.2190     2.4670     0.1250     0.0200
  160.0000   -46.0600     7.2540     6.9750     8.1420   111.5040     2.4680     0.1240     0.0210
  160.5000   -46.0550     7.2540     6.9610     8.1430   111.5630     2.4720     0.1240     0.0220
  161.0000   -46.0490     7.2540     6.9480     8.1450   109.8080     2.4720     0.1250     0.0230
  161.5000   -46.0430     7.2540     6.9350     8.1460   107.8540     2.4710     0.1250     0.0240
  162.0000   -46.0370     7.2550     6.9220     8.1480   107.9520     2.4710     0.1240     0.0290
  162.5000   -46.0310     7.2470     6.9090     8.1490   105.8930     2.4710     0.1190     0.0320
  163.0000   -46.0260     7.2180     6.8960     8.1500   108.2920     2.4750     0.1180     0.0310
  163.5000   -46.0200     7.1910     6.8830     8.1520   116.3250     2.4800     0.1180     0.0250
  164.0000   -46.0140     7.1630     6.8700     8.1530   115.5010     2.4810     0.1180     0.0190
  164.5000   -46.0080     7.1360     6.8570     8.1540   112.0140     2.4810     0.1190     0.0150
  165.0000   -46.0030     7.1080     6.8440     8.1560   109.6880     2.4810     0.1250     0.0130
  165.5000   -45.9970     7.0800     6.8310     8.1570   108.8210     2.4770     0.1310     0.0110
  166.0000   -45.9910     7.0530     6.8180     8.1590   108.1950     2.4680     0.1370     0.0110
  166.5000   -45.9850     7.0250     6.8050     8.1600   108.2710     2.4580     0.1320     0.0140
  167.0000   -45.9790     6.9920     6.7920     8.1610   108.4890     2.4530     0.1280     0.0170
  167.5000   -45.9740     6.9980     6.7790     8.1630   107.8390     2.4600     0.1260     0.0200
  168.0000   -45.9680     7.0070     6.7660     8.1640   107.1360     2.4690     0.1270     0.0220
  168.5000   -45.9620     7.0150     6.7520     8.1650   107.3760     2.4690     0.1300     0.0250
  169.0000   -45.9560     7.0230     6.7380     8.1670   107.6430     2.4670     0.1300     0.0280
  169.5000   -45.9500     7.0320     6.7820     8.1680   107.1960     2.4650     0.1290     0.0310
  170.0000   -45.9450     7.0400     6.8300     8.1700   105.0110     2.4640     0.1290     0.0340
  170.5000   -45.9390     7.0480     6.8770     8.1710   104.9130     2.4660     0.1230     0.0350
  171.0000   -45.9330     7.0580     6.9250     8.1720   109.4550     2.4690     0.1180     0.0340
  171.5000   -45.9270     7.1090     6.9720     8.1740   113.1390     2.4740     0.1130     0.0320
  172.0000   -45.9210     7.1590     7.0200     8.1750   114.6210     2.4810     0.1130     0.0300
  172.5000   -45.9160     7.2100     7.0670     8.1770   115.8420     2.4890     0.1110     0.0280
  173.0000   -45.9100     7.2600     7.1150     8.1780   116.1920     2.4960     0.1140     0.0260
  173.5000   -45.9040     7.3110     7.1620     8.1790   116.2830     2.4960     0.1180     0.0240
  174.0000   -45.8980     7.3620     7.2100     8.1810   116.2180     2.4900     0.1220     0.0240
  174.5000   -45.8930     7.4120     7.2540     8.1820   115.1050     2.4840     0.1220     0.0230
  175.0000   -45.8870     7.4580     7.2340     8.1830   111.9310     2.4780     0.1220     0.0230
  175.5000   -45.8810     7.4310     7.2150     8.1850   108.7510     2.4770     0.1220     0.0230
  176.0000   -45.8750     7.4070     7.1960     8.1860   107.5260     2.4770     0.1220     0.0230
  176.5000   -45.8690     7.3830     7.1770     8.1880   107.5040     2.4780     0.1210     0.0220
  177.0000   -45.8640     7.3580     7.1580     8.1890   107.5150     2.4780     0.1210     0.0220
  177.5000   -45.8580     7.3210     7.1390     8.1900   107.6680     2.4780     0.1210     0.0220
  178.0000   -45.8520     7.3550     7.1220     8.1920   108.4860     2.4770     0.1220     0.0210
  178.5000   -45.8460     7.4270     7.1940     8.1930   110.6320     2.4760     0.1220     0.0210
  179.0000   -45.8400     7.4990     7.2600     8.1940   112.8650     2.4750     0.1230     0.0210
  179.5000   -45.8350     7.5700     7.3260     8.1960   113.9450     2.4740     0.1230     0.0200
  180.0000   -45.8290     7.6420     7.3920     8.1970   113.6530     2.4730     0.1230     0.0200
  180.5000   -45.8230     7.7130     7.4590     8.1980   112.4150     2.4730     0.1230     0.0200
  181.0000   -45.8170     7.7850     7.5250     8.1930   110.6590     2.4730     0.1240     0.0200
  181.5000   -45.8120     7.8560     7.5960     8.1870   108.4290     2.4730     0.1240     0.0210
  182.0000   -45.8060     7.9280     7.6170     8.1820   105.8070     2.4740     0.1220     0.0210
  182.5000   -45.8000     7.9990     7.6450     8.1770   104.8050     2.4760     0.1180     0.0210
  183.0000   -45.7940     8.0280     7.6730     8.1720   109.2060     2.4800     0.1170     0.0210
  183.5000   -45.7950     8.0280     7.7010     8.1670   112.8620     2.4840     0.1170     0.0210
  184.0000   -45.8020     8.0280     7.7300     8.1620   113.7360     2.4840     0.1170     0.0220
  184.5000   -45.8080     8.0280     7.7580     8.1560   116.7220     2.4840     0.1170     0.0220
  185.0000   -45.8140     8.0410     7.7860     8.1450   118.7520     2.4840     0.1180     0.0240
  185.5000   -45.8210     8.1290     7.8820     8.1330   118.5980     2.4840     0.1180     0.0270
  186.0000   -45.8270     8.2180     7.9580     8.1220   118.3730     2.4830     0.1190     0.0300
  186.5000   -45.8330     8.3070     8.0360     8.1100   119.7020     2.4830     0.1180     0.0320
  187.0000   -45.8400     8.3960     8.1140     8.0990   121.6640     2.4830     0.1110     0.0320
  187.5000   -45.8460     8.4850     8.1920     8.1250   122.7510     2.4900     0.1100     0.0330
  188.0000   -45.8520     8.5740     8.2710     8.1540   121.7190     2.4950     0.1100     0.0330
  188.5000   -45.8590     8.6630     8.3490     8.1790   117.8190     2.4960     0.1120     0.0330
  189.0000   -45.8650     8.7520     8.4270     8.1800   113.8470     2.4940     0.1130     0.0340
  189.5000   -45.8710     8.8660     8.5050     8.1820   109.8650     2.4930     0.1130     0.0320
  190.0000   -45.8780     9.1450     8.5750     8.1840   105.8600     2.4920     0.1130     0.0260
  190.5000   -45.8840     9.4250     8.6180     8.1860   103.2810     2.4910     0.1070     0.0250
  191.0000   -45.8900     9.7050     8.6620     8.1880   106.5950     2.5020     0.1000     0.0260
  191.5000   -45.8970     9.8340     8.7060     8.1900   109.2260     2.5130     0.0980     0.0270
  192.0000   -45.9030     9.8150     8.7490     8.1920   109.0510     2.5230     0.1000     0.0270
