~VERSION INFORMATION
 VERS.                2.0:   CWLS LOG ASCII STANDARD - VERSION 2.0
 WRAP.                 NO:   ONE LINE PER DEPTH STEP
~WELL INFORMATION
#MNEM.UNIT      DATA TYPE    INFORMATION
#----------   ------------   ------------------------------
 STRT.F            0.0000:   START DEPTH
 STOP.F          530.0000:   STOP DEPTH
 STEP.F            0.5000:   STEP LENGTH
 NULL.          -999.2500:   NO VALUE
 COMP. FENIX & SCISSON INC:   COMPANY
 WELL.      74 SX 3 #74-3:   WELL
 FLD .             TEAPOT:   FIELD
 LOC .       S3 T38N R78W:   LOCATION
 CNTY.            NATRONA:   COUNTY
 STAT.            WYOMING:   STATE
 CTRY. UNITED STATES OF AMERICA:   COUNTRY
 SRVC.            Unknown:   SERVICE COMPANY
 DATE.        20-SEP-1978:   LOGDATE
 API .       490251072200:   API NUMBER
~CURVE INFORMATION
#MNEM.UNIT       API CODE    CURVE DESCRIPTION
#----------   ------------   ------------------------------
 DEPT.F                  :   
 CALD.IN     45 280 60 00:   CALIPER
 GRD .GAPI   45 310 01 00:   GAMMA RAY FROM DENSITY LOG
 RHOB.G/C3   45 350 01 00:   BULK DENSITY
 DPHI.DEC    45 890 12 00:   DENSITY POROSITY SANDSTONE
 CORR.G/C3   45 356 01 00:   DENSITY CORRECTION
 SPR .MV     05 010 01 00:   SPONTANEOUS POTENTIAL FROM RES.
 SN  .OHMM   05 040 16 00:   SHORT NORMAL 16"
 ILD .OHMM   05 120 46 00:   INDUCTION LOG DEEP
~PARAMETER INFORMATION
#MNEM.UNIT          VALUE    DESCRIPTION
#----------   ------------   ------------------------------
 PD  .                 GL:   PERMANENT DATUM
 EPD .F              5139:   ELEVATION PERMANENT DATUM
 LMF .                 KB:   LOG MEASURED FROM
 DAPD.F                 4:   FEET ABOVE PERMANENT DATUM
 DMF .                 KB:   DRILLING MEASURED FROM
 EKB .F              5143:   KELLING BUSHING
 EGL .F              5139:   GROUND LEVEL
 DATE.            9-20-78:   RUN DATE
 RUN .                  1:   RUN NUMBER
 DD  .F               532:   DEPTH DRILLER
 DL  .F               530:   DEPTH LOGGER
 BLI .F               524:   BOTTOM LOG INTERVAL
 TLI .F                40:   TOP LOG INTERVAL
 CS  .IN            8.625:   CASING SIZE
 CBD .F                40:   CASING BOTTOM DRILLER
 CBL .F                40:   CASING BOTTOM LOGGER
 BS  .IN            7.875:   BIT SIZE
 BSD .F               532:   BIT SIZE AT DEPTH
 DFT .                KCL:   DRILLING FLUID TYPE
 DFD .                8.8:   DRILLING FLUID DENSITY
 DFV .                 38:   DRILLING FLUID VISCOSITY
 DFPH.                  9:   DRILLING FLUID PH
 DFL .                6.2:   DRILLING FLUID LOSS
 MSS .                PIT:   MUD SAMPLE SOURCE
 BHT .F                69:   BOTTOM HOLE TEMPERATURE
 TCS .HRS               3:   TIME CURCULATED STOPPED
 MRT .F                69:   MAXIMUM RECORDED TEMPERATURE
 LUN .               2958:   LOGGING UNIT NUMBER
 LUL .             CASPER:   LOGGING UNIT LOCATION
 ENGI.           REYNOLDS:   RECORDING ENGINEER
 WITN.           DINSMORE:   WITNESSED BY
 CLNT.            A2DTECH:   CLIENT CODE
 ORIG.       2", 5" PRINT:   ORIGIN OF DATA
 UWI .       490251072200:   UNIQUE WELL ID
 DICO. A2D Technologies, Inc.:   DIGITIZING COMPANY
~OTHER INFORMATION
~A    DEPT    CALD         GRD      RHOB       DPHI       CORR        SPR         SN        ILD   
# ...
  283.5000     7.3829    93.2473     2.4869     0.1145     0.0050   -27.7523     9.5627     8.7614
  284.0000     7.3060    90.1074     2.4877     0.1132     0.0054   -28.0178     9.4784     8.7614
  284.5000     7.4813    89.2842     2.4889     0.1117     0.0058   -28.2042     9.3948     8.6336
  285.0000     7.5674    90.4561     2.4901     0.1102     0.0062   -28.1120     9.2591     8.3113
  285.5000     7.3918    91.5270     2.4913     0.1087     0.0065   -28.0165     9.0463     7.9455
  286.0000     7.4466    95.1421     2.4922     0.1072     0.0069   -28.5002     8.7235     7.3970
  286.5000     7.4896    99.8420     2.4927     0.1130     0.0052   -29.0552     8.2595     6.8863
  287.0000     7.6710   102.0581     2.4919     0.1263     0.0025   -29.6092     7.8191     6.6434
  287.5000     7.4402   102.4800     2.4779     0.1398    -0.0004   -30.0077     7.4220     6.6293
  288.0000     7.4765   102.4186     2.4513     0.1532     0.0011   -30.0010     7.3366     6.6153
  288.5000     7.3408   102.0405     2.4249     0.1678     0.0043   -29.8032     7.3082     6.6014
  289.0000     7.3648   100.5868     2.3947     0.1583     0.0048   -29.4156     7.2878     6.5874
  289.5000     7.4388    98.4449     2.4066     0.1480     0.0046   -29.0297     7.8365     6.5858
  290.0000     7.4973    98.3781     2.4291     0.1377     0.0044   -29.1533     8.0912     6.7236
  290.5000     7.5159    98.4397     2.4518     0.1320     0.0041   -29.3144     8.1392     6.8818
  291.0000     7.5295    97.9771     2.4607     0.1342     0.0039   -29.4725     8.0632     6.9589
  291.5000     7.4606    96.4671     2.4556     0.1395     0.0036   -29.5824     7.9907     6.9608
  292.0000     7.4890    95.1487     2.4462     0.1448     0.0034   -29.4116     7.6051     6.9599
  292.5000     7.4846    95.0799     2.4367     0.1502     0.0031   -29.2443     7.4232     6.9599
  293.0000     7.4135   103.3771     2.4286     0.1497     0.0052   -29.0778     7.5403     6.9597
  293.5000     7.4270   105.3130     2.4230     0.1456     0.0089   -28.9111     7.6311     6.9589
  294.0000     7.5422   105.4177     2.4327     0.1361     0.0163   -28.7452     7.9320     6.9605
  294.5000     7.4487   104.7220     2.4526     0.1266     0.0212   -28.6105     8.2546     7.1023
  295.0000     7.4359   104.5812     2.4725     0.1171     0.0231   -28.6131     8.5902     7.2878
  295.5000     7.4423   104.9824     2.4872     0.1115     0.0231   -28.6156     9.0060     7.6347
  296.0000     7.4535   111.4035     2.4931     0.1110     0.0231   -28.6648     8.9740     7.9981
  296.5000     7.5389   113.3311     2.4920     0.1105     0.0231   -28.7148     8.9354     8.2981
  297.0000     7.4968   110.0602     2.4911     0.1100     0.0231   -28.7639     8.8953     8.5669
  297.5000     7.4160   107.8318     2.4926     0.1086     0.0231   -28.8185     8.8560     8.6912
  298.0000     7.3287   105.6026     2.4945     0.1060     0.0217   -28.9871     8.7695     8.1568
  298.5000     7.3987   103.3364     2.4965     0.1075     0.0196   -29.1564     8.6589     7.6803
  299.0000     7.4969   102.6788     2.4941     0.1109     0.0175   -29.2074     8.4136     7.2343
  299.5000     7.4914   104.9915     2.4900     0.1143     0.0154   -29.2082     8.0316     6.8145
  300.0000     7.3699   109.8983     2.4838     0.1246     0.0133   -29.2081     7.6669     6.6890
  300.5000     7.3338   113.3804     2.4753     0.1418     0.0111   -29.2089     7.2901     6.5858
  301.0000     7.3594   110.8710     2.4547     0.1518     0.0142   -29.2091     7.2079     6.5858
  301.5000     7.2406   108.6980     2.4285     0.1546     0.0205   -29.1455     7.1546     6.5858
  302.0000     7.3605   107.4935     2.4201     0.1425     0.0267   -28.6484     7.4420     6.5858
  302.5000     7.2163   108.0775     2.4327     0.1319     0.0329   -28.2359     7.8794     6.5858
  303.0000     7.3088   108.7065     2.4588     0.1212     0.0320   -28.3455     8.3426     7.0035
  303.5000     7.3953   108.8017     2.4826     0.1104     0.0306   -28.1326     8.8329     7.4768
  304.0000     7.4497   108.8399     2.4950     0.1060     0.0294   -27.9233     9.3521     7.9821
  304.5000     7.4460   109.2350     2.5053     0.1016     0.0281   -27.7130     9.7369     8.5215
  305.0000     7.4434   108.0526     2.5038     0.1034     0.0272   -27.5029     9.8505     8.9985
  305.5000     7.4405    99.8010     2.5023     0.1048     0.0280   -27.2927     9.9655     9.3447
  306.0000     7.4377    94.3558     2.5008     0.1048     0.0288   -27.0818    10.0817     9.3447
  306.5000     7.4349    94.2610     2.4999     0.1028     0.0295   -26.8547    10.1994     9.3450
  307.0000     7.4321    94.7485     2.5038     0.1005     0.0303   -27.2547    10.2512     9.3447
  307.5000     7.4301    95.2821     2.5082     0.0999     0.0313   -27.3198    10.2597     9.3448
  308.0000     7.4348    94.7392     2.5127     0.1040     0.0221   -27.3973    10.2681     9.3362
  308.5000     7.4394    93.5352     2.5070     0.1060     0.0120   -27.4736    10.2767     9.3259
  309.0000     7.4440    92.7797     2.5008     0.1060     0.0026   -27.5482    10.2852     9.3156
  309.5000     7.4484    92.8588     2.5000     0.1060     0.0022   -27.6420    10.2937     9.3053
  310.0000     7.4667    93.3625     2.4995     0.1066     0.0015   -28.0864    10.3022     9.2950
  310.5000     7.4897    92.8457     2.4989     0.1072     0.0014   -28.4238    10.3108     9.2849
  311.0000     7.5000    91.9728     2.4983     0.1067     0.0026   -28.4214    10.3193     9.2745
  311.5000     7.4140    91.0900     2.4985     0.1051     0.0038   -28.3801    10.3279     9.2643
  312.0000     7.4421    90.1992     2.5000     0.1034     0.0049   -27.7035    10.3367     9.2591
  312.5000     7.4376    89.0163     2.5031     0.1017     0.0038   -27.5935    10.3567     9.5843
  313.0000     7.3884    87.8059     2.5063     0.0999     0.0025   -27.5615    10.3887     9.8093
  313.5000     7.3891    87.5267     2.5096     0.1002     0.0012   -27.5305    10.4209    10.0590
  314.0000     7.4254    87.0701     2.5082     0.1015     0.0000   -27.4984    10.4532    10.0920
  314.5000     7.4801    85.6616     2.5059     0.1029    -0.0010   -27.4658    10.4856    10.1281
  315.0000     7.3229    83.7692     2.5037     0.1042    -0.0006   -27.4291    10.5330    10.1521
  315.5000     7.4007    81.8679     2.5014     0.1056    -0.0002   -27.5970    10.3707     9.8419
  316.0000     7.4753    79.9635     2.4991     0.1109     0.0002   -27.8263    10.0787     9.2076
  316.5000     7.3358    78.1552     2.4931     0.1182     0.0005   -28.0625     9.7850     8.4877
  317.0000     7.3429    77.8643     2.4828     0.1352     0.0008   -28.3435     9.2971     7.8287
  317.5000     7.3627    77.9238     2.4626     0.1564     0.0061   -28.6451     8.2790     7.4113
  318.0000     7.3834    78.0271     2.4194     0.1691     0.0163   -28.9434     7.7017     7.3452
  318.5000     7.3787    79.1756     2.3849     0.1754     0.0340   -29.1893     7.8603     7.3282
  319.0000     7.3819    81.2132     2.3855     0.1548     0.0488   -28.7725     8.0510     7.3108
  319.5000     7.4315    83.1347     2.3941     0.1395     0.0530   -28.3325     8.4487     7.2918
  320.0000     7.4716    85.8484     2.4225     0.1241     0.0482   -27.8917     9.2436     7.2837
  320.5000     7.4888    88.5722     2.4546     0.1088     0.0343   -27.4511    10.1132     7.9904
  321.0000     7.4101    91.4969     2.4868     0.0934     0.0192   -27.0371    11.0292     8.7422
  321.5000     7.3908    91.9552     2.5160     0.0844     0.0128   -26.9877    11.4870     9.8829
  322.0000     7.5315    89.1070     2.5312     0.0851     0.0126   -26.9511    11.9471    11.1725
  322.5000     7.7033    79.9374     2.5306     0.0872     0.0122   -26.9133    12.3111    11.6853
  323.0000     7.5045    72.0897     2.5271     0.0893     0.0119   -26.8785    12.5470    11.7305
  323.5000     7.6131    71.2763     2.5236     0.0917     0.0116   -26.8656    12.7875    11.7648
