~VERSION INFORMATION
 VERS.                2.0:   CWLS LOG ASCII STANDARD - VERSION 2.0
 WRAP.                 NO:   ONE LINE PER DEPTH STEP
~WELL INFORMATION
#MNEM.UNIT      DATA TYPE    INFORMATION
#----------   ------------   ------------------------------
 STRT.F           24.0000:   START DEPTH
 STOP.F          690.0000:   STOP DEPTH
 STEP.F            0.5000:   STEP LENGTH
 NULL.          -999.2500:   NO VALUE
 COMP. DEPARTMENT OF ENERGY:   COMPANY
 WELL.     STX 2 #24-15-2:   WELL
 FLD .             TEAPOT:   FIELD
 LOC .       S2 T38N R78W:   LOCATION
 CNTY.            NATRONA:   COUNTY
 STAT.            WYOMING:   STATE
 CTRY. UNITED STATES OF AMERICA:   COUNTRY
 SRVC.           Gearhart:   SERVICE COMPANY
 DATE.        23-DEC-1987:   LOGDATE
 API .       490251116800:   API NUMBER
~CURVE INFORMATION
#MNEM.UNIT       API CODE    CURVE DESCRIPTION
#----------   ------------   ------------------------------
 DEPT.F                  :   
 GRR .GAPI   07 310 01 00:   GAMMA RAY
 RILD.OHMM   07 120 46 00:   INDUCTION LOG DEEP
 RILM.OHMM   07 120 44 00:   INDUCTION LOG MEDIUM
 RLL .OHMM   07 220 01 00:   LATEROLOG-1 RES.
~PARAMETER INFORMATION
#MNEM.UNIT          VALUE    DESCRIPTION
#----------   ------------   ------------------------------
 PD  .                 GL:   PERMANENT DATUM
 LMF .                 KB:   LOG MEASURED FROM
 DMF .                 KB:   DRILLING MEASURED FROM
 DATE.        03-SEP-1987:   RUN DATE
 RUN .                  1:   RUN NUMBER
 DL  .F               692:   DEPTH LOGGER
 BLI .F               690:   BOTTOM LOG INTERVAL
 CS  .IN            8.625:   CASING SIZE
 CBD .F                48:   CASING BOTTOM DRILLER
 CBL .F                48:   CASING BOTTOM LOGGER
 BS  .IN            7.875:   BIT SIZE
 DFT .                MUD:   DRILLING FLUID TYPE
 TCS .HRS            0600:   TIME CURCULATED STOPPED
 TLAB.HRS            0751:   TIME LOGGER AT BOTTOM
 MRT .F                80:   MAXIMUM RECORDED TEMPERATURE
 LUN .               7597:   LOGGING UNIT NUMBER
 LUL .           GILLETTE:   LOGGING UNIT LOCATION
 ENGI.         WEATHERMON:   RECORDING ENGINEER
 WITN.             STRONG:   WITNESSED BY
 CLNT.            A2DTECH:   CLIENT CODE
 ORIG.           5" PRINT:   ORIGIN OF DATA
 UWI .       490251116800:   UNIQUE WELL ID
 DICO. A2D Technologies, Inc.:   DIGITIZING COMPANY
~OTHER INFORMATION
~A   DEPT       GRR      RILD       RILM        RLL   
# ...
  535.0000    71.6667    14.2110    13.1133    12.9704
  535.5000    71.6818    14.2148    13.1907    12.9433
  536.0000    72.9980    14.1201    13.1046    12.8023
  536.5000    75.9574    13.9292    12.9300    12.6306
  537.0000    77.1843    13.7345    12.7557    12.4185
  537.5000    76.8924    13.4457    12.4648    12.2467
  538.0000    76.6042    13.1870    12.2954    12.1152
  538.5000    76.3197    13.0095    12.1674    11.9682
  539.0000    75.7284    13.0130    12.1729    11.9731
  539.5000    75.1372    12.9256    12.1784    12.0615
  540.0000    73.9399    12.8396    12.2688    12.1089
  540.5000    73.9547    12.6668    12.1904    12.2404
  541.0000    75.8021    12.5824    12.1114    12.3308
  541.5000    77.4008    12.4123    12.0315    12.2491
  542.0000    79.1544    12.3297    11.8720    12.1703
  542.5000    80.3813    12.3475    11.8772    12.0073
  543.0000    80.6955    12.5098    11.8819    12.0123
  543.5000    78.5928    12.6882    11.8873    11.9339
  544.0000    77.0924    12.8692    11.9760    12.0232
  544.5000    77.4103    13.1438    11.9814    12.1120
  545.0000    78.9403    13.2390    11.9864    12.1170
  545.5000    80.4702    13.4278    11.9089    12.1219
  546.0000    80.4850    13.5251    11.9142    12.1269
  546.5000    78.3452    13.5287    11.9196    12.1306
  547.0000    75.5518    13.5325    11.8350    12.0881
  547.5000    72.0447    13.5362    11.5102    12.1421
  548.0000    72.0632    13.4460    11.2116    12.3171
  548.5000    72.0780    13.1732    11.0617    12.4081
  549.0000    72.6989    13.0847    10.9900    12.4132
  549.5000    73.6228    12.8192    10.9961    12.2467
  550.0000    74.8465    12.5582    11.3112    12.0826
  550.5000    76.9942    12.0489    11.4746    11.8381
  551.0000    77.6212    11.8858    11.4797    11.7609
  551.5000    78.2482    11.8068    11.4848    11.7669
  552.0000    78.2692    11.8924    11.4090    11.7717
  552.5000    77.0780    11.8360    11.4154    11.5246
  553.0000    76.7907    11.9189    11.4205    11.5286
  553.5000    78.9381    12.0018    11.4255    11.5312
  554.0000    81.6864    12.0847    11.4307    11.5349
  554.5000    83.2225    12.1676    11.3565    11.5376
  555.0000    81.4253    12.2566    11.3617    11.5413
  555.5000    78.7190    12.2609    11.2878    11.5444
  556.0000    77.8303    12.3506    11.2941    11.5476
  556.5000    77.5488    12.6150    11.4573    11.5508
  557.0000    76.6607    13.2480    11.6229    11.5540
  557.5000    75.4493    14.3049    11.8731    11.8007
  558.0000    73.6485    15.5537    12.1286    12.3925
  558.5000    72.1403    16.5627    12.7390    13.5682
  559.0000    70.6323    17.8839    13.6621    14.6504
  559.5000    67.9829    19.1932    14.8572    16.3784
  560.0000    66.4887    21.4686    17.0808    18.4379
  560.5000    65.5953    23.5238    18.8350    19.7706
  561.0000    64.4094    25.0445    20.4836    20.9147
  561.5000    62.3092    26.4330    21.6853    21.9667
  562.0000    59.2998    27.1890    22.7988    22.5808
  562.5000    56.5935    27.7710    24.0683    22.7446
  563.0000    54.7911    28.3655    24.2470    22.9109
  563.5000    56.9385    28.7723    24.4269    23.2380
  564.0000    60.5958    28.9828    24.6083    23.5698
  564.5000    62.1319    29.1948    25.1380    24.2410
  565.0000    61.2386    29.2049    26.0386    25.1053
  565.5000    60.6535    29.0102    26.5991    26.1817
  566.0000    60.6797    28.4242    26.9835    26.5555
  566.5000    61.0037    27.8476    26.9955    26.3770
  567.0000    62.2368    27.2827    26.8199    25.6625
  567.5000    63.7729    26.5442    26.4615    23.4516
  568.0000    65.6202    25.6470    24.8681    21.7313
  568.5000    67.4878    25.1246    22.7120    20.8493
  569.0000    69.9616    24.7865    21.0379    20.1426
  569.5000    72.0858    24.4551    20.2142    19.8697
  570.0000    71.4587    24.4635    19.9440    19.6010
  570.5000    71.1714    24.4719    19.8153    19.4705
  571.0000    71.1976    24.3106    19.6883    19.3410
  571.5000    71.5216    23.9838    19.6970    19.2124
  572.0000    72.1487    23.8258    19.7058    19.2176
  572.5000    72.7757    23.5053    19.5780    18.9445
  573.0000    73.7058    23.3474    19.4488    18.7009
  573.5000    74.3328    22.8681    19.1888    18.5765
  574.0000    74.3538    22.3987    18.8033    18.3251
  574.5000    72.8596    21.7870    18.1690    18.0783
  575.0000    71.6684    21.3150    17.5562    18.0824
  575.5000    70.4773    20.5007    17.2015    18.0882
  576.0000    69.2861    20.0848    17.2156    17.9666
  576.5000    69.3071    19.8129    17.4729    17.8471
  577.0000    70.2371    19.6825    17.5874    17.6067
  577.5000    70.8642    19.5547    17.2340    17.2481
  578.0000    70.2791    19.4243    17.0036    17.0135
  578.5000    69.0879    19.2965    16.7763    16.7843
  579.0000    68.8059    19.3048    16.7838    16.7890
  579.5000    69.7890    19.3115    16.7912    16.7936
  580.0000    72.5253    19.3181    16.7987    16.9154
  580.5000    72.8091    19.3240    16.8062    17.2766
  581.0000    71.6170    19.4655    17.1679    17.6455
  581.5000    69.5220    19.4728    17.6598    17.8974
  582.0000    68.6286    19.4795    18.0400    18.0272
  582.5000    69.8670    19.4863    18.1739    18.0322
  583.0000    72.6152    19.3564    18.0560    17.9122
  583.5000    74.1513    19.2290    17.9389    17.7930
  584.0000    75.3844    18.8406    17.8048    17.6536
  584.5000    76.0114    18.2037    17.3435    17.3158
  585.0000    76.6385    17.5884    16.9931    16.9631
  585.5000    76.9625    17.1124    16.4199    16.3881
  586.0000    77.5895    16.4195    15.8661    15.7230
  586.5000    77.3022    15.8634    15.3309    15.2961
  587.0000    75.8132    15.4302    14.8138    14.8807
  587.5000    74.3191    15.1220    14.5835    14.6783
  588.0000    72.2188    15.0225    14.4188    14.4796
  588.5000    71.6333    15.0279    14.3269    14.3833
  589.0000    72.5638    15.0341    14.3332    14.3882
  589.5000    73.8030    15.0393    14.2401    14.2915
  590.0000    74.1209    14.9391    14.1478    14.0014
  590.5000    73.2327    14.8408    13.9554    13.6212
  591.0000    72.6000    14.6411    13.6674    13.2513
  591.5000    71.7648    14.4453    13.2921    13.0718
  592.0000    70.8714    14.2497    12.8602    13.1667
  592.5000    69.6855    13.9394    12.4264    13.1703
  593.0000    68.4943    13.5839    12.2590    13.2659
  593.5000    67.9040    13.3084    12.0964    13.2941
  594.0000    69.1423    13.1293    12.3568    13.3658
  594.5000    71.5875    13.0429    12.7109    13.2628
  595.0000    73.7297    13.0474    12.9845    13.0073
  595.5000    76.1749    13.0519    13.0809    12.9198
  596.0000    78.3171    13.1474    13.0867    12.8339
  596.5000    79.5502    13.2436    13.0018    12.9278
  597.0000    78.6621    13.2481    12.7391    12.8409
  597.5000    76.8649    13.2527    12.2242    12.5802
  598.0000    75.3697    13.2572    11.7300    12.3231
  598.5000    74.7849    13.1699    11.4930    12.2411
  599.0000    75.7156    13.0833    11.4994    12.2453
  599.5000    76.9487    12.9972    11.7470    12.3342
  600.0000    78.4849    12.9117    12.0835    12.4236
  600.5000    80.9263    12.8268    12.3437    12.5137
  601.0000    79.4370    12.9207    12.4353    12.5171
  601.5000    78.5485    12.9154    12.5276    12.5497
  602.0000    77.3374    12.8572    12.4365    12.7000
  602.5000    76.4688    12.9215    12.4408    12.8503
  603.0000    78.0098    12.9395    12.3579    12.8864
  603.5000    80.4548    13.0341    12.3613    12.8902
  604.0000    83.5058    13.0386    12.3647    12.8934
  604.5000    85.3447    12.9527    12.2823    12.8977
  605.0000    84.1532    12.8663    12.2006    12.8755
  605.5000    80.2345    12.6063    11.9528    12.6976
  606.0000    79.0424    12.4077    11.7093    12.5550
  606.5000    79.9729    12.1946    11.2341    12.4720
  607.0000    80.2970    12.0203    11.0052    12.2765
  607.5000    80.0152    11.8567    11.0082    12.1367
