~VERSION INFORMATION
 VERS.                2.0:   CWLS LOG ASCII STANDARD - VERSION 2.0
 WRAP.                 NO:   ONE LINE PER DEPTH STEP
~WELL INFORMATION
#MNEM.UNIT      DATA TYPE    INFORMATION
#----------   ------------   ------------------------------
 STRT.F            3.0000:   START DEPTH
 STOP.F         3449.0000:   STOP DEPTH
 STEP.F            0.5000:   STEP LENGTH
 NULL.          -999.2500:   NO VALUE
 COMP. LAWRENCE/ALLISON INC:   COMPANY
 WELL.       NPR 3 #24-10:   WELL
 FLD .             TEAPOT:   FIELD
 LOC .      S10 T38N R78W:   LOCATION
 CNTY.            NATRONA:   COUNTY
 STAT.            WYOMING:   STATE
 CTRY. UNITED STATES OF AMERICA:   COUNTRY
 SRVC.      Dresser Atlas:   SERVICE COMPANY
 DATE.        28-JUL-1985:   LOGDATE
 API .       490251104400:   API NUMBER
~CURVE INFORMATION
#MNEM.UNIT       API CODE    CURVE DESCRIPTION
#----------   ------------   ------------------------------
 DEPT.F                  :   
 PORD.DEC    45 890 12 00:   POROSITY DENSITY SANDSTONE
 CNC .DEC    42 890 03 00:   NEUTRON POROSITY SANDSTONE
 CORR.G/C3   45 356 01 00:   DENSITY CORRECTION
 DEN .G/C3   45 350 01 00:   COMPENSATED BULK DENSTIY
 AC  .US/F   60 520 00 00:   ACCOUSTIC
 CALR.IN     07 280 01 00:   CALIPER FROM RESISTIVITY
 GRR .GAPI   07 310 01 00:   GAMMA RAY
 RFOC.OHMM   07 220 04 00:   RESISTIVITY FOCUSED LOG
 RILD.OHMM   07 120 46 00:   INDUCTION LOG DEEP RESISTIVITY
 RILM.OHMM   07 120 44 00:   INDUCTION LOG MEDIUM RESISTIVITY
 SPR .MV     07 010 01 00:   SPONTANEOUS POTENTIAL
~PARAMETER INFORMATION
#MNEM.UNIT          VALUE    DESCRIPTION
#----------   ------------   ------------------------------
 PD  .                 GL:   PERMANENT DATUM
 EPD .F              5242:   ELEVATION PERMANENT DATUM
 LMF .                 KB:   LOG MEASURED FROM
 DAPD.F                13:   FEET ABOVE PERMANENT DATUM
 DMF .                 KB:   DRILLING MEASURED FROM
 EKB .F              5255:   KELLING BUSHING
 EGL .F              5242:   GROUND LEVEL
 DATE.        28-JUL-1985:   RUN DATE
 RUN .                  1:   RUN NUMBER
 DD  .F              3451:   DEPTH DRILLER
 DL  .F              3451:   DEPTH LOGGER
 BLI .F              3449:   BOTTOM LOG INTERVAL
 CS  .IN            8.625:   CASING SIZE
 CBD .F               688:   CASING BOTTOM DRILLER
 CBL .F               686:   CASING BOTTOM LOGGER
 BS  .IN            7.875:   BIT SIZE
 BSD .F              3451:   BIT SIZE AT DEPTH
 DFT .            KCL GEL:   DRILLING FLUID TYPE
 DFD .                8.9:   DRILLING FLUID DENSITY
 DFV .                 40:   DRILLING FLUID VISCOSITY
 DFPH.                8.0:   DRILLING FLUID PH
 DFL .                 10:   DRILLING FLUID LOSS
 MSS .           FLOWLINE:   MUD SAMPLE SOURCE
 RMS .OHMM           0.87:   RESISTIVITY MUD SAMPLE
 MST .F                92:   MUD SAMPLE TEMPERATURE
 RMF .OHMM             65:   RESISTIVITY MUD FILTRATE SAMPLE
 MFST.F                92:   MUD FILTRATE SAMPLE TEMPERATURE
 RMC .OHMM           1.09:   RESISTIVITY MUD CAKE
 MCST.F                92:   MUD CAKE SAMPLE TEMPERATURE
 MFSS.               CALC:   MUD FILTRATE SAMPLE SOURCE
 MCSS.               CALC:   MUD CAKE SAMPLE SOURCE
 RMB .OHMM            .66:   RESISTIVITY MUD AT BHT
 BHT .F               121:   BOTTOM HOLE TEMPERATURE
 TCS .HRS               4:   TIME CURCULATED STOPPED
 MRT .F               121:   MAXIMUM RECORDED TEMPERATURE
 LUN .               6264:   LOGGING UNIT NUMBER
 LUL .               GLTE:   LOGGING UNIT LOCATION
 ENGI.           FAHLSING:   RECORDING ENGINEER
 WITN.             STRONG:   WITNESSED BY
 CLNT.            A2DTECH:   CLIENT CODE
 ORIG.        2" 5" PRINT:   ORIGIN OF DATA
 UWI .       490251104400:   UNIQUE WELL ID
 DICO. A2D Technologies, Inc.:   DIGITIZING COMPANY
 R1  . POROSITY WITH SANDSTONE:   REMARKS 1
~OTHER INFORMATION
~A    DEPT    PORD        CNC       CORR        DEN         AC       CALR         GRR      RFOC       RILD       RILM        SPR   
# ...
 1985.5000  -999.2500  -999.2500  -999.2500  -999.2500  -999.2500     8.2732   137.1149     6.0282     5.1469     5.2165   -47.7846
 1986.0000  -999.2500  -999.2500  -999.2500  -999.2500  -999.2500     8.2884   135.6740     6.1129     5.1464     5.2156   -47.7831
 1986.5000  -999.2500  -999.2500  -999.2500  -999.2500  -999.2500     8.2886   131.5815     6.1988     5.1105     5.2148   -47.4804
 1987.0000  -999.2500  -999.2500  -999.2500  -999.2500  -999.2500     8.2887   128.7330     6.3296     5.0748     5.1424   -47.0271
 1987.5000  -999.2500  -999.2500  -999.2500  -999.2500  -999.2500     8.3039   127.6018     6.4186     5.0046     5.0709   -46.5738
 1988.0000  -999.2500  -999.2500  -999.2500  -999.2500  -999.2500     8.3041   127.3756     6.2001     4.9012     4.9659   -46.1205
 1988.5000  -999.2500  -999.2500  -999.2500  -999.2500  -999.2500     8.3193   128.5068     5.8656     4.7668     4.8630   -45.9684
 1989.0000  -999.2500  -999.2500  -999.2500  -999.2500  -999.2500     8.3345   128.2805     5.7054     4.5092     4.7294   -45.9669
 1989.5000  -999.2500  -999.2500  -999.2500  -999.2500  -999.2500     8.3498   125.5656     5.6271     4.2655     4.5362   -45.9651
 1990.0000  -999.2500  -999.2500  -999.2500  -999.2500  -999.2500     8.3650   123.5294     5.6275     4.0914     4.2909   -45.8130
 1990.5000  -999.2500  -999.2500  -999.2500  -999.2500  -999.2500     8.3802   124.8869     5.6279     4.0348     4.0309   -45.5103
 1991.0000  -999.2500  -999.2500  -999.2500  -999.2500  -999.2500     8.3804   126.6968     5.4363     4.0345     3.9203   -45.2076
 1991.5000  -999.2500  -999.2500  -999.2500  -999.2500  -999.2500     8.3805   123.5294     4.9332     4.0342     4.1431   -44.9049
 1992.0000  -999.2500  -999.2500  -999.2500  -999.2500  -999.2500     8.3793   121.4932     4.2041     4.0620     4.3184   -44.7528
 1992.5000  -999.2500  -999.2500  -999.2500  -999.2500  -999.2500     8.3658   121.7195     4.0344     4.0900     4.5011   -44.7513
 1993.0000  -999.2500  -999.2500  -999.2500  -999.2500  -999.2500     8.3659   121.4932     4.6278     4.1468     4.6270   -45.0510
 1993.5000  -999.2500  -999.2500  -999.2500  -999.2500  -999.2500     8.3510   115.1584     5.4607     4.2045     4.6585   -45.0496
 1994.0000  -999.2500  -999.2500  -999.2500  -999.2500  -999.2500     8.3512   110.4072     6.0170     4.2649     4.4682   -44.8975
 1994.5000  -999.2500  -999.2500  -999.2500  -999.2500  -999.2500     8.3513   109.2661     6.1627     4.3522     4.2560   -44.7454
 1995.0000  -999.2500  -999.2500  -999.2500  -999.2500  -999.2500     8.3515   109.3213     5.2175     4.4127     4.4361   -44.7439
 1995.5000  -999.2500  -999.2500  -999.2500  -999.2500  -999.2500     8.3516   110.8951     4.8679     4.4431     4.4355   -45.0436
 1996.0000  -999.2500  -999.2500  -999.2500  -999.2500  -999.2500     8.3518   112.6697     4.9022     4.3212     4.3133   -45.4939
 1996.5000  -999.2500  -999.2500  -999.2500  -999.2500  -999.2500     8.3519   114.4796     5.1466     4.1736     4.1646   -46.0949
 1997.0000  -999.2500  -999.2500  -999.2500  -999.2500  -999.2500     8.3520   115.6109     5.3288     4.0591     4.0186   -46.2440
 1997.5000  -999.2500  -999.2500  -999.2500  -999.2500  -999.2500     8.3522   114.9321     5.1474     3.9478     3.9132   -46.2425
 1998.0000  -999.2500  -999.2500  -999.2500  -999.2500  -999.2500     8.3523   115.1584     4.4495     3.7866     3.9079   -45.9217
 1998.5000  -999.2500  -999.2500  -999.2500  -999.2500  -999.2500     8.3525   116.2896     4.1227     3.6828     3.7787   -45.6109
 1999.0000  -999.2500  -999.2500  -999.2500  -999.2500  -999.2500     8.3526   117.1946     4.3283     3.5570     3.5993   -45.1834
 1999.5000  -999.2500  -999.2500  -999.2500  -999.2500  -999.2500     8.3528   114.9321     5.0078     3.4835     3.4284   -44.7302
 2000.0000  -999.2500  -999.2500  -999.2500  -999.2500  -999.2500     8.3529   113.4747     5.5964     3.4354     3.3773   -44.0606
 2000.5000  -999.2500  -999.2500  -999.2500  -999.2500  -999.2500     8.3468   115.6109     4.9236     3.4356     3.3340   -43.2588
 2001.0000  -999.2500  -999.2500  -999.2500  -999.2500  -999.2500     8.3406   119.0045     3.7940     3.4598     3.4800   -42.4729
 2001.5000  -999.2500  -999.2500  -999.2500  -999.2500  -999.2500     8.3345   120.5882     3.3952     3.4841     3.6769   -42.6250
 2002.0000  -999.2500  -999.2500  -999.2500  -999.2500  -999.2500     8.3283   114.0272     3.9008     3.5086     3.9090   -42.9277
 2002.5000  -999.2500  -999.2500  -999.2500  -999.2500  -999.2500     8.3220   108.8235     4.7048     3.5578     3.9087   -43.2307
 2003.0000  -999.2500  -999.2500  -999.2500  -999.2500  -999.2500     8.3219   107.6923     5.2211     3.6581     4.0462   -43.6840
 2003.5000  -999.2500  -999.2500  -999.2500  -999.2500  -999.2500     8.3217   109.9548     4.8038     3.8671     4.2176   -44.2879
 2004.0000  -999.2500  -999.2500  -999.2500  -999.2500  -999.2500     8.3367   111.7647     4.6079     4.0880     4.4576   -44.7412
 2004.5000  -999.2500  -999.2500  -999.2500  -999.2500  -999.2500     8.3365   113.1222     4.9391     4.3516     4.6465   -45.1945
 2005.0000  -999.2500  -999.2500  -999.2500  -999.2500  -999.2500     8.3514   116.5158     5.2941     4.6002     4.9110   -45.6478
 2005.5000  -999.2500  -999.2500  -999.2500  -999.2500  -999.2500     8.3513   121.7195     5.6769     4.8630     5.1547   -46.1011
 2006.0000  -999.2500  -999.2500  -999.2500  -999.2500  -999.2500     8.3662   126.0181     6.0482     5.1062     5.4104   -46.7050
 2006.5000  -999.2500  -999.2500  -999.2500  -999.2500  -999.2500     8.3661   126.0310     6.3110     5.4022     5.6007   -47.3089
 2007.0000  -999.2500  -999.2500  -999.2500  -999.2500  -999.2500     8.3659   126.7164     6.6107     5.6316     5.7578   -47.4610
 2007.5000  -999.2500  -999.2500  -999.2500  -999.2500  -999.2500     8.3657   127.4019     6.7031     5.7527     5.8376   -47.4625
 2008.0000  -999.2500  -999.2500  -999.2500  -999.2500  -999.2500     8.3656   128.3469     6.5196     5.9074     5.8370   -47.1628
 2008.5000  -999.2500  -999.2500  -999.2500  -999.2500  -999.2500     8.3504   130.1706     6.4745     5.9488     5.7962   -47.0133
 2009.0000  -999.2500  -999.2500  -999.2500  -999.2500  -999.2500     8.3502   132.8054     6.6107     5.8267     5.7159   -46.7136
 2009.5000  -999.2500  -999.2500  -999.2500  -999.2500  -999.2500     8.3501   135.5204     6.7498     5.6678     5.5978   -46.4142
 2010.0000  -999.2500  -999.2500  -999.2500  -999.2500  -999.2500     8.3348   138.2353     6.3852     5.5131     5.4443   -46.4157
 2010.5000  -999.2500  -999.2500  -999.2500  -999.2500  -999.2500     8.3347   139.1403     5.7939     5.3626     5.2950   -46.4172
 2011.0000  -999.2500  -999.2500  -999.2500  -999.2500  -999.2500     8.3194   130.5430     5.4054     5.1802     5.1462   -46.4187
 2011.5000  -999.2500  -999.2500  -999.2500  -999.2500  -999.2500     8.3193   125.5656     5.5192     5.0040     4.9637   -46.4202
 2012.0000  -999.2500  -999.2500  -999.2500  -999.2500  -999.2500     8.3191   123.5294     5.8749     4.7672     4.7052   -46.5723
 2012.5000  -999.2500  -999.2500  -999.2500  -999.2500  -999.2500     8.3039   133.0317     6.2104     4.5732     4.5132   -46.5738
 2013.0000  -999.2500  -999.2500  -999.2500  -999.2500  -999.2500     8.3038   141.4027     6.2553     4.4176     4.3290   -46.4186
 2013.5000  -999.2500  -999.2500  -999.2500  -999.2500  -999.2500     8.2885   147.7376     5.3958     4.3571     4.2396   -46.1130
 2014.0000  -999.2500  -999.2500  -999.2500  -999.2500  -999.2500     8.2884   153.9264     4.6012     4.3574     4.2688   -45.6747
 2014.5000  -999.2500  -999.2500  -999.2500  -999.2500  -999.2500     8.2882   161.3122     4.3842     4.2976     4.3581   -45.3509
 2015.0000  -999.2500  -999.2500  -999.2500  -999.2500  -999.2500     8.2730   175.7919     4.7048     4.2084     4.3576   -45.0752
 2015.5000  -999.2500  -999.2500  -999.2500  -999.2500  -999.2500     8.2728   187.3303     5.7141     4.0945     4.2381   -44.9261
