~VERSION INFORMATION
 VERS.                2.0:   CWLS LOG ASCII STANDARD - VERSION 2.0
 WRAP.                 NO:   ONE LINE PER DEPTH STEP
~WELL INFORMATION
#MNEM.UNIT      DATA TYPE    INFORMATION
#----------   ------------   ------------------------------
 STRT.F           23.0000:   START DEPTH
 STOP.F         2536.0000:   STOP DEPTH
 STEP.F            0.5000:   STEP LENGTH
 NULL.          -999.2500:   NO VALUE
 COMP. FENIX & SCISSON INC:   COMPANY
 WELL.     14 SHX 3 #14-3:   WELL
 FLD .             TEAPOT:   FIELD
 LOC .       S3 T38N R78W:   LOCATION
 CNTY.            NATRONA:   COUNTY
 STAT.            WYOMING:   STATE
 CTRY. UNITED STATES OF AMERICA:   COUNTRY
 SRVC.           BIRDWELL:   SERVICE COMPANY
 DATE.        20-MAR-1979:   LOGDATE
 API .       490251073900:   API NUMBER
~CURVE INFORMATION
#MNEM.UNIT       API CODE    CURVE DESCRIPTION
#----------   ------------   ------------------------------
 DEPT.F                  :   
 SPR .MV     07 010 01 00:   SPONTANEOUS POTENTIAL
 SN  .OHMM   07 040 16 00:   SHORT NORMAL 16'
 IL  .OHMM   07 120 00 00:   INDUCTION LOG
 GRD .GAPI   45 310 01 00:   GAMMA RAY FROM DENSITY LOG
 CALD.IN     45 280 60 00:   CALIPER
 CORR.G/C3   45 356 01 00:   DENSITY CORRECTION
 DEN .G/C3   45 350 01 00:   
 DPHI.DEC    45 890 12 00:   DENSITY POROSITY SANDSTONE
~PARAMETER INFORMATION
#MNEM.UNIT          VALUE    DESCRIPTION
#----------   ------------   ------------------------------
 PD  .                 GL:   PERMANENT DATUM
 EPD .F              5208:   ELEVATION PERMANENT DATUM
 LMF .                 KB:   LOG MEASURED FROM
 DAPD.F                10:   FEET ABOVE PERMANENT DATUM
 DMF .                 KB:   DRILLING MEASURED FROM
 EKB .F              5218:   KELLING BUSHING
 EGL .F              5208:   GROUND LEVEL
 DATE.            3-20-79:   RUN DATE
 RUN .                  1:   RUN NUMBER
 DD  .F              2580:   DEPTH DRILLER
 DL  .F              2536:   DEPTH LOGGER
 BLI .F              2536:   BOTTOM LOG INTERVAL
 TLI .F               400:   TOP LOG INTERVAL
 CS  .IN            9.625:   CASING SIZE
 CBL .F               680:   CASING BOTTOM LOGGER
 BS  .IN             8.75:   BIT SIZE
 BSD .F              2580:   BIT SIZE AT DEPTH
 DFT .                AIR:   DRILLING FLUID TYPE
 TCS .HRS               6:   TIME CURCULATED STOPPED
 LUN .               2959:   LOGGING UNIT NUMBER
 LUL .             CASPER:   LOGGING UNIT LOCATION
 ENGI.            ROLLINS:   RECORDING ENGINEER
 WITN.           DINSMORE:   WITNESSED BY
 CLNT.            A2DTECH:   CLIENT CODE
 ORIG. 1", 2", 2.5", 5" PRINT:   ORIGIN OF DATA
 UWI .       490251073900:   UNIQUE WELL ID
 DICO. A2D Technologies, Inc.:   DIGITIZING COMPANY
~OTHER INFORMATION
~A   DEPT      SPR         SN         IL        GRD       CALD       CORR        DEN       DPHI   
# ...
  509.0000   -36.8739    15.2769    18.0089    72.6221    12.5391     0.0233     2.3756     0.1895
  509.5000   -36.7683    15.1374    17.7708    77.4656    12.5391     0.0299     2.3781     0.1866
  510.0000   -36.6411    15.0405    17.5360    81.4195    12.5391     0.0332     2.3711     0.1928
  510.5000   -36.5119    14.9697    17.3043    81.2889    12.5391     0.0289     2.3633     0.1982
  511.0000   -36.3839    14.8991    17.1680    79.1666    12.5391     0.0229     2.3570     0.1986
  511.5000   -36.2555    14.8289    17.1708    76.0452    12.5391     0.0169     2.3594     0.1973
  512.0000   -36.1269    14.7590    17.1809    72.9291    12.5391     0.0131     2.3645     0.1958
  512.5000   -35.9996    14.6894    17.1993    72.4148    12.5391     0.0146     2.3698     0.1942
  513.0000   -35.9485    14.6203    17.2178    73.6853    12.5391     0.0146     2.3617     0.1964
  513.5000   -36.1861    14.5514    17.2362    74.6675    12.5391     0.0127     2.3486     0.2053
  514.0000   -36.4104    14.5370    17.2547    72.5109    12.5391     0.0110     2.3381     0.2114
  514.5000   -36.6398    14.5936    17.2732    70.6931    12.5391     0.0110     2.3453     0.2054
  515.0000   -35.5969    14.6658    17.2919    73.0495    12.5391     0.0110     2.3479     0.2054
  515.5000   -34.2243    14.7383    17.3104    75.4628    12.5391     0.0111     2.3447     0.2069
  516.0000   -37.6291    14.8112    17.3285    77.8680    12.5391     0.0167     2.3400     0.2103
  516.5000   -38.5345    14.8845    17.2642    78.7423    12.5391     0.0212     2.3357     0.2122
  517.0000   -39.1385    14.9460    17.1971    76.7560    12.5391     0.0219     2.3369     0.2088
  517.5000   -39.3299    14.8656    17.1304    75.1873    12.5386     0.0228     2.3475     0.2039
  518.0000   -38.8960    14.7236    17.0640    74.5078    12.5352     0.0235     2.3594     0.1989
  518.5000   -38.3932    14.5830    16.9979    74.5519    12.5318     0.0242     2.3704     0.1940
  519.0000   -37.8916    14.4432    16.9320    75.9745    12.5284     0.0248     2.3721     0.1908
  519.5000   -37.3913    14.2698    16.8664    78.0376    12.5250     0.0255     2.3687     0.1929
  520.0000   -36.8907    14.2712    16.8010    76.7069    12.5216     0.0261     2.3621     0.1956
  520.5000   -36.3893    14.2701    16.7358    74.9661    12.5182     0.0268     2.3555     0.1984
  521.0000   -35.8933    14.2706    16.6710    75.0752    12.5148     0.0254     2.3508     0.2011
  521.5000   -35.5038    14.1962    16.6063    77.1373    12.5115     0.0221     2.3510     0.2034
  522.0000   -35.7324    14.0568    16.5420    79.3513    12.5081     0.0187     2.3546     0.2003
  522.5000   -36.2393    13.9187    16.4779    81.6068    12.5047     0.0154     2.3692     0.1941
  523.0000   -36.7071    13.8460    16.4140    81.2720    12.5013     0.0120     2.3738     0.1894
  523.5000   -36.5535    13.7802    16.3504    80.4090    12.4979     0.0092     2.3706     0.1900
  524.0000   -36.0663    13.7147    16.2870    79.5459    12.4946     0.0136     2.3702     0.1906
  524.5000   -33.8400    13.6495    16.2197    79.1026    12.4912     0.0179     2.3748     0.1896
  525.0000   -32.1161    13.5846    16.1433    79.1132    12.4878     0.0221     2.3750     0.1875
  525.5000   -35.2091    13.5201    16.0672    79.4007    12.4844     0.0251     2.3752     0.1855
  526.0000   -37.2232    13.4558    15.9915    79.6834    12.4810     0.0243     2.3810     0.1835
  526.5000   -34.2827    13.3919    15.9161    79.9714    12.4776     0.0213     2.3871     0.1817
  527.0000   -31.4058    13.3282    15.8411    80.0310    12.4743     0.0182     2.3821     0.1841
  527.5000   -31.2057    13.2649    15.7667    78.3377    12.4709     0.0153     2.3733     0.1906
  528.0000   -34.1270    13.2018    15.6537    76.6843    12.4675     0.0248     2.3729     0.1844
  528.5000   -35.5299    13.1389    15.6886    75.0122    12.4641     0.0355     2.3943     0.1763
  529.0000   -33.0784    13.1876    15.7635    74.0236    12.4607     0.0422     2.3880     0.1839
  529.5000   -32.3647    13.2528    15.8388    74.4066    12.4582     0.0377     2.3766     0.1920
  530.0000   -34.2313    13.3184    15.9144    75.8748    12.4565     0.0333     2.3695     0.1922
  530.5000   -36.2359    13.3843    15.9904    76.5536    12.4549     0.0338     2.4042     0.1701
  531.0000   -34.0865    13.4505    16.0936    76.2580    12.4532     0.0347     2.4382     0.1500
  531.5000   -31.9158    13.5004    15.9452    75.9689    12.4516     0.0309     2.4733     0.1279
  532.0000   -30.5844    13.3002    15.7199    75.6772    12.4499     0.0225     2.4749     0.1275
  532.5000   -31.6763    13.1120    15.4977    76.1422    12.4483     0.0153     2.4554     0.1419
  533.0000   -33.3506    12.9264    15.2787    77.6028    12.4466     0.0196     2.4367     0.1529
  533.5000   -31.5045    12.7435    15.0627    79.0738    12.4450     0.0239     2.4200     0.1629
  534.0000   -29.2457    12.5631    14.8498    78.3079    12.4433     0.0273     2.4185     0.1594
  534.5000   -29.1277    12.3853    14.6399    76.8593    12.4417     0.0325     2.4356     0.1532
  535.0000   -32.4282    12.2100    14.4330    77.8587    12.4401     0.0291     2.4241     0.1630
  535.5000   -31.4891    12.0372    14.2289    80.1173    12.4384     0.0173     2.4075     0.1729
  536.0000   -29.7618    11.9324    14.0277    81.7704    12.4368     0.0089     2.4015     0.1733
  536.5000   -28.4705    11.8695    13.7602    79.8544    12.4351     0.0100     2.4119     0.1642
  537.0000   -29.8453    11.8070    13.7977    76.5817    12.4335     0.0110     2.4186     0.1602
  537.5000   -32.8299    11.7447    13.8730    73.3077    12.4318     0.0136     2.4216     0.1586
  538.0000   -30.4719    11.6828    13.9488    71.4041    12.4302     0.0165     2.4305     0.1540
  538.5000   -28.0424    11.6213    14.0086    73.3329    12.4285     0.0190     2.4430     0.1436
  539.0000   -27.4026    11.5600    13.9003    74.3158    12.4269     0.0177     2.4501     0.1435
  539.5000   -27.3166    11.4991    13.8087    75.1579    12.4253     0.0126     2.4448     0.1447
  540.0000   -28.4583    11.4385    13.7180    78.9182    12.4236     0.0089     2.4413     0.1460
  540.5000   -27.6494    11.3782    13.6280    83.5265    12.4220     0.0124     2.4512     0.1367
  541.0000   -26.6929    11.3182    13.5386    81.2933    12.4203     0.0171     2.4652     0.1283
  541.5000   -26.5604    11.2585    13.4499    78.2809    12.4187     0.0219     2.4793     0.1205
  542.0000   -29.2336    11.2141    13.3617    76.5278    12.4170     0.0269     2.4874     0.1199
  542.5000   -30.4554    11.1957    13.2740    78.1405    12.4154     0.0258     2.4883     0.1237
  543.0000   -30.8005    11.1773    13.1870    79.7217    12.4137     0.0206     2.4793     0.1312
  543.5000   -26.5541    11.1589    13.1321    81.3164    12.4121     0.0156     2.4549     0.1394
  544.0000   -28.4109    11.1406    13.1447    81.9360    12.4104     0.0130     2.4587     0.1403
  544.5000   -30.5037    11.1223    13.1551    80.4966    12.4088     0.0171     2.4643     0.1344
  545.0000   -30.2544    11.1040    13.1654    78.1468    12.4072     0.0229     2.4669     0.1291
  545.5000   -28.6675    11.0857    13.1757    75.6789    12.4055     0.0289     2.4774     0.1238
  546.0000   -25.6817    11.0675    13.1860    75.2309    12.4039     0.0290     2.4881     0.1203
  546.5000   -29.6945    11.0493    13.1963    77.7857    12.4022     0.0252     2.4842     0.1235
  547.0000   -29.7354    11.0309    13.2066    80.3602    12.4006     0.0216     2.4780     0.1281
  547.5000   -29.7244    11.0174    13.2170    82.3008    12.3988     0.0192     2.4718     0.1295
  548.0000   -29.3560    11.0508    13.2273    82.2062    12.3903     0.0224     2.4779     0.1241
  548.5000   -25.8882    11.0827    13.2380    81.3851    12.3810     0.0251     2.4848     0.1201
  549.0000   -26.0685    11.1147    13.2519    80.5323    12.3718     0.0251     2.4853     0.1221
