~VERSION INFORMATION
 VERS.                2.0:   CWLS LOG ASCII STANDARD - VERSION 2.0
 WRAP.                 NO:   ONE LINE PER DEPTH STEP
~WELL INFORMATION
#MNEM.UNIT      DATA TYPE    INFORMATION
#----------   ------------   ------------------------------
 STRT.F           12.0000:   START DEPTH
 STOP.F          549.0000:   STOP DEPTH
 STEP.F            0.5000:   STEP LENGTH
 NULL.          -999.2500:   NO VALUE
 COMP. LAWRENCE/ALLISON INC:   COMPANY
 WELL.  58-64-1 SX 3 #3-3:   WELL
 FLD .             TEAPOT:   FIELD
 LOC .       S3 T38N R78W:   LOCATION
 CNTY.            NATRONA:   COUNTY
 STAT.            WYOMING:   STATE
 CTRY. UNITED STATES OF AMERICA:   COUNTRY
 SRVC.      Dresser Atlas:   SERVICE COMPANY
 DATE.        05-DEC-1984:   LOGDATE
 API .       490251117800:   API NUMBER
~CURVE INFORMATION
#MNEM.UNIT       API CODE    CURVE DESCRIPTION
#----------   ------------   ------------------------------
 DEPT.F                  :   
 RFOC.OHMM   07 220 04 00:   RESISTIVITY FOCUSED LOG
 RILD.OHMM   07 120 46 00:   INDUCTION LOG DEEP RESISTIVITY
 RILM.OHMM   07 120 44 00:   INDUCTION LOG MEDIUM RESISTIVITY
 SPR .MV     07 010 01 00:   SPONTANEOUS POTENTIAL
 CALD.IN     45 280 60 00:   CALIPER FROM DENSITY LOG
 CNC .DEC    42 890 03 00:   NEUTRON POROSITY SANDSTONE
 CORR.G/C3   45 356 01 00:   DENSITY CORRECTION
 DEN .G/C3   45 350 01 00:   COMPENSATED BULK DENSTIY
 GRD .GAPI   45 310 01 00:   GAMMA RAY FROM DENSITY LOG
 PORD.DEC    45 890 12 00:   POROSITY DENSITY SANDSTONE
 DT  .US/F   60 520 00 00:   INTERVAL TRANSIT TIME
~PARAMETER INFORMATION
#MNEM.UNIT          VALUE    DESCRIPTION
#----------   ------------   ------------------------------
 PD  .                 GL:   PERMANENT DATUM
 EPD .F              5188:   ELEVATION PERMANENT DATUM
 LMF .                 KB:   LOG MEASURED FROM
 DMF .                 KB:   DRILLING MEASURED FROM
 EGL .F              5188:   GROUND LEVEL
 DATE.         5-DEC-1984:   RUN DATE
 RUN .                  1:   RUN NUMBER
 DD  .F               556:   DEPTH DRILLER
 DL  .F               551:   DEPTH LOGGER
 BLI .F               549:   BOTTOM LOG INTERVAL
 CS  .IN            8.625:   CASING SIZE
 CBD .F                20:   CASING BOTTOM DRILLER
 CBL .F                20:   CASING BOTTOM LOGGER
 BS  .IN            7.875:   BIT SIZE
 BSD .F               556:   BIT SIZE AT DEPTH
 DFT .          KCL WATER:   DRILLING FLUID TYPE
 MSS .           FLOWLINE:   MUD SAMPLE SOURCE
 RMS .OHMM            .36:   RESISTIVITY MUD SAMPLE
 MST .F                70:   MUD SAMPLE TEMPERATURE
 RMF .OHMM            .26:   RESISTIVITY MUD FILTRATE SAMPLE
 MFST.F                70:   MUD FILTRATE SAMPLE TEMPERATURE
 RMC .OHMM            .46:   RESISTIVITY MUD CAKE
 MCST.F                70:   MUD CAKE SAMPLE TEMPERATURE
 MFSS.               CALC:   MUD FILTRATE SAMPLE SOURCE
 MCSS.               CALC:   MUD CAKE SAMPLE SOURCE
 RMB .OHMM            .29:   RESISTIVITY MUD AT BHT
 BHT .F                85:   BOTTOM HOLE TEMPERATURE
 TCS .HRS               3:   TIME CURCULATED STOPPED
 MRT .F               100:   MAXIMUM RECORDED TEMPERATURE
 LUN .               6274:   LOGGING UNIT NUMBER
 LUL .               GLTE:   LOGGING UNIT LOCATION
 ENGI.             RAUTIO:   RECORDING ENGINEER
 WITN.       GROOMS/LUERS:   WITNESSED BY
 CLNT.            A2DTECH:   CLIENT CODE
 ORIG.         2.5" PRINT:   ORIGIN OF DATA
 UWI .       490251117800:   UNIQUE WELL ID
 DICO. A2D Technologies, Inc.:   DIGITIZING COMPANY
~OTHER INFORMATION
~A   DEPT     RFOC       RILD       RILM        SPR       CALD        CNC       CORR        DEN         GRD      PORD         DT   
# ...
  225.5000     8.0366     6.4097     6.2563   -66.5775     8.0313     0.3200     0.0439     2.5049   137.0061     0.1022   107.2770
  226.0000     7.8129     6.4067     6.2537   -66.5897     8.0336     0.3091     0.0530     2.4888   137.2283     0.1123   108.6697
  226.5000     6.9665     6.4036     6.2511   -66.9058     8.0606     0.3073     0.0378     2.4703   134.4326     0.1196   110.4148
  227.0000     6.1621     6.3121     6.1201   -67.2219     8.0658     0.3110     0.0256     2.4561   131.3374     0.1294   112.0302
  227.5000     6.2553     6.2219     5.9029   -67.2340     8.0899     0.3146     0.0195     2.4634   128.8500     0.1296   113.6048
  228.0000     6.6996     5.9647     5.6086   -67.2462     8.0894     0.3062     0.0289     2.4832   126.3628     0.1221   113.4540
  228.5000     7.9061     5.4781     5.2077   -67.2584     8.0890     0.2978     0.0381     2.4942   124.1611     0.1125   112.6999
  229.0000     7.8782     5.3313     5.1336   -67.2705     8.0885     0.3123     0.0376     2.4901   123.2280     0.1082   112.8507
  229.5000     7.4953     5.2551     5.1315   -67.2827     8.0881     0.3400     0.0481     2.4586   124.5096     0.1186   113.9065
  230.0000     6.3569     5.3263     5.2013   -67.2948     8.0876     0.3530     0.0574     2.4436   126.8687     0.1321   115.2640
  230.5000     5.4459     5.3390     5.2720   -67.3070     8.0872     0.3512     0.0618     2.4350   125.6499     0.1425   117.0739
  231.0000     5.3443     5.4714     5.5714   -67.1732     8.0867     0.3367     0.0514     2.4312   125.0390     0.1453   115.4148
  231.5000     5.6678     5.6456     5.8879   -67.0274     8.0560     0.3186     0.0351     2.4532   125.6444     0.1397   112.0965
  232.0000     6.7346     6.0260     6.4875   -66.8693     8.0555     0.3037     0.0270     2.4714   125.0331     0.1295   109.6833
  232.5000     7.8241     6.7439     6.8560   -66.4462     8.0249     0.2830     0.0298     2.4836   124.4222     0.1180   108.6274
  233.0000     7.8762     7.0552     7.0466   -66.1520     8.0244     0.2925     0.0329     2.4896   125.6351     0.1122   108.1750
  233.5000     7.7641     7.2550     7.2424   -66.1660     8.0240     0.3034     0.0343     2.4911   126.8479     0.1089   107.4208
  234.0000     7.6531     7.3062     7.3409   -66.4819     8.0235     0.3161     0.0252     2.4896   128.0608     0.1085   106.6667
  234.5000     7.3372     7.4049     7.2270   -66.7978     8.0533     0.2926     0.0191     2.4896   125.6261     0.1097   105.7617
  235.0000     7.3342     7.2990     7.1203   -66.5058     8.0529     0.2866     0.0130     2.4911   123.1510     0.1101   105.0075
  235.5000     7.7507     7.0946     6.9181   -65.9098     8.0524     0.2878     0.0130     2.4957   120.6636     0.1086   104.4042
  236.0000     7.8565     6.8014     6.6096   -65.9217     8.0520     0.2909     0.0160     2.4988   118.9301     0.1061   103.9477
  236.5000     7.8529     6.2537     6.1141   -66.5415     8.0515     0.3012     0.0190     2.5018   119.0263     0.1038   103.3429
  237.0000     7.8497     5.3637     5.4346   -67.4653     8.0511     0.3095     0.0281     2.5032   120.7480     0.1020   103.3665
  237.5000     7.6311     5.1420     5.0273   -68.6930     8.0506     0.3213     0.0462     2.4843   120.7447     0.1099   103.9894
  238.0000     5.8561     5.2115     4.9561   -70.2249     8.0502     0.3279     0.0674     2.4569   120.7416     0.1330   105.0558
  238.5000     5.3813     5.2820     5.0231   -69.5805     8.0497     0.3230     0.0734     2.4432   120.7386     0.1415   105.4600
  239.0000     5.4581     5.4285     5.1237   -68.9970     8.0492     0.3246     0.0608     2.4380   121.1976     0.1433   104.6596
  239.5000     5.6929     5.6571     5.3056   -68.0851     8.0488     0.3269     0.0420     2.4400   122.4630     0.1373   104.2534
  240.0000     6.2854     5.8954     5.6132   -67.7811     8.0483     0.3224     0.0206     2.4489   124.9442     0.1276   104.6757
  240.5000     6.7362     6.2334     5.9385   -67.1733     8.0479     0.3164     0.0066     2.4626   126.5076     0.1192   105.4937
  241.0000     7.1411     6.5074     6.3496   -66.6488     8.0474     0.3092     0.0005     2.4751   126.1297     0.1131   105.7617
  241.5000     7.6449     6.8846     6.8043   -66.5654     8.0470     0.2988     0.0051     2.4851   123.1514     0.1063   105.3786
  242.0000     8.0626     7.3682     7.1907   -66.3687     8.0465     0.2708     0.0154     2.4979   119.5010     0.1009   104.7240
  242.5000     8.2911     7.6829     7.5991   -66.0766     8.0460     0.2643     0.0268     2.5138   117.0664     0.0974   104.1579
  243.0000     8.5260     8.0395     8.0307   -65.9575     8.0455     0.2707     0.0211     2.5198   115.8476     0.0979   103.8492
  243.5000     8.7273     8.3534     8.3696   -65.7994     8.0754     0.2786     0.0082     2.5107   114.6288     0.1016   103.5953
  244.0000     8.8915     8.5507     8.6023   -65.8115     8.0749     0.2858     0.0079     2.5046   113.4101     0.1036   103.3484
  244.5000     8.9654     8.7111     8.8414   -65.8237     8.0744     0.2798     0.0312     2.5041   114.0150     0.0988   103.1357
  245.0000     8.9617     8.7827     8.9616   -65.8382     8.0740     0.2714     0.0514     2.5122   114.6201     0.0970   103.0468
  245.5000     8.9579     8.7784     9.0834   -65.8502     8.0735     0.2701     0.0306     2.5152   115.8328     0.1020   103.0468
  246.0000     8.9542     8.7742     9.0797   -65.8621     8.0731     0.2727     0.0245     2.5107   116.4377     0.1037   103.1191
  246.5000     8.9505     8.7699     8.9505   -65.8740     8.0727     0.2763     0.0305     2.5046   117.0426     0.1019   103.1976
  247.0000     8.9460     8.6445     8.8117   -65.8859     8.0881     0.2782     0.0426     2.5078   118.2554     0.0957   102.8879
  247.5000     8.8188     8.5202     8.5774   -65.8978     8.1020     0.2774     0.0547     2.5158   118.1814     0.0940   102.5792
  248.0000     8.8152     8.3984     8.5533   -65.9098     8.1015     0.2726     0.0425     2.5198   115.4286     0.1020   102.2705
  248.5000     8.8116     8.3944     8.4518   -66.2256     8.1011     0.2704     0.0122     2.5000   113.3830     0.1039   101.8401
  249.0000     8.6863     8.3904     8.4483   -66.2376     8.0934     0.2741     0.0092     2.5019   114.8957     0.1027   101.5385
  249.5000     8.5627     8.3864     8.4448   -66.5534     8.0699     0.2799     0.0182     2.5054   117.5532     0.1021   101.5385
  250.0000     8.5592     8.3824     8.5601   -66.5653     8.0695     0.2851     0.0242     2.5076   121.4792     0.1033   101.8401
  250.5000     8.5557     8.3784     8.6007   -66.5775     8.0690     0.2840     0.0333     2.5028   123.7057     0.1064   102.2926
  251.0000     8.5522     8.6107     8.6722   -66.2852     8.0686     0.2791     0.0204     2.4963   121.0152     0.1094   102.7451
  251.5000     8.6685     8.7273     8.7900   -66.6018     8.0681     0.2736     0.0056     2.4954   121.5491     0.1089   103.0468
  252.0000     8.6649     8.8452     8.9095   -66.6140     8.0677     0.2662    -0.0006     2.4954   123.3962     0.1065   102.7451
  252.5000     8.7858     8.9649     8.9723   -66.6261     8.0672     0.2591     0.0098     2.4978   124.3009     0.1040   100.9351
  253.0000     9.0348     8.8366     9.0268   -66.9422     8.0667     0.2549     0.0355     2.5015   121.8657     0.1016    99.4268
  253.5000     9.5667     8.8171     9.0223   -66.9544     8.0662     0.2591     0.0462     2.5075   118.2153     0.1005    98.2202
  254.0000    10.1009     8.6860     8.6499   -67.2705     8.0658     0.2658     0.0543     2.5075   113.9570     0.1052    97.6169
  254.5000    10.2436     8.1607     8.4091   -67.2827     8.0654     0.2719     0.0265     2.5030   110.9145     0.1093    97.0136
  255.0000    10.3573     7.3623     7.6256   -66.9885     8.0649     0.2791     0.0153     2.4969   112.1277     0.1118    96.5611
  255.5000    10.3161     6.5944     5.7710   -67.0030     8.0645     0.2912     0.0088     2.4908   113.3401     0.1183    97.6169
