~VERSION INFORMATION
 VERS.                2.0:   CWLS LOG ASCII STANDARD - VERSION 2.0
 WRAP.                 NO:   ONE LINE PER DEPTH STEP
~WELL INFORMATION
#MNEM.UNIT      DATA TYPE    INFORMATION
#----------   ------------   ------------------------------
 STRT.F         1050.0000:   START DEPTH
 STOP.F         2592.5000:   STOP DEPTH
 STEP.F            0.5000:   STEP LENGTH
 NULL.          -999.2500:   NO VALUE
 COMP. LAWRENCE/ALLISON INC:   COMPANY
 WELL. NAVAL PETROLEUM RESERVE 3 X15 #34-15:   WELL
 FLD .            WILDCAT:   FIELD
 LOC .      S15 T38N R78W:   LOCATION
 CNTY.            NATRONA:   COUNTY
 STAT.            WYOMING:   STATE
 CTRY. UNITED STATES OF AMERICA:   COUNTRY
 SRVC.            Unknown:   SERVICE COMPANY
 DATE.        07-AUG-1988:   LOGDATE
 API .       490251125500:   API NUMBER
~CURVE INFORMATION
#MNEM.UNIT       API CODE    CURVE DESCRIPTION
#----------   ------------   ------------------------------
 DEPT.F                  :   
 ROP .MIN/FT 91 810 01 00:   RATE OF DRILLING PENETRATION
 TGAS.UNITS  91 830 01 00:   TOTAL GAS FROM HOTWIRE
~PARAMETER INFORMATION
#MNEM.UNIT          VALUE    DESCRIPTION
#----------   ------------   ------------------------------
 EKB .F              5286:   KELLING BUSHING
 EGL .F              5276:   GROUND LEVEL
 DATE.           9-7-1988:   RUN DATE
 RUN .                  1:   RUN NUMBER
 DD  .F              2592:   DEPTH DRILLER
 CBD .F              1044:   CASING BOTTOM DRILLER
 ENGI.               HUSK:   RECORDING ENGINEER
 CLNT.            A2DTECH:   CLIENT CODE
 ORIG.           5" PRINT:   ORIGIN OF DATA
 UWI .       490251125500:   UNIQUE WELL ID
 DICO. A2D Technologies, Inc.:   DIGITIZING COMPANY
~OTHER INFORMATION
~A  DEPT         ROP     TGAS   
# ...
 1536.0000     0.3459     5.9994
 1536.5000     0.3504     5.9568
 1537.0000     0.3778     5.9142
 1537.5000     0.4054     5.8716
 1538.0000     0.4329     5.8289
 1538.5000     0.4273     5.7835
 1539.0000     0.4198     5.7112
 1539.5000     0.4125     5.6329
 1540.0000     0.4096     5.5543
 1540.5000     0.4122     5.4756
 1541.0000     0.4148     5.3974
 1541.5000     0.4174     5.3191
 1542.0000     0.4200     5.2953
 1542.5000     0.4187     5.3261
 1543.0000     0.4134     5.3568
 1543.5000     0.4091     5.3879
 1544.0000     0.4145     5.4190
 1544.5000     0.4198     5.4500
 1545.0000     0.4251     5.4811
 1545.5000     0.4302     5.5121
 1546.0000     0.4281     5.5431
 1546.5000     0.4053     5.5742
 1547.0000     0.3833     5.6052
 1547.5000     0.3614     5.6363
 1548.0000     0.3456     5.6673
 1548.5000     0.3459     5.6985
 1549.0000     0.3459     5.7297
 1549.5000     0.3459     5.7597
 1550.0000     0.3452     5.7567
 1550.5000     0.3776     5.6564
 1551.0000     0.4228     5.5596
 1551.5000     0.4695     5.4629
 1552.0000     0.4526     5.3661
 1552.5000     0.4305     5.2800
 1553.0000     0.4086     5.2789
 1553.5000     0.3868     5.2793
 1554.0000     0.3643     5.2793
 1554.5000     0.3586     5.2793
 1555.0000     0.3584     5.2793
 1555.5000     0.3585     5.2793
 1556.0000     0.3579     5.2793
 1556.5000     0.3841     5.2793
 1557.0000     0.4203     5.2793
 1557.5000     0.4572     5.2793
 1558.0000     0.4959     5.2793
 1558.5000     0.4691     5.2793
 1559.0000     0.4284     5.2793
 1559.5000     0.3991     5.2793
 1560.0000     0.4099     5.2793
 1560.5000     0.4637     5.2793
 1561.0000     0.5158     5.2793
 1561.5000     0.5678     5.2793
 1562.0000     0.6209     5.2793
 1562.5000     0.6190     5.2793
 1563.0000     0.5582     5.2793
 1563.5000     0.4984     5.2793
 1564.0000     0.4373     5.2793
 1564.5000     0.4078     5.2793
 1565.0000     0.4084     5.2793
 1565.5000     0.4086     5.2793
 1566.0000     0.4091     5.2793
 1566.5000     0.4239     5.2793
 1567.0000     0.4815     5.2793
 1567.5000     0.5373     5.2793
 1568.0000     0.5949     5.2794
 1568.5000     0.5970     5.2788
 1569.0000     0.5725     5.2672
 1569.5000     0.5472     5.2560
 1570.0000     0.5349     5.2449
 1570.5000     0.5449     5.2337
 1571.0000     0.5841     5.2226
 1571.5000     0.6223     5.2115
 1572.0000     0.6604     5.2004
 1572.5000     0.6985     5.1893
 1573.0000     0.7365     5.1782
 1573.5000     0.7758     5.1670
 1574.0000     0.7724     5.1559
 1574.5000     0.7457     5.1448
 1575.0000     0.7186     5.1337
 1575.5000     0.6922     5.1226
 1576.0000     0.6869     5.1114
 1576.5000     0.7426     5.1003
 1577.0000     0.7961     5.0892
 1577.5000     0.8495     5.0781
 1578.0000     0.8872     5.0670
 1578.5000     0.8214     5.0559
 1579.0000     0.7482     5.0447
 1579.5000     0.6753     5.0336
 1580.0000     0.6144     5.0225
 1580.5000     0.6219     5.0114
 1581.0000     0.6475     5.0002
 1581.5000     0.6485     4.9891
 1582.0000     0.6015     4.9780
 1582.5000     0.5558     4.9669
 1583.0000     0.5100     4.9558
 1583.5000     0.4641     4.9447
 1584.0000     0.4221     4.9335
 1584.5000     0.4239     4.9224
 1585.0000     0.4361     4.9113
 1585.5000     0.4481     4.9002
 1586.0000     0.4581     4.8891
 1586.5000     0.4350     4.8780
 1587.0000     0.4110     4.8668
 1587.5000     0.3875     4.8557
 1588.0000     0.3698     4.8446
 1588.5000     0.3707     4.8335
 1589.0000     0.3885     4.8224
 1589.5000     0.4165     4.8112
 1590.0000     0.4447     4.8001
 1590.5000     0.4731     4.7888
 1591.0000     0.5086     4.7780
 1591.5000     0.5485     4.8202
 1592.0000     0.5886     4.8699
 1592.5000     0.6289     4.9198
 1593.0000     0.6694     4.9696
 1593.5000     0.7092     5.0194
 1594.0000     0.6959     5.0692
 1594.5000     0.6524     5.1190
 1595.0000     0.6096     5.1686
 1595.5000     0.5665     5.2186
 1596.0000     0.5479     5.2716
 1596.5000     0.5828     5.2014
 1597.0000     0.6210     5.1028
 1597.5000     0.6592     5.0030
 1598.0000     0.6971     4.9032
 1598.5000     0.7238     4.8011
 1599.0000     0.7233     4.7770
 1599.5000     0.7233     4.7762
 1600.0000     0.7233     4.7764
 1600.5000     0.7278     4.7765
 1601.0000     0.7403     4.7765
 1601.5000     0.7779     4.7765
 1602.0000     0.8048     4.7765
 1602.5000     0.7527     4.7765
 1603.0000     0.6967     4.7765
 1603.5000     0.7472     4.7765
 1604.0000     0.8298     4.7765
 1604.5000     0.9136     4.7765
 1605.0000     0.9977     4.7765
 1605.5000     1.0809     4.7765
 1606.0000     1.1520     4.7765
 1606.5000     1.0705     4.7765
 1607.0000     0.9858     4.7765
 1607.5000     0.9016     4.7765
 1608.0000     0.8282     4.7765
 1608.5000     0.7738     4.7766
 1609.0000     0.7191     4.7765
 1609.5000     0.6642     4.7763
 1610.0000     0.6124     4.7526
 1610.5000     0.5996     4.7048
 1611.0000     0.6276     4.6571
 1611.5000     0.6740     4.6091
 1612.0000     0.7449     4.5612
 1612.5000     0.8162     4.5133
 1613.0000     0.8875     4.4654
 1613.5000     0.9582     4.4174
 1614.0000     1.0143     4.3694
 1614.5000     1.0257     4.3207
 1615.0000     1.0552     4.2773
 1615.5000     1.0851     4.3649
 1616.0000     1.0976     4.4577
 1616.5000     1.0154     4.5500
 1617.0000     0.9327     4.6421
 1617.5000     0.8307     4.7343
 1618.0000     0.6714     4.8264
 1618.5000     0.7197     4.9184
 1619.0000     0.8173     5.0106
 1619.5000     0.9148     5.1031
 1620.0000     0.8749     5.1963
 1620.5000     0.8040     5.2730
 1621.0000     0.7324     5.1371
 1621.5000     0.6615     5.0023
 1622.0000     0.6084     4.8689
 1622.5000     0.6243     4.7357
 1623.0000     0.6449     4.6024
 1623.5000     0.6475     4.4697
 1624.0000     0.6497     4.3366
 1624.5000     0.6889     4.3019
 1625.0000     0.7331     4.3526
 1625.5000     0.7768     4.4034
 1626.0000     0.8210     4.4549
 1626.5000     0.8360     4.5063
 1627.0000     0.8243     4.5576
 1627.5000     0.8015     4.6090
 1628.0000     0.8713     4.6602
 1628.5000     0.9435     4.7116
 1629.0000     1.0151     4.7642
 1629.5000     1.0865     4.7763
 1630.0000     1.1581     4.7767
 1630.5000     1.2021     4.7766
 1631.0000     1.2426     4.7767
 1631.5000     1.3107     4.7772
 1632.0000     1.3362     4.7741
 1632.5000     1.2204     4.6934
 1633.0000     1.0980     4.6107
 1633.5000     0.9755     4.5285
 1634.0000     0.8518     4.4464
 1634.5000     0.8147     4.3643
 1635.0000     0.9079     4.2821
 1635.5000     0.9178     4.2000
 1636.0000     0.8562     4.1179
 1636.5000     0.7957     4.0356
 1637.0000     0.7359     3.9539
 1637.5000     0.6764     3.8712
 1638.0000     0.6309     3.7776
 1638.5000     0.6614     4.1164
 1639.0000     0.7096     4.5553
 1639.5000     0.7604     4.9711
 1640.0000     0.7733     5.1301
 1640.5000     0.7738     5.2646
 1641.0000     0.7736     5.1271
 1641.5000     0.7735     4.8555
 1642.0000     0.7568     4.6532
 1642.5000     0.7235     4.3802
 1643.0000     0.6903     4.3481
 1643.5000     0.6601     4.4940
 1644.0000     0.6812     4.6412
 1644.5000     0.7110     4.7898
 1645.0000     0.7411     4.9379
 1645.5000     0.7727     5.0864
 1646.0000     0.7561     5.2385
 1646.5000     0.7308     5.1959
 1647.0000     0.7059     5.1114
 1647.5000     0.6812     5.0251
 1648.0000     0.6812     4.9391
 1648.5000     0.7220     4.8534
 1649.0000     0.7623     4.7676
 1649.5000     0.8029     4.6819
 1650.0000     0.7820     4.5961
 1650.5000     0.6996     4.5103
 1651.0000     0.6174     4.4242
 1651.5000     0.5315     4.3384
 1652.0000     0.5249     4.2712
 1652.5000     0.5501     4.3509
 1653.0000     0.5763     4.4331
 1653.5000     0.6028     4.5146
 1654.0000     0.5960     4.5962
 1654.5000     0.5427     4.6785
 1655.0000     0.4904     4.7598
 1655.5000     0.4365     4.7319
 1656.0000     0.4572     4.6974
 1656.5000     0.5047     4.6634
 1657.0000     0.5518     4.6295
