~VERSION INFORMATION
 VERS.                2.0:   CWLS LOG ASCII STANDARD - VERSION 2.0
 WRAP.                 NO:   ONE LINE PER DEPTH STEP
~WELL INFORMATION
#MNEM.UNIT      DATA TYPE    INFORMATION
#----------   ------------   ------------------------------
 STRT.F           14.5000:   START DEPTH
 STOP.F          750.0000:   STOP DEPTH
 STEP.F            0.5000:   STEP LENGTH
 NULL.          -999.2500:   NO VALUE
 COMP. FENIX & SCISSON INC:   COMPANY
 WELL.       NPR 3 #24-14:   WELL
 FLD .             TEAPOT:   FIELD
 LOC .      S14 T38N R78W:   LOCATION
 CNTY.            NATRONA:   COUNTY
 STAT.            WYOMING:   STATE
 CTRY. UNITED STATES OF AMERICA:   COUNTRY
 SRVC.           BIRDWELL:   SERVICE COMPANY
 DATE.        27-DEC-1978:   LOGDATE
 API .       490251075900:   API NUMBER
~CURVE INFORMATION
#MNEM.UNIT       API CODE    CURVE DESCRIPTION
#----------   ------------   ------------------------------
 DEPT.F                  :   
 SPR .MV     05 010 01 00:   SPONTANEOUS POTENTIAL FROM RES.
 SN  .OHMM   05 040 16 00:   SHORT NORMAL 16"
 IL  .OHMM   05 120 00 00:   INDUCTION LOG
 GRD .GAPI   45 310 01 00:   GAMMA RAY FROM DENSITY LOG
 CALD.IN     45 280 60 00:   CALIPER
 RHOB.G/C3   45 350 01 00:   BULK DENSITY
 DPHI.DEC    45 890 12 00:   DENSITY POROSITY SANDSTONE
 CORR.G/C3   45 356 01 00:   DENSITY CORRECTION
~PARAMETER INFORMATION
#MNEM.UNIT          VALUE    DESCRIPTION
#----------   ------------   ------------------------------
 PD  .                 GL:   PERMANENT DATUM
 EPD .F              5209:   ELEVATION PERMANENT DATUM
 LMF .                 KB:   LOG MEASURED FROM
 DAPD.F                 4:   FEET ABOVE PERMANENT DATUM
 DMF .                 KB:   DRILLING MEASURED FROM
 EKB .F              5212:   KELLING BUSHING
 EGL .F              5209:   GROUND LEVEL
 DATE.           12-27-78:   RUN DATE
 RUN .                  1:   RUN NUMBER
 DD  .F               750:   DEPTH DRILLER
 DL  .F               742:   DEPTH LOGGER
 BLI .F               735:   BOTTOM LOG INTERVAL
 TLI .F                35:   TOP LOG INTERVAL
 CS  .IN            8.625:   CASING SIZE
 CBD .F                40:   CASING BOTTOM DRILLER
 CBL .F                32:   CASING BOTTOM LOGGER
 BS  .IN            7.875:   BIT SIZE
 BSD .F               750:   BIT SIZE AT DEPTH
 DFT .                KCL:   DRILLING FLUID TYPE
 DFD .                8.6:   DRILLING FLUID DENSITY
 DFV .                 35:   DRILLING FLUID VISCOSITY
 DFPH.                9.4:   DRILLING FLUID PH
 DFL .               12.4:   DRILLING FLUID LOSS
 MSS .           FLOWLINE:   MUD SAMPLE SOURCE
 RMS .OHMM            .38:   RESISTIVITY MUD SAMPLE
 MST .F                58:   MUD SAMPLE TEMPERATURE
 RMF .OHMM            .38:   RESISTIVITY MUD FILTRATE SAMPLE
 MFST.F                58:   MUD FILTRATE SAMPLE TEMPERATURE
 RMC .OHMM            .36:   RESISTIVITY MUD CAKE
 MCST.F                60:   MUD CAKE SAMPLE TEMPERATURE
 MFSS.           MEASURED:   MUD FILTRATE SAMPLE SOURCE
 MCSS.           MEASURED:   MUD CAKE SAMPLE SOURCE
 RMB .OHMM            .37:   RESISTIVITY MUD AT BHT
 BHT .F                59:   BOTTOM HOLE TEMPERATURE
 TCS .HRS               2:   TIME CURCULATED STOPPED
 MRT .F                59:   MAXIMUM RECORDED TEMPERATURE
 LUN .               2958:   LOGGING UNIT NUMBER
 LUL .             CASPER:   LOGGING UNIT LOCATION
 ENGI.         B. ROLLINS:   RECORDING ENGINEER
 WITN.           DINSMORE:   WITNESSED BY
 CLNT.            A2DTECH:   CLIENT CODE
 ORIG.           5" PRINT:   ORIGIN OF DATA
 UWI .       490251075900:   UNIQUE WELL ID
 DICO. A2D Technologies, Inc.:   DIGITIZING COMPANY
~OTHER INFORMATION
~A   DEPT      SPR         SN         IL         GRD      CALD       RHOB       DPHI       CORR   
# ...
  581.5000   -49.5680    14.6150    12.7580    77.7360     8.1970     2.5190     0.0850     0.1030
  582.0000   -49.5810    14.8290    13.2190    74.6470     8.2090     2.5350     0.0820     0.1190
  582.5000   -49.5940    15.1250    13.1970    74.2100     8.2220     2.5420     0.1000     0.1190
  583.0000   -49.6060    15.4210    13.1500    74.1380     8.2350     2.5350     0.1200     0.0930
  583.5000   -49.6190    15.7170    13.1030    74.0770     8.2400     2.4970     0.1400     0.0650
  584.0000   -49.6310    16.0130    13.0570    74.1030     8.2250     2.4600     0.1570     0.0450
  584.5000   -49.6440    16.3350    13.0100    75.6010     8.2100     2.4220     0.1700     0.0460
  585.0000   -49.6560    16.4220    12.9130    76.5280     8.1960     2.4010     0.1650     0.0580
  585.5000   -49.6690    16.4860    12.7060    79.6290     8.1890     2.3990     0.1610     0.0680
  586.0000   -49.6820    16.1120    12.5000    80.7980     8.2070     2.4070     0.1570     0.0690
  586.5000   -49.6940    15.6440    12.2810    80.1580     8.2260     2.4180     0.1540     0.0710
  587.0000   -49.7000    15.1090    11.9380    78.8750     8.2430     2.4240     0.1530     0.0720
  587.5000   -49.7000    14.5740    11.5730    78.7950     8.2440     2.4250     0.1520     0.0740
  588.0000   -49.7040    14.0380    11.3380    81.2150     8.2430     2.4260     0.1510     0.0750
  588.5000   -49.7190    13.5750    11.2080    83.9490     8.2390     2.4270     0.1510     0.0760
  589.0000   -49.7320    13.4860    11.0970    85.3990     8.2360     2.4280     0.1590     0.0780
  589.5000   -49.7460    13.3980    11.0820    83.9660     8.2320     2.4210     0.1660     0.0790
  590.0000   -49.7600    13.3090    11.0670    81.5450     8.2290     2.4110     0.1670     0.0810
  590.5000   -49.7740    13.2190    11.0530    79.1810     8.2260     2.4030     0.1660     0.0820
  591.0000   -49.7880    13.1810    11.0380    77.9110     8.2020     2.4030     0.1660     0.0840
  591.5000   -49.8010    13.1410    11.0240    77.7210     8.1710     2.4030     0.1580     0.0860
  592.0000   -49.8150    13.1020    11.0090    79.7530     8.1400     2.4040     0.1470     0.1100
  592.5000   -49.8290    13.0630    10.9780    83.4640     8.1100     2.4320     0.1420     0.1250
  593.0000   -49.8430    13.0240    10.8880    84.1250     8.1770     2.4480     0.1380     0.1290
  593.5000   -49.8570    12.9840    10.7970    84.1560     8.2580     2.4500     0.1330     0.1280
  594.0000   -49.8700    12.9450    10.7060    83.3320     8.3140     2.4550     0.1310     0.1180
  594.5000   -49.8840    12.9060    10.6000    82.1050     8.3370     2.4600     0.1380     0.1020
  595.0000   -49.8960    12.8670    10.6440    81.6110     8.3610     2.4540     0.1420     0.0860
  595.5000   -49.9430    12.8270    10.6960    83.1820     8.3840     2.4490     0.1430     0.0860
  596.0000   -49.9930    12.7880    10.7480    84.8780     8.4010     2.4450     0.1430     0.0860
  596.5000   -50.0430    12.7490    10.7970    82.2460     8.3900     2.4430     0.1420     0.0880
  597.0000   -50.0960    12.7100    10.7340    77.5570     8.3790     2.4430     0.1380     0.0930
  597.5000   -50.5990    12.6700    10.6750    77.0620     8.3680     2.4450     0.1330     0.0990
  598.0000   -51.1710    12.6310    10.6150    77.8670     8.3650     2.4520     0.1260     0.1080
  598.5000   -51.7010    12.5920    10.5560    79.2100     8.3690     2.4640     0.1210     0.1180
  599.0000   -51.9170    12.5530    10.4960    79.3880     8.3720     2.4820     0.1210     0.1350
  599.5000   -52.1180    12.5090    10.4370    80.2780     8.3760     2.4820     0.1210     0.1480
  600.0000   -52.3190    12.3530    10.3800    80.6210     8.3790     2.4800     0.1190     0.1560
  600.5000   -52.5190    12.1780    10.3250    78.1190     8.3820     2.4810     0.1160     0.1640
  601.0000   -52.7000    12.0530    10.2700    75.1400     8.3640     2.4840     0.1140     0.1600
  601.5000   -52.7470    12.0390    10.2160    73.9540     8.3430     2.4940     0.1130     0.1510
  602.0000   -52.7900    12.0250    10.1610    74.1930     8.3220     2.5030     0.1110     0.1250
  602.5000   -52.8330    12.0110    10.1060    74.6090     8.3010     2.5040     0.1230     0.0870
  603.0000   -52.8760    11.9960    10.0520    75.0590     8.2800     2.4830     0.1330     0.0620
  603.5000   -52.9190    11.9820     9.9970    76.1980     8.2630     2.4620     0.1410     0.0540
  604.0000   -52.9620    11.9680     9.9390    76.5900     8.2640     2.4460     0.1410     0.0540
  604.5000   -53.0050    11.9540     9.9440    76.4950     8.2640     2.4420     0.1380     0.0540
  605.0000   -53.0480    11.9400     9.9500    76.5790     8.2640     2.4460     0.1290     0.0540
  605.5000   -53.0910    11.9260     9.9550    77.4850     8.2640     2.4540     0.1310     0.0540
  606.0000   -53.1340    11.9110     9.9610    78.3360     8.2720     2.4610     0.1340     0.0540
  606.5000   -53.1770    11.8970     9.9670    77.7180     8.3170     2.4610     0.1360     0.0560
  607.0000   -53.2200    11.8830     9.9720    77.1040     8.3600     2.4550     0.1360     0.0590
  607.5000   -53.2640    11.8690     9.9780    79.1020     8.3170     2.4560     0.1340     0.0630
  608.0000   -53.3450    11.8550     9.9830    79.6060     8.2950     2.4570     0.1330     0.0640
  608.5000   -53.6660    11.8380     9.9890    79.9690     8.3340     2.4590     0.1280     0.0550
  609.0000   -53.9890    11.8490     9.9950    83.4830     8.3250     2.4670     0.1240     0.0450
  609.5000   -54.3120    11.8630    10.0000    84.6750     8.3010     2.4800     0.1200     0.0350
  610.0000   -54.6360    11.8780    10.0060    85.8690     8.2760     2.4950     0.1170     0.0250
  610.5000   -54.9600    11.8930    10.0120    86.8860     8.2610     2.4900     0.1060     0.0210
  611.0000   -55.2900    11.9080    10.0170    87.4240     8.2560     2.5030     0.0950     0.0210
  611.5000   -55.5000    11.9220    10.0230    88.1500     8.2500     2.5230     0.0840     0.0210
  612.0000   -55.7100    11.9370    10.0300    88.4520     8.2450     2.5330     0.0850     0.0200
  612.5000   -55.9180    11.9520    10.0260    86.4380     8.2440     2.5360     0.1010     0.0200
  613.0000   -56.1060    11.9660    10.0140    84.5330     8.2440     2.5180     0.1140     0.0230
  613.5000   -56.1000    11.9810    10.0020    82.8990     8.2230     2.4990     0.1190     0.0310
  614.0000   -56.1000    11.9960     9.9890    81.3500     8.1730     2.4880     0.1240     0.0340
  614.5000   -56.1000    12.0110     9.9770    82.1660     8.1270     2.4780     0.1270     0.0380
  615.0000   -56.1000    12.0250     9.9650    83.5050     8.1470     2.4740     0.1270     0.0370
  615.5000   -56.1000    12.0400     9.9530    83.5560     8.2230     2.4710     0.1260     0.0370
  616.0000   -56.1000    12.0570     9.9410    83.5580     8.3020     2.4680     0.1230     0.0360
  616.5000   -56.1000    11.9560     9.9250    83.4820     8.3800     2.4730     0.1190     0.0360
  617.0000   -56.1000    11.8370     9.9080    81.2920     8.3830     2.4810     0.1190     0.0350
  617.5000   -56.1000    11.8000     9.8910    80.6480     8.3840     2.4870     0.1190     0.0350
  618.0000   -56.1030    11.7640     9.8740    80.4630     8.4030     2.4850     0.1190     0.0340
  618.5000   -56.2080    11.7280     9.8570    79.0560     8.5270     2.4820     0.1150     0.0340
  619.0000   -56.3200    11.6920     9.8480    77.2880     8.1990     2.4890     0.1130     0.0330
  619.5000   -56.4310    11.6560     9.8480    76.4410     8.0790     2.4940     0.1130     0.0320
  620.0000   -56.5420    11.6220     9.8480    76.4400     8.0660     2.4930     0.1110     0.0320
  620.5000   -56.6540    11.7190     9.8480    78.9210     8.0530     2.4960     0.1120     0.0310
  621.0000   -56.7650    11.8110     9.8480    83.4970     8.0390     2.4980     0.1220     0.0260
  621.5000   -56.8710    11.9030     9.8480    83.7660     8.0260     2.4900     0.1360     0.0200
