~VERSION INFORMATION
 VERS.                2.0:   CWLS LOG ASCII STANDARD - VERSION 2.0
 WRAP.                 NO:   ONE LINE PER DEPTH STEP
~WELL INFORMATION
#MNEM.UNIT      DATA TYPE    INFORMATION
#----------   ------------   ------------------------------
 STRT.F           32.0000:   START DEPTH
 STOP.F          517.0000:   STOP DEPTH
 STEP.F            0.5000:   STEP LENGTH
 NULL.          -999.2500:   NO VALUE
 COMP.    FENIX & SCISSON:   COMPANY
 WELL.        NPR #75-S-3:   WELL
 FLD .             TEAPOT:   FIELD
 LOC .       S3 T38N R78W:   LOCATION
 CNTY.            NATRONA:   COUNTY
 STAT.            WYOMING:   STATE
 CTRY. UNITED STATES OF AMERICA:   COUNTRY
 SRVC.              Welex:   SERVICE COMPANY
 DATE.        08-MAR-1977:   LOGDATE
 API .       490251030900:   API NUMBER
~CURVE INFORMATION
#MNEM.UNIT       API CODE    CURVE DESCRIPTION
#----------   ------------   ------------------------------
 DEPT.F                  :   
 SPR .MV     07 010 01 00:   SPONTANEOUS POTENTIAL
 ILD .OHMM   07 120 46 00:   INDUCTION LOG DEEP RES
 ILM .OHMM   07 120 44 00:   INDUCTION LOG MEDIUM RES
 SGRD.OHMM   07 220 05 00:   SHALLOW  GUARD RESISTIVITY
 CALD.IN     45 280 60 00:   CALIPER FROM DENSITY
 GRD .GAPI   45 310 01 00:   GAMMA RAY FROM DENSITY LOG
 CORR.G/C3   45 356 01 00:   DENSITY CORRECTION
 DPHI.DEC    45 890 12 00:   DENSITY POROSITY SANDSTONE
 RHOB.G/C3   45 350 01 00:   BULK DENSITY
~PARAMETER INFORMATION
#MNEM.UNIT          VALUE    DESCRIPTION
#----------   ------------   ------------------------------
 PD  .                 GL:   PERMANENT DATUM
 EPD .F              5141:   ELEVATION PERMANENT DATUM
 LMF .                 GL:   LOG MEASURED FROM
 DMF .                 GL:   DRILLING MEASURED FROM
 EGL .F              5141:   GROUND LEVEL
 DATE.         03-08-1977:   RUN DATE
 RUN .                  1:   RUN NUMBER
 DD  .F               521:   DEPTH DRILLER
 DL  .F               521:   DEPTH LOGGER
 BLI .F               519:   BOTTOM LOG INTERVAL
 TLI .F                35:   TOP LOG INTERVAL
 CS  .IN            8.625:   CASING SIZE
 CBD .F                40:   CASING BOTTOM DRILLER
 CBL .F                42:   CASING BOTTOM LOGGER
 BS  .IN            7.875:   BIT SIZE
 BSD .F               521:   BIT SIZE AT DEPTH
 DFT .            KCL MUD:   DRILLING FLUID TYPE
 DFD .                8.5:   DRILLING FLUID DENSITY
 DFV .                 32:   DRILLING FLUID VISCOSITY
 DFPH.                  8:   DRILLING FLUID PH
 DFL .                8.5:   DRILLING FLUID LOSS
 MSS .            MUD PIT:   MUD SAMPLE SOURCE
 RMS .OHMM            .65:   RESISTIVITY MUD SAMPLE
 MST .F                53:   MUD SAMPLE TEMPERATURE
 RMF .OHMM            .51:   RESISTIVITY MUD FILTRATE SAMPLE
 MFST.F                58:   MUD FILTRATE SAMPLE TEMPERATURE
 RMC .OHMM            .67:   RESISTIVITY MUD CAKE
 MCST.F                54:   MUD CAKE SAMPLE TEMPERATURE
 MFSS.           FANN KIT:   MUD FILTRATE SAMPLE SOURCE
 MCSS.           FANN KIT:   MUD CAKE SAMPLE SOURCE
 RMB .OHMM            .53:   RESISTIVITY MUD AT BHT
 BHT .F                64:   BOTTOM HOLE TEMPERATURE
 TCS .HRS             1.5:   TIME CURCULATED STOPPED
 MRT .F                64:   MAXIMUM RECORDED TEMPERATURE
 LUN .               8611:   LOGGING UNIT NUMBER
 LUL .           GILLETTE:   LOGGING UNIT LOCATION
 ENGI.               DOAK:   RECORDING ENGINEER
 WITN.           S. BURKE:   WITNESSED BY
 CLNT.            A2DTECH:   CLIENT CODE
 ORIG.           5" PRINT:   ORIGIN OF DATA
 UWI .       490251030900:   UNIQUE WELL ID
 DICO. A2D Technologies, Inc.:   DIGITIZING COMPANY
~OTHER INFORMATION
~A   DEPT      SPR        ILD        ILM       SGRD       CALD        GRD        CORR        DPHI       RHOB 
# ...
  141.5000   -40.6981    10.0876    11.8043    13.5420     7.9885   108.0710     0.0495     0.1040     2.4743
  142.0000   -40.8325     9.9571    11.8960    13.6490     7.9885   107.0959     0.0511     0.1043     2.4729
  142.5000   -40.9669     9.8963    11.9059    14.5305     7.9885   106.9625     0.0513     0.1079     2.4677
  143.0000   -40.9536     9.7664    11.3548    14.6393     7.9884   106.9777     0.0529     0.1096     2.4655
  143.5000   -41.0880     9.5757    10.8292    14.4479     7.9884   106.9920     0.0531     0.1051     2.4671
  144.0000   -41.0746     9.4501    10.3994    14.2589     7.9884   105.2750     0.0532     0.1072     2.4679
  144.5000   -41.0613     9.3278    10.4080    13.9757     7.9884   102.5043     0.0519     0.1146     2.4627
  145.0000   -41.1957     9.2072    10.7817    13.5106     7.9883   100.8141     0.0520     0.1179     2.4538
  145.5000   -41.1824     9.0898    11.2460    13.1513     7.9883   102.0177     0.0507     0.1194     2.4516
  146.0000   -41.1690     8.9705    11.0251    12.9792     7.9883   103.8103     0.0508     0.1151     2.4562
  146.5000   -41.3034     8.9790    10.5148    13.0772     7.9882   105.6028     0.0495     0.1136     2.4608
  147.0000   -41.2901     9.1735    10.4491    13.3588     7.9882   106.8028     0.0496     0.1145     2.4631
  147.5000   -41.2767     9.2439    10.8265    13.6464     7.9882   105.3360     0.0483     0.1183     2.4609
  148.0000   -41.4111     9.4441    11.2927    13.7494     7.9881   101.3508     0.0469     0.1204     2.4543
  148.5000   -41.3978     9.5166    11.2245    13.4763     7.9881   100.6211     0.0455     0.1219     2.4476
  149.0000   -41.5322     9.5896    11.0801    13.2087     7.9881   100.4878     0.0442     0.1225     2.4446
  149.5000   -41.5189     9.4656    11.0109    13.0356     7.9880   102.5803     0.0444     0.1227     2.4447
  150.0000   -41.5194     9.2153    10.8692    13.3166     7.9880   104.6691     0.0445     0.1230     2.4455
  150.5000   -41.5717     9.0320    10.5121    14.2759     7.9882   104.5358     0.0477     0.1237     2.4419
  151.0000   -41.6241     9.0405    10.2328    12.9706     7.9884   103.6620     0.0494     0.1241     2.4389
  151.5000   -41.6764     8.8595    10.1011    12.8721     7.9887   103.9896     0.0510     0.1241     2.4397
  152.0000   -41.7288     8.8046    10.1116    13.8159     7.9889   104.9195     0.0512     0.1235     2.4428
  152.5000   -41.7812     8.7502    10.1899    12.8169     7.9891   105.3401     0.0498     0.1222     2.4467
  153.0000   -41.7054     8.6364    10.2689    12.6473     7.9893   103.5825     0.0500     0.1213     2.4497
  153.5000   -41.8470     8.5830    10.3485    12.7447     7.9895   103.1502     0.0502     0.1204     2.4528
  154.0000   -41.9886     8.5300    10.5007    12.7526     7.9897   104.5037     0.0504     0.1191     2.4544
  154.5000   -42.2776     8.4193    10.3656    12.6709     7.9899   104.8121     0.0505     0.1176     2.4568
  155.0000   -42.4192     8.3099    10.0923    12.5052     7.9901   104.2357     0.0522     0.1153     2.4637
  155.5000   -42.5608     8.2018     9.6251    12.1745     7.9903   106.0337     0.0539     0.1116     2.4712
  156.0000   -42.7024     7.9296     9.2431    11.4492     7.9905   109.0128     0.0571     0.1067     2.4735
  156.5000   -42.8440     7.7195     8.9993    10.3308     7.9907   113.1771     0.0587     0.1058     2.4704
  157.0000   -42.8380     7.5148     8.8817     9.3862     7.9909   114.8229     0.0589     0.1108     2.4661
  157.5000   -42.8321     7.3662     8.8280    10.3437     7.9912   115.7280     0.0591     0.1141     2.4624
  158.0000   -42.8262     7.3195     8.8372    12.0452     7.9914   115.1515     0.0592     0.1153     2.4588
  158.5000   -42.8203     7.4274     8.7820    12.1361     7.9916   112.7973     0.0594     0.1138     2.4596
  159.0000   -42.6669     7.5878     8.8519    11.9774     7.9918   110.4431     0.0596     0.1116     2.4679
  159.5000   -42.6610     7.6984     8.9205    11.4992     7.9920   108.5333     0.0597     0.1092     2.4748
  160.0000   -42.5076     7.8106     9.1520    11.2691     7.9922   106.6236     0.0583     0.1080     2.4786
  160.5000   -42.5017     7.8700     9.2216    11.5135     7.9924   105.8950     0.0585     0.1067     2.4809
  161.0000   -42.4957     7.9299     9.2918    11.8428     7.9926   109.1744     0.0542     0.1097     2.4780
  161.5000   -42.4898     7.9354     9.2982    12.0147     7.9928   110.9683     0.0483     0.1157     2.4706
  162.0000   -42.4839     7.9409     9.3046    12.1053     7.9930   111.1286     0.0455     0.1169     2.4624
  162.5000   -42.4780     7.9464     9.3111    11.8649     7.9932   110.1118     0.0426     0.1162     2.4609
  163.0000   -42.4721     8.0622     9.2519    11.2352     7.9934   110.4242     0.0413     0.1132     2.4663
  163.5000   -42.4662     8.1236     9.0705    11.7170     7.9937   110.8848     0.0399     0.1123     2.4709
  164.0000   -42.4603     8.2420     9.0129    12.3040     7.9939   111.1973     0.0403     0.1125     2.4717
  164.5000   -42.4543     8.3621     9.0195    11.9768     7.9941   111.2135     0.0418     0.1149     2.4642
  165.0000   -42.4484     8.4840     8.9635    12.2347     7.9943   111.2296     0.0420     0.1167     2.4606
  165.5000   -42.4425     8.5485     8.9699    12.7593     7.9945   111.3940     0.0436     0.1129     2.4651
  166.0000   -42.4366     8.5545     8.9761    12.7672     7.9947   111.8647     0.0468     0.1079     2.4765
  166.5000   -42.4307     8.5001     9.0444    12.6854     7.9949   112.7748     0.0485     0.1007     2.4811
  167.0000   -42.5723     8.4476     9.0569    12.6953     7.9951   113.7046     0.0487     0.0985     2.4819
  167.5000   -42.5663     8.4550     9.1194    12.7032     7.9953   114.7432     0.0503     0.0997     2.4820
  168.0000   -42.5604     8.4013     9.1257    12.7990     7.9955   117.5529     0.0505     0.1024     2.4789
  168.5000   -42.5545     8.3494     9.1320    13.1651     7.9957   119.6431     0.0507     0.1017     2.4776
  169.0000   -42.5486     8.2423     9.1383    12.6395     7.9959   119.0667     0.0508     0.0990     2.4808
  169.5000   -42.5427     8.1913     9.2078    12.1349     7.9962   115.9717     0.0510     0.0969     2.4845
  170.0000   -42.5368     8.0835     9.3420    11.6504     7.9961   114.2101     0.0511     0.0956     2.4869
  170.5000   -42.6784     8.0335     9.4131    11.3388     7.9959   112.7448     0.0513     0.0968     2.4877
  171.0000   -42.6724     8.0393     9.4847    11.4262     7.9957   111.8680     0.0515     0.1004     2.4787
  171.5000   -42.6665     7.9894     9.4913    11.7530     7.9955   113.6660     0.0516     0.1037     2.4735
  172.0000   -42.8081     7.9951     9.4325    12.0891     7.9953   115.9044     0.0518     0.1060     2.4714
  172.5000   -42.8022     8.0006     9.4392    12.4348     7.9951   116.0647     0.0504     0.1093     2.4669
  173.0000   -42.7963     8.0061     9.3807    12.6133     7.9949   112.0849     0.0491     0.1132     2.4610
  173.5000   -42.7904     8.0117     9.3873    12.2798     7.9947   106.6195     0.0463     0.1180     2.4446
  174.0000   -42.9319     8.0172     9.4588    11.7086     7.9945   104.8539     0.0434     0.1209     2.4401
  174.5000   -42.9260     8.0227     9.4653    11.5536     7.9942   110.2074     0.0406     0.1221     2.4409
  175.0000   -42.9201     8.0837     9.4068    11.8043     7.9940   112.5939     0.0392     0.1218     2.4425
  175.5000   -42.9142     8.0893     9.4133    11.9756     7.9938   114.9805     0.0379     0.1190     2.4449
  176.0000   -42.9083     8.0949     9.2910    12.0653     7.9936   117.5152     0.0411     0.1175     2.4481
  176.5000   -42.9024     8.1005     9.2320    11.8257     7.9934   119.7535     0.0444     0.1165     2.4526
  177.0000   -43.0439     8.1061     9.1135    11.5112     7.9932   119.9138     0.0462     0.1154     2.4557
  177.5000   -43.0380     8.1118     9.0557    11.2051     7.9930   118.1562     0.0506     0.1144     2.4579
