~VERSION INFORMATION
 VERS.                2.0:   CWLS LOG ASCII STANDARD - VERSION 2.0
 WRAP.                 NO:   ONE LINE PER DEPTH STEP
~WELL INFORMATION
#MNEM.UNIT      DATA TYPE    INFORMATION
#----------   ------------   ------------------------------
 STRT.F           21.0000:   START DEPTH
 STOP.F          543.0000:   STOP DEPTH
 STEP.F            0.5000:   STEP LENGTH
 NULL.          -999.2500:   NO VALUE
 COMP. FENIX & SCISSON INC:   COMPANY
 WELL.      NPR #3 #46-10:   WELL
 FLD .             TEAPOT:   FIELD
 LOC .      S10 T38N R78W:   LOCATION
 CNTY.            NATRONA:   COUNTY
 STAT.            WYOMING:   STATE
 CTRY. UNITED STATES OF AMERICA:   COUNTRY
 SRVC.              Welex:   SERVICE COMPANY
 DATE.        08-MAY-1980:   LOGDATE
 API .       490251081100:   API NUMBER
~CURVE INFORMATION
#MNEM.UNIT       API CODE    CURVE DESCRIPTION
#----------   ------------   ------------------------------
 DEPT.F                  :   
 SGRD.OHMM   07 220 05 00:   SHALLOW GUARD RESISTIVITY
 ILD .OHMM   07 120 46 00:   INDUCTION LOG DEEP RESISTIVITY
 ILM .OHMM   07 120 44 00:   INDUCTION LOG MEDIUM
 SPR .MV     07 010 01 00:   SPONTANEOUS POTENTIAL
 CALD.IN     45 280 60 00:   CALIPER
 GRD .GAPI   45 310 01 00:   GAMMA RAY FROM DENSITY LOG
 CORR.G/C3   45 356 01 00:   DENSITY CORRECTION
 RHOB.G/C3   45 350 01 00:   BULK DENSITY
 DPHI.DEC    45 890 12 00:   DENSITY POROSITY SANDSTONE
~PARAMETER INFORMATION
#MNEM.UNIT          VALUE    DESCRIPTION
#----------   ------------   ------------------------------
 PD  .                 GL:   PERMANENT DATUM
 EPD .F              5206:   ELEVATION PERMANENT DATUM
 LMF .                 KB:   LOG MEASURED FROM
 DAPD.F                 5:   FEET ABOVE PERMANENT DATUM
 DMF .                 KB:   DRILLING MEASURED FROM
 EKB .F              5211:   KELLING BUSHING
 EGL .F              5206:   GROUND LEVEL
 DATE.             5-8-80:   RUN DATE
 RUN .                  1:   RUN NUMBER
 DD  .F               530:   DEPTH DRILLER
 DL  .F               543:   DEPTH LOGGER
 BLI .F               541:   BOTTOM LOG INTERVAL
 TLI .F                30:   TOP LOG INTERVAL
 BS  .IN            7.875:   BIT SIZE
 BSD .F               530:   BIT SIZE AT DEPTH
 DFT .            KCL MUD:   DRILLING FLUID TYPE
 DFD .                9.1:   DRILLING FLUID DENSITY
 DFV .                 43:   DRILLING FLUID VISCOSITY
 MSS .                PIT:   MUD SAMPLE SOURCE
 RMS .OHMM            .89:   RESISTIVITY MUD SAMPLE
 MST .F                75:   MUD SAMPLE TEMPERATURE
 RMF .OHMM            .71:   RESISTIVITY MUD FILTRATE SAMPLE
 MFST.F                75:   MUD FILTRATE SAMPLE TEMPERATURE
 RMC .OHMM           1.08:   RESISTIVITY MUD CAKE
 MCST.F                75:   MUD CAKE SAMPLE TEMPERATURE
 MFSS.           MEASURED:   MUD FILTRATE SAMPLE SOURCE
 MCSS.           MEASURED:   MUD CAKE SAMPLE SOURCE
 BHT .F               100:   BOTTOM HOLE TEMPERATURE
 TCS .HRS               2:   TIME CURCULATED STOPPED
 MRT .F               100:   MAXIMUM RECORDED TEMPERATURE
 LUN .               9685:   LOGGING UNIT NUMBER
 LUL .             CASPER:   LOGGING UNIT LOCATION
 ENGI.            TOTHILL:   RECORDING ENGINEER
 WITN.              AMEND:   WITNESSED BY
 CLNT.            A2DTECH:   CLIENT CODE
 ORIG.           5" PRINT:   ORIGIN OF DATA
 UWI .       490251081100:   UNIQUE WELL ID
 DICO. A2D Technologies, Inc.:   DIGITIZING COMPANY
~OTHER INFORMATION
~A   DEPT     SGRD        ILD        ILM        SPR        CALD        GRD        CORR       RHOB     DPHI   
# ...
  422.5000    15.8812    12.5508    13.3415   -28.7763     7.8123    81.3080     0.0138     2.3504     0.1941
  423.0000    15.8920    12.4005    13.2205   -28.8904     7.8107    81.5896     0.0171     2.3598     0.1892
  423.5000    15.7494    12.2726    13.0938   -28.8799     7.8091    81.5886     0.0200     2.3653     0.1866
  424.0000    15.5927    12.1566    12.9671   -28.7700     7.8075    81.7298     0.0230     2.3708     0.1833
  424.5000    15.5927    12.0451    12.9827   -28.6544     7.8059    82.0909     0.0256     2.3764     0.1788
  425.0000    15.5927    12.1160    13.0270   -28.3818     7.8043    82.4487     0.0247     2.3777     0.1779
  425.5000    15.5926    12.1566    13.0714   -28.1102     7.8027    82.8074     0.0218     2.3658     0.1847
  426.0000    15.5917    11.9981    13.0872   -27.8394     7.8011    83.1678     0.0242     2.3715     0.1815
  426.5000    15.6250    11.8465    13.0226   -27.5686     7.7996    83.6484     0.0194     2.3740     0.1791
  427.0000    15.6625    11.6090    12.9664   -27.2977     7.7940    84.3305     0.0167     2.3572     0.1900
  427.5000    15.6997    11.6090    12.9672   -27.0254     7.7874    85.0588     0.0143     2.3510     0.1941
  428.0000    15.7386    11.6192    12.9676   -26.7586     7.7807    86.0144     0.0100     2.3447     0.1988
  428.5000    15.7406    11.6713    13.0116   -26.7100     7.7741    86.9583     0.0135     2.3471     0.1957
  429.0000    15.5779    11.7235    13.0557   -26.6714     7.7675    87.4994     0.0177     2.3594     0.1905
  429.5000    15.5995    11.7760    13.0873   -26.6316     7.7613    88.0235     0.0181     2.3614     0.1876
  430.0000    15.5912    11.8288    13.0176   -26.5918     7.7216    88.5540     0.0154     2.3587     0.1902
  430.5000    15.5927    11.8817    12.8853   -26.5543     7.7291    88.7388     0.0126     2.3505     0.1935
  431.0000    15.7371    11.9345    12.7302   -26.4561     7.7396    88.5598     0.0098     2.3472     0.1962
  431.5000    15.4965    11.9345    12.7679   -26.1583     7.7610    87.9346     0.0086     2.3470     0.1964
  432.0000    15.1561    11.8250    12.8289   -25.8626     7.7853    86.8546     0.0079     2.3489     0.1959
  432.5000    15.1758    11.5618    12.8902   -25.5877     7.8184    85.1325     0.0087     2.3533     0.1924
  433.0000    15.3078    11.3218    12.9518   -25.5772     7.8601    85.3572     0.0111     2.3629     0.1913
  433.5000    15.4496    11.0868    12.9671   -25.6303     7.8569    85.6821     0.0180     2.3802     0.1805
  434.0000    15.3167    10.8567    12.6372   -25.7523     7.8545    86.0111     0.0251     2.3975     0.1696
  434.5000    15.1492    10.6846    12.1865   -25.7278     7.8526    86.0756     0.0327     2.4138     0.1585
  435.0000    14.8903    10.6846    11.9272   -25.6959     7.8506    86.0776     0.0352     2.4216     0.1532
  435.5000    14.7536    10.7836    12.1277   -25.6653     7.8486    86.2133     0.0356     2.4213     0.1520
  436.0000    15.0345    10.7857    12.3829   -25.6348     7.8466    87.1140     0.0338     2.4190     0.1532
  436.5000    14.7433    10.6868    12.3829   -25.6049     7.8446    87.8970     0.0315     2.4156     0.1552
  437.0000    14.4772    10.5857    12.1861   -25.5832     7.8426    87.9863     0.0306     2.4151     0.1565
  437.5000    14.5637    10.4855    12.1566   -25.5833     7.8407    88.0979     0.0305     2.4099     0.1584
  438.0000    14.6644    10.4894    12.5412   -25.5848     7.8389    88.1734     0.0256     2.4004     0.1632
  438.5000    14.7650    10.4058    12.7317   -25.6656     7.8384    88.4016     0.0181     2.3818     0.1735
  439.0000    14.8903    10.4472    12.3559   -25.8756     7.8380    88.8164     0.0109     2.3675     0.1822
  439.5000    14.7623    10.4894    12.0451   -26.0841     7.8376    89.2354     0.0123     2.3725     0.1823
  440.0000    14.5957    10.4894    12.1490   -26.2931     7.8371    89.6473     0.0160     2.3858     0.1767
  440.5000    14.4311    10.4543    12.2813   -26.5105     7.8367    89.2712     0.0195     2.3979     0.1698
  441.0000    14.2682    10.3990    12.4189   -26.5522     7.8362    89.4483     0.0231     2.4068     0.1629
  441.5000    14.0889    10.3922    12.5966   -26.3177     7.8358    90.1315     0.0209     2.4097     0.1595
  442.0000    14.1267    10.3886    12.2403   -26.0653     7.8353    90.8211     0.0176     2.4029     0.1600
  442.5000    14.1786    10.3977    12.1489   -25.8138     7.8349    91.5119     0.0168     2.3967     0.1679
  443.0000    14.2595    10.2942    12.0601   -25.5649     7.8344    92.1925     0.0196     2.4125     0.1596
  443.5000    14.4461    10.2361    12.0451   -25.4302     7.8340    92.6404     0.0218     2.4095     0.1587
  444.0000    14.6187    10.1858    12.1355   -25.5895     7.8335    92.5269     0.0221     2.4074     0.1612
  444.5000    14.2854    10.1357    12.2692   -25.7436     7.8331    92.4252     0.0224     2.4097     0.1596
  445.0000    13.9787    10.0858    12.1003   -25.8984     7.8326    92.3215     0.0228     2.4063     0.1611
  445.5000    13.7833    10.0362    11.9399   -26.0519     7.8322    92.2193     0.0232     2.4072     0.1613
  446.0000    13.6575     9.9869    11.7816   -26.1710     7.8317    92.1149     0.0234     2.4094     0.1600
  446.5000    13.5329     9.9377    11.6254   -26.0858     7.8313    92.3418     0.0311     2.4223     0.1540
  447.0000    13.4094     9.8889    11.4713   -25.9669     7.8308    92.8747     0.0391     2.4366     0.1439
  447.5000    13.2871     9.8402    11.3192   -25.8462     7.8304    93.4304     0.0454     2.4466     0.1377
  448.0000    13.1347     9.7918    11.1691   -25.7260     7.8299    93.5107     0.0418     2.4452     0.1380
  448.5000    12.9277     9.7436    11.0210   -25.6027     7.8295    93.4139     0.0365     2.4351     0.1432
  449.0000    12.7239     9.4470    10.8749   -25.6980     7.8290    93.3117     0.0312     2.4260     0.1484
  449.5000    12.5233     9.1589    10.7308   -25.8783     7.8286    93.2672     0.0322     2.4319     0.1467
  450.0000    12.3065     8.8796    10.5865   -25.9702     7.8281    93.5357     0.0323     2.4263     0.1468
  450.5000    12.0467     8.6088    10.4894   -25.9452     7.8277    94.4964     0.0277     2.4182     0.1548
  451.0000    11.7924     8.3462    10.3931   -25.9199     7.8273    95.4448     0.0296     2.4241     0.1524
  451.5000    11.5435     8.0917    10.2399   -25.8944     7.8268    96.3937     0.0314     2.4250     0.1504
  452.0000    11.1571     7.7641     9.9833   -25.8692     7.8264    97.6002     0.0255     2.4094     0.1555
  452.5000    10.7561     7.3214     9.7268   -25.8437     7.8259    98.8400     0.0217     2.4040     0.1640
  453.0000    10.3696     7.1876     9.4820   -25.8181     7.8255   100.2270     0.0256     2.4083     0.1612
  453.5000     9.9970     6.6762     8.9704   -25.7948     7.8250   101.6463     0.0293     2.4092     0.1595
  454.0000     9.2409     6.1336     8.4543   -25.8703     7.8246   103.1081     0.0327     2.4080     0.1597
  454.5000     8.3236     5.6351     7.7468   -26.1030     7.8241   104.2965     0.0292     2.3924     0.1680
  455.0000     7.4974     5.2989     6.9003   -26.3339     7.8237   105.8824     0.0254     2.3816     0.1763
  455.5000     6.8638     5.1319     6.1335   -26.5653     7.8232   107.5546     0.0237     2.3743     0.1798
  456.0000     6.8008     4.9702     5.8678   -26.7966     7.8228   108.8801     0.0236     2.3760     0.1792
  456.5000     7.9615     4.8352     6.2964   -27.0267     7.8223   108.6321     0.0257     2.3871     0.1739
  457.0000     9.6838     4.8352     7.1098   -27.2609     7.8219   108.0040     0.0284     2.4035     0.1663
  457.5000    11.9345     4.8800     8.0283   -27.4316     7.8214   106.2842     0.0245     2.4096     0.1602
  458.0000    12.2692     4.9708     8.9765   -27.6002     7.8210   102.7386     0.0198     2.4081     0.1589
  458.5000    11.8250     5.3353     9.1170   -27.6780     7.8205    98.1478     0.0112     2.3991     0.1650
