~VERSION INFORMATION
 VERS.                2.0:   CWLS LOG ASCII STANDARD - VERSION 2.0
 WRAP.                 NO:   ONE LINE PER DEPTH STEP
~WELL INFORMATION
#MNEM.UNIT      DATA TYPE    INFORMATION
#----------   ------------   ------------------------------
 STRT.F           26.0000:   START DEPTH
 STOP.F         1071.0000:   STOP DEPTH
 STEP.F            0.5000:   STEP LENGTH
 NULL.          -999.2500:   NO VALUE
 COMP. FENIX & SCISSON INC:   COMPANY
 WELL.       NRP 3 #61-14:   WELL
 FLD .        TEAPOT DOME:   FIELD
 LOC .      S14 T38N R78W:   LOCATION
 CNTY.            NATRONA:   COUNTY
 STAT.            WYOMING:   STATE
 CTRY. UNITED STATES OF AMERICA:   COUNTRY
 SRVC.            Unknown:   SERVICE COMPANY
 DATE.        09-JAN-1979:   LOGDATE
 API .       490251076300:   API NUMBER
~CURVE INFORMATION
#MNEM.UNIT       API CODE    CURVE DESCRIPTION
#----------   ------------   ------------------------------
 DEPT.F                  :   
 SPR .MV     05 010 01 00:   SPONTANEOUS POTENTIAL FROM RES.
 SN  .OHMM   05 040 16 00:   SHORT NORMAL 16"
 IL  .OHMM   05 120 00 00:   INDUCTION LOG
 CALD.IN     45 280 60 00:   CALIPER
 GRD .GAPI   45 310 01 00:   GAMMA RAY FROM DENSITY LOG
 RHOB.G/C3   45 350 01 00:   BULK DENSITY
 DPHI.DEC    45 890 12 00:   DENSITY POROSITY SANDSTONE
 CORR.G/C3   45 356 01 00:   DENSITY CORRECTION
~PARAMETER INFORMATION
#MNEM.UNIT          VALUE    DESCRIPTION
#----------   ------------   ------------------------------
 PD  .                 GL:   PERMANENT DATUM
 EPD .F              5240:   ELEVATION PERMANENT DATUM
 LMF .                 KB:   LOG MEASURED FROM
 DAPD.F                 4:   FEET ABOVE PERMANENT DATUM
 DMF .                 KB:   DRILLING MEASURED FROM
 EKB .F              5244:   KELLING BUSHING
 EGL .F              5240:   GROUND LEVEL
 DATE.             1-9-79:   RUN DATE
 RUN .                  1:   RUN NUMBER
 DD  .F              1061:   DEPTH DRILLER
 DL  .F              1071:   DEPTH LOGGER
 BLI .F              1064:   BOTTOM LOG INTERVAL
 TLI .F                50:   TOP LOG INTERVAL
 CS  .IN            8.625:   CASING SIZE
 CBD .F                40:   CASING BOTTOM DRILLER
 CBL .F                38:   CASING BOTTOM LOGGER
 BS  .IN            7.875:   BIT SIZE
 BSD .F              1061:   BIT SIZE AT DEPTH
 DFT .                KCL:   DRILLING FLUID TYPE
 DFD .                8.8:   DRILLING FLUID DENSITY
 DFV .                 36:   DRILLING FLUID VISCOSITY
 DFPH.                9.2:   DRILLING FLUID PH
 MSS .           FLOWLINE:   MUD SAMPLE SOURCE
 RMS .OHMM             .3:   RESISTIVITY MUD SAMPLE
 MST .F                58:   MUD SAMPLE TEMPERATURE
 RMF .OHMM             .3:   RESISTIVITY MUD FILTRATE SAMPLE
 MFST.F                58:   MUD FILTRATE SAMPLE TEMPERATURE
 RMC .OHMM            .34:   RESISTIVITY MUD CAKE
 MCST.F                62:   MUD CAKE SAMPLE TEMPERATURE
 MFSS.           MEASURED:   MUD FILTRATE SAMPLE SOURCE
 MCSS.           MEASURED:   MUD CAKE SAMPLE SOURCE
 RMB .OHMM            .29:   RESISTIVITY MUD AT BHT
 BHT .F                61:   BOTTOM HOLE TEMPERATURE
 TCS .HRS               4:   TIME CURCULATED STOPPED
 MRT .F                61:   MAXIMUM RECORDED TEMPERATURE
 LUN .               3006:   LOGGING UNIT NUMBER
 LUL .             CASPER:   LOGGING UNIT LOCATION
 ENGI.            ROLLINS:   RECORDING ENGINEER
 WITN.           DINSMORE:   WITNESSED BY
 CLNT.            A2DTECH:   CLIENT CODE
 ORIG.           5" PRINT:   ORIGIN OF DATA
 UWI .       490251076300:   UNIQUE WELL ID
 DICO. A2D Technologies, Inc.:   DIGITIZING COMPANY
~OTHER INFORMATION
~A   DEPT      SPR         SN         IL       CALD         GRD      RHOB       DPHI       CORR   
# ...
  512.0000   -60.8770     9.2360    14.5600     7.8560    90.2740     2.3150     0.2260     0.1210
  512.5000   -61.8570     9.0670    14.0690     7.8530    91.3940     2.3110     0.2280     0.1230
  513.0000   -62.8410     8.9080    13.5790     7.8510    93.2280     2.3100     0.2260     0.1230
  513.5000   -63.8130     8.8240    13.1420     7.8490    93.3570     2.3120     0.2240     0.1230
  514.0000   -65.7060     8.7390    13.1870     7.8670    93.4330     2.3150     0.2190     0.1230
  514.5000   -68.3320     8.6540    13.2370     7.9210    93.6570     2.3220     0.2130     0.1230
  515.0000   -69.8890     8.5690    13.2870     7.9500    94.2720     2.3300     0.2070     0.1220
  515.5000   -70.4450     8.4850    13.3370     7.9570    94.8640     2.3400     0.2030     0.1250
  516.0000   -70.7260     8.4000    13.3870     7.9640    95.4750     2.3500     0.1990     0.1270
  516.5000   -70.9110     8.3150    13.2640     7.9720    95.6960     2.3510     0.1950     0.1290
  517.0000   -71.0230     8.2310    12.7830     7.9790    95.7750     2.3530     0.1960     0.1320
  517.5000   -71.0420     8.1460    12.4340     7.9860    95.8800     2.3520     0.2000     0.1330
  518.0000   -71.0610     8.0610    11.7220     7.9930    96.8050     2.3520     0.2030     0.1290
  518.5000   -71.0800     7.9840    10.9550     8.0000    97.6610     2.3510     0.1980     0.1250
  519.0000   -71.0990     7.7710    10.1890     8.0070    97.8650     2.3540     0.1930     0.1200
  519.5000   -71.1180     7.5310     9.4220     8.0140    98.1800     2.3650     0.1820     0.1200
  520.0000   -71.1370     7.2900     8.6550     8.0210    99.7190     2.3860     0.1690     0.1210
  520.5000   -71.1550     7.0490     7.8880     8.0280   104.4140     2.4060     0.1560     0.1220
  521.0000   -71.1740     6.8080     7.2130     8.0360   110.5120     2.4270     0.1480     0.1210
  521.5000   -71.1930     6.5670     7.0160     8.0430   116.4540     2.4420     0.1470     0.1180
  522.0000   -71.2120     6.4570     6.8250     8.0620   117.7320     2.4430     0.1450     0.1160
  522.5000   -71.2300     6.4570     6.7000     8.0910   116.4260     2.4450     0.1380     0.1110
  523.0000   -71.2490     6.3960     6.6940     8.1060   113.1880     2.4510     0.1300     0.1070
  523.5000   -71.2680     6.3940     6.6860     8.0600   109.9310     2.4560     0.1370     0.1070
  524.0000   -71.2870     6.3910     6.6780     7.9960   108.0160     2.4520     0.1450     0.1070
  524.5000   -71.3060     6.3890     6.6700     7.9880   107.9870     2.4410     0.1490     0.1080
  525.0000   -71.3240     6.3860     6.6610     7.9900   108.2540     2.4310     0.1510     0.1080
  525.5000   -71.3430     6.3830     6.6530     7.9920   109.7880     2.4260     0.1550     0.1080
  526.0000   -71.3620     6.3810     6.6450     7.9940   112.1460     2.4220     0.1630     0.1090
  526.5000   -71.3800     6.3780     6.6370     7.9960   114.5120     2.4170     0.1600     0.1090
  527.0000   -71.3980     6.3760     6.6290     7.9980   115.7650     2.4180     0.1550     0.1100
  527.5000   -71.3780     6.3730     6.6200     8.0000   115.9660     2.4240     0.1500     0.1100
  528.0000   -71.1910     6.3710     6.6120     8.0030   115.4330     2.4310     0.1500     0.1100
  528.5000   -71.0040     6.3680     6.6040     8.0050   112.4410     2.4320     0.1530     0.1110
  529.0000   -70.8170     6.3660     6.5960     8.0040   109.4400     2.4330     0.1500     0.1110
  529.5000   -70.6270     6.3630     6.5880     7.9970   108.9560     2.4340     0.1470     0.1120
  530.0000   -70.6140     6.3610     6.5790     7.9910   108.5490     2.4350     0.1450     0.1120
  530.5000   -70.6100     6.3580     6.5710     7.9850   107.6460     2.4360     0.1450     0.1120
  531.0000   -70.6070     6.3550     6.5630     7.9790   106.8160     2.4340     0.1450     0.1130
  531.5000   -70.6030     6.3530     6.5550     7.9730   107.5420     2.4330     0.1450     0.1130
  532.0000   -70.6000     6.3500     6.5470     7.9670   109.0780     2.4320     0.1480     0.1140
  532.5000   -70.5960     6.3480     6.5380     7.9610   109.9100     2.4310     0.1520     0.1140
  533.0000   -70.5920     6.3450     6.5300     7.9550   110.5560     2.4300     0.1550     0.1140
  533.5000   -70.5890     6.3430     6.5180     7.9490   112.0750     2.4290     0.1550     0.1130
  534.0000   -70.5850     6.3390     6.5400     7.9420   113.7700     2.4280     0.1520     0.1120
  534.5000   -70.5810     6.3460     6.5950     7.9340   115.2790     2.4290     0.1460     0.1100
  535.0000   -70.5780     6.3840     6.6500     7.9270   115.2990     2.4310     0.1460     0.1080
  535.5000   -70.5740     6.4210     6.7050     7.9190   115.2970     2.4320     0.1470     0.1070
  536.0000   -70.5700     6.4590     6.7600     7.9110   115.2970     2.4330     0.1470     0.1050
  536.5000   -70.5670     6.4970     6.8150     7.9090   115.2950     2.4320     0.1480     0.1060
  537.0000   -70.5630     6.5340     6.8700     7.9160   115.3190     2.4310     0.1500     0.1090
  537.5000   -70.5590     6.5720     6.9250     7.9220   116.1310     2.4290     0.1520     0.1110
  538.0000   -70.5560     6.6100     6.9800     7.9280   116.8960     2.4260     0.1540     0.1140
  538.5000   -70.5520     6.6470     7.0350     7.9330   116.1860     2.4240     0.1570     0.1160
  539.0000   -70.5480     6.6850     7.0900     7.9380   115.1890     2.4230     0.1590     0.1180
  539.5000   -70.5450     6.7230     7.1470     7.9690   114.9130     2.4230     0.1590     0.1160
  540.0000   -70.5410     6.7600     7.1650     8.0910   114.9000     2.4220     0.1580     0.1140
  540.5000   -70.5370     6.7980     7.1890     7.9460   114.8980     2.4240     0.1530     0.1110
  541.0000   -70.5340     6.8350     7.2130     7.9270   114.9080     2.4320     0.1470     0.1090
  541.5000   -70.5300     6.8730     7.2370     7.9270   114.6680     2.4410     0.1420     0.1080
  542.0000   -70.5260     6.9110     7.2610     7.9270   111.9870     2.4500     0.1380     0.1080
  542.5000   -70.5230     6.9480     7.2850     7.9270   110.5550     2.4470     0.1440     0.1080
  543.0000   -70.5190     6.9860     7.3090     7.9270   111.0150     2.4410     0.1450     0.1080
  543.5000   -70.5160     7.0160     7.3330     7.9270   111.5450     2.4370     0.1470     0.1080
  544.0000   -70.5120     7.0160     7.3450     7.9270   111.2230     2.4350     0.1490     0.1080
  544.5000   -70.5080     6.9890     7.3130     7.9270   110.4420     2.4320     0.1530     0.1080
  545.0000   -70.5050     6.9390     7.2880     7.9270   109.9810     2.4300     0.1560     0.1080
  545.5000   -70.5010     6.8890     7.2630     7.9270   110.1190     2.4280     0.1540     0.1080
  546.0000   -70.4970     6.8390     7.2380     7.9270   110.2480     2.4290     0.1520     0.1080
  546.5000   -70.4940     6.7890     7.2120     7.9270   110.3750     2.4330     0.1470     0.1080
  547.0000   -70.4900     6.7390     7.1870     7.9270   110.5020     2.4370     0.1440     0.1080
  547.5000   -70.4860     6.6890     7.1620     7.9270   110.6240     2.4410     0.1420     0.1080
  548.0000   -70.4830     6.6390     7.1370     7.9270   110.6790     2.4420     0.1410     0.1070
  548.5000   -70.4790     6.5780     7.1120     7.9270   109.9820     2.4420     0.1440     0.1070
  549.0000   -70.4750     6.5840     7.0860     7.9270   108.5280     2.4390     0.1490     0.1070
  549.5000   -70.4720     6.5940     7.0610     7.9270   107.0740     2.4350     0.1490     0.1070
  550.0000   -70.4680     6.6030     7.0360     7.9270   106.3620     2.4340     0.1490     0.1070
  550.5000   -70.4640     6.6120     7.0110     7.9270   106.8400     2.4340     0.1500     0.1070
  551.0000   -70.4610     6.6210     6.9860     7.9270   108.9470     2.4330     0.1510     0.1070
  551.5000   -70.4570     6.6300     6.9520     7.9270   110.9810     2.4330     0.1520     0.1070
  552.0000   -70.4530     6.6390     6.9570     7.9270   113.0710     2.4330     0.1520     0.1070
