~VERSION INFORMATION
 VERS.                2.0:   CWLS LOG ASCII STANDARD - VERSION 2.0
 WRAP.                 NO:   ONE LINE PER DEPTH STEP
~WELL INFORMATION
#MNEM.UNIT      DATA TYPE    INFORMATION
#----------   ------------   ------------------------------
 STRT.F          250.0000:   START DEPTH
 STOP.F         2527.0000:   STOP DEPTH
 STEP.F            0.5000:   STEP LENGTH
 NULL.          -999.2500:   NO VALUE
 COMP. FENIX & SCISSON INC:   COMPANY
 WELL.       NPR 3 #18-28:   WELL
 FLD .            WILDCAT:   FIELD
 LOC .      S28 T39N R78W:   LOCATION
 CNTY.            NATRONA:   COUNTY
 STAT.            WYOMING:   STATE
 CTRY. UNITED STATES OF AMERICA:   COUNTRY
 SRVC.            Unknown:   SERVICE COMPANY
 DATE.        01-MAY-1979:   LOGDATE
 API .       490251078000:   API NUMBER
~CURVE INFORMATION
#MNEM.UNIT       API CODE    CURVE DESCRIPTION
#----------   ------------   ------------------------------
 DEPT.F                  :   
 CORR.G/C3   45 356 01 00:   DENSITY CORRECTION
 DPHI.DEC    45 890 12 00:   DENSITY POROSITY SANDSTONE
 RHOB.G/C3   45 350 01 00:   BULK DENSITY
 CALD.IN     45 280 60 00:   CALIPER FROM DENSITY LOG
 GRD .GAPI   45 310 01 00:   GAMMA RAY FROM DENSITY LOG
~PARAMETER INFORMATION
#MNEM.UNIT          VALUE    DESCRIPTION
#----------   ------------   ------------------------------
 PD  .                 GL:   PERMANENT DATUM
 EPD .F              5079:   ELEVATION PERMANENT DATUM
 LMF .                 KB:   LOG MEASURED FROM
 DAPD.F                10:   FEET ABOVE PERMANENT DATUM
 DMF .                 KB:   DRILLING MEASURED FROM
 EKB .F              5089:   KELLING BUSHING
 EGL .F              5079:   GROUND LEVEL
 DATE.             5-1-79:   RUN DATE
 RUN .                  1:   RUN NUMBER
 DL  .F              2527:   DEPTH LOGGER
 BLI .F              2527:   BOTTOM LOG INTERVAL
 TLI .F               250:   TOP LOG INTERVAL
 CS  .IN            9.625:   CASING SIZE
 CBD .F               500:   CASING BOTTOM DRILLER
 CBL .F               495:   CASING BOTTOM LOGGER
 BS  .IN             8.75:   BIT SIZE
 DFT .                AIR:   DRILLING FLUID TYPE
 TCS .HRS              12:   TIME CURCULATED STOPPED
 LUL .             CASPER:   LOGGING UNIT LOCATION
 ENGI.         B. ROLLINS:   RECORDING ENGINEER
 WITN.           DINSMORE:   WITNESSED BY
 CLNT.            A2DTECH:   CLIENT CODE
 ORIG.           5" PRINT:   ORIGIN OF DATA
 UWI .       490251078000:   UNIQUE WELL ID
 DICO. A2D Technologies, Inc.:   DIGITIZING COMPANY
~OTHER INFORMATION
~A   DEPT     CORR       DPHI       RHOB       CALD         GRD  
# ...
 1043.0000     0.0391     0.0407     2.4955     9.3433   110.6330
 1043.5000     0.0431     0.0365     2.4980     9.3385   110.1021
 1044.0000     0.0467     0.0288     2.5105     9.3336   111.5223
 1044.5000     0.0380     0.0346     2.5099     9.3288   114.2983
 1045.0000     0.0282     0.0371     2.4999     9.3240   115.8746
 1045.5000     0.0308     0.0326     2.4965     9.3191   114.3347
 1046.0000     0.0428     0.0277     2.5029     9.3143   113.5359
 1046.5000     0.0545     0.0227     2.5272     9.3095   116.2123
 1047.0000     0.0509     0.0216     2.5189     9.3046   119.5589
 1047.5000     0.0415     0.0300     2.5048     9.2998   119.9440
 1048.0000     0.0333     0.0359     2.5011     9.2950   117.0452
 1048.5000     0.0357     0.0355     2.5077     9.2901   113.8333
 1049.0000     0.0446     0.0201     2.5145     9.2853   110.6252
 1049.5000     0.0533     0.0248     2.5212     9.2805   107.4007
 1050.0000     0.0566     0.0173     2.5279     9.2756   105.6122
 1050.5000     0.0533     0.0158     2.5311     9.2708   108.6744
 1051.0000     0.0487     0.0209     2.5250     9.2659   109.8490
 1051.5000     0.0440     0.0251     2.5139     9.2620   108.7578
 1052.0000     0.0393     0.0292     2.5028     9.2635   109.9101
 1052.5000     0.0369     0.0358     2.4917     9.2705   113.0482
 1053.0000     0.0349     0.0403     2.4903     9.2772   110.6911
 1053.5000     0.0353     0.0375     2.4914     9.2839   108.3998
 1054.0000     0.0370     0.0307     2.4987     9.2906   109.1992
 1054.5000     0.0386     0.0236     2.5061     9.2974   111.5994
 1055.0000     0.0388     0.0224     2.5134     9.3041   112.2170
 1055.5000     0.0388     0.0235     2.5206     9.3108   108.1921
 1056.0000     0.0388     0.0256     2.5222     9.3175   108.8144
 1056.5000     0.0388     0.0278     2.5153     9.3242   114.0335
 1057.0000     0.0388     0.0299     2.5083     9.3309   119.2109
 1057.5000     0.0403     0.0312     2.5043     9.3377   120.4717
 1058.0000     0.0484     0.0289     2.5078     9.3444   117.4854
 1058.5000     0.0602     0.0253     2.5231     9.3511   113.3510
 1059.0000     0.0707     0.0216     2.5176     9.3578   110.6166
 1059.5000     0.0706     0.0255     2.5079     9.3645   110.6397
 1060.0000     0.0787     0.0292     2.5079     9.3713   110.0776
 1060.5000     0.0994     0.0126     2.5349     9.3780   108.7966
 1061.0000     0.1178    -0.0018     2.5652     9.3847   107.7115
 1061.5000     0.1157     0.0001     2.5536     9.3914   109.8578
 1062.0000     0.0809     0.0155     2.5310     9.3981   112.1717
 1062.5000     0.0505     0.0310     2.5085     9.4049   114.3507
 1063.0000     0.0428     0.0403     2.4924     9.4116   115.0385
 1063.5000     0.0350     0.0387     2.4927     9.4177   115.6964
 1064.0000     0.0312     0.0382     2.4948     9.4167   116.9050
 1064.5000     0.0301     0.0421     2.4931     9.4159   118.1839
 1065.0000     0.0341     0.0420     2.4904     9.4151   119.4647
 1065.5000     0.0379     0.0388     2.4911     9.4143   120.7442
 1066.0000     0.0398     0.0377     2.4912     9.4134   122.2243
 1066.5000     0.0344     0.0432     2.4855     9.4126   117.3255
 1067.0000     0.0291     0.0470     2.4797     9.4118   110.6057
 1067.5000     0.0289     0.0462     2.4793     9.4110   109.8115
 1068.0000     0.0307     0.0427     2.4851     9.4102   111.5356
 1068.5000     0.0355     0.0391     2.4909     9.4093   113.5762
 1069.0000     0.0402     0.0359     2.4966     9.4085   114.0839
 1069.5000     0.0394     0.0370     2.4926     9.4077   112.6592
 1070.0000     0.0324     0.0448     2.4827     9.4069   112.4326
 1070.5000     0.0373     0.0482     2.4785     9.4061   113.3389
 1071.0000     0.0555     0.0367     2.4921     9.4052   114.2503
 1071.5000     0.0627     0.0331     2.5056     9.4044   114.6002
 1072.0000     0.0563     0.0331     2.5044     9.4036   112.5590
 1072.5000     0.0470     0.0352     2.5002     9.4028   110.4370
 1073.0000     0.0382     0.0376     2.4962     9.4020   112.2668
 1073.5000     0.0349     0.0399     2.4922     9.4011   116.0814
 1074.0000     0.0330     0.0425     2.4873     9.4003   115.8848
 1074.5000     0.0330     0.0451     2.4821     9.3995   113.2665
 1075.0000     0.0275     0.0466     2.4767     9.3988   111.0876
 1075.5000     0.0224     0.0457     2.4772     9.3977   108.9177
 1076.0000     0.0210     0.0421     2.4829     9.3894   107.1269
 1076.5000     0.0223     0.0394     2.4887     9.3810   108.0870
 1077.0000     0.0234     0.0391     2.4945     9.3726   109.4606
 1077.5000     0.0244     0.0394     2.4966     9.3642   110.0550
 1078.0000     0.0223     0.0419     2.4881     9.3558   109.3255
 1078.5000     0.0135     0.0503     2.4785     9.3474   108.1388
 1079.0000     0.0193     0.0460     2.4765     9.3390   107.5137
 1079.5000     0.0368     0.0365     2.4880     9.3306   109.3611
 1080.0000     0.0541     0.0245     2.5098     9.3222   112.8757
 1080.5000     0.0714     0.0125     2.5368     9.3137   116.2256
 1081.0000     0.0866     0.0098     2.5484     9.3047   114.5227
 1081.5000     0.0739     0.0140     2.5383     9.2808   111.6784
 1082.0000     0.0604     0.0188     2.5256     9.2851   108.8333
 1082.5000     0.0527     0.0237     2.5179     9.2884   108.3483
 1083.0000     0.0546     0.0251     2.5166     9.2913   112.3427
 1083.5000     0.0565     0.0256     2.5136     9.2942   114.4808
 1084.0000     0.0545     0.0273     2.5083     9.2972   113.1388
 1084.5000     0.0478     0.0284     2.5106     9.3003   111.0412
 1085.0000     0.0411     0.0203     2.5249     9.3010   108.9018
 1085.5000     0.0386     0.0117     2.5391     9.3010   106.7819
 1086.0000     0.0441     0.0031     2.5533     9.3010   105.5434
 1086.5000     0.0697    -0.0049     2.5673     9.3010   112.2952
 1087.0000     0.0805    -0.0053     2.5737     9.3007   112.0369
 1087.5000     0.0664     0.0232     2.5261     9.2994   107.8036
 1088.0000     0.0428     0.0407     2.4932     9.3333   105.1527
 1088.5000     0.0326     0.0372     2.4932     9.3579   105.3373
 1089.0000     0.0316     0.0284     2.5094     9.3820   109.8103
 1089.5000     0.0325     0.0339     2.5075     9.4060   111.2857
 1090.0000     0.0512     0.0335     2.5061     9.4300   112.2382
 1090.5000     0.0730     0.0218     2.5169     9.4540   113.1853
 1091.0000     0.0949     0.0119     2.5332     9.4780   112.3803
 1091.5000     0.1167     0.0019     2.5529     9.5019   109.8285
 1092.0000     0.1363    -0.0082     2.5726     9.5152   107.2762
 1092.5000     0.1318    -0.0109     2.5758     9.4861   104.7130
 1093.0000     0.1192    -0.0028     2.5687     9.4459   104.3761
 1093.5000     0.1051     0.0014     2.5614     9.4049   106.1257
 1094.0000     0.0909     0.0045     2.5516     9.3978   109.5610
 1094.5000     0.0767     0.0168     2.5320     9.3943   113.0234
 1095.0000     0.0627     0.0303     2.5126     9.3908   116.5573
 1095.5000     0.0623     0.0335     2.5044     9.3873   117.8801
 1096.0000     0.0717     0.0308     2.5021     9.3838   118.2133
 1096.5000     0.0809     0.0367     2.4964     9.3802   110.4202
 1097.0000     0.0524     0.0540     2.4771     9.3767   105.1753
 1097.5000     0.0259     0.0601     2.4578     9.3732   104.7645
 1098.0000     0.0381     0.0542     2.4481     9.3696   107.9547
 1098.5000     0.0537     0.0436     2.4866     9.3661   109.1638
 1099.0000     0.0570     0.0467     2.4746     9.3625   105.6023
 1099.5000     0.0546     0.0485     2.4743     9.3591   104.1558
 1100.0000     0.0615     0.0398     2.5020     9.3698   107.0918
 1100.5000     0.0690     0.0355     2.5000     9.3852   111.4641
 1101.0000     0.0704     0.0347     2.4967     9.4008   108.9303
 1101.5000     0.0784     0.0335     2.4954     9.4163   105.5506
 1102.0000     0.0879     0.0286     2.5105     9.4318   103.2210
 1102.5000     0.0977     0.0227     2.5219     9.4474   104.2545
 1103.0000     0.0983     0.0168     2.5334     9.4629   106.3172
 1103.5000     0.0983     0.0109     2.5457     9.4784   104.1990
