~VERSION INFORMATION
 VERS.                2.0:   CWLS LOG ASCII STANDARD - VERSION 2.0
 WRAP.                 NO:   ONE LINE PER DEPTH STEP
~WELL INFORMATION
#MNEM.UNIT      DATA TYPE    INFORMATION
#----------   ------------   ------------------------------
 STRT.F            8.0000:   START DEPTH
 STOP.F          473.0000:   STOP DEPTH
 STEP.F            0.5000:   STEP LENGTH
 NULL.          -999.2500:   NO VALUE
 COMP.   LAWRENCE-ALLISON:   COMPANY
 WELL. NPR 3 #58-55SX3OB1:   WELL
 FLD .             TEAPOT:   FIELD
 LOC .       S3 T38N R78W:   LOCATION
 CNTY.            NATRONA:   COUNTY
 STAT.            WYOMING:   STATE
 CTRY. UNITED STATES OF AMERICA:   COUNTRY
 SRVC.      Dresser Atlas:   SERVICE COMPANY
 DATE.        17-DEC-1984:   LOGDATE
 API .       490251100600:   API NUMBER
~CURVE INFORMATION
#MNEM.UNIT       API CODE    CURVE DESCRIPTION
#----------   ------------   ------------------------------
 DEPT.F                  :   
 AC  .US/F   60 520 00 00:   ACCOUSTIC
 PORD.DEC    45 890 12 00:   POROSITY DENSITY SANDSTONE
 CNC .DEC    42 890 03 00:   NEUTRON POROSITY SANDSTONE
 CALD.IN     45 280 60 00:   CALIPER FROM DENSITY
 GRD .GAPI   45 310 01 00:   GAMMA RAY FROM DENSITY LOG
 CORR.G/C3   45 356 01 00:   DENSITY CORRECTION
 DEN .G/C3   45 350 01 00:   COMPENSATED BULK DENSTIY
~PARAMETER INFORMATION
#MNEM.UNIT          VALUE    DESCRIPTION
#----------   ------------   ------------------------------
 PD  .                 GL:   PERMANENT DATUM
 EPD .F              5194:   ELEVATION PERMANENT DATUM
 LMF .                 GL:   LOG MEASURED FROM
 DMF .                 GL:   DRILLING MEASURED FROM
 EGL .F              5194:   GROUND LEVEL
 DATE.        17-DEC-1984:   RUN DATE
 RUN .                  1:   RUN NUMBER
 DD  .F               480:   DEPTH DRILLER
 DL  .F               475:   DEPTH LOGGER
 BLI .F               473:   BOTTOM LOG INTERVAL
 TLI .F                20:   TOP LOG INTERVAL
 CS  .IN            8.625:   CASING SIZE
 CBD .F                20:   CASING BOTTOM DRILLER
 CBL .F                20:   CASING BOTTOM LOGGER
 BS  .IN             6.25:   BIT SIZE
 BSD .F               480:   BIT SIZE AT DEPTH
 DFT .          KCL WATER:   DRILLING FLUID TYPE
 MSS .           FLOWLINE:   MUD SAMPLE SOURCE
 RMS .OHMM          0.134:   RESISTIVITY MUD SAMPLE
 MST .F                72:   MUD SAMPLE TEMPERATURE
 RMF .OHMM           0.10:   RESISTIVITY MUD FILTRATE SAMPLE
 MFST.F                72:   MUD FILTRATE SAMPLE TEMPERATURE
 RMC .OHMM           0.17:   RESISTIVITY MUD CAKE
 MCST.F                72:   MUD CAKE SAMPLE TEMPERATURE
 MFSS.               CALC:   MUD FILTRATE SAMPLE SOURCE
 MCSS.               CALC:   MUD CAKE SAMPLE SOURCE
 TCS .HRS               2:   TIME CURCULATED STOPPED
 MRT .F               100:   MAXIMUM RECORDED TEMPERATURE
 LUN .               6270:   LOGGING UNIT NUMBER
 ENGI.            LEBSOCK:   RECORDING ENGINEER
 WITN.          DAN LUERS:   WITNESSED BY
 CLNT.            A2DTECH:   CLIENT CODE
 ORIG.           5" PRINT:   ORIGIN OF DATA
 UWI .       490251100600:   UNIQUE WELL ID
 DICO. A2D Technologies, Inc.:   DIGITIZING COMPANY
~OTHER INFORMATION
~A    DEPT      AC       PORD        CNC       CALD        GRD       CORR        DEN   
# ...
  372.0000    94.1909     0.1818     0.2371     6.2976    79.0745     0.0283     2.3703
  372.5000    96.3596     0.1878     0.2609     6.3272    80.2712     0.0343     2.3635
  373.0000    97.8536     0.1912     0.2775     6.3416    79.3629     0.0389     2.3582
  373.5000    98.2232     0.1949     0.2811     6.3561    78.1557     0.0416     2.3514
  374.0000    98.5178     0.1985     0.2790     6.3557    77.8510     0.0325     2.3446
  374.5000    98.3627     0.2007     0.2757     6.3852    79.6453     0.0129     2.3423
  375.0000    97.9826     0.1949     0.2712     6.3847    80.8406     0.0113     2.3520
  375.5000    97.6776     0.1901     0.2682     6.3693    82.0358     0.0263     2.3633
  376.0000    97.3725     0.1862     0.2628     6.3539    82.6306     0.0352     2.3685
  376.5000    97.1424     0.1838     0.2577     6.3535    82.0239     0.0397     2.3693
  377.0000    97.0622     0.1885     0.2565     6.3680    78.1141     0.0366     2.3639
  377.5000    96.9071     0.1911     0.2608     6.3674    78.1081     0.0335     2.3578
  378.0000    96.9018     0.1915     0.2707     6.3670    79.6196     0.0319     2.3571
  378.5000    96.8216     0.1886     0.2774     6.3665    79.3934     0.0318     2.3619
  379.0000    96.8164     0.1858     0.2837     6.3661    78.3906     0.0303     2.3668
  379.5000    96.9611     0.1858     0.2913     6.3657    80.1587     0.0287     2.3667
  380.0000    96.7310     0.1852     0.2998     6.3652    83.7826     0.0271     2.3682
  380.5000    96.4260     0.1816     0.2853     6.3648    84.8277     0.0255     2.3727
  381.0000    96.5707     0.1798     0.2724     6.3794    85.5725     0.0270     2.3757
  381.5000    96.7903     0.1817     0.2700     6.3788    86.6176     0.0269     2.3726
  382.0000    97.0113     0.1908     0.2757     6.3784    87.3639     0.0268     2.3568
  382.5000    96.7049     0.1914     0.2815     6.3780    86.7558     0.0086     2.3537
  383.0000    96.2499     0.1863     0.2818     6.3775    85.8490    -0.0006     2.3687
  383.5000    95.7949     0.1842     0.2749     6.3771    84.9421    -0.0035     2.3702
  384.0000    94.9651     0.1851     0.2668     6.3617    82.2335    -0.0036     2.3664
  384.5000    94.5851     0.1861     0.2656     6.3762    79.5248    -0.0037     2.3679
  385.0000    94.0551     0.1837     0.2674     6.3757    80.2696    -0.0023     2.3761
  385.5000    93.6751     0.1765     0.2674     6.3753    81.4649     0.0082     2.3874
  386.0000    93.3700     0.1720     0.2665     6.3749    81.9109     0.0307     2.3934
  386.5000    93.3648     0.1696     0.2646     6.3733    81.9034     0.0427     2.3963
  387.0000    93.3596     0.1681     0.2507     6.3590    81.8975     0.0381     2.3963
  387.5000    93.5792     0.1690     0.2482     6.3586    82.1918     0.0320     2.3948
  388.0000    93.5740     0.1699     0.2519     6.3580    82.3360     0.0319     2.3932
  388.5000    93.4189     0.1706     0.2585     6.3576    82.6304     0.0318     2.3917
  389.0000    93.2637     0.1709     0.2573     6.3721    82.0238     0.0318     2.3933
  389.5000    93.0336     0.1679     0.2556     6.3567    80.2161     0.0317     2.4015
  390.0000    92.5037     0.1634     0.2489     6.3562    77.6576     0.0316     2.4084
  390.5000    92.0487     0.1586     0.2466     6.3558    77.6516     0.0315     2.4153
  391.0000    91.5187     0.1547     0.2445     6.3553    77.9469     0.0300     2.4222
  391.5000    91.2136     0.1502     0.2436     6.3399    78.8667     0.0284     2.4306
  392.0000    90.9076     0.1466     0.2412     6.3245    81.2853     0.0238     2.4396
  392.5000    90.3761     0.1430     0.2370     6.3091    82.9004     0.0222     2.4433
  393.0000    90.1444     0.1409     0.2364     6.3086    81.1102     0.0206     2.4441
  393.5000    90.0682     0.1400     0.2437     6.3082    79.6892     0.0252     2.4440
  394.0000    90.0630     0.1394     0.2594     6.3078    79.4118     0.0313     2.4440
  394.5000    90.1328     0.1407     0.2651     6.3073    81.2061     0.0370     2.4432
  395.0000    90.1274     0.1422     0.2564     6.3069    81.8022     0.0414     2.4409
  395.5000    90.1222     0.1435     0.2501     6.3064    82.9960     0.0458     2.4378
  396.0000    90.0420     0.1444     0.2450     6.3060    84.4916     0.0488     2.4363
  396.5000    89.9618     0.1450     0.2462     6.3055    86.4376     0.0306     2.4370
  397.0000    89.6556     0.1399     0.2483     6.3051    88.8340     0.0170     2.4485
  397.5000    89.2006     0.1312     0.2508     6.3047    90.1794     0.0139     2.4620
  398.0000    89.0455     0.1260     0.2499     6.3042    90.7755     0.0364     2.4705
  398.5000    89.0403     0.1237     0.2400     6.3037    90.1675     0.0424     2.4730
  399.0000    89.0351     0.1264     0.2376     6.2733    89.4108     0.0242     2.4654
  399.5000    89.1061     0.1289     0.2403     6.2728    88.9544     0.0182     2.4616
  400.0000    89.2508     0.1280     0.2454     6.2572    88.0389     0.0337     2.4652
  400.5000    89.2118     0.1235     0.2484     6.2530    86.9921     0.0556     2.4719
  401.0000    89.1758     0.1198     0.2512     6.2488    88.0387     0.0767     2.4788
  401.5000    89.0815     0.1183     0.2524     6.2446    89.5357     0.0827     2.4796
  402.0000    89.0755     0.1229     0.2458     6.2401    87.5793     0.0465     2.4705
  402.5000    89.0695     0.1290     0.2458     6.2395    86.5237     0.0239     2.4622
  403.0000    89.0636     0.1332     0.2396     6.2389    86.2190     0.0223     2.4553
  403.5000    89.0576     0.1348     0.2390     6.2383    86.8151     0.0238     2.4530
  404.0000    89.0516     0.1334     0.2459     6.2377    88.0118     0.0237     2.4605
  404.5000    89.2720     0.1277     0.2535     6.2371    88.0626     0.0222     2.4665
  405.0000    89.5659     0.1260     0.2565     6.2365    85.9007     0.0191     2.4665
  405.5000    89.8597     0.1303     0.2590     6.2359    85.5510     0.0191     2.4596
  406.0000    90.0022     0.1336     0.2602     6.2353    89.7956     0.0221     2.4542
  406.5000    89.8463     0.1346     0.2602     6.2347    91.7431     0.0235     2.4521
  407.0000    89.5404     0.1337     0.2618     6.2341    92.4894     0.0174     2.4550
  407.5000    89.2346     0.1313     0.2651     6.2335    93.0856     0.0234     2.4583
  408.0000    88.9288     0.1283     0.2630     6.2329    93.6816     0.0294     2.4640
  408.5000    88.6229     0.1246     0.2546     6.2323    93.5270     0.0354     2.4715
  409.0000    88.3921     0.1195     0.2534     6.2168    91.7207     0.0398     2.4790
  409.5000    88.3111     0.1147     0.2540     6.2012    88.8633     0.0413     2.4895
  410.0000    88.4551     0.1108     0.2538     6.1856    88.2583     0.0413     2.4940
  410.5000    88.8989     0.1129     0.2535     6.1850    88.2513     0.0412     2.4879
  411.0000    89.3427     0.1178     0.2532     6.1844    87.1832     0.0411     2.4796
  411.5000    89.5616     0.1232     0.2523     6.1988    87.6742     0.0381     2.4698
  412.0000    89.7820     0.1281     0.2502     6.1982    89.4814     0.0351     2.4607
  412.5000    89.7745     0.1311     0.2548     6.1976    90.4881     0.0350     2.4599
  413.0000    89.7685     0.1312     0.2620     6.1970    91.2793     0.0304     2.4606
  413.5000    89.7625     0.1281     0.2554     6.1964    92.8989     0.0274     2.4628
  414.0000    89.8330     0.1250     0.2470     6.2108    93.6278     0.0258     2.4718
  414.5000    89.9020     0.1212     0.2440     6.2252    91.9039     0.0243     2.4778
  415.0000    90.0459     0.1185     0.2422     6.2246    89.9900     0.0227     2.4785
  415.5000    90.1134     0.1192     0.2405     6.2240    90.6936     0.0197     2.4777
  416.0000    90.2589     0.1204     0.2396     6.2232    91.3576     0.0227     2.4785
  416.5000    90.4013     0.1186     0.2393     6.2226    90.3009     0.0286     2.4814
  417.0000    90.3953     0.1150     0.2393     6.2220    89.9961     0.0346     2.4859
