~VERSION INFORMATION
 VERS.                2.0:   CWLS LOG ASCII STANDARD - VERSION 2.0
 WRAP.                 NO:   ONE LINE PER DEPTH STEP
~WELL INFORMATION
#MNEM.UNIT      DATA TYPE    INFORMATION
#----------   ------------   ------------------------------
 STRT.F           10.5000:   START DEPTH
 STOP.F          604.0000:   STOP DEPTH
 STEP.F            0.5000:   STEP LENGTH
 NULL.          -999.2500:   NO VALUE
 COMP. FENIX & SCISSON INC:   COMPANY
 WELL.  NPR 3 #87 S 10-10:   WELL
 FLD .             TEAPOT:   FIELD
 LOC .      S10 T38N R78W:   LOCATION
 CNTY.            NATRONA:   COUNTY
 STAT.            WYOMING:   STATE
 CTRY. UNITED STATES OF AMERICA:   COUNTRY
 SRVC.           BIRDWELL:   SERVICE COMPANY
 DATE.        11-DEC-1978:   LOGDATE
 API .       490251075400:   API NUMBER
~CURVE INFORMATION
#MNEM.UNIT       API CODE    CURVE DESCRIPTION
#----------   ------------   ------------------------------
 DEPT.F                  :   
 SPR .MV     05 010 01 00:   SPONTANEOUS POTENTIAL FROM RES.
 SN  .OHMM   05 040 16 00:   SHORT NORMAL 16"
 IL  .OHMM   05 120 00 00:   INDUCTION LOG
 CALD.IN     45 280 60 00:   CALIPER
 GRD .GAPI   45 310 01 00:   GAMMA RAY FROM DENSITY LOG
 RHOB.G/C3   45 350 01 00:   BULK DENSITY
 DPHI.DEC    45 890 12 00:   DENSITY POROSITY SANDSTONE
 CORR.G/C3   45 356 01 00:   DENSITY CORRECTION
~PARAMETER INFORMATION
#MNEM.UNIT          VALUE    DESCRIPTION
#----------   ------------   ------------------------------
 PD  .                 GL:   PERMANENT DATUM
 LMF .                 KB:   LOG MEASURED FROM
 DAPD.F                 4:   FEET ABOVE PERMANENT DATUM
 DMF .                 KB:   DRILLING MEASURED FROM
 DATE.           12-11-78:   RUN DATE
 RUN .                  1:   RUN NUMBER
 DD  .F               600:   DEPTH DRILLER
 DL  .F               602:   DEPTH LOGGER
 BLI .F               596:   BOTTOM LOG INTERVAL
 TLI .F                60:   TOP LOG INTERVAL
 CBD .F                40:   CASING BOTTOM DRILLER
 CBL .F                35:   CASING BOTTOM LOGGER
 BS  .IN            7.875:   BIT SIZE
 BSD .F               600:   BIT SIZE AT DEPTH
 DFT .                KCC:   DRILLING FLUID TYPE
 DFD .                8.7:   DRILLING FLUID DENSITY
 DFV .                 39:   DRILLING FLUID VISCOSITY
 DFPH.               10.5:   DRILLING FLUID PH
 DFL .                 10:   DRILLING FLUID LOSS
 MSS .           FLOWLINE:   MUD SAMPLE SOURCE
 RMS .OHMM              1:   RESISTIVITY MUD SAMPLE
 MST .F                62:   MUD SAMPLE TEMPERATURE
 RMF .OHMM            .85:   RESISTIVITY MUD FILTRATE SAMPLE
 MFST.F                58:   MUD FILTRATE SAMPLE TEMPERATURE
 RMC .OHMM             .8:   RESISTIVITY MUD CAKE
 MCST.F                66:   MUD CAKE SAMPLE TEMPERATURE
 MFSS.           MEASURED:   MUD FILTRATE SAMPLE SOURCE
 MCSS.           MEASURED:   MUD CAKE SAMPLE SOURCE
 BHT .F                72:   BOTTOM HOLE TEMPERATURE
 TCS .HRS               3:   TIME CURCULATED STOPPED
 MRT .F                72:   MAXIMUM RECORDED TEMPERATURE
 LUN .               2958:   LOGGING UNIT NUMBER
 LUL .             CASPER:   LOGGING UNIT LOCATION
 ENGI.            ROLLINS:   RECORDING ENGINEER
 WITN.           DINSMORE:   WITNESSED BY
 CLNT.            A2DTECH:   CLIENT CODE
 ORIG.       2", 5" PRINT:   ORIGIN OF DATA
 UWI .       490251075400:   UNIQUE WELL ID
 DICO. A2D Technologies, Inc.:   DIGITIZING COMPANY
~OTHER INFORMATION
~A   DEPT      SPR         SN         IL       CALD        GRD       RHOB       DPHI       CORR   
# ...
  375.0000   -19.5070     8.4620     6.9520     8.4400   127.4710     2.4600     0.1360    -0.0010
  375.5000   -19.6030     8.2860     6.9520     8.4370   124.2530     2.4560     0.1390    -0.0020
  376.0000   -19.6980     8.0980     6.7010     8.4350   123.1630     2.4350     0.1460    -0.0020
  376.5000   -19.7920     7.9650     6.4490     8.4320   124.7720     2.4140     0.1650     0.0010
  377.0000   -19.8870     7.9160     6.1970     8.4290   128.2990     2.3920     0.1810     0.0050
  377.5000   -19.9810     7.8680     5.9430     8.4260   131.5360     2.3790     0.1910     0.0040
  378.0000   -20.0750     7.7590     5.9480     8.4240   133.1750     2.3950     0.1910     0.0020
  378.5000   -20.1700     7.5540     5.9560     8.4200   134.5230     2.4180     0.1750     0.0000
  379.0000   -20.2640     6.9160     5.9630     8.3860   132.3560     2.4410     0.1480    -0.0010
  379.5000   -20.3570     6.4070     5.9710     8.3500   126.9530     2.4550     0.1420    -0.0020
  380.0000   -20.4520     5.9980     5.9780     8.3150   123.2160     2.4580     0.1390    -0.0010
  380.5000   -20.4440     6.0210     5.9850     8.3020   123.0940     2.4580     0.1390    -0.0010
  381.0000   -20.3320     6.1160     5.9920     8.3020   123.8700     2.4580     0.1390     0.0000
  381.5000   -20.2220     6.5310     6.2000     8.3130   123.7100     2.4620     0.1390     0.0010
  382.0000   -20.1110     7.0440     6.7410     8.3400   122.4660     2.4650     0.1360     0.0020
  382.5000   -20.0000     7.5580     7.0900     8.3650   121.8700     2.4670     0.1320     0.0020
  383.0000   -19.8890     7.9840     7.1110     8.3810   122.5310     2.4650     0.1340     0.0030
  383.5000   -19.7790     7.9840     7.1440     8.3970   123.4470     2.4580     0.1360     0.0040
  384.0000   -19.6690     7.9840     6.9930     8.4130   124.3690     2.4450     0.1420     0.0050
  384.5000   -19.5570     7.9840     6.5700     8.4290   125.9600     2.4220     0.1550     0.0050
  385.0000   -19.6680     7.9840     6.1480     8.4450   128.7180     2.4080     0.1670     0.0050
  385.5000   -20.0010     7.9840     5.7250     8.4610   130.8060     2.3900     0.1790     0.0010
  386.0000   -20.2960     7.9290     5.6160     8.4770   128.0410     2.3900     0.1830    -0.0050
  386.5000   -20.3010     7.7660     5.6070     8.4930   121.5610     2.4190     0.1690    -0.0040
  387.0000   -20.3000     7.2090     5.5990     8.5090   119.5110     2.4300     0.1550     0.0000
  387.5000   -20.3000     6.5800     5.5900     8.5250   119.9370     2.4320     0.1550     0.0040
  388.0000   -20.3000     6.2360     5.5820     8.5420   120.9300     2.4380     0.1540     0.0080
  388.5000   -20.3000     5.9430     5.5710     8.5580   118.6710     2.4530     0.1460     0.0100
  389.0000   -20.3000     5.9980     5.8600     8.5740   116.8590     2.4680     0.1350     0.0100
  389.5000   -20.3000     6.4150     6.2480     8.5900   115.2560     2.4770     0.1250     0.0110
  390.0000   -20.3000     6.8580     6.6350     8.6060   117.6230     2.4860     0.1220     0.0110
  390.5000   -20.3000     7.3000     7.0230     8.6200   120.0870     2.4950     0.1180     0.0100
  391.0000   -20.3000     7.6600     7.3610     8.6220   117.8490     2.5030     0.1120     0.0090
  391.5000   -20.3000     7.9900     7.5990     8.6240   115.4490     2.5110     0.1060     0.0070
  392.0000   -20.3010     8.3210     7.8380     8.6250   113.9990     2.5120     0.1050     0.0030
  392.5000   -20.2560     8.6520     8.0760     8.6270   116.3780     2.5050     0.1110    -0.0010
  393.0000   -20.1940     8.9820     8.2920     8.6280   118.7400     2.4950     0.1170    -0.0050
  393.5000   -20.1310     9.3130     8.3530     8.6290   119.5500     2.4850     0.1230    -0.0050
  394.0000   -20.0690     9.6070     8.4140     8.6310   120.2820     2.4800     0.1260    -0.0050
  394.5000   -20.0060     9.6410     8.4760     8.6320   122.4840     2.4850     0.1230    -0.0060
  395.0000   -19.9440     9.6760     8.5170     8.6340   124.8290     2.4910     0.1190    -0.0060
  395.5000   -19.8810     9.7100     8.5070     8.6350   123.1920     2.4970     0.1150    -0.0070
  396.0000   -19.8180     9.7450     8.4990     8.6370   118.1420     2.4950     0.1140    -0.0070
  396.5000   -19.7550     9.7790     8.4910     8.6380   121.2530     2.4870     0.1180    -0.0070
  397.0000   -19.7350     9.8140     8.4830     8.6400   126.7040     2.4800     0.1250    -0.0080
  397.5000   -20.3540     9.8480     8.4750     8.6410   129.5510     2.4810     0.1270    -0.0080
  398.0000   -20.8910     9.8720     8.4670     8.6420   126.7830     2.4810     0.1260    -0.0080
  398.5000   -20.9110     9.8410     8.4590     8.6440   124.8480     2.4810     0.1250    -0.0070
  399.0000   -20.9210     9.8180     8.4510     8.6450   125.1120     2.4820     0.1240    -0.0060
  399.5000   -20.9320     9.7940     8.4390     8.6470   123.1610     2.4840     0.1230    -0.0040
  400.0000   -20.9430     9.7700     8.5090     8.6480   119.5750     2.4870     0.1200    -0.0030
  400.5000   -20.9540     9.7470     8.6490     8.6500   114.6340     2.4870     0.1210    -0.0010
  401.0000   -20.9650     9.7230     8.7890     8.6510   116.1630     2.4850     0.1220     0.0000
  401.5000   -20.9770     9.6920     8.9290     8.6530   120.3440     2.4830     0.1220     0.0020
  402.0000   -20.9880     9.7740     9.0690     8.6540   119.8370     2.4700     0.1280     0.0130
  402.5000   -20.9990     9.8930     8.9220     8.6550   123.4520     2.4530     0.1380     0.0260
  403.0000   -21.0100    10.0120     8.7360     8.6570   128.1220     2.4330     0.1480     0.0390
  403.5000   -21.0210    10.1320     8.3030     8.6580   130.4980     2.4120     0.1610     0.0460
  404.0000   -21.0320    10.2510     7.7510     8.6580   132.8560     2.3900     0.1790     0.0340
  404.5000   -21.0430    10.3380     7.1980     8.6330   135.1440     2.3710     0.1940     0.0160
  405.0000   -21.0540    10.1610     6.4570     8.5400   134.4090     2.3830     0.1820     0.0020
  405.5000   -21.0650     9.8480     6.4820     8.5250   122.0590     2.4230     0.1620    -0.0020
  406.0000   -21.0760     9.0390     6.5200     8.5300   110.3010     2.4600     0.1410    -0.0010
  406.5000   -21.0880     7.8380     6.5570     8.5350   114.9570     2.4900     0.1230     0.0010
  407.0000   -21.0980     7.3090     6.5950     8.5390   116.2490     2.4900     0.1190     0.0030
  407.5000   -21.0860     6.8250     6.6320     8.5440   114.6180     2.4900     0.1190     0.0040
  408.0000   -21.0690     7.0750     6.7810     8.5490   114.0790     2.4890     0.1200     0.0060
  408.5000   -21.0530     7.8380     6.9510     8.5540   113.6990     2.4890     0.1200     0.0070
  409.0000   -21.0370     9.0330     7.4530     8.5590   113.9220     2.4890     0.1200     0.0090
  409.5000   -21.0200    10.1920     9.0750     8.5640   115.2010     2.4900     0.1190     0.0100
  410.0000   -21.0040    10.9400    10.3430     8.5690   116.5130     2.4920     0.1170     0.0100
  410.5000   -20.9880    11.4320    10.3640     8.5740   114.7810     2.4930     0.1170     0.0110
  411.0000   -20.9710    11.9190    10.3850     8.5790   115.4740     2.4910     0.1180     0.0110
  411.5000   -20.9550    12.2180    10.4050     8.5840   116.3000     2.4900     0.1190     0.0120
  412.0000   -20.9400    12.2470    10.4260     8.5890   113.8970     2.4880     0.1210     0.0120
  412.5000   -20.9260    12.2750    10.8130     8.5940   108.1690     2.4800     0.1230     0.0130
  413.0000   -20.9060    12.3030    11.4430     8.5990    99.9650     2.4610     0.1300     0.0130
  413.5000   -21.4640    12.4150    12.5540     8.6030    91.7890     2.4380     0.1420     0.0230
  414.0000   -21.6740    12.6560    13.6690     8.6080    84.5250     2.4060     0.1560     0.0390
  414.5000   -21.6340    12.8960    14.7840     8.6130    79.7620     2.3730     0.1780     0.0720
  415.0000   -21.5890    13.1420    15.8990     8.6170    74.9900     2.3400     0.2030     0.1210
