~VERSION INFORMATION
 VERS.                2.0:   CWLS LOG ASCII STANDARD - VERSION 2.0
 WRAP.                 NO:   ONE LINE PER DEPTH STEP
~WELL INFORMATION
#MNEM.UNIT      DATA TYPE    INFORMATION
#----------   ------------   ------------------------------
 STRT.F           10.0000:   START DEPTH
 STOP.F          756.0000:   STOP DEPTH
 STEP.F            0.1000:   STEP LENGTH
 NULL.          -999.2500:   NO VALUE
 COMP. BROWN JOHN E&C INC:   COMPANY
 WELL. N P R 3 SHX- #31-1-X-14:   WELL
 FLD .             TEAPOT:   FIELD
 LOC .      S14 T38N R78W:   LOCATION
 CNTY.            NATRONA:   COUNTY
 STAT.            WYOMING:   STATE
 CTRY. UNITED STATES OF AMERICA:   COUNTRY
 SRVC.     Atlas Wireline:   SERVICE COMPANY
 DATE.        07-JAN-1992:   LOGDATE
 API .       490252249700:   API NUMBER
~CURVE INFORMATION
#MNEM.UNIT       API CODE    CURVE DESCRIPTION
#----------   ------------   ------------------------------
 DEPT.F                  :   
 GRR .GAPI   07 310 01 00:   GAMMA RAY
 RFOC.OHMM   07 220 04 00:   RESISTIVITY FOCUSED LOG RES.
 RILD.OHMM   07 120 46 00:   INDUCTION LOG DEEP RESISTIVITY
 RILM.OHMM   07 120 44 00:   INDUCTION LOG MEDIUM  RESISTIVITY
~PARAMETER INFORMATION
#MNEM.UNIT          VALUE    DESCRIPTION
#----------   ------------   ------------------------------
 PD  .                 GL:   PERMANENT DATUM
 EPD .F              5210:   ELEVATION PERMANENT DATUM
 LMF .                 KB:   LOG MEASURED FROM
 DAPD.F                10:   FEET ABOVE PERMANENT DATUM
 DMF .                 KB:   DRILLING MEASURED FROM
 EKB .F              5220:   KELLING BUSHING
 EDF .F              5219:   DRILLING FLOOR
 EGL .F              5210:   GROUND LEVEL
 DATE.        07-JAN-1992:   RUN DATE
 RUN .                  1:   RUN NUMBER
 DD  .F               762:   DEPTH DRILLER
 DL  .F               760:   DEPTH LOGGER
 BLI .F               758:   BOTTOM LOG INTERVAL
 CS  .IN            9.625:   CASING SIZE
 CBD .F                48:   CASING BOTTOM DRILLER
 CBL .F                50:   CASING BOTTOM LOGGER
 BS  .IN             8.75:   BIT SIZE
 BSD .F               762:   BIT SIZE AT DEPTH
 DFT .    FORMATION FLUID:   DRILLING FLUID TYPE
 MRT .F                90:   MAXIMUM RECORDED TEMPERATURE
 LUN .            HL-6274:   LOGGING UNIT NUMBER
 LUL .             CASPER:   LOGGING UNIT LOCATION
 ENGI.             RAUTIC:   RECORDING ENGINEER
 WITN.        GARY STRONG:   WITNESSED BY
 CLNT.            A2DTECH:   CLIENT CODE
 ORIG.           5" PRINT:   ORIGIN OF DATA
 UWI .       490252249700:   UNIQUE WELL ID
 DICO. A2D Technologies, Inc.:   DIGITIZING COMPANY
~OTHER INFORMATION
~A   DEPT       GRR      RFOC       RILD       RILM   
# ...
  418.8000   112.5003     8.9340     7.5185     7.3261
  418.9000   112.2602     8.9861     7.5187     7.2859
  419.0000   111.8167     9.0407     7.5196     7.2858
  419.1000   111.4538     9.0405     7.5716     7.2857
  419.2000   111.2016     9.0404     7.5718     7.2856
  419.3000   110.9061     9.0403     7.5720     7.2855
  419.4000   110.3891     9.0402     7.5722     7.2854
  419.5000   110.1430     9.0400     7.5724     7.2892
  419.6000   109.8909     9.0399     7.5726     7.3360
  419.7000   109.6387     8.9881     7.5729     7.3359
  419.8000   109.3865     8.9768     7.6112     7.3358
  419.9000   109.1344     8.9458     7.6261     7.3576
  420.0000   108.8822     8.8936     7.6263     7.3867
  420.1000   108.8829     8.8417     7.6265     7.3920
  420.2000   108.6799     8.7901     7.6267     7.4380
  420.3000   108.5819     8.7293     7.6269     7.4379
  420.4000   108.5825     8.6880     7.6271     7.5022
  420.5000   108.6385     8.6373     7.6589     7.5417
  420.6000   108.8980     8.5870     7.6808     7.5727
  420.7000   109.4907     8.5369     7.6810     7.6541
  420.8000   109.7007     8.4871     7.6812     7.7002
  420.9000   109.9541     8.4295     7.6814     7.7435
  421.0000   110.0967     8.3884     7.7238     7.7537
  421.1000   110.1587     8.3708     7.7692     7.7797
  421.2000   110.4000     8.3925     7.7896     7.8250
  421.3000   110.4007     8.4415     7.8062     7.8706
  421.4000   110.4012     8.4935     7.8521     7.9165
  421.5000   110.4018     8.6070     7.8993     7.9715
  421.6000   110.1687     8.6503     7.9446     7.9714
  421.7000   109.7313     8.7348     7.9548     7.9713
  421.8000   109.4792     8.8128     7.9826     7.9907
  421.9000   109.1958     8.8499     8.0108     8.0267
  422.0000   108.7532     8.8498     8.0207     8.0266
  422.1000   108.4205     8.8497     8.0671     8.0264
  422.2000   108.1684     8.8496     8.0674     8.0656
  422.3000   107.9897     8.8852     8.0676     8.0822
  422.4000   107.9903     8.9370     8.0975     8.0821
  422.5000   107.9910     8.9892     8.1243     8.0819
  422.6000   107.9915     9.0416     8.1245     8.0818
  422.7000   107.9921     9.0992     8.1272     8.0817
  422.8000   107.9928     9.1962     8.1817     8.0816
  422.9000   107.9934     9.2267     8.1819     8.0815
  423.0000   107.9940     9.2546     8.1821     8.0586
  423.1000   107.9946     9.2910     8.1823     8.0253
  423.2000   107.9952     9.2909     8.1825     8.0252
  423.3000   107.9958     9.2908     8.1828     8.0251
  423.4000   107.9964     9.2906     8.1830     8.0250
  423.5000   108.0826     9.2905     8.1832     8.0249
  423.6000   108.2997     9.2904     8.1834     8.0248
  423.7000   108.3003     9.2715     8.1837     8.0247
  423.8000   108.5406     9.2175     8.1839     8.0245
  423.9000   108.6036     9.1613     8.1841     8.0244
  424.0000   108.6042     9.1612     8.1844     8.0243
  424.1000   108.6965     9.1206     8.1846     8.0242
  424.2000   108.9076     9.0973     8.1848     8.0241
  424.3000   108.9082     9.0972     8.1850     8.0240
  424.4000   109.1545     9.0878     8.1853     8.0239
  424.5000   109.4079     9.0337     8.1855     8.0238
  424.6000   109.8083     9.0336     8.1857     8.0237
  424.7000   110.2167     9.0750     8.1860     8.0235
  424.8000   110.5184     9.0966     8.1862     8.0234
  424.9000   111.0266     9.0964     8.1864     8.0233
  425.0000   111.6315     9.0963     8.1866     8.0232
  425.1000   111.8344     9.0962     8.1771     8.0231
  425.2000   112.2409     9.0960     8.1304     8.0230
  425.3000   112.6433     9.0959     8.1306     8.0229
  425.4000   112.8967     9.0958     8.1308     8.0228
  425.5000   113.1450     9.0957     8.1014     8.0227
  425.6000   113.1457     9.0837     8.0750     8.0225
  425.7000   113.1462     9.0322     8.0752     8.0224
  425.8000   112.9878     9.0321     8.0754     8.0223
  425.9000   112.8453     9.0320     8.0757     7.9829
  426.0000   112.7854     9.0318     8.0356     7.9666
  426.1000   112.5333     9.0317     8.0201     7.9665
  426.2000   112.2430     9.0316     8.0204     7.9663
  426.3000   112.0291     9.0287     8.0206     7.9662
  426.4000   111.7768     8.9686     8.0208     7.9661
  426.5000   111.6405     8.9685     8.0211     7.9254
  426.6000   111.5746     8.9683     7.9795     7.9108
  426.7000   111.3395     8.9682     7.9659     7.9107
  426.8000   111.3403     8.9540     7.9661     7.8968
  426.9000   111.1202     8.9057     7.9664     7.8557
  427.0000   110.8680     8.9055     7.9666     7.8556
  427.1000   110.6159     8.9054     7.9668     7.8555
  427.2000   110.4363     8.9053     7.9238     7.8226
  427.3000   110.4137     8.9052     7.9120     7.8009
  427.4000   110.1354     8.9050     7.9123     7.8008
  427.5000   109.9093     8.8998     7.9125     7.8007
  427.6000   109.8344     8.8429     7.9127     7.8005
  427.7000   109.8350     8.8428     7.9129     7.8004
  427.8000   109.9142     8.8427     7.9131     7.8003
  427.9000   110.1676     8.8425     7.9134     7.7749
  428.0000   110.4411     8.8260     7.8865     7.7461
  428.1000   110.4417     8.7809     7.8590     7.7460
  428.2000   110.4423     8.7807     7.8592     7.7459
  428.3000   110.3089     8.7332     7.8594     7.7458
  428.4000   110.0568     8.7195     7.8597     7.7457
  428.5000   109.7694     8.7194     7.8599     7.7456
  428.6000   109.2363     8.7019     7.8601     7.7455
  428.7000   108.7595     8.6585     7.8603     7.7454
  428.8000   108.2546     8.6584     7.8605     7.7453
  428.9000   107.7497     8.6583     7.8607     7.7451
  429.0000   107.1540     8.6582     7.8610     7.7450
  429.1000   106.4789     8.6865     7.8612     7.7733
  429.2000   106.2188     8.7372     7.8614     7.7988
  429.3000   105.9746     8.7882     7.8616     7.7987
  429.4000   105.9178     8.8407     7.8747     7.7986
  429.5000   105.9184     8.8406     7.9169     7.7985
  429.6000   105.8223     8.8809     7.9171     7.8372
  429.7000   105.6174     8.9327     7.9173     7.8526
  429.8000   105.6181     8.9643     7.9175     7.8525
  429.9000   105.6187     8.9745     7.9178     7.8524
  430.0000   105.6193     9.0268     7.9180     7.8523
  430.1000   105.6199     9.0267     7.9182     7.8522
  430.2000   105.5178     9.0266     7.9184     7.8521
  430.3000   105.3190     9.0264     7.9186     7.8520
  430.4000   105.3196     9.0263     7.9189     7.8519
  430.5000   105.3203     9.0147     7.9191     7.8518
  430.6000   105.3208     8.9633     7.9193     7.8568
  430.7000   105.3214     8.9632     7.9195     7.9063
  430.8000   105.3221     8.9631     7.9198     7.9062
  430.9000   105.3821     8.9630     7.9200     7.9060
  431.0000   105.6355     8.9628     7.9202     7.9059
  431.1000   105.9282     8.9627     7.9476     7.9058
  431.2000   106.1422     8.9601     7.9759     7.9057
  431.3000   106.3955     8.9002     7.9761     7.9056
  431.4000   106.6490     8.9001     7.9763     7.9055
  431.5000   106.9023     8.8999     7.9766     7.9054
  431.6000   107.1557     8.8998     7.9768     7.9053
  431.7000   107.4424     8.8859     7.9770     7.9052
  431.8000   107.6624     8.8377     7.9772     7.9051
  431.9000   108.2562     8.8376     7.9774     7.9049
  432.0000   109.0152     8.8375     7.9799     7.8596
  432.1000   109.8455     8.8024     8.0336     7.8500
  432.2000   110.8570     8.7758     8.0337     7.8226
  432.3000   111.9777     8.7757     8.0340     7.7955
  432.4000   112.8806     8.7707     8.0563     7.7953
  432.5000   113.7160     8.7145     8.0905     7.7943
  432.6000   114.2212     8.7144     8.0907     7.7412
  432.7000   114.4745     8.7143     8.0909     7.7411
  432.8000   114.7279     8.7141     8.0491     7.7410
  432.9000   115.0025     8.7140     8.0353     7.7211
  433.0000   115.0030     8.7139     8.0118     7.6872
  433.1000   114.6391     8.7138     7.9801     7.6871
  433.2000   114.1341     8.7137     7.9746     7.6869
  433.3000   113.6292     8.7135     7.9253     7.6485
