~VERSION INFORMATION
 VERS.                2.0:   CWLS LOG ASCII STANDARD - VERSION 2.0
 WRAP.                 NO:   ONE LINE PER DEPTH STEP
~WELL INFORMATION
#MNEM.UNIT      DATA TYPE    INFORMATION
#----------   ------------   ------------------------------
 STRT.F          250.0000:   START DEPTH
 STOP.F         2527.0000:   STOP DEPTH
 STEP.F            0.5000:   STEP LENGTH
 NULL.          -999.2500:   NO VALUE
 COMP. FENIX & SCISSON INC:   COMPANY
 WELL.       NPR 3 #18-28:   WELL
 FLD .            WILDCAT:   FIELD
 LOC .      S28 T39N R78W:   LOCATION
 CNTY.            NATRONA:   COUNTY
 STAT.            WYOMING:   STATE
 CTRY. UNITED STATES OF AMERICA:   COUNTRY
 SRVC.            Unknown:   SERVICE COMPANY
 DATE.        01-MAY-1979:   LOGDATE
 API .       490251078000:   API NUMBER
~CURVE INFORMATION
#MNEM.UNIT       API CODE    CURVE DESCRIPTION
#----------   ------------   ------------------------------
 DEPT.F                  :   
 CORR.G/C3   45 356 01 00:   DENSITY CORRECTION
 DPHI.DEC    45 890 12 00:   DENSITY POROSITY SANDSTONE
 RHOB.G/C3   45 350 01 00:   BULK DENSITY
 CALD.IN     45 280 60 00:   CALIPER FROM DENSITY LOG
 GRD .GAPI   45 310 01 00:   GAMMA RAY FROM DENSITY LOG
~PARAMETER INFORMATION
#MNEM.UNIT          VALUE    DESCRIPTION
#----------   ------------   ------------------------------
 PD  .                 GL:   PERMANENT DATUM
 EPD .F              5079:   ELEVATION PERMANENT DATUM
 LMF .                 KB:   LOG MEASURED FROM
 DAPD.F                10:   FEET ABOVE PERMANENT DATUM
 DMF .                 KB:   DRILLING MEASURED FROM
 EKB .F              5089:   KELLING BUSHING
 EGL .F              5079:   GROUND LEVEL
 DATE.             5-1-79:   RUN DATE
 RUN .                  1:   RUN NUMBER
 DL  .F              2527:   DEPTH LOGGER
 BLI .F              2527:   BOTTOM LOG INTERVAL
 TLI .F               250:   TOP LOG INTERVAL
 CS  .IN            9.625:   CASING SIZE
 CBD .F               500:   CASING BOTTOM DRILLER
 CBL .F               495:   CASING BOTTOM LOGGER
 BS  .IN             8.75:   BIT SIZE
 DFT .                AIR:   DRILLING FLUID TYPE
 TCS .HRS              12:   TIME CURCULATED STOPPED
 LUL .             CASPER:   LOGGING UNIT LOCATION
 ENGI.         B. ROLLINS:   RECORDING ENGINEER
 WITN.           DINSMORE:   WITNESSED BY
 CLNT.            A2DTECH:   CLIENT CODE
 ORIG.           5" PRINT:   ORIGIN OF DATA
 UWI .       490251078000:   UNIQUE WELL ID
 DICO. A2D Technologies, Inc.:   DIGITIZING COMPANY
~OTHER INFORMATION
~A   DEPT     CORR       DPHI       RHOB       CALD         GRD  
# ...
 1287.0000     0.0446     0.0261     2.5143     9.3798   112.7643
 1287.5000     0.0289     0.0369     2.4966     9.3877   113.1796
 1288.0000     0.0314     0.0399     2.4859     9.3955   115.0514
 1288.5000     0.0374     0.0276     2.5077     9.4034   117.0263
 1289.0000     0.0408     0.0356     2.4983     9.4113   118.9746
 1289.5000     0.0431     0.0395     2.4968     9.4192   118.8911
 1290.0000     0.0526     0.0328     2.5104     9.4270   116.6140
 1290.5000     0.0572     0.0236     2.5199     9.4349   114.3802
 1291.0000     0.0528     0.0228     2.5274     9.4428   113.9551
 1291.5000     0.0485     0.0220     2.5210     9.4506   114.3042
 1292.0000     0.0450     0.0166     2.5271     9.4557   114.6869
 1292.5000     0.0508     0.0105     2.5420     9.4522   115.5474
 1293.0000     0.0564     0.0109     2.5446     9.4489   116.4442
 1293.5000     0.0529     0.0133     2.5246     9.4456   117.3442
 1294.0000     0.0470     0.0260     2.5078     9.4424   118.2455
 1294.5000     0.0480     0.0201     2.5136     9.4392   119.1356
 1295.0000     0.0551     0.0165     2.5288     9.4369   118.8451
 1295.5000     0.0513     0.0173     2.5332     9.4355   117.2340
 1296.0000     0.0466     0.0197     2.5315     9.4329   115.6173
 1296.5000     0.0504     0.0258     2.5268     9.4303   114.2921
 1297.0000     0.0519     0.0355     2.5170     9.4276   115.1732
 1297.5000     0.0349     0.0452     2.4831     9.4250   116.6294
 1298.0000     0.0270     0.0495     2.4755     9.4224   117.5539
 1298.5000     0.0304     0.0411     2.4871     9.4198   111.9643
 1299.0000     0.0347     0.0351     2.5038     9.4172   109.6738
 1299.5000     0.0314     0.0378     2.4998     9.4145   110.4155
 1300.0000     0.0268     0.0260     2.5032     9.4119   112.1078
 1300.5000     0.0389     0.0192     2.5132     9.4093   113.7981
 1301.0000     0.0468     0.0215     2.5232     9.4067   115.0884
 1301.5000     0.0455     0.0173     2.5291     9.4041   115.4635
 1302.0000     0.0384     0.0230     2.5231     9.4015   116.0088
 1302.5000     0.0325     0.0296     2.5132     9.3988   120.5650
 1303.0000     0.0430     0.0248     2.5181     9.3980   121.5064
 1303.5000     0.0574     0.0179     2.5281     9.3994   119.7686
 1304.0000     0.0719     0.0133     2.5410     9.4083   117.5857
 1304.5000     0.0734     0.0139     2.5426     9.4171   115.7421
 1305.0000     0.0574     0.0193     2.5284     9.4260   115.5379
 1305.5000     0.0419     0.0272     2.5139     9.4348   115.0974
 1306.0000     0.0285     0.0323     2.5066     9.4437   113.7752
 1306.5000     0.0299     0.0315     2.5053     9.4525   112.2846
 1307.0000     0.0363     0.0293     2.5062     9.4614   111.1822
 1307.5000     0.0426     0.0272     2.5112     9.4702   111.7135
 1308.0000     0.0488     0.0248     2.5161     9.4791   116.1578
 1308.5000     0.0553     0.0247     2.5210     9.4879   120.6484
 1309.0000     0.0543     0.0297     2.5154     9.4952   117.9266
 1309.5000     0.0480     0.0347     2.5051     9.4943   114.2780
 1310.0000     0.0417     0.0397     2.4948     9.4936   112.9865
 1310.5000     0.0353     0.0426     2.4864     9.4928   113.6265
 1311.0000     0.0413     0.0406     2.4921     9.4921   114.1566
 1311.5000     0.0503     0.0368     2.5002     9.4914   114.4220
 1312.0000     0.0594     0.0329     2.5083     9.4907   116.8118
 1312.5000     0.0628     0.0316     2.5093     9.4899   118.7059
 1313.0000     0.0544     0.0352     2.5003     9.4892   121.0970
 1313.5000     0.0493     0.0339     2.4983     9.4885   124.5281
 1314.0000     0.0549     0.0262     2.5114     9.4878   122.8010
 1314.5000     0.0605     0.0185     2.5300     9.4870   120.6768
 1315.0000     0.0661     0.0086     2.5487     9.4863   118.5877
 1315.5000     0.0716     0.0010     2.5567     9.4856   117.6192
 1316.0000     0.0685     0.0022     2.5597     9.4849   117.3586
 1316.5000     0.0564     0.0157     2.5357     9.4841   115.9468
 1317.0000     0.0450     0.0220     2.5225     9.4834   113.8494
 1317.5000     0.0446     0.0164     2.5261     9.4827   113.5396
 1318.0000     0.0445     0.0171     2.5334     9.4820   114.5586
 1318.5000     0.0517     0.0198     2.5277     9.4812   115.7456
 1319.0000     0.0587     0.0216     2.5257     9.4805   116.9187
 1319.5000     0.0561     0.0191     2.5284     9.4798   117.6930
 1320.0000     0.0524     0.0165     2.5311     9.4791   116.8777
 1320.5000     0.0569     0.0138     2.5399     9.4783   115.5670
 1321.0000     0.0620     0.0089     2.5517     9.4776   114.2382
 1321.5000     0.0625     0.0029     2.5588     9.4769   112.9157
 1322.0000     0.0586    -0.0021     2.5494     9.4761   111.7782
 1322.5000     0.0602    -0.0021     2.5509     9.4726   112.1981
 1323.0000     0.0642    -0.0001     2.5654     9.4644   115.5582
 1323.5000     0.0593     0.0134     2.5507     9.4563   119.4503
 1324.0000     0.0438     0.0263     2.5220     9.4481   121.2467
 1324.5000     0.0369     0.0327     2.5031     9.4400   117.9354
 1325.0000     0.0373     0.0331     2.5107     9.4319   115.6074
 1325.5000     0.0539     0.0202     2.5272     9.4238   114.6911
 1326.0000     0.0710     0.0010     2.5437     9.4156   119.1176
 1326.5000     0.0727     0.0064     2.5510     9.4075   120.4030
 1327.0000     0.0610     0.0147     2.5379     9.3994   118.8629
 1327.5000     0.0493     0.0220     2.5228     9.3912   118.3483
 1328.0000     0.0386     0.0224     2.5232     9.3831   121.9908
 1328.5000     0.0371     0.0204     2.5254     9.3777   123.7021
 1329.0000     0.0429     0.0185     2.5275     9.3735   123.4305
 1329.5000     0.0488     0.0165     2.5297     9.3694   121.1263
 1330.0000     0.0545     0.0165     2.5319     9.3652   118.6771
 1330.5000     0.0477     0.0165     2.5312     9.3611   116.2320
 1331.0000     0.0355     0.0237     2.5164     9.3570   113.4598
 1331.5000     0.0235     0.0329     2.5018     9.3529   110.5162
 1332.0000     0.0159     0.0426     2.4871     9.3488   110.6604
 1332.5000     0.0242     0.0415     2.4851     9.3447   114.0059
 1333.0000     0.0321     0.0392     2.4922     9.3403   117.6435
 1333.5000     0.0329     0.0370     2.5008     9.3481   121.2728
 1334.0000     0.0193     0.0295     2.5106     9.3584   121.6491
 1334.5000     0.0322     0.0212     2.5204     9.3687   118.5178
 1335.0000     0.0448     0.0169     2.5301     9.3790   115.9310
 1335.5000     0.0564     0.0177     2.5342     9.3892   113.3960
 1336.0000     0.0520     0.0228     2.5256     9.3995   113.4956
 1336.5000     0.0391     0.0279     2.5148     9.4098   116.2771
 1337.0000     0.0264     0.0330     2.5036     9.4200   119.0501
 1337.5000     0.0128     0.0381     2.5004     9.4303   121.1659
 1338.0000     0.0026     0.0432     2.4908     9.4405   119.7639
 1338.5000     0.0068     0.0466     2.4796     9.4508   118.0187
 1339.0000     0.0205     0.0406     2.4729     9.4611   116.9979
 1339.5000     0.0342     0.0262     2.5029     9.4713   120.0988
 1340.0000     0.0479     0.0118     2.5357     9.4816   121.4208
 1340.5000     0.0616    -0.0029     2.5634     9.4919   118.6365
 1341.0000     0.0728     0.0045     2.5549     9.5021   117.0267
 1341.5000     0.0670     0.0132     2.5399     9.5124   119.9292
 1342.0000     0.0584     0.0219     2.5247     9.5227   123.8911
 1342.5000     0.0498     0.0233     2.5197     9.5330   122.7156
 1343.0000     0.0412     0.0204     2.5241     9.5433   121.1611
 1343.5000     0.0325     0.0288     2.5177     9.5529   122.3843
 1344.0000     0.0239     0.0419     2.4981     9.5467   123.5351
 1344.5000     0.0264     0.0419     2.4951     9.5398   121.4146
 1345.0000     0.0380     0.0284     2.5036     9.5329   119.5715
 1345.5000     0.0496     0.0260     2.5119     9.5261   120.3903
 1346.0000     0.0496     0.0288     2.5064     9.5193   121.8120
 1346.5000     0.0365     0.0342     2.4973     9.5125   123.2473
 1347.0000     0.0267     0.0371     2.4939     9.5057   123.1716
 1347.5000     0.0469     0.0289     2.5113     9.4989   121.6357
