~VERSION INFORMATION
 VERS.                2.0:   CWLS LOG ASCII STANDARD - VERSION 2.0
 WRAP.                 NO:   ONE LINE PER DEPTH STEP
~WELL INFORMATION
#MNEM.UNIT      DATA TYPE    INFORMATION
#----------   ------------   ------------------------------
 STRT.F            0.0000:   START DEPTH
 STOP.F          790.0000:   STOP DEPTH
 STEP.F            0.1000:   STEP LENGTH
 NULL.          -999.2500:   NO VALUE
 COMP.   FLUOR DANIEL INC:   COMPANY
 WELL.   72-2 X-34 #72-34:   WELL
 FLD .          N.P.R. #3:   FIELD
 LOC .      S34 T39N R78W:   LOCATION
 CNTY.            NATRONA:   COUNTY
 STAT.            WYOMING:   STATE
 CTRY. UNITED STATES OF AMERICA:   COUNTRY
 SRVC.      Western Atlas:   SERVICE COMPANY
 DATE.        25-MAR-1995:   LOGDATE
 API .       490252269300:   API NUMBER
~CURVE INFORMATION
#MNEM.UNIT       API CODE    CURVE DESCRIPTION
#----------   ------------   ------------------------------
 DEPT.F                  :   
 GRR .GAPI   07 310 01 00:   GAMMA RAY
 RILD.OHMM   07 120 46 00:   INDUCTION LOG DEEP RESISTIVITY
 RILM.OHMM   07 120 44 00:   INDUCTION LOG MEDIUM RESISTIVITY
~PARAMETER INFORMATION
#MNEM.UNIT          VALUE    DESCRIPTION
#----------   ------------   ------------------------------
 PD  .                 GL:   PERMANENT DATUM
 EPD .F              5058:   ELEVATION PERMANENT DATUM
 LMF .                 KB:   LOG MEASURED FROM
 DAPD.F                10:   FEET ABOVE PERMANENT DATUM
 DMF .                 KB:   DRILLING MEASURED FROM
 EKB .F              5068:   KELLING BUSHING
 EDF .F              5067:   DRILLING FLOOR
 EGL .F              5058:   GROUND LEVEL
 DATE.        25-MAR-1995:   RUN DATE
 RUN .                  1:   RUN NUMBER
 DD  .F               796:   DEPTH DRILLER
 DL  .F               798:   DEPTH LOGGER
 BLI .F               790:   BOTTOM LOG INTERVAL
 TLI .F                96:   TOP LOG INTERVAL
 CS  .IN            9.625:   CASING SIZE
 CBD .F                95:   CASING BOTTOM DRILLER
 CBL .F                96:   CASING BOTTOM LOGGER
 BS  .IN             8.75:   BIT SIZE
 BSD .F               796:   BIT SIZE AT DEPTH
 DFT .                AIR:   DRILLING FLUID TYPE
 MRT .F                97:   MAXIMUM RECORDED TEMPERATURE
 LUN .            HL 6530:   LOGGING UNIT NUMBER
 LUL .             CASPER:   LOGGING UNIT LOCATION
 ENGI.             RAUTIO:   RECORDING ENGINEER
 WITN.             STRONG:   WITNESSED BY
 CLNT.            A2DTECH:   CLIENT CODE
 ORIG.       2", 5" PRINT:   ORIGIN OF DATA
 UWI .       490252269300:   UNIQUE WELL ID
 DICO. A2D Technologies, Inc.:   DIGITIZING COMPANY
~OTHER INFORMATION
~A    DEPT      GRR      RILD       RILM   
# ...
  673.4000   105.4365    11.6953    11.9138
  673.5000   105.1777    11.7513    11.9137
  673.6000   104.9189    11.7513    11.9135
  673.7000   104.6575    11.7513    11.9133
  673.8000   104.1446    11.7513    11.9132
  673.9000   103.4217    11.7513    11.9130
  674.0000   102.6441    11.7513    11.9128
  674.1000   101.7645    11.7513    11.9127
  674.2000   100.6778    11.7513    11.9536
  674.3000    99.3736    11.8189    11.9955
  674.4000    98.8582    11.8333    11.9954
  674.5000    98.5462    11.8333    11.9952
  674.6000    98.4423    11.8333    11.9950
  674.7000    98.4429    11.8467    11.9949
  674.8000    98.4949    11.9158    11.9947
  674.9000    98.7552    11.9158    11.9945
  675.0000    99.0150    11.9158    11.9944
  675.1000    99.2750    11.9575    11.9942
  675.2000    99.6909    11.9989    12.0777
  675.3000   100.2103    11.9989    12.0776
  675.4000   100.6772    11.9989    12.0774
  675.5000   100.9362    11.9989    12.0772
  675.6000   100.9370    11.9989    12.0771
  675.7000   100.5197    11.9989    12.0769
  675.8000    99.6871    11.9989    12.0767
  675.9000    98.6502    11.9989    12.0766
  676.0000    97.5590    11.9989    12.0764
  676.1000    96.2629    11.9989    12.0762
  676.2000    94.7199    11.9989    12.0761
  676.3000    94.0904    11.9989    12.0759
  676.4000    93.3130    11.9989    12.0757
  676.5000    92.6420    11.9989    12.0756
  676.6000    92.1234    11.9989    12.0754
  676.7000    91.6091    11.9989    12.0752
  676.8000    91.3021    11.9989    12.0751
  676.9000    91.3026    11.9989    12.0749
  677.0000    91.3033    11.9989    12.0747
  677.1000    91.4120    11.9989    12.0746
  677.2000    91.7845    11.9989    12.0744
  677.3000    92.5586    11.9989    12.0742
  677.4000    93.1721    11.9989    12.0741
  677.5000    93.8101    11.9989    12.0739
  677.6000    94.2674    11.9989    12.0736
  677.7000    94.5275    11.9949    12.0735
  677.8000    94.7297    11.9786    12.0299
  677.9000    94.7303    11.9623    11.9895
  678.0000    94.7311    11.9460    11.9894
  678.1000    94.3041    11.9297    11.9892
  678.2000    93.7858    11.9134    11.9890
  678.3000    93.3782    11.8970    11.9315
  678.4000    93.0017    11.8807    11.9055
  678.5000    92.2166    11.8644    11.9053
  678.6000    91.0023    11.8481    11.8894
  678.7000    90.3577    11.8318    11.8205
  678.8000    89.7434    11.8155    11.7404
  678.9000    89.2252    11.7992    11.7403
  679.0000    88.7672    11.7828    11.7401
  679.1000    88.5083    11.7665    11.7399
  679.2000    88.2066    11.7513    11.7398
  679.3000    87.9907    11.7513    11.7396
  679.4000    87.8967    11.6923    11.7394
  679.5000    88.1233    11.6699    11.7393
  679.6000    88.6425    11.6699    11.6959
  679.7000    89.1721    11.6513    11.6575
  679.8000    90.0766    11.5891    11.6574
  679.9000    90.9475    11.5891    11.6572
  680.0000    91.8195    11.5302    11.6570
  680.1000    92.5983    11.5088    11.6569
  680.2000    93.2522    11.4767    11.6135
  680.3000    93.5340    11.4291    11.5757
  680.4000    94.4349    11.4291    11.5756
  680.5000    94.8731    11.4291    11.5754
  680.6000    95.3923    11.4291    11.5753
  680.7000    95.9117    11.3835    11.5186
  680.8000    96.4312    11.3499    11.4947
  680.9000    96.9506    11.3499    11.4648
  681.0000    97.5491    11.3436    11.4148
  681.1000    98.2098    11.2713    11.4146
  681.2000    98.9885    11.2713    11.4144
  681.3000    99.6506    11.2257    11.4143
  681.4000   100.2353    11.1932    11.4141
  681.5000   100.9870    11.1735    11.3841
  681.6000   101.2853    11.1157    11.3347
  681.7000   101.2859    11.1157    11.3345
  681.8000   101.2865    11.0574    11.3343
  681.9000   101.2871    11.0387    11.3342
  682.0000   101.2878    11.0387    11.3340
  682.1000   101.2883    11.0387    11.3039
  682.2000   101.2890    11.0387    11.2552
  682.3000   101.0672    11.0387    11.2550
  682.4000   100.9792    11.0387    11.2548
  682.5000   100.8604    11.0387    11.1988
  682.6000   100.6017    11.0054    11.1338
  682.7000   100.3428    10.9622    11.0988
  682.8000   100.0486    10.9622    11.0987
  682.9000   100.0492    10.9622    11.0985
  683.0000   100.0498    10.9622    11.0984
  683.1000   100.1709    10.9622    11.0983
  683.2000   100.4308    10.9622    11.0981
  683.3000   100.6737    10.9622    11.0680
  683.4000   100.6744    10.9622    11.0209
  683.5000   100.9001    10.9622    11.0207
  683.6000   101.1601    10.9622    11.0205
  683.7000   101.4201    10.9154    11.0204
  683.8000   101.6803    10.8863    11.0202
  683.9000   101.9401    10.8863    11.0201
  684.0000   102.2334    10.8863    11.0200
  684.1000   102.4602    10.8863    11.0198
  684.2000   102.8947    10.8863    11.0196
  684.3000   103.2912    10.8863    11.0195
  684.4000   103.5513    10.8863    11.0193
  684.5000   103.8311    10.8863    11.0191
  684.6000   104.4144    10.8960    11.0190
  684.7000   104.6425    10.9622    11.0188
  684.8000   104.7266    10.9622    11.0187
  684.9000   104.8515    10.9622    11.0186
  685.0000   105.1842    10.9622    11.0184
  685.1000   105.6616    10.9622    11.0182
  685.2000   105.6623    10.9622    11.0181
  685.3000   105.6628    10.9622    11.0179
  685.4000   105.3095    11.0238    11.0177
  685.5000   104.9166    11.0387    11.0743
  685.6000   104.6577    11.0387    11.0944
  685.7000   104.4211    11.0387    11.0942
  685.8000   104.4218    11.0387    11.0941
  685.9000   104.4224    11.0387    11.0939
  686.0000   104.4230    11.1014    11.0937
  686.1000   104.4236    11.1157    11.0936
  686.2000   104.4243    11.1157    11.1379
  686.3000   104.4249    11.1157    11.2026
  686.4000   104.4256    11.1275    11.2486
  686.5000   104.4261    11.1932    11.2544
  686.6000   104.6062    11.1932    11.3267
  686.7000   104.7384    11.1932    11.3266
  686.8000   104.7391    11.2315    11.3264
  686.9000   104.7397    11.2713    11.3589
  687.0000   104.7403    11.2839    11.4052
  687.1000   104.7409    11.3499    11.4114
  687.2000   104.5607    11.3499    11.4845
  687.3000   104.4311    11.4025    11.5443
  687.4000   104.2766    11.4688    11.6114
  687.5000   103.7843    11.5088    11.6449
  687.6000   103.4999    11.5223    11.6652
  687.7000   102.7993    11.5894    11.7328
  687.8000   102.3858    11.6699    11.8075
  687.9000   101.9965    11.7246    11.8694
  688.0000   101.4783    11.7929    11.9384
  688.1000   100.9873    11.8615    12.0076
  688.2000   100.7043    11.9304    12.0773
  688.3000    99.9997    12.0005    12.1549
  688.4000    99.5889    12.1669    12.3098
  688.5000    99.4619    12.2828    12.3747
  688.6000    99.4625    12.4262    12.4980
  688.7000    99.4916    12.5712    12.6061
  688.8000    99.7749    12.7177    12.7255
  688.9000    99.7754    12.8676    12.9484
  689.0000    99.7761    13.1337    13.1955
  689.1000    99.7767    13.3241    13.4069
  689.2000    99.7773    13.5086    13.6423
  689.3000    99.7779    13.7352    13.9237
  689.4000    99.7786    14.0381    14.2237
  689.5000    99.3043    14.2843    14.4729
  689.6000    98.6005    14.5771    14.7478
  689.7000    97.6888    14.7192    14.9854
  689.8000    96.5692    14.9466    15.2486
  689.9000    95.2422    15.1699    15.5636
  690.0000    93.5615    15.3253    15.8984
  690.1000    92.3690    15.4218    16.1886
  690.2000    90.5114    15.7354    16.5978
  690.3000    87.4881    15.8906    16.7764
  690.4000    84.1841    16.0157    17.1164
  690.5000    82.1742    16.1509    17.4641
  690.6000    80.5014    16.3394    17.7702
  690.7000    78.5825    16.5299    18.0682
  690.8000    76.3210    16.7513    18.2941
  690.9000    74.1233    16.9183    18.5921
  691.0000    72.3030    17.1158    18.9184
  691.1000    71.0405    17.2694    19.1907
  691.2000    69.9297    17.3963    19.4143
  691.3000    68.9662    17.5992    19.6255
  691.4000    68.4972    17.8328    19.7473
  691.5000    68.3764    18.1034    19.8541
