~VERSION INFORMATION
 VERS.                2.0:   CWLS LOG ASCII STANDARD - VERSION 2.0
 WRAP.                 NO:   ONE LINE PER DEPTH STEP
~WELL INFORMATION
#MNEM.UNIT      DATA TYPE    INFORMATION
#----------   ------------   ------------------------------
 STRT.F            0.0000:   START DEPTH
 STOP.F          663.0000:   STOP DEPTH
 STEP.F            0.1000:   STEP LENGTH
 NULL.          -999.2500:   NO VALUE
 COMP.   FLUOR DANIEL INC:   COMPANY
 WELL.     62-6 X 3 #62-3:   WELL
 FLD .             TEAPOT:   FIELD
 LOC .       S3 T38N R78W:   LOCATION
 CNTY.            NATRONA:   COUNTY
 STAT.            WYOMING:   STATE
 CTRY. UNITED STATES OF AMERICA:   COUNTRY
 SRVC.      Western Atlas:   SERVICE COMPANY
 DATE.        11-APR-1995:   LOGDATE
 API .       490252270400:   API NUMBER
~CURVE INFORMATION
#MNEM.UNIT       API CODE    CURVE DESCRIPTION
#----------   ------------   ------------------------------
 DEPT.F                  :   
 GRR .GAPI   07 310 01 00:   GAMMA RAY
 RILD.OHMM   07 120 46 00:   INDUCTION LOG DEEP RESISTIVITY
 RILM.OHMM   07 120 44 00:   INDUCTION LOG MEDIUM RESISTIVITY
~PARAMETER INFORMATION
#MNEM.UNIT          VALUE    DESCRIPTION
#----------   ------------   ------------------------------
 PD  .                 GL:   PERMANENT DATUM
 EPD .F              5157:   ELEVATION PERMANENT DATUM
 LMF .                 KB:   LOG MEASURED FROM
 DAPD.F                10:   FEET ABOVE PERMANENT DATUM
 DMF .                 KB:   DRILLING MEASURED FROM
 EKB .F              5167:   KELLING BUSHING
 EDF .F              5166:   DRILLING FLOOR
 EGL .F              5157:   GROUND LEVEL
 DATE.        11-APR-1995:   RUN DATE
 RUN .                  1:   RUN NUMBER
 DD  .F               671:   DEPTH DRILLER
 DL  .F               671:   DEPTH LOGGER
 BLI .F               663:   BOTTOM LOG INTERVAL
 TLI .F                95:   TOP LOG INTERVAL
 CS  .IN            9.625:   CASING SIZE
 CBD .F                95:   CASING BOTTOM DRILLER
 CBL .F                95:   CASING BOTTOM LOGGER
 BS  .IN             8.75:   BIT SIZE
 BSD .F               671:   BIT SIZE AT DEPTH
 DFT .                AIR:   DRILLING FLUID TYPE
 MRT .F                90:   MAXIMUM RECORDED TEMPERATURE
 LUN .            HL 6530:   LOGGING UNIT NUMBER
 LUL .             CASPER:   LOGGING UNIT LOCATION
 ENGI.      PAT RASMUSSEN:   RECORDING ENGINEER
 WITN.        GARY STRONG:   WITNESSED BY
 CLNT.            A2DTECH:   CLIENT CODE
 ORIG.           5" PRINT:   ORIGIN OF DATA
 UWI .       490252270400:   UNIQUE WELL ID
 DICO. A2D Technologies, Inc.:   DIGITIZING COMPANY
~OTHER INFORMATION
~A    DEPT      GRR      RILD       RILM   
# ...
  236.6000   121.2836    10.5133    11.3150
  236.7000   121.9458    10.4546    11.3156
  236.8000   122.5462    10.3935    11.3163
  236.9000   123.0652    10.3709    11.1950
  237.0000   123.4940    10.3441    11.1114
  237.1000   123.7550    10.3010    11.0835
  237.2000   124.0120    10.3020    11.0842
  237.3000   124.0155    10.3030    11.0691
  237.4000   124.0181    10.3040    11.0037
  237.5000   124.0211    10.3050    10.9323
  237.6000   124.0241    10.2686    10.8156
  237.7000   124.1165    10.2355    10.7819
  237.8000   124.3313    10.2365    10.7459
  237.9000   124.3343    10.2375    10.6824
  238.0000   124.3378    10.2386    10.6046
  238.1000   124.3404    10.2395    10.4872
  238.2000   124.3434    10.1937    10.4879
  238.3000   124.2149    10.1704    10.4322
  238.4000   123.9598    10.1453    10.3254
  238.5000   123.7048    10.1019    10.2376
  238.6000   123.4518    10.1028    10.1771
  238.7000   123.4553    10.1039    10.1308
  238.8000   123.2410    10.1048    10.1238
  238.9000   122.8123    10.1058     9.9914
  239.0000   122.2992    10.1068     9.9386
  239.1000   121.7861    10.0823     9.9230
  239.2000   121.3173    10.0386     9.9235
  239.3000   121.0622    10.0396     9.9008
  239.4000   120.7656    10.0407     9.8556
  239.5000   120.3363    10.0416     9.8561
  239.6000   119.9960     9.9978     9.8567
  239.7000   119.7410     9.9738     9.8572
  239.8000   119.5723     9.9748     9.8578
  239.9000   119.5753     9.9758     9.8583
  240.0000   119.5783     9.9721     9.8589
  240.1000   119.2806     9.9086     9.8594
  240.2000   119.0683     9.9095     9.8600
  240.3000   118.9849     9.8668     9.8606
  240.4000   118.8594     9.8426     9.8611
  240.5000   118.6898     9.8199     9.8616
  240.6000   118.6085     9.7763     9.8622
  240.7000   118.0934     9.7772     9.8627
  240.8000   117.4945     9.7783     9.8762
  240.9000   117.0693     9.7791     9.9330
  241.0000   116.5562     9.7376     9.9336
  241.1000   115.9156     9.7132     9.9341
  241.2000   115.2289     9.6913     9.9346
  241.3000   114.6335     9.6346     9.9352
  241.4000   113.5964     9.5816     9.9357
  241.5000   112.6963     9.5827     9.9363
  241.6000   111.8475     9.5328     9.9368
  241.7000   110.9880     9.5180     9.9375
  241.8000   110.2169     9.5189     9.9380
  241.9000   109.4458     9.5198     9.9385
  242.0000   108.6747     9.5084     9.9391
  242.1000   107.8946     9.4556     9.9396
  242.2000   106.6933     9.4567     9.9402
  242.3000   106.0602     9.4575     9.9407
  242.4000   105.4578     9.4584     9.9414
  242.5000   104.8193     9.4287     9.9418
  242.6000   104.2128     9.3946     9.9424
  242.7000   103.9578     9.3839     9.9429
  242.8000   103.6988     9.3312     9.9435
  242.9000   103.0999     9.3323     9.9441
  243.0000   103.1024     9.3331     9.9423
  243.1000   102.9377     9.3340     9.8760
  243.2000   102.5582     9.3349     9.8765
  243.3000   102.1265     9.3358     9.8771
  243.4000   101.8333     9.3367     9.8776
  243.5000   101.3103     9.3376     9.8782
  243.6000   100.7114     9.2739     9.8787
  243.7000   100.5040     9.2747     9.8772
  243.8000   100.2490     9.2756     9.8112
  243.9000    99.9940     9.2765     9.8116
  244.0000    99.7390     9.2774     9.7712
  244.1000    99.5207     9.2783     9.7444
  244.2000    99.5242     9.2792     9.7237
  244.3000    99.5277     9.2802     9.6776
  244.4000    99.5301     9.2810     9.6783
  244.5000    99.3675     9.2819     9.6789
  244.6000    99.2349     9.2828     9.6793
  244.7000    99.2379     9.2837     9.6397
  244.8000    99.2771     9.2846     9.6131
  244.9000    99.5453     9.2855     9.5929
  245.0000   100.1512     9.2866     9.5362
  245.1000   100.5693     9.2873     9.4813
  245.2000   100.9237     9.2882     9.4819
  245.3000   101.3062     9.2611     9.4824
  245.4000   101.8253     9.2256     9.4829
  245.5000   102.3444     9.2265     9.4834
  245.6000   102.8796     9.2274     9.4840
  245.7000   103.1843     9.2284     9.4954
  245.8000   103.8072     9.2292     9.5515
  245.9000   104.2570     9.1935     9.5521
  246.0000   104.5181     9.1669     9.6017
  246.1000   104.8564     9.1678     9.6200
  246.2000   105.3072     9.1687     9.6206
  246.3000   105.3103     9.1696     9.6416
  246.4000   105.3133     9.1707     9.6891
  246.5000   105.1104     9.2167     9.6896
  246.6000   104.8554     9.2364     9.6902
  246.7000   104.6004     9.2373     9.7403
  246.8000   104.3454     9.2382     9.7592
  246.9000   104.0241     9.2391     9.7900
  247.0000   103.2230     9.2400     9.8493
  247.1000   102.9779     9.2410     9.8981
  247.2000   102.3133     9.2418     9.8986
  247.3000   101.7038     9.2427     9.8993
  247.4000   101.1908     9.2436     9.9501
  247.5000   100.6024     9.2445     9.9696
  247.6000    99.8956     9.2533     9.9702
  247.7000    99.6296     9.3109     9.9708
  247.8000    98.8915     9.3120     9.9820
  247.9000    98.5281     9.3127    10.0417
  248.0000    98.2731     9.3136    10.0424
  248.1000    97.9006     9.3145    10.0429
  248.2000    97.4619     9.3154    10.0843
  248.3000    97.2068     9.3163    10.1144
  248.4000    96.9399     9.3173    10.1149
  248.5000    96.9428     9.3181    10.1155
  248.6000    96.5401     9.3190    10.1161
  248.7000    96.1867     9.3550    10.1167
  248.8000    96.0482     9.3860    10.0665
  248.9000    96.0512     9.3869    10.0474
  249.0000    96.0241     9.3878    10.0176
  249.1000    95.7562     9.3888     9.9786
  249.2000    95.7590     9.3896     9.9791
  249.3000    95.7620     9.3906     9.9797
  249.4000    95.6064     9.3915     9.9109
  249.5000    95.3514     9.3924     9.9113
  249.6000    95.2410     9.3933     9.8723
  249.7000    95.5020     9.3942     9.8140
  249.8000    95.7773     9.3952     9.7560
  249.9000    96.0241     9.3961     9.7080
  250.0000    96.0843     9.3970     9.7086
  250.1000    96.2450     9.3979     9.6417
  250.2000    96.6204     9.3988     9.5942
  250.3000    97.0683     9.3844     9.5376
  250.4000    97.3012     9.3353     9.4812
  250.5000    97.3044     9.3364     9.4438
  250.6000    97.7932     9.3372     9.4351
  250.7000    98.1125     9.3381     9.3791
  250.8000    98.3735     9.3391     9.3797
  250.9000    98.6345     9.3400     9.3338
  251.0000    98.9659     9.3262     9.2787
  251.1000    99.4578     9.2769     9.2239
  251.2000    99.7351     9.2779     9.1873
  251.3000    99.7380     9.2788     9.1878
  251.4000    99.9397     9.2378     9.1883
  251.5000   100.2008     9.1838     9.1889
  251.6000   100.3494     9.1532     9.1441
  251.7000   100.2831     9.1402     9.1259
  251.8000   100.0281     9.0914     9.1264
  251.9000    99.7562     9.0924     9.1269
  252.0000    99.5181     9.0436     9.1274
  252.1000    99.4608     9.0310     9.1279
  252.2000    99.4639     9.0006     9.1285
  252.3000    99.4669     8.9480     9.0843
  252.4000    99.5382     8.8957     9.0306
  252.5000    99.7741     8.8477     9.0033
  252.6000    99.7773     8.8487     8.9867
  252.7000   100.5000     8.8017     8.9416
  252.8000   100.8835     8.7503     8.9422
  252.9000   101.2982     8.6696     8.9428
  253.0000   101.8173     8.6090     8.9432
  253.1000   102.2691     8.5977     8.9090
  253.2000   102.5542     8.5509     8.8564
  253.3000   103.1117     8.5519     8.8041
  253.4000   103.1145     8.4615     8.7520
  253.5000   103.1175     8.3985     8.6993
  253.6000   103.1205     8.3775     8.6653
  253.7000   103.0140     8.3586     8.6306
  253.8000   102.6928     8.2986     8.5959
  253.9000   102.1797     8.2038     8.5613
  254.0000   101.6267     8.1507     8.5266
  254.1000   100.9156     8.1083     8.4919
  254.2000    99.9498     8.0956     8.4572
  254.3000    98.9206     8.0433     8.4226
  254.4000    97.8915     7.9669     8.3879
  254.5000    96.9277     7.9203     8.3523
  254.6000    96.2226     7.8740     8.3047
  254.7000    96.2262     7.8226     8.2953
