~VERSION INFORMATION
 VERS.                2.0:   CWLS LOG ASCII STANDARD - VERSION 2.0
 WRAP.                 NO:   ONE LINE PER DEPTH STEP
~WELL INFORMATION
#MNEM.UNIT      DATA TYPE    INFORMATION
#----------   ------------   ------------------------------
 STRT.F            1.0000:   START DEPTH
 STOP.F          524.0000:   STOP DEPTH
 STEP.F            0.1000:   STEP LENGTH
 NULL.          -999.2500:   NO VALUE
 COMP.       F D SERV INC:   COMPANY
 WELL.    87-2 SX-3 #87-3:   WELL
 FLD .             TEAPOT:   FIELD
 LOC .       S3 T38N R78W:   LOCATION
 CNTY.            NATRONA:   COUNTY
 STAT.            WYOMING:   STATE
 CTRY. UNITED STATES OF AMERICA:   COUNTRY
 SRVC.     Atlas Wireline:   SERVICE COMPANY
 DATE.        20-OCT-1992:   LOGDATE
 API .       490252254700:   API NUMBER
~CURVE INFORMATION
#MNEM.UNIT       API CODE    CURVE DESCRIPTION
#----------   ------------   ------------------------------
 DEPT.F                  :   
 GRR .GAPI   07 310 01 00:   GAMMA RAY
 RILD.OHMM   07 120 46 00:   INDUCTION LOG DEEP RESISTIVITY
 RILM.OHMM   07 120 44 00:   INDUCTION LOG MEDIUM RESISTIVITY
~PARAMETER INFORMATION
#MNEM.UNIT          VALUE    DESCRIPTION
#----------   ------------   ------------------------------
 PD  .                 GL:   PERMANENT DATUM
 EPD .F              5124:   ELEVATION PERMANENT DATUM
 LMF .                 KB:   LOG MEASURED FROM
 DAPD.F                10:   FEET ABOVE PERMANENT DATUM
 DMF .                 KB:   DRILLING MEASURED FROM
 EKB .F              5134:   KELLING BUSHING
 EDF .F              5133:   DRILLING FLOOR
 EGL .F              5124:   GROUND LEVEL
 DATE.        20-OCT-1992:   RUN DATE
 RUN .                  1:   RUN NUMBER
 DD  .F               533:   DEPTH DRILLER
 DL  .F               532:   DEPTH LOGGER
 BLI .F               524:   BOTTOM LOG INTERVAL
 TLI .F                74:   TOP LOG INTERVAL
 CS  .IN            8.625:   CASING SIZE
 CBD .F                85:   CASING BOTTOM DRILLER
 CBL .F                74:   CASING BOTTOM LOGGER
 BS  .IN            7.875:   BIT SIZE
 BSD .F               533:   BIT SIZE AT DEPTH
 DFT .           AIR FOAM:   DRILLING FLUID TYPE
 TCS .HRS               3:   TIME CURCULATED STOPPED
 MRT .F                70:   MAXIMUM RECORDED TEMPERATURE
 LUN .            HL-6274:   LOGGING UNIT NUMBER
 LUL .             CASPER:   LOGGING UNIT LOCATION
 ENGI.             RAUTIO:   RECORDING ENGINEER
 WITN.        GARY STRONG:   WITNESSED BY
 CLNT.            A2DTECH:   CLIENT CODE
 ORIG.           5" PRINT:   ORIGIN OF DATA
 UWI .       490252254700:   UNIQUE WELL ID
 DICO. A2D Technologies, Inc.:   DIGITIZING COMPANY
~OTHER INFORMATION
~A    DEPT     GRR       RILD       RILM   
# ...
  110.2000   135.3922     8.1412     8.1297
  110.3000   135.7728     8.1157     8.1294
  110.4000   136.0194     8.0833     8.1291
  110.5000   136.2671     8.0828     8.1287
  110.6000   136.2671     8.0821     8.1284
  110.7000   136.2671     8.0816     8.1280
  110.8000   135.8713     8.0811     8.1277
  110.9000   134.6810     8.0805     8.1274
  111.0000   132.4250     8.0799     8.1270
  111.1000   129.2868     8.0793     8.1267
  111.2000   128.0389     8.0788     8.1253
  111.3000   126.7102     8.0782     8.0791
  111.4000   125.7598     8.0777     8.0692
  111.5000   125.2291     8.0771     8.0689
  111.6000   124.4310     8.0766     8.0685
  111.7000   124.4310     8.1228     8.0636
  111.8000   124.7717     8.1321     8.0118
  111.9000   125.1515     8.1315     8.0115
  112.0000   125.4547     8.1310     7.9822
  112.1000   125.9484     8.1304     7.9552
  112.2000   126.6877     8.1297     7.9548
  112.3000   127.9964     8.1293     7.9545
  112.4000   129.4762     8.1287     7.9116
  112.5000   130.8043     8.1281     7.8986
  112.6000   131.7717     8.1275     7.8982
  112.7000   132.6252     8.1269     7.8979
  112.8000   133.2516     8.1264     7.8964
  112.9000   133.6876     8.1258     7.8515
  113.0000   133.9342     8.1253     7.8420
  113.1000   134.1426     8.1247     7.8417
  113.2000   133.8392     8.1226     7.8414
  113.3000   133.3831     8.0668     7.8364
  113.4000   133.0610     8.0297     7.7862
  113.5000   132.7000     7.9836     7.7859
  113.6000   132.3217     7.9377     7.7573
  113.7000   132.3217     7.8921     7.7312
  113.8000   132.3217     7.8416     7.7229
  113.9000   132.5121     7.8018     7.6768
  114.0000   132.7587     7.7570     7.6765
  114.1000   133.0820     7.7125     7.6762
  114.2000   133.5753     7.6682     7.6759
  114.3000   134.1426     7.6227     7.6671
  114.4000   134.3523     7.6222     7.6343
  114.5000   134.7517     7.5898     7.6216
  114.6000   135.2449     7.5680     7.6213
  114.7000   135.6991     7.5674     7.6209
  114.8000   135.9636     7.5669     7.6206
  114.9000   136.4212     7.5663     7.6157
  115.0000   136.7425     7.4958     7.5670
  115.1000   136.8741     7.4603     7.5667
  115.2000   136.8741     7.4597     7.5388
  115.3000   136.8741     7.4592     7.5135
  115.4000   136.8741     7.4586     7.5053
  115.5000   136.8741     7.4201     7.4607
  115.6000   136.6054     7.4057     7.4201
  115.7000   136.0346     7.3866     7.4082
  115.8000   135.2741     7.3530     7.3873
  115.9000   134.1426     7.3525     7.3561
  116.0000   133.3009     7.3110     7.3545
  116.1000   132.6216     7.2691     7.3044
  116.2000   132.1283     7.2489     7.3041
  116.3000   131.6749     7.2484     7.2802
  116.4000   131.4112     7.2479     7.2528
  116.5000   131.1816     7.2473     7.2479
  116.6000   131.2805     7.2125     7.2017
  116.7000   131.4112     7.1958     7.2015
  116.8000   131.4703     7.1953     7.2012
  116.9000   131.7169     7.1888     7.2009
  117.0000   131.9636     7.1442     7.2006
  117.1000   132.2102     7.1437     7.2002
  117.2000   132.4568     7.1713     7.2000
  117.3000   132.7035     7.1928     7.1997
  117.4000   132.9501     7.1729     7.1994
  117.5000   133.2322     7.0876     7.1991
  117.6000   133.4434     7.0876     7.1988
  117.7000   133.5357     7.0875     7.1984
  117.8000   133.5357     7.0875     7.1981
  117.9000   133.4950     7.0874     7.1978
  118.0000   133.2322     7.0874     7.1975
  118.1000   133.0017     7.0873     7.1972
  118.2000   132.7551     7.0873     7.1969
  118.3000   132.3917     7.0872     7.1966
  118.4000   131.8984     7.0872     7.2231
  118.5000   131.4052     7.0871     7.2464
  118.6000   130.9119     7.0871     7.2461
  118.7000   130.4186     7.0870     7.2458
  118.8000   130.1973     7.0870     7.2455
  118.9000   130.1973     7.1061     7.2753
  119.0000   130.1973     7.1365     7.2956
  119.1000   130.1973     7.1364     7.3065
  119.2000   130.4093     7.1364     7.3460
  119.3000   130.5008     7.1363     7.3456
  119.4000   130.5991     7.1589     7.3792
  119.5000   130.8457     7.1862     7.3965
  119.6000   131.1077     7.1902     7.4108
  119.7000   131.3390     7.2364     7.4476
  119.8000   131.5856     7.2364     7.4472
  119.9000   131.9498     7.2363     7.4845
  120.0000   132.4431     7.2532     7.4988
  120.1000   132.9364     7.2869     7.5166
  120.2000   133.4297     7.2868     7.5590
  120.3000   133.9229     7.2868     7.6031
  120.4000   134.4162     7.3167     7.6028
  120.5000   134.8295     7.3583     7.6342
  120.6000   135.0762     7.4001     7.6553
  120.7000   135.3566     7.4407     7.6669
  120.8000   135.3566     7.4407     7.7101
  120.9000   135.3566     7.4747     7.7618
  121.0000   135.3566     7.4927     7.7974
  121.1000   135.3566     7.5073     7.8155
  121.2000   135.3566     7.5499     7.8152
  121.3000   135.3566     7.5978     7.8202
  121.4000   135.3566     7.6360     7.8692
  121.5000   135.3566     7.6795     7.9087
  121.6000   135.3566     7.7231     7.9533
  121.7000   135.3519     7.7583     7.9982
  121.8000   135.1053     7.7582     8.0433
  121.9000   135.0531     7.8009     8.0901
  122.0000   135.0531     7.8453     8.1343
  122.1000   135.0531     7.8899     8.1460
  122.2000   135.0293     7.9347     8.1691
  122.3000   134.7496     7.9798     8.2152
  122.4000   134.5360     8.0333     8.2615
  122.5000   134.2893     8.0708     8.3167
  122.6000   133.9427     8.1167     8.3164
  122.7000   133.4495     8.1628     8.3437
  122.8000   132.9287     8.2031     8.3908
  122.9000   132.4629     8.2030     8.4322
  123.0000   131.9697     8.2875     8.4318
  123.1000   131.4764     8.3182     8.4314
  123.2000   130.9831     8.3391     8.4311
  123.3000   130.4898     8.3864     8.4307
  123.4000   129.9966     8.4349     8.4304
  123.5000   128.1534     8.4348     8.4300
  123.6000   126.7727     8.4710     8.4297
  123.7000   125.3920     8.4938     8.4293
  123.8000   124.0113     8.5080     8.4290
  123.9000   122.9212     8.5531     8.4286
  124.0000   121.9394     8.5530     8.4283
  124.1000   120.9576     8.5530     8.4279
  124.2000   119.9757     8.5529     8.4471
  124.3000   118.9940     8.5529     8.4862
  124.4000   118.7879     8.5528     8.4858
  124.5000   119.0606     8.5527     8.4855
  124.6000   119.7879     8.5527     8.4851
  124.7000   121.0152     8.5526     8.4615
  124.8000   122.4242     8.5526     8.4255
  124.9000   123.4697     8.5525     8.4251
  125.0000   124.3939     8.5525     8.4247
  125.1000   125.2242     8.5040     8.3866
  125.2000   126.2424     8.4929     8.3655
  125.3000   127.5758     8.4928     8.3494
  125.4000   128.6970     8.4927     8.3018
  125.5000   129.9242     8.4887     8.2486
  125.6000   131.0424     8.4336     8.2483
  125.7000   132.0242     8.4335     8.2180
  125.8000   133.0303     8.4335     8.1713
  125.9000   133.2697     8.4146     8.1247
  126.0000   133.3333     8.3669     8.0762
  126.1000   133.0849     8.3164     8.0759
  126.2000   132.5939     8.3164     8.0755
  126.3000   132.0939     8.2831     8.0752
  126.4000   131.2121     8.2362     8.0749
  126.5000   131.0152     8.2009     8.0745
  126.6000   130.9091     8.2001     8.0742
  126.7000   130.9091     8.1537     8.0738
  126.8000   130.9091     8.1437     8.0735
  126.9000   130.9091     8.1437     8.0732
  127.0000   131.3333     8.1285     8.0728
  127.1000   131.8242     8.0869     8.0724
  127.2000   132.3152     8.0869     8.0721
  127.3000   132.8061     8.0868     8.0718
  127.4000   133.3333     8.0868     8.0715
  127.5000   133.7879     8.0867     8.0711
  127.6000   134.1091     8.0784     8.0708
  127.7000   134.4667     8.0304     8.0705
  127.8000   134.9576     8.0303     8.0701
  127.9000   135.4545     8.0303     8.0698
  128.0000   136.1817     8.0302     8.0694
  128.1000   136.7333     8.0302     8.0677
  128.2000   136.4606     8.0301     8.0126
  128.3000   135.3394     8.0300     8.0124
