~VERSION INFORMATION
 VERS.                2.0:   CWLS LOG ASCII STANDARD - VERSION 2.0
 WRAP.                 NO:   ONE LINE PER DEPTH STEP
~WELL INFORMATION
#MNEM.UNIT      DATA TYPE    INFORMATION
#----------   ------------   ------------------------------
 STRT.F            7.0000:   START DEPTH
 STOP.F          480.0000:   STOP DEPTH
 STEP.F            0.1000:   STEP LENGTH
 NULL.          -999.2500:   NO VALUE
 COMP.       F D SERV INC:   COMPANY
 WELL.    67-2 SX-3 #67-3:   WELL
 FLD .          N.P.R. #3:   FIELD
 LOC .       S3 T38N R78W:   LOCATION
 CNTY.            NATRONA:   COUNTY
 STAT.            WYOMING:   STATE
 CTRY. UNITED STATES OF AMERICA:   COUNTRY
 SRVC.     Atlas Wireline:   SERVICE COMPANY
 DATE.        12-FEB-1992:   LOGDATE
 API .       490252250400:   API NUMBER
~CURVE INFORMATION
#MNEM.UNIT       API CODE    CURVE DESCRIPTION
#----------   ------------   ------------------------------
 DEPT.F                  :   
 SPR .MV     07 010 01 00:   SPONTANEOUS POTENTIAL
 GRR .GAPI   07 310 01 00:   GAMMA RAY
 RILD.OHMM   07 120 46 00:   INDUCTION LOG DEEP RESISTIVITY
 RILM.OHMM   07 120 44 00:   INDUCTION LOG MEDIUM RESISTIVITY
 RFOC.OHMM   07 220 04 00:   RESISTIVITY FOCUSED LOG
~PARAMETER INFORMATION
#MNEM.UNIT          VALUE    DESCRIPTION
#----------   ------------   ------------------------------
 PD  .                 GL:   PERMANENT DATUM
 EPD .F              5165:   ELEVATION PERMANENT DATUM
 LMF .                 KB:   LOG MEASURED FROM
 DAPD.F                10:   FEET ABOVE PERMANENT DATUM
 DMF .                 KB:   DRILLING MEASURED FROM
 EKB .F              5175:   KELLING BUSHING
 EDF .F              5174:   DRILLING FLOOR
 EGL .F              5165:   GROUND LEVEL
 DATE.        12-FEB-1992:   RUN DATE
 RUN .                  1:   RUN NUMBER
 DD  .F               487:   DEPTH DRILLER
 DL  .F               485:   DEPTH LOGGER
 BLI .F               482:   BOTTOM LOG INTERVAL
 CS  .IN            8.625:   CASING SIZE
 CBD .F               183:   CASING BOTTOM DRILLER
 CBL .F               186:   CASING BOTTOM LOGGER
 BS  .IN            7.875:   BIT SIZE
 BSD .F               487:   BIT SIZE AT DEPTH
 DFT .           CHEM GEL:   DRILLING FLUID TYPE
 DFD .               16.1:   DRILLING FLUID DENSITY
 DFV .                 43:   DRILLING FLUID VISCOSITY
 DFPH.                9.5:   DRILLING FLUID PH
 DFL .               11.8:   DRILLING FLUID LOSS
 MSS .           MUD TANK:   MUD SAMPLE SOURCE
 RMS .OHMM           2.36:   RESISTIVITY MUD SAMPLE
 MST .F                65:   MUD SAMPLE TEMPERATURE
 RMF .OHMM           1.17:   RESISTIVITY MUD FILTRATE SAMPLE
 MFST.F                65:   MUD FILTRATE SAMPLE TEMPERATURE
 RMC .OHMM           5.18:   RESISTIVITY MUD CAKE
 MCST.F                65:   MUD CAKE SAMPLE TEMPERATURE
 MFSS.               MEAS:   MUD FILTRATE SAMPLE SOURCE
 MCSS.               CALC:   MUD CAKE SAMPLE SOURCE
 RMB .OHMM           1.67:   RESISTIVITY MUD AT BHT
 BHT .F                92:   BOTTOM HOLE TEMPERATURE
 TCS .HRS               2:   TIME CURCULATED STOPPED
 MRT .F                92:   MAXIMUM RECORDED TEMPERATURE
 LUN .           HL- 6224:   LOGGING UNIT NUMBER
 LUL .             CASPER:   LOGGING UNIT LOCATION
 ENGI.        VERN RAUTIO:   RECORDING ENGINEER
 WITN.        GARY STRONG:   WITNESSED BY
 CLNT.            A2DTECH:   CLIENT CODE
 ORIG.           5" PRINT:   ORIGIN OF DATA
 UWI .       490252250400:   UNIQUE WELL ID
 DICO. A2D Technologies, Inc.:   DIGITIZING COMPANY
~OTHER INFORMATION
~A    DEPT     SPR        GRR       RILD       RILM       RFOC   
# ...
  373.0000   -42.4334    74.9985    25.4850    24.1763    25.2263
  373.1000   -42.5552    74.6751    25.5188    24.2839    24.9181
  373.2000   -42.7113    74.1957    25.5195    24.4237    24.6620
  373.3000   -42.9429    73.6618    25.5633    24.5641    24.4785
  373.4000   -42.9429    72.8067    25.6996    24.7053    24.3405
  373.5000   -43.0425    72.1579    25.7005    24.8721    24.1743
  373.6000   -43.1643    71.6786    25.8215    24.8741    23.8965
  373.7000   -43.2861    71.2428    25.9684    24.9598    23.8969
  373.8000   -43.3934    70.9928    26.0637    25.0529    23.7964
  373.9000   -43.3934    70.9985    26.0821    25.0553    23.7311
  374.0000   -43.5015    71.1764    26.2477    25.0580    23.7315
  374.1000   -43.5435    71.3103    26.2483    25.1856    23.7318
  374.2000   -43.5949    71.4315    26.2491    25.3306    23.7322
  374.3000   -43.7168    71.9224    26.2499    25.3577    23.7325
  374.4000   -43.8438    72.1712    26.2771    25.2175    23.7328
  374.5000   -43.8438    72.6057    26.4352    25.0701    23.7331
  374.6000   -43.9321    73.0970    26.4359    25.0724    23.7485
  374.7000   -43.9940    73.5884    26.4366    24.9753    23.9003
  374.8000   -44.0257    74.0798    26.5079    24.9032    23.9005
  374.9000   -44.1441    74.6577    26.6232    24.9056    24.0767
  375.0000   -44.1441    75.0625    26.6239    24.9081    24.2943
  375.1000   -44.1441    75.4111    26.6247    25.0515    24.4326
  375.2000   -44.0757    75.6598    26.6255    25.0871    24.5794
  375.3000   -43.9940    75.8801    26.6262    25.1646    24.7117
  375.4000   -43.9940    75.8868    26.6269    25.3094    24.8525
  375.5000   -43.9940    75.8921    26.6276    25.4466    24.9940
  375.6000   -43.8887    76.0548    26.6285    25.4495    25.1363
  375.7000   -43.7669    76.2039    26.5059    25.4515    25.2794
  375.8000   -43.6451    76.2099    26.4447    25.4540    25.4234
  375.9000   -43.5232    76.2163    26.4455    25.4565    25.5682
  376.0000   -43.3934    76.2219    26.4291    25.4756    25.6348
  376.1000   -43.0518    76.2279    26.2631    25.6398    25.6802
  376.2000   -42.8574    76.2339    26.1337    25.6420    25.8153
  376.3000   -42.6785    76.2399    26.0819    25.5516    25.8157
  376.4000   -42.4348    76.2459    25.9630    25.4689    25.8160
  376.5000   -42.1912    76.2519    25.7218    25.4714    25.9057
  376.6000   -41.9475    76.2579    25.7226    25.4740    25.9978
  376.7000   -41.7039    76.2639    25.5876    25.4764    25.9774
  376.8000   -41.3946    76.1995    25.3441    25.4788    25.8175
  376.9000   -41.0665    75.9757    25.1257    25.4813    25.8178
  377.0000   -40.8228    75.9831    24.9526    25.4508    25.8182
  377.1000   -40.5405    75.7893    24.6714    25.3094    25.7543
  377.2000   -40.4380    75.4110    24.3968    25.3118    25.6391
  377.3000   -40.3904    74.8473    24.0211    25.2063    25.6395
  377.4000   -40.3904    74.1525    23.7573    25.0670    25.4988
  377.5000   -40.3904    73.6139    23.5860    24.9689    25.3552
  377.6000   -40.3904    72.9810    23.3214    24.9639    25.2123
  377.7000   -40.3904    72.4145    23.0126    24.8008    25.1089
  377.8000   -40.3904    71.9352    22.8023    24.6889    25.1037
  377.9000   -40.3360    71.4970    22.5469    24.5525    24.9348
  378.0000   -40.2402    71.2448    22.3809    24.4168    24.8217
  378.1000   -40.2402    70.7969    22.3677    24.2818    24.6818
  378.2000   -40.1207    70.4871    22.2266    24.1308    24.5427
  378.3000   -40.0901    70.1381    22.2272    23.7795    24.4043
  378.4000   -40.0901    69.6589    22.2278    23.5512    24.2492
  378.5000   -40.0901    69.1755    22.2284    23.3681    24.1301
  378.6000   -40.0839    68.9408    22.2290    23.1298    23.9081
  378.7000   -39.9399    68.7040    22.2297    22.9933    23.6928
  378.8000   -39.9399    68.5937    22.2303    22.7552    23.5592
  378.9000   -39.9399    68.5306    22.2309    22.5906    23.4181
  379.0000   -39.8969    68.3055    22.1738    22.4658    23.1714
  379.1000   -39.7898    68.3130    22.0775    22.3134    23.0020
  379.2000   -39.7898    68.3178    22.0782    22.0626    22.8723
  379.3000   -39.6816    68.3238    21.9557    21.8200    22.7131
  379.4000   -39.5597    68.4961    21.7402    21.6692    22.4577
  379.5000   -39.4379    69.0135    21.4968    21.4869    22.3312
  379.6000   -39.3393    69.8418    21.2896    21.2817    22.2054
  379.7000   -39.3393    70.4815    21.1702    21.1640    22.0803
  379.8000   -39.2227    71.3698    21.0294    21.0251    21.9558
  379.9000   -39.1008    72.2494    20.9337    20.8355    21.8320
  380.0000   -38.9790    72.9835    20.7491    20.6706    21.6888
  380.1000   -38.8889    73.7695    20.5559    20.5564    21.5868
  380.2000   -38.8855    74.2261    20.4407    20.4307    21.4651
  380.3000   -38.7637    74.5491    20.3112    20.1741    21.3442
  380.4000   -38.7387    74.7978    20.2122    20.0772    21.2238
  380.5000   -38.7387    74.9925    20.0990    19.9662    21.0924
  380.6000   -38.7387    74.9986    19.9863    19.8559    20.9853
  380.7000   -38.7268    75.0045    19.8743    19.7461    20.8671
  380.8000   -38.5886    75.0105    19.7548    19.6291    20.7495
  380.9000   -38.5886    75.0165    19.6522    19.6309    20.6559
  381.0000   -38.5886    75.0225    19.5421    19.5564    20.6562
  381.1000   -38.6373    75.0501    19.4326    19.4984    20.5438
  381.2000   -38.7387    75.6353    19.3477    19.4761    20.4280
  381.3000   -38.7387    76.4253    19.3483    19.3668    20.3129
  381.4000   -38.7387    77.4021    19.2415    19.2614    20.1984
  381.5000   -38.8243    78.2969    19.1338    19.2361    20.0882
  381.6000   -38.8889    79.0061    19.0817    19.1824    20.0885
  381.7000   -38.9179    79.5630    19.0523    19.1062    19.9981
  381.8000   -39.0396    79.7785    18.9501    19.1081    19.9492
  381.9000   -39.1614    80.0272    18.9507    19.1103    19.9121
  382.0000   -39.2833    80.1799    18.9512    19.1118    19.7998
  382.1000   -39.3393    80.1859    18.8907    19.1137    19.6732
  382.2000   -39.3393    80.1924    18.8205    19.0794    19.6734
  382.3000   -39.3575    79.9736    18.8102    18.9845    19.6737
  382.4000   -39.6396    79.7369    18.6907    19.1195    19.6740
  382.5000   -39.7422    79.2804    18.6911    19.1212    19.6560
  382.6000   -39.8641    78.6112    18.6255    19.1911    19.5375
  382.7000   -39.9858    78.1230    18.5622    19.2586    19.5378
  382.8000   -40.0901    77.4141    18.5628    19.2777    19.5381
  382.9000   -40.0901    76.6920    18.5633    19.3972    19.5383
  383.0000   -40.2012    75.9700    18.5637    19.3989    19.5386
  383.1000   -40.2402    75.2481    18.5643    19.4762    19.5389
  383.2000   -40.2947    74.5451    18.6123    19.5882    19.5391
  383.3000   -40.3904    74.2620    18.7182    19.7009    19.5394
  383.4000   -40.3904    73.8766    18.8268    19.8164    19.5397
  383.5000   -40.3904    73.8111    18.8273    19.8183    19.5400
  383.6000   -40.2991    74.0597    18.9073    19.9038    19.5333
  383.7000   -40.2402    74.3320    19.0148    19.9607    19.4045
  383.8000   -40.2402    74.8914    19.0935    19.9627    19.4047
  383.9000   -40.2339    75.1057    19.0981    19.9646    19.4050
  384.0000   -40.0901    75.5062    19.2283    19.9670    19.4052
  384.1000   -40.0901    75.9975    19.2288    19.9685    19.3915
  384.2000   -40.0186    76.4514    19.2911    19.9705    19.2707
  384.3000   -39.8968    76.7201    19.3645    19.9724    19.2709
  384.4000   -39.7601    77.3950    19.3650    19.9744    19.2712
  384.5000   -39.4895    77.6312    19.3656    19.9766    19.2715
  384.6000   -39.3812    77.7459    19.3661    19.9783    19.2506
  384.7000   -39.1794    77.9430    19.3667    19.9101    19.1378
  384.8000   -38.9357    77.9492    19.3672    19.8001    19.1381
  384.9000   -38.7154    78.1921    19.3845    19.7073    19.1383
  385.0000   -38.5886    78.0810    19.5039    19.7097    19.0853
  385.1000   -38.5886    77.8443    19.5044    19.6098    19.0056
