~VERSION INFORMATION
 VERS.                2.0:   CWLS LOG ASCII STANDARD - VERSION 2.0
 WRAP.                 NO:   ONE LINE PER DEPTH STEP
~WELL INFORMATION
#MNEM.UNIT      DATA TYPE    INFORMATION
#----------   ------------   ------------------------------
 STRT.F           32.0000:   START DEPTH
 STOP.F         1006.0000:   STOP DEPTH
 STEP.F            0.5000:   STEP LENGTH
 NULL.          -999.2500:   NO VALUE
 COMP. FENIX & SCISSON INC:   COMPANY
 WELL.        NPR-3 #54-2:   WELL
 FLD .             TEAPOT:   FIELD
 LOC .       S2 T38N R78W:   LOCATION
 CNTY.            NATRONA:   COUNTY
 STAT.            WYOMING:   STATE
 CTRY. UNITED STATES OF AMERICA:   COUNTRY
 SRVC.              Welex:   SERVICE COMPANY
 DATE.        08-SEP-1977:   LOGDATE
 API .       490251041600:   API NUMBER
~CURVE INFORMATION
#MNEM.UNIT       API CODE    CURVE DESCRIPTION
#----------   ------------   ------------------------------
 DEPT.F                  :   
 CALD.IN     45 280 60 00:   CALIPER FROM DENSITY LOG
 GRD .GAPI   45 310 01 00:   GAMMA RAY FROM DENSITY LOG
 CORR.G/C3   45 356 01 00:   DENSITY CORRECTION
 DPHI.DEC    45 890 12 00:   DENSITY POROSITY SANDSTONE
 RHOB.G/C3   45 350 01 00:   BULK DENSITY
 SPR .MV     07 010 01 00:   SPONTANEOUS POTENTIAL
 ILD .OHMM   07 120 46 00:   INDUCTION LOG DEEP
 ILM .OHMM   07 120 44 00:   INDUCTION LOG MEDIUM
 SGRD.OHMM   07 221 05 00:   SHALLOW SHORT GUARD RESISTIVITY
~PARAMETER INFORMATION
#MNEM.UNIT          VALUE    DESCRIPTION
#----------   ------------   ------------------------------
 PD  .                 GL:   PERMANENT DATUM
 EPD .F              5160:   ELEVATION PERMANENT DATUM
 LMF .                 KB:   LOG MEASURED FROM
 DAPD.F                10:   FEET ABOVE PERMANENT DATUM
 DMF .                 KB:   DRILLING MEASURED FROM
 EKB .F              5170:   KELLING BUSHING
 EGL .F              5160:   GROUND LEVEL
 DATE.        08-SEP-1977:   RUN DATE
 RUN .                  1:   RUN NUMBER
 DD  .F              1000:   DEPTH DRILLER
 DL  .F              1008:   DEPTH LOGGER
 BLI .F              1006:   BOTTOM LOG INTERVAL
 TLI .F                47:   TOP LOG INTERVAL
 CS  .IN            8.625:   CASING SIZE
 BS  .IN             6.75:   BIT SIZE
 BSD .F              1000:   BIT SIZE AT DEPTH
 DFT .            KCL MUD:   DRILLING FLUID TYPE
 DFD .                9.1:   DRILLING FLUID DENSITY
 BHT .F               100:   BOTTOM HOLE TEMPERATURE
 TCS .HRS            0230:   TIME CURCULATED STOPPED
 MRT .F               100:   MAXIMUM RECORDED TEMPERATURE
 ENGI.          D. LAWSON:   RECORDING ENGINEER
 WITN.         HARRINGTON:   WITNESSED BY
 CLNT.            A2DTECH:   CLIENT CODE
 ORIG.           5" PRINT:   ORIGIN OF DATA
 UWI .       490251041600:   UNIQUE WELL ID
 DICO. A2D Technologies, Inc.:   DIGITIZING COMPANY
~OTHER INFORMATION
~A   DEPT     CALD         GRD       CORR      DPHI         RHOB      SPR        ILD        ILM       SGRD   
# ...
  360.5000     6.9819    74.9418     0.0201     0.1341     2.4459   -46.2587     5.9834     7.1233     8.7788
  361.0000     6.9844    76.7595     0.0143     0.1346     2.4460   -46.2408     6.0291     7.1782     8.7242
  361.5000     6.9870    79.0257     0.0129     0.1352     2.4461   -46.2229     6.1173     7.2335     8.7303
  362.0000     6.9895    81.8898     0.0130     0.1355     2.4462   -46.2051     6.2068     7.2390     8.7971
  362.5000     6.9920    83.8815     0.0147     0.1355     2.4455   -46.1872     6.1672     7.2948     8.8030
  363.0000     6.9946    78.9483     0.0148     0.1358     2.4448   -46.1694     6.0876     7.3004     8.5568
  363.5000     7.0121    78.7700     0.0149     0.1354     2.4427   -46.1515     6.0491     7.3058     8.1059
  364.0000     7.0445    83.3311     0.0151     0.1351     2.4390   -46.1336     6.0122     7.2070     8.0618
  364.5000     7.0770    79.1698     0.0137     0.1345     2.4324   -46.1158     5.9749     7.1614     8.2942
  365.0000     7.0944    77.1012     0.0138     0.1345     2.4250   -46.0979     5.9367     7.0734     8.5430
  365.5000     7.1119    78.9189     0.0125     0.1359     2.4138   -46.0800     5.9007     7.0224     8.7900
  366.0000     7.1145    78.3450     0.0111     0.1559     2.4071   -46.0622     5.8640     6.9386     8.9071
  366.5000     7.1170    75.2240     0.0112     0.1583     2.4110   -46.1938     5.7876     6.8959     8.2609
  367.0000     7.1196    77.6456     0.0114     0.1526     2.4163   -46.3259     5.7516     6.8536     7.9302
  367.5000     7.1221    81.5561     0.0130     0.1503     2.4216   -46.3076     5.7162     6.7645     7.8795
  368.0000     7.1247    87.2602     0.0147     0.1470     2.4262   -46.2897     5.6804     6.7229     8.2209
  368.5000     7.1272    89.2214     0.0163     0.1444     2.4308   -46.2718     5.6843     6.8230     8.4576
  369.0000     7.1297    87.7567     0.0194     0.1417     2.4346   -46.2540     5.6882     6.9714     8.1190
  369.5000     7.1323    82.9974     0.0226     0.1374     2.4384   -46.2361     5.6921     7.1231     7.3739
  370.0000     7.1348    79.1350     0.0257     0.1358     2.4370   -46.2182     5.7755     7.1779     7.7455
  370.5000     7.1374    75.7211     0.0274     0.1373     2.4334   -46.2003     5.8234     7.1338     8.0239
  371.0000     7.1243    73.8019     0.0275     0.1400     2.4297   -46.1824     5.9097     7.0411     8.2550
  371.5000     7.1425    74.7228     0.0291     0.1415     2.4268   -46.0149     5.9912     6.9965     9.0389
  372.0000     7.1450    76.3910     0.0293     0.1456     2.4231   -45.9870     6.1285     6.9535     9.3622
  372.5000     7.1475    77.6109     0.0309     0.1489     2.4187   -45.8296     6.3859     6.9601     8.5620
  373.0000     7.1345    78.0773     0.0311     0.1509     2.4158   -45.8117     6.6612     7.0137     9.0576
  373.5000     7.1221    76.1641     0.0327     0.1467     2.4114   -45.7937     6.8529     7.0678     9.1902
  374.0000     7.1097    73.4976     0.0328     0.1491     2.4062   -45.7758     7.0014     7.1717     9.3896
  374.5000     7.1129    67.9909     0.0345     0.1589     2.3988   -45.7578     7.0549     7.2270     9.6600
  375.0000     7.1154    64.1286     0.0361     0.1633     2.3899   -45.4410     7.0597     7.3332     9.6667
  375.5000     7.1180    64.6010     0.0393     0.1690     2.3780   -45.4230     7.0646     7.2379     9.5387
  376.0000     7.1049    66.5682     0.0409     0.1809     2.3661   -45.5555     7.0694     7.1438     9.2861
  376.5000     7.1081    69.1333     0.0425     0.1893     2.3497   -45.7035     7.0243     7.0496     8.7917
  377.0000     7.1106    71.6985     0.0472     0.1958     2.3273   -46.0072     6.8859     6.8163     8.7355
  377.5000     7.1132    74.5625     0.0488     0.2062     2.3094   -46.3109     6.7025     6.4541     8.9266
  378.0000     7.1157    77.2771     0.0459     0.2221     2.2840   -46.5291     6.2587     5.8222     8.8696
  378.5000     7.1183    80.2907     0.0401     0.2426     2.2616   -46.8099     5.4535     5.2577     7.5179
  379.0000     7.1358    83.7527     0.0297     0.2549     2.2318   -47.0912     4.8853     4.5162     7.6280
  379.5000     7.1383    85.7199     0.0163     0.2686     2.2206   -47.3722     3.7066     3.6962     7.8477
  380.0000     7.1408    87.5376     0.0044     0.2656     2.2304   -47.6532     3.0984     3.3654     7.9626
  380.5000     7.1434    89.5049     0.0045     0.2491     2.2560   -47.9343     2.8535     2.9953     6.7700
  381.0000     7.1459    91.1731     0.0077     0.2324     2.2913   -47.4629     2.7017     2.6253     4.4438
  381.5000     7.1634    89.5529     0.0123     0.2106     2.3266   -46.9940     2.6116     2.4986     2.9139
  382.0000     7.1660    79.7114     0.0139     0.1586     2.3806   -46.3757     2.5597     2.4657     2.1272
  382.5000     7.1835    70.1689     0.0171     0.1541     2.4129   -45.7449     2.5258     2.5624     2.0991
  383.0000     7.1860    66.4560     0.0187     0.1504     2.4197   -44.9895     2.5810     2.9463     2.1803
  383.5000     7.2035    68.2738     0.0219     0.1468     2.4235   -44.2217     2.6370     3.3894     2.3816
  384.0000     7.1761    71.4318     0.0250     0.1438     2.4266   -43.6034     2.6941     4.1055     3.1093
  384.5000     7.1637    71.0574     0.0269     0.1435     2.4312   -42.9850     2.7909     4.8873     8.4101
  385.0000     7.1663    65.3503     0.0298     0.1420     2.4357   -42.3667     3.4135     5.6691    10.7242
  385.5000     7.1532    67.9012     0.0316     0.1372     2.4403   -42.2242     4.7400     6.4509    10.8172
  386.0000     7.1564    63.7253     0.0348     0.1345     2.4411   -42.2027     6.1120     7.2531    11.2724
  386.5000     7.1590    61.9844     0.0364     0.1336     2.4285   -42.1848     7.4839     8.3939    11.7588
  387.0000     7.1615    62.9207     0.0378     0.1449     2.4166   -42.3209     9.0820     9.7141    12.7865
  387.5000     7.1640    64.1628     0.0380     0.1562     2.4084   -42.2986     9.5393     9.9254    13.6182
  388.0000     7.1666    67.8268     0.0366     0.1649     2.3980   -42.5797     8.9076     9.7253    14.1077
  388.5000     7.1841    74.7116     0.0352     0.1705     2.3861   -42.8608     8.3178     9.0754    14.5140
  389.0000     7.1866    82.6281     0.0338     0.1768     2.3697   -42.9969     7.7670     8.1779    13.2736
  389.5000     7.1742    88.1851     0.0294     0.1842     2.3548   -43.1285     7.2013     7.5842    11.8896
  390.0000     7.1917    95.6353     0.0221     0.1932     2.3512   -43.2556     6.4953     6.9877    11.1789
  390.5000     7.1943    92.5203     0.0162     0.1687     2.3880   -43.6862     5.7005     6.4264    10.6548
  391.0000     7.1968    76.1018     0.0179     0.1555     2.4045   -44.2662     5.3230     5.9231     9.5201
  391.5000     7.1838    67.4562     0.0225     0.1617     2.3994   -43.3515     5.0051     5.5849     6.4693
  392.0000     7.1869    63.5938     0.0226     0.1707     2.3875   -42.1378     5.0085     5.7064     2.9457
  392.5000     7.1895    66.7569     0.0213     0.1754     2.3801   -40.9242     5.1884     6.1198     4.1101
  393.0000     7.1920    69.7704     0.0199     0.1760     2.3794   -40.0094     5.3748     6.5633    11.2259
  393.5000     7.1946    71.7376     0.0231     0.1721     2.3847   -39.0947     5.8038     7.2364    12.3773
  394.0000     7.1971    77.4418     0.0277     0.1679     2.3885   -38.3295     6.2672     7.9786    11.1638
  394.5000     7.1997    76.2700     0.0278     0.1646     2.3879   -37.7137     6.6745     8.6759    11.4853
  395.0000     7.2171    70.7633     0.0250     0.1688     2.3790   -37.2474     7.2073     9.2404    11.5731
  395.5000     7.2197    66.9009     0.0206     0.1759     2.3701   -36.9306     7.7827     9.7738    11.6615
  396.0000     7.2222    64.3839     0.0177     0.1807     2.3664   -36.6138     8.3461    10.1255    11.3401
  396.5000     7.2248    65.7532     0.0133     0.1822     2.3657   -36.2969     8.9502    10.4698    11.7588
