~VERSION INFORMATION
 VERS.                2.0:   CWLS LOG ASCII STANDARD - VERSION 2.0
 WRAP.                 NO:   ONE LINE PER DEPTH STEP
~WELL INFORMATION
#MNEM.UNIT      DATA TYPE    INFORMATION
#----------   ------------   ------------------------------
 STRT.F          276.0000:   START DEPTH
 STOP.F         2768.0000:   STOP DEPTH
 STEP.F            0.5000:   STEP LENGTH
 NULL.          -999.2500:   NO VALUE
 COMP.       TESORD PETRO:   COMPANY
 WELL. AX-20 NPR #3 #83-20:   WELL
 FLD .            WILDCAT:   FIELD
 LOC .      S20 T39N R78W:   LOCATION
 CNTY.            NATRONA:   COUNTY
 STAT.            WYOMING:   STATE
 CTRY. UNITED STATES OF AMERICA:   COUNTRY
 SRVC.       Schlumberger:   SERVICE COMPANY
 DATE.        20-JUL-1971:   LOGDATE
 API .       490251022000:   API NUMBER
~CURVE INFORMATION
#MNEM.UNIT       API CODE    CURVE DESCRIPTION
#----------   ------------   ------------------------------
 DEPT.F                  :   
 SPR .MV     05 010 01 00:   SPONTANEOUS POTENTIAL FROM RES.
 ASN .OHMM   05 041 16 00:   AMPLIFIED SHORT NORMAL 16"
 ILD .OHMM   05 120 46 00:   INDUCTION LOG DEEP
 CALD.IN     45 280 60 00:   CALIPER FROM DENSITY
 CORR.G/C3   45 356 01 00:   DENSITY CORRECTION
 DPHI.DEC    45 890 12 00:   DENSITY POROSITY SANDSTONE
 GRD .GAPI   45 310 01 00:   GAMMA RAY FROM DENSITY LOG
 RHOB.G/C3   45 350 01 00:   BULK DENSITY
 CILD.MMHO   05 110 46 00:   CONDUCTIVITY INDUCTION LOG DEEP
~PARAMETER INFORMATION
#MNEM.UNIT          VALUE    DESCRIPTION
#----------   ------------   ------------------------------
 PD  .                 GL:   PERMANENT DATUM
 EPD .F              4994:   ELEVATION PERMANENT DATUM
 LMF .                 KB:   LOG MEASURED FROM
 DAPD.F                11:   FEET ABOVE PERMANENT DATUM
 DMF .                 KB:   DRILLING MEASURED FROM
 EKB .F              5005:   KELLING BUSHING
 EGL .F              4994:   GROUND LEVEL
 DATE.        20-JUL-1971:   RUN DATE
 RUN .                  1:   RUN NUMBER
 DD  .F              2770:   DEPTH DRILLER
 DL  .F              2769:   DEPTH LOGGER
 BLI .F              2768:   BOTTOM LOG INTERVAL
 TLI .F               276:   TOP LOG INTERVAL
 CS  .IN            10.75:   CASING SIZE
 CBD .F               274:   CASING BOTTOM DRILLER
 CBL .F               276:   CASING BOTTOM LOGGER
 BS  .IN                9:   BIT SIZE
 BSD .F              2770:   BIT SIZE AT DEPTH
 DFT .      FRESH GEL MUD:   DRILLING FLUID TYPE
 DFD .                 10:   DRILLING FLUID DENSITY
 DFV .                 82:   DRILLING FLUID VISCOSITY
 DFPH.                  8:   DRILLING FLUID PH
 DFL .                4.8:   DRILLING FLUID LOSS
 MSS .           FLOWLINE:   MUD SAMPLE SOURCE
 RMS .OHMM            1.8:   RESISTIVITY MUD SAMPLE
 MST .F                73:   MUD SAMPLE TEMPERATURE
 RMF .OHMM            1.4:   RESISTIVITY MUD FILTRATE SAMPLE
 MFST.F                73:   MUD FILTRATE SAMPLE TEMPERATURE
 MFSS.               MEAS:   MUD FILTRATE SAMPLE SOURCE
 RMB .OHMM           1.15:   RESISTIVITY MUD AT BHT
 BHT .F               116:   BOTTOM HOLE TEMPERATURE
 TCS .HRS               2:   TIME CURCULATED STOPPED
 MRT .F               116:   MAXIMUM RECORDED TEMPERATURE
 LUN .               7037:   LOGGING UNIT NUMBER
 LUL .               CSPR:   LOGGING UNIT LOCATION
 ENGI.             JENSEN:   RECORDING ENGINEER
 WITN.                MAY:   WITNESSED BY
 CLNT.            A2DTECH:   CLIENT CODE
 ORIG.     1", 2.5" PRINT:   ORIGIN OF DATA
 UWI .       490251022000:   UNIQUE WELL ID
 DICO. A2D Technologies, Inc.:   DIGITIZING COMPANY
~OTHER INFORMATION
~A   DEPT      SPR          ASN        ILD     CALD       CORR       DPHI        GRD       RHOB       CILD   
# ...
 2721.5000   -23.8388     5.4541     4.0387     8.9295     0.0450     0.1259   103.2405     2.4516  -999.2500
 2722.0000   -23.8448     5.4328     4.1240     8.9588     0.0494     0.1377   103.8750     2.4165  -999.2500
 2722.5000   -23.8507     5.4030     4.1815     8.9582     0.0524     0.1347   107.6272     2.4271  -999.2500
 2723.0000   -24.1552     5.3731     4.3274     8.9576     0.0614     0.1233   114.3132     2.4583  -999.2500
 2723.5000   -24.1612     5.3731     4.3244     8.9868     0.0748     0.1066   117.9988     2.4870  -999.2500
 2724.0000   -24.1672     5.3636     4.3214     8.9862     0.0896     0.0970   115.9396     2.5074  -999.2500
 2724.5000   -24.1731     5.3037     4.3184     8.9856     0.0926     0.0940   112.8533     2.5149  -999.2500
 2725.0000   -24.1791     5.2338     4.3155     8.9850     0.0866     0.0964   110.8209     2.4992  -999.2500
 2725.5000   -24.1851     5.1540     4.2259     8.9546     0.0731     0.1096   111.2646     2.4721  -999.2500
 2726.0000   -24.1910     5.1343     4.1607     8.9540     0.0507     0.1192   110.8119     2.4521  -999.2500
 2726.5000   -24.1970     5.1449     4.0089     8.9534     0.0582     0.1168   109.3762     2.4537  -999.2500
 2727.0000   -23.9045     5.2048     3.9201     8.9528     0.0686     0.1096   106.9438     2.4666  -999.2500
 2727.5000   -23.9104     5.2945     3.8541     8.9522     0.0790     0.0983   104.6873     2.4955  -999.2500
 2728.0000   -23.6179     5.3544     3.8512     8.9516     0.0910     0.0957   102.0836     2.5085  -999.2500
 2728.5000   -23.6239     5.4143     3.8482     8.9510     0.0865     0.1025    99.9373     2.4777  -999.2500
 2729.0000   -23.3313     5.5387     3.9300     8.9504     0.0700     0.1127    96.4629     2.4553  -999.2500
 2729.5000   -23.3373     5.7132     4.0757     8.9498     0.0551     0.1223    95.1095     2.4350  -999.2500
 2730.0000   -23.9403     5.7612     4.2858     8.9492     0.0610     0.1127   104.4179     2.4705  -999.2500
 2730.5000   -23.9463     5.6828     4.5156     8.9486     0.0625     0.1071   104.9514     2.4816  -999.2500
 2731.0000   -23.9522     5.4730     4.5774     8.9779     0.0521     0.1217   102.7703     2.4511  -999.2500
 2731.5000   -23.6597     5.3731     4.7233     8.9773     0.0371     0.1187    99.6183     2.4406  -999.2500
 2732.0000   -23.3672     5.4412     4.7203     9.0065     0.0237     0.1283    96.3280     2.4106  -999.2500
 2732.5000   -23.6716     5.6209     4.7173     9.0358     0.0192     0.1379    92.1336     2.4001  -999.2500
 2733.0000   -23.6776     5.8435     4.8631     9.0650     0.0207     0.1439    84.6679     2.3867  -999.2500
 2733.5000   -24.2806     6.1099     4.8601     9.0943     0.0281     0.1481    74.6180     2.3807  -999.2500
 2734.0000   -24.8836     6.4828     4.8572     9.0937     0.0311     0.1529    73.1291     2.3806  -999.2500
 2734.5000   -24.8896     6.6752     5.0030     9.0931     0.0311     0.1505    76.7701     2.3974  -999.2500
 2735.0000   -24.5970     6.2886     5.0000     9.0925     0.0310     0.1416    85.7900     2.4287  -999.2500
 2735.5000   -24.3045     6.0771     4.9970     9.0919     0.0280     0.1386    94.7271     2.4388  -999.2500
 2736.0000   -24.0119     5.9414     4.8453     9.0913     0.0221     0.1458   106.5611     2.4055  -999.2500
 2736.5000   -23.7194     5.7773     4.8423     9.0907     0.0131     0.1488   109.8233     2.3999  -999.2500
 2737.0000   -23.1284     5.5972     4.6905     9.0901     0.0086     0.1476   106.1223     2.4393  -999.2500
 2737.5000   -22.8358     5.5672     4.6875     9.0895     0.0026     0.1374    99.2167     2.4492  -999.2500
 2738.0000   -22.8418     5.5371     4.5357     9.0889     0.0023     0.1279    96.1850     2.4372  -999.2500
 2738.5000   -22.5493     5.4619     4.5327     9.0883     0.0071     0.1201    96.3716     2.4631  -999.2500
 2739.0000   -22.5552     5.3874     4.3810     9.0877     0.0235     0.1153    97.9106     2.4959  -999.2500
 2739.5000   -22.5612     5.2819     4.3780     9.0871     0.0384     0.1135    99.7013     2.4999  -999.2500
 2740.0000   -22.2687     5.2696     4.3750     9.0865     0.0339     0.1129   100.8060     2.4606  -999.2500
 2740.5000   -22.2746     5.3755     4.4511     9.0860     0.0279     0.1153   101.2791     2.4612  -999.2500
 2741.0000   -22.2806     5.4818     4.5179     9.0555     0.0234     0.1189   100.1612     2.4584  -999.2500
 2741.5000   -22.2866     5.6316     4.6637     9.0549     0.0144     0.1238    99.7014     2.4363  -999.2500
 2742.0000   -22.2925     5.9678     4.8095     9.0543     0.0234     0.1220   101.7196     2.4445  -999.2500
 2742.5000   -22.5970     6.3194     4.9553     9.0537     0.0308     0.1106   103.7313     2.4657  -999.2500
 2743.0000   -22.6030     6.4350     5.1012     9.0531     0.0248     0.1082   101.1842     2.4790  -999.2500
 2743.5000   -22.9075     6.5075     5.0982     9.0227     0.0144     0.1106    95.1580     2.4694  -999.2500
 2744.0000   -23.2119     6.5548     5.2440     8.9922     0.0099     0.1250    95.5104     2.4503  -999.2500
 2744.5000   -23.5164     6.6623     5.2411     8.9916     0.0382     0.1268   100.4994     2.4528  -999.2500
 2745.0000   -23.8209     6.6269     5.3150     8.9612     0.0457     0.1262   102.7761     2.4653  -999.2500
 2745.5000   -23.5284     6.5075     5.3839     8.9606     0.0860     0.1197    99.1688     2.4857  -999.2500
 2746.0000   -23.2358     6.4776     5.5297     8.9600     0.0710     0.1149    93.4631     2.4788  -999.2500
 2746.5000   -22.9433     6.4776     5.5268     8.9594     0.0665     0.1197    92.2701     2.4422  -999.2500
 2747.0000   -22.9493     6.4478     5.6726     8.9588     0.0381     0.1245    92.7126     2.4337  -999.2500
 2747.5000   -22.9552     6.4776     5.6696     8.9582     0.0396     0.1239    93.6036     2.4595  -999.2500
 2748.0000   -22.9612     6.4179     5.6666     8.9875     0.0501     0.1173    94.9425     2.4859  -999.2500
 2748.5000   -22.9672     6.2985     5.5885     9.0167     0.0485     0.1107    96.2813     2.4770  -999.2500
 2749.0000   -22.6746     6.2090     5.5119     9.0460     0.0366     0.1108    98.0679     2.4660  -999.2500
 2749.5000   -22.6806     6.1493     5.3601     9.0454     0.0261     0.1150    97.6157     2.4536  -999.2500
 2750.0000   -22.6866     6.0896     5.3572     9.0746     0.0187     0.1198    89.5515     2.4375  -999.2500
 2750.5000   -22.3940     6.0299     5.2054     9.0740     0.0097     0.1246    94.0247     2.4364  -999.2500
 2751.0000   -22.1015     5.9701     5.2024     9.0734     0.0127     0.1246   101.1844     2.4379  -999.2500
 2751.5000   -22.1075     5.8806     5.1994     9.0728     0.0186     0.1240   104.7620     2.4390  -999.2500
 2752.0000   -21.8149     5.7910     5.1965     9.0722     0.0037     0.1198   103.8091     2.4492  -999.2500
 2752.5000   -21.8209     5.6716     5.0447     9.0716     0.0051     0.1126  -999.2500     2.4691  -999.2500
 2753.0000   -21.8269     5.5522     4.8929     9.0711     0.0141     0.1055  -999.2500     2.4844  -999.2500
 2753.5000   -21.8328     5.4328     4.7411     9.0705     0.0167     0.1085  -999.2500     2.4814  -999.2500
 2754.0000   -21.8388     5.3134     4.5893     9.0699     0.0150     0.1151  -999.2500     2.4615  -999.2500
 2754.5000   -21.8448     5.2537     4.4375     9.0693     0.0200     0.1193  -999.2500     2.4514  -999.2500
 2755.0000   -21.8507     5.2836     4.2857     9.0687     0.0245     0.1175  -999.2500     2.4608  -999.2500
 2755.5000   -21.8567     5.3731     4.1339     9.0681     0.0262     0.1139  -999.2500     2.4663  -999.2500
 2756.0000   -21.8627     5.4030     3.9822     9.0675     0.0242     0.1199  -999.2500     2.4529  -999.2500
 2756.5000   -21.8687     5.3433     3.9080     9.0669     0.0200     0.1217  -999.2500     2.4495  -999.2500
 2757.0000   -21.8746     5.2836     3.7565     9.0663     0.0240     0.1175  -999.2500     2.4502  -999.2500
 2757.5000   -21.8806     5.2239     3.6756     9.0657     0.0526     0.1074  -999.2500     2.4635  -999.2500
