~VERSION INFORMATION
 VERS.                2.0:   CWLS LOG ASCII STANDARD - VERSION 2.0
 WRAP.                 NO:   ONE LINE PER DEPTH STEP
~WELL INFORMATION
#MNEM.UNIT      DATA TYPE    INFORMATION
#----------   ------------   ------------------------------
 STRT.F           20.0000:   START DEPTH
 STOP.F          468.0000:   STOP DEPTH
 STEP.F            0.1000:   STEP LENGTH
 NULL.          -999.2500:   NO VALUE
 COMP. LAWRENCE/ALLISON INC:   COMPANY
 WELL.    63-51 SX #10-10:   WELL
 FLD .             TEAPOT:   FIELD
 LOC .      S10 T38N R78W:   LOCATION
 CNTY.            NATRONA:   COUNTY
 STAT.            WYOMING:   STATE
 CTRY. UNITED STATES OF AMERICA:   COUNTRY
 SRVC.           Gearhart:   SERVICE COMPANY
 DATE.        01-OCT-1988:   LOGDATE
 API .       490251125100:   API NUMBER
~CURVE INFORMATION
#MNEM.UNIT       API CODE    CURVE DESCRIPTION
#----------   ------------   ------------------------------
 DEPT.F                  :   
 GRR .GAPI   07 310 01 00:   GAMMA RAY
 RILD.OHMM   07 120 46 00:   INDUCTION LOG DEEP RESISTIVITY
 RILM.OHMM   07 120 44 00:   INDUCTION LOG MEDIUM RESISTIVITY
~PARAMETER INFORMATION
#MNEM.UNIT          VALUE    DESCRIPTION
#----------   ------------   ------------------------------
 PD  .                 GL:   PERMANENT DATUM
 EPD .F              5157:   ELEVATION PERMANENT DATUM
 LMF .                 KB:   LOG MEASURED FROM
 DAPD.F                 5:   FEET ABOVE PERMANENT DATUM
 DMF .                 KB:   DRILLING MEASURED FROM
 EKB .F              5162:   KELLING BUSHING
 EGL .F              5157:   GROUND LEVEL
 DATE.        01-OCT-1988:   RUN DATE
 RUN .                  1:   RUN NUMBER
 DD  .F               475:   DEPTH DRILLER
 DL  .F               476:   DEPTH LOGGER
 BLI .F               468:   BOTTOM LOG INTERVAL
 TLI .F                20:   TOP LOG INTERVAL
 CS  .IN            9.625:   CASING SIZE
 CBD .F                45:   CASING BOTTOM DRILLER
 CBL .F                46:   CASING BOTTOM LOGGER
 BS  .IN             7.87:   BIT SIZE
 BSD .F               475:   BIT SIZE AT DEPTH
 TLAB.HRS            1630:   TIME LOGGER AT BOTTOM
 MRT .F                75:   MAXIMUM RECORDED TEMPERATURE
 LUN .               7597:   LOGGING UNIT NUMBER
 LUL .           GILLETTE:   LOGGING UNIT LOCATION
 ENGI.              BENCK:   RECORDING ENGINEER
 WITN.             STRONG:   WITNESSED BY
 CLNT.            A2DTECH:   CLIENT CODE
 ORIG.           5" PRINT:   ORIGIN OF DATA
 UWI .       490251125100:   UNIQUE WELL ID
 DICO. A2D Technologies, Inc.:   DIGITIZING COMPANY
~OTHER INFORMATION
~A   DEPT       GRR      RILD       RILM   
# ...
  402.2000   107.7132    12.4203    12.1731
  402.3000   106.7864    12.4757    12.1733
  402.4000   106.0592    12.5083    12.2400
  402.5000   105.7099    12.5083    12.2598
  402.6000   105.7123    12.5136    12.2940
  402.7000   105.7153    12.5969    12.3646
  402.8000   105.9191    12.5969    12.4355
  402.9000   106.0250    12.6406    12.5069
  403.0000   106.1130    12.6861    12.5226
  403.1000   106.3353    12.6960    12.5228
  403.2000   106.3380    12.7760    12.5454
  403.3000   106.3401    12.7760    12.6173
  403.4000   106.5006    12.8249    12.7011
  403.5000   106.6504    12.8665    12.7012
  403.6000   106.6943    12.8665    12.7457
  403.7000   106.9608    12.8665    12.8188
  403.8000   106.9631    12.9376    12.8820
  403.9000   107.1377    13.0118    12.8822
  404.0000   107.2733    13.0494    12.8824
  404.1000   107.3316    13.0688    12.9321
  404.2000   107.5835    13.1418    12.9739
  404.3000   107.5860    13.1418    12.9891
  404.4000   107.5884    13.2014    13.0660
  404.5000   107.5909    13.2349    13.0662
  404.6000   107.5933    13.2349    13.1212
  404.7000   107.5957    13.2349    13.1590
  404.8000   107.5986    13.2349    13.1790
  404.9000   107.6006    13.2349    13.2524
  405.0000   107.7454    13.2349    13.2526
  405.1000   107.9108    13.2349    13.2527
  405.2000   107.9133    13.2461    13.2529
  405.3000   107.9160    13.3286    13.2778
  405.4000   107.9182    13.3286    13.3470
  405.5000   107.9206    13.3286    13.3473
  405.6000   107.9231    13.3286    13.3474
  405.7000   107.9255    13.3286    13.3476
  405.8000   107.9281    13.3286    13.3478
  405.9000   107.9304    13.3286    13.3597
  406.0000   107.9328    13.3286    13.4426
  406.1000   107.9353    13.3286    13.4427
  406.2000   107.9377    13.3286    13.4429
  406.3000   107.9402    13.3286    13.4431
  406.4000   107.9426    13.3286    13.4433
  406.5000   107.7598    13.3286    13.4435
  406.6000   107.6421    13.3286    13.4437
  406.7000   107.5759    13.3286    13.4439
  406.8000   107.3204    13.3286    13.4441
  406.9000   106.7339    13.3286    13.4655
  407.0000   106.5364    13.3286    13.5395
  407.1000   106.0091    13.3286    13.5398
  407.2000   105.4363    13.3286    13.5399
  407.3000   105.1665    13.3286    13.5401
  407.4000   104.6086    13.3286    13.5403
  407.5000   104.1829    13.3286    13.5405
  407.6000   103.5355    13.3286    13.5407
  407.7000   102.8942    13.3286    13.5408
  407.8000   102.4025    13.3286    13.5411
  407.9000   101.8726    13.3286    13.5413
  408.0000   101.1908    13.3286    13.5414
  408.1000   100.6218    13.3286    13.5416
  408.2000   100.2415    13.3286    13.5418
  408.3000    99.9968    13.3286    13.5420
  408.4000    99.7472    13.3286    13.5422
  408.5000    99.5073    13.3286    13.5424
  408.6000    99.4467    13.3286    13.5426
  408.7000    99.5750    13.3286    13.5428
  408.8000    99.7570    13.3286    13.5430
  408.9000    99.7781    13.3286    13.5432
  409.0000   100.3730    13.3286    13.5433
  409.1000   100.3749    13.3286    13.5435
  409.2000   100.6575    13.3286    13.5438
  409.3000   101.1541    13.3286    13.5439
  409.4000   101.6984    13.3286    13.5441
  409.5000   102.8278    13.3286    13.5443
  409.6000   103.2548    13.3286    13.5445
  409.7000   103.7515    13.3286    13.5447
  409.8000   104.3444    13.3286    13.5448
  409.9000   105.0881    13.3286    13.4953
  410.0000   105.8933    13.3286    13.4502
  410.1000   106.3491    13.3286    13.4503
  410.2000   107.0145    13.3286    13.4505
  410.3000   107.6480    13.3286    13.4507
  410.4000   108.1446    13.3286    13.4509
  410.5000   108.6535    13.3239    13.4511
  410.6000   109.1381    13.2349    13.4513
  410.7000   109.4518    13.2349    13.4515
  410.8000   109.7013    13.2349    13.4517
  410.9000   109.8846    13.2349    13.4518
  411.0000   109.8870    13.2349    13.4111
  411.1000   109.8895    13.2349    13.3577
  411.2000   109.6949    13.2349    13.3579
  411.3000   109.5890    13.2349    13.3582
  411.4000   109.5109    13.2349    13.3583
  411.5000   109.2661    13.2349    13.3585
  411.6000   108.9860    13.2349    13.3587
  411.7000   108.9881    13.2349    13.3589
  411.8000   108.9905    13.2349    13.3591
  411.9000   108.8981    13.2349    13.3592
  412.0000   108.6535    13.2349    13.3595
  412.1000   108.3874    13.2349    13.3597
  412.2000   108.1641    13.2349    13.3455
  412.3000   108.0867    13.2349    13.2662
  412.4000   107.9801    13.2349    13.2664
  412.5000   107.7863    13.2349    13.2666
  412.6000   107.7888    13.2349    13.2668
  412.7000   107.7912    13.2349    13.2669
  412.8000   107.6120    13.2349    13.2671
  412.9000   107.3673    13.2349    13.2673
  413.0000   107.1878    13.2349    13.2675
  413.1000   107.1833    13.2349    13.2677
  413.2000   106.9385    13.2349    13.2679
  413.3000   106.8898    13.2349    13.2681
  413.4000   106.7546    13.1846    13.2683
  413.5000   106.5893    13.1418    13.2684
  413.6000   106.5493    13.1418    13.2686
  413.7000   105.9839    13.1418    13.2689
  413.8000   105.7760    13.1418    13.2585
  413.9000   105.5312    13.0873    13.1760
  414.0000   105.3801    13.0494    13.1762
  414.1000   105.3118    13.0494    13.1764
  414.2000   104.7746    13.0494    13.1766
  414.3000   104.7768    13.0494    13.1616
  414.4000   104.6131    12.9907    13.0844
  414.5000   104.3684    12.9576    13.0846
  414.6000   104.1734    12.9576    13.0848
  414.7000   104.1760    12.9513    13.0479
  414.8000   103.7010    12.8665    12.9933
  414.9000   103.3897    12.8665    12.9914
  415.0000   103.1451    12.8665    12.9176
  415.1000   102.9642    12.8665    12.9026
  415.2000   102.9611    12.8557    12.8617
  415.3000   102.7164    12.7760    12.7886
  415.4000   102.6663    12.7760    12.7159
  415.5000   102.6687    12.7265    12.6334
  415.6000   102.7493    12.6540    12.5721
  415.7000   102.9989    12.5818    12.5450
  415.8000   103.2871    12.5083    12.4902
  415.9000   103.7070    12.5083    12.3591
  416.0000   104.3545    12.4555    12.2831
  416.1000   105.1905    12.3845    12.2192
  416.2000   106.1811    12.3139    12.1972
  416.3000   107.2686    12.2437    12.1354
  416.4000   107.9402    12.1601    12.0122
  416.5000   108.6837    12.1045    11.9426
  416.6000   109.2144    12.0356    11.8762
  416.7000   109.4640    11.9669    11.8590
  416.8000   109.7235    11.8987    11.7906
  416.9000   109.9632    11.8216    11.6750
  417.0000   110.0336    11.7634    11.6087
  417.1000   110.0360    11.6964    11.5301
  417.2000   110.1013    11.6297    11.5302
  417.3000   110.3462    11.5634    11.4929
  417.4000   110.3487    11.4926    11.4496
  417.5000   110.3512    11.4926    11.4430
  417.6000   110.3536    11.4473    11.3695
  417.7000   110.3561    11.3820    11.3135
  417.8000   110.3585    11.3172    11.2493
  417.9000   110.3613    11.2518    11.2109
  418.0000   110.3633    11.1885    11.2006
  418.1000   110.3658    11.1727    11.1325
  418.2000   110.4594    11.1727    11.0737
  418.3000   110.6760    11.1546    11.0546
  418.4000   110.6787    11.0941    11.0258
  418.5000   110.6809    11.0941    10.9772
  418.6000   110.6834    11.0426    10.9774
  418.7000   110.6858    11.0161    10.9776
  418.8000   110.6883    11.0161    10.9304
  418.9000   110.6908    11.0091    10.9008
  419.0000   110.6931    10.9386    10.9009
  419.1000   110.6955    10.9386    10.8978
  419.2000   110.6980    10.8986    10.8247
  419.3000   110.7619    10.8617    10.8248
  419.4000   111.0082    10.8617    10.7890
  419.5000   111.0107    10.8617    10.7492
  419.6000   111.0131    10.8617    10.7423
  419.7000   111.0156    10.8617    10.6740
  419.8000   111.0939    10.8617    10.6741
  419.9000   111.3258    10.8472    10.6350
  420.0000   111.3286    10.7853    10.5995
  420.1000   111.3307    10.7853    10.5996
  420.2000   111.3332    10.7382    10.5998
  420.3000   111.3356    10.7094    10.6000
