~VERSION INFORMATION
 VERS.                2.0:   CWLS LOG ASCII STANDARD - VERSION 2.0
 WRAP.                 NO:   ONE LINE PER DEPTH STEP
~WELL INFORMATION
#MNEM.UNIT      DATA TYPE    INFORMATION
#----------   ------------   ------------------------------
 STRT.F           24.0000:   START DEPTH
 STOP.F          690.0000:   STOP DEPTH
 STEP.F            0.5000:   STEP LENGTH
 NULL.          -999.2500:   NO VALUE
 COMP. DEPARTMENT OF ENERGY:   COMPANY
 WELL.     STX 2 #24-15-2:   WELL
 FLD .             TEAPOT:   FIELD
 LOC .       S2 T38N R78W:   LOCATION
 CNTY.            NATRONA:   COUNTY
 STAT.            WYOMING:   STATE
 CTRY. UNITED STATES OF AMERICA:   COUNTRY
 SRVC.           Gearhart:   SERVICE COMPANY
 DATE.        23-DEC-1987:   LOGDATE
 API .       490251116800:   API NUMBER
~CURVE INFORMATION
#MNEM.UNIT       API CODE    CURVE DESCRIPTION
#----------   ------------   ------------------------------
 DEPT.F                  :   
 GRR .GAPI   07 310 01 00:   GAMMA RAY
 RILD.OHMM   07 120 46 00:   INDUCTION LOG DEEP
 RILM.OHMM   07 120 44 00:   INDUCTION LOG MEDIUM
 RLL .OHMM   07 220 01 00:   LATEROLOG-1 RES.
~PARAMETER INFORMATION
#MNEM.UNIT          VALUE    DESCRIPTION
#----------   ------------   ------------------------------
 PD  .                 GL:   PERMANENT DATUM
 LMF .                 KB:   LOG MEASURED FROM
 DMF .                 KB:   DRILLING MEASURED FROM
 DATE.        03-SEP-1987:   RUN DATE
 RUN .                  1:   RUN NUMBER
 DL  .F               692:   DEPTH LOGGER
 BLI .F               690:   BOTTOM LOG INTERVAL
 CS  .IN            8.625:   CASING SIZE
 CBD .F                48:   CASING BOTTOM DRILLER
 CBL .F                48:   CASING BOTTOM LOGGER
 BS  .IN            7.875:   BIT SIZE
 DFT .                MUD:   DRILLING FLUID TYPE
 TCS .HRS            0600:   TIME CURCULATED STOPPED
 TLAB.HRS            0751:   TIME LOGGER AT BOTTOM
 MRT .F                80:   MAXIMUM RECORDED TEMPERATURE
 LUN .               7597:   LOGGING UNIT NUMBER
 LUL .           GILLETTE:   LOGGING UNIT LOCATION
 ENGI.         WEATHERMON:   RECORDING ENGINEER
 WITN.             STRONG:   WITNESSED BY
 CLNT.            A2DTECH:   CLIENT CODE
 ORIG.           5" PRINT:   ORIGIN OF DATA
 UWI .       490251116800:   UNIQUE WELL ID
 DICO. A2D Technologies, Inc.:   DIGITIZING COMPANY
~OTHER INFORMATION
~A   DEPT       GRR      RILD       RILM        RLL   
# ...
  243.0000    99.6644     8.9627     8.8732     9.3015
  243.5000    98.7790     8.7805     8.7525     9.1066
  244.0000    97.2875     8.6615     8.6932     8.9932
  244.5000    96.0991     8.6039     8.6347     8.9333
  245.0000    94.6076     8.5467     8.6369     8.9360
  245.5000    94.5778     8.5496     8.6386     9.0011
  246.0000    95.5641     8.6115     8.7007     9.0664
  246.5000    96.8040     8.6138     8.7025     9.0687
  247.0000    98.0687     8.6162     8.7043     9.0713
  247.5000    99.2775     8.4832     8.6423     9.0737
  248.0000    99.9072     8.3841     8.4690     8.9894
  248.5000    96.9006     8.3283     8.4121     8.8894
  249.0000    92.6819     8.3892     8.3555     8.7680
  249.5000    91.4875     8.3915     8.4747     8.6528
  250.0000    91.2082     8.4523     8.5355     8.5946
  250.5000    94.8658     8.4546     8.6568     8.5374
  251.0000    93.9715     8.4570     8.6585     8.5999
  251.5000    92.7705     8.4597     8.6603     8.4835
  252.0000    93.0920     8.5210     8.6621     8.2531
  252.5000    95.2281     8.6426     8.6638     8.1832
  253.0000    96.4550     8.6449     8.6656     8.1432
  253.5000    97.6820     8.5274     8.6674     8.0893
  254.0000    98.6061     8.4120     8.6693     8.0916
  254.5000    98.9242     8.4149     8.7315     8.0938
  255.0000    98.3325     8.5024     8.6727     8.0961
  255.5000    98.0480     8.5967     8.6749     8.0987
  256.0000    97.7561     8.5991     8.6161     8.1006
  256.5000    96.5624     8.5420     8.5585     8.1028
  257.0000    95.6682     8.4852     8.6201     8.1053
  257.5000    96.5921     8.4879     8.6819     8.1075
  258.0000    98.4251     8.4902     8.7735     8.1096
  258.5000    99.3490     8.6113     8.8687     8.1119
  259.0000    99.0608     8.7342     8.9804     8.0579
  259.5000    96.3090     8.8190     8.9965     8.0602
  260.0000    93.8990     8.9228     9.0611     8.0624
  260.5000    92.7416     8.9254     9.0633     8.0651
  261.0000    92.4571     8.9278     9.0651     8.1235
  261.5000    92.4719     8.9303     9.0670     8.2970
  262.0000    92.4867     8.9427     9.0688     8.4741
  262.5000    93.1076     9.0607     9.1340     8.6550
  263.0000    94.6376     9.1263     9.1995     8.7786
  263.5000    97.9857     9.0650     9.2014     8.8422
  264.0000   101.0309     9.0050     9.2033     8.9063
  264.5000    99.2275     8.9454     9.2052     8.9709
  265.0000    96.4949     8.8853     9.2071     8.9733
  265.5000    95.3177     8.8883     9.1456     9.0385
  266.0000    98.3665     8.9527     9.0837     9.1045
  266.5000   100.1995     8.9551     9.0226     9.1070
  267.0000    99.0023     8.9576     8.9619     9.1095
  267.5000    97.1989     8.7752     8.8404     9.0488
  268.0000    96.0016     8.5377     8.5998     9.0513
  268.5000    95.4103     8.4222     8.3656     8.9904
  269.0000    95.1184     8.3656     8.1379     8.8693
  269.5000    96.6521     8.3099     8.0272     8.6886
  270.0000    98.1821     8.1413     7.8087     8.5710
  270.5000   100.0294     8.0312     7.6960     8.3951
  271.0000   101.8485     8.0334     7.5450     8.2254
  271.5000   102.7757     7.9799     7.4424     8.1146
  272.0000   103.0935     7.9821     7.3923     8.0047
  272.5000   104.0174     7.9843     7.2917     8.0069
  273.0000   104.9413     7.9312     7.2936     8.0091
  273.5000   102.8350     7.9892     7.5008     8.0671
  274.0000    99.2134     8.1031     7.7138     8.1823
  274.5000    93.1676     8.3337     7.8780     8.3570
  275.0000    89.8491     8.5708     7.9899     8.5354
  275.5000    90.7730     8.7536     8.0473     8.6572
  276.0000    93.8304     8.7560     8.0490     8.7808
  276.5000    96.5919     8.6972     8.1068     8.8445
  277.0000    96.8818     8.6398     8.1653     8.8475
  277.5000    95.9875     8.6423     8.2813     8.7886
  278.0000    95.0932     8.6446     8.3408     8.8021
  278.5000    94.8013     8.7073     8.4593     8.8687
  279.0000    94.8198     8.8320     8.5795     8.9811
  279.5000    96.0468     8.8960     8.7014     9.1093
  280.0000    97.2737     8.9604     8.7638     9.1754
  280.5000    97.8946     8.9002     8.8268     9.1778
  281.0000    98.2124     8.8410     8.7674     9.0536
  281.5000    97.9221     8.6617     8.3490     8.9310
  282.0000    96.1209     8.6035     8.1734     8.8716
  282.5000    97.9576     8.5467     8.0707     8.8131
  283.0000    99.1845     8.5491     8.0725     8.7544
  283.5000    99.5024     8.6111     8.1307     8.7568
  284.0000    99.5172     8.6735     8.1324     8.7592
  284.5000    99.8350     8.7977     8.0777     8.8227
  285.0000   100.7589     8.8615     8.0794     8.8251
  285.5000   101.9859     8.8922     8.0810     8.8275
  286.0000   102.9098     8.9281     8.0827     8.8915
  286.5000   101.7125     8.9928     8.0843     8.9560
  287.0000    99.3031     9.0577     8.1424     9.0838
  287.5000    96.8434     9.0604     8.2653     9.2189
  288.0000    94.6829     9.1526     8.6119     9.3834
  288.5000    92.6845     9.2861     8.8565     9.6118
  289.0000    91.4835     9.5209     9.0450     9.7490
  289.5000    89.6839     9.6628     9.3019     9.8196
  290.0000    87.8805     9.8620     9.4341     9.9595
  290.5000    85.4711     9.9334     9.5681    10.1020
  291.0000    84.2701    10.0751     9.7040    10.2462
  291.5000    86.1068    10.2901     9.8419    10.3396
  292.0000    89.1519    10.5828     9.9817    10.4678
  292.5000    90.3789    10.8086    10.1947    10.5437
  293.0000    90.3939    10.9628    10.7192    10.6202
  293.5000    89.8024    11.0422    11.3196    10.7094
  294.0000    88.9119    11.1997    11.6412    10.8506
  294.5000    87.7146    11.3595    11.8889    11.0055
  295.0000    86.2142    11.4418    12.0578    11.1626
  295.5000    85.0169    11.6867    12.1444    11.3219
  296.0000    84.7250    11.9360    12.3169    11.4835
  296.5000    85.0465    12.0224    12.3194    11.5668
  297.0000    85.6674    12.1095    12.3220    11.6506
  297.5000    85.9853    12.1128    12.2390    11.6538
  298.0000    86.0001    12.1161    12.1568    11.7383
  298.5000    86.0152    12.1194    12.0694    11.8234
  299.0000    86.3333    12.1227    11.9108    11.8267
  299.5000    86.6543    12.1260    11.8307    11.8306
  300.0000    87.2752    12.0453    11.6703    11.7511
  300.5000    88.5022    11.8824    11.5918    11.5920
  301.0000    89.7292    11.7218    11.5139    11.5959
  301.5000    89.1380    11.5631    11.3572    11.2813
  302.0000    87.6377    11.4862    11.1248    11.1286
  302.5000    86.4405    11.4901    10.8980    10.9772
  303.0000    84.9402    11.5733    10.7497    10.7543
  303.5000    83.7429    11.5764    10.6769    10.6820
  304.0000    84.0608    11.6603    10.5322    10.6856
  304.5000    85.2950    11.7448    10.4608    10.7631
  305.0000    86.2121    11.6666    10.4635    10.9168
  305.5000    86.5296    11.6698    10.3931    11.0726
  306.0000    85.6391    11.6666    10.3952    11.2307
  306.5000    84.7449    11.5953    10.3253    11.3910
  307.0000    83.8470    11.5182    10.3275    11.4737
  307.5000    82.6497    11.4416    10.4017    11.5569
  308.0000    82.0585    11.3662    10.4039    11.5601
  308.5000    81.7704    11.2906    10.3338    11.4043
  309.0000    82.0920    11.2155    10.3364    11.3195
  309.5000    83.0159    11.0638    10.2664    11.1750
  310.0000    85.1520    10.7636    10.1974    11.0626
  310.5000    86.9851    10.5444    10.1288    10.9295
  311.0000    87.3030    10.4018    10.0346    10.7273
  311.5000    85.7737    10.2562     9.9243    10.5821
  312.0000    83.9994    10.1112     9.7893    10.4388
  312.5000    83.4082    10.0731     9.6561    10.2975
  313.0000    84.0328     9.8004     9.4892    10.1581
  313.5000    85.5628     9.5351     9.3953    10.0905
  314.0000    87.0928     9.4068     9.2678    10.0933
  314.5000    88.0168     9.3081     9.1418    10.0961
  315.0000    88.9408     9.1945     9.0798    10.0995
  315.5000    87.7435     9.0950     9.0188    10.1017
