~VERSION INFORMATION
 VERS.                2.0:   CWLS LOG ASCII STANDARD - VERSION 2.0
 WRAP.                 NO:   ONE LINE PER DEPTH STEP
~WELL INFORMATION
#MNEM.UNIT      DATA TYPE    INFORMATION
#----------   ------------   ------------------------------
 STRT.F           22.0000:   START DEPTH
 STOP.F          654.0000:   STOP DEPTH
 STEP.F            0.5000:   STEP LENGTH
 NULL.          -999.2500:   NO VALUE
 COMP. FENIX & SCISSON INC:   COMPANY
 WELL.     54 S 34 #54-34:   WELL
 FLD .             TEAPOT:   FIELD
 LOC .      S34 T39N R78W:   LOCATION
 CNTY.            NATRONA:   COUNTY
 STAT.            WYOMING:   STATE
 CTRY. UNITED STATES OF AMERICA:   COUNTRY
 SRVC.           BIRDWELL:   SERVICE COMPANY
 DATE.        22-AUG-1978:   LOGDATE
 API .       490251070100:   API NUMBER
~CURVE INFORMATION
#MNEM.UNIT       API CODE    CURVE DESCRIPTION
#----------   ------------   ------------------------------
 DEPT.F                  :   
 SPR .MV     05 010 01 00:   SPONTANEOUS POTENTIAL FROM RES.
 SN  .OHMM   05 040 16 00:   SHORT NORMAL 16"
 ILD .OHMM   05 120 46 00:   INDUCTION LOG DEEP
 CALD.IN     45 280 60 00:   CALIPER
 GRD .GAPI   45 310 01 00:   GAMMA RAY FROM DENSITY LOG
 DPHI.DEC    45 890 12 00:   DENSITY POROSITY SANDSTONE
 RHOB.G/C3   45 350 01 00:   BULK DENSITY
 CORR.G/C3   45 356 01 00:   DENSITY CORRECTION
~PARAMETER INFORMATION
#MNEM.UNIT          VALUE    DESCRIPTION
#----------   ------------   ------------------------------
 PD  .                 GL:   PERMANENT DATUM
 EPD .F              5085:   ELEVATION PERMANENT DATUM
 LMF .                 KB:   LOG MEASURED FROM
 DAPD.F                 4:   FEET ABOVE PERMANENT DATUM
 DMF .                 KB:   DRILLING MEASURED FROM
 EKB .F              5089:   KELLING BUSHING
 EGL .F              5085:   GROUND LEVEL
 DATE.            8-22-78:   RUN DATE
 RUN .                  1:   RUN NUMBER
 DD  .F               685:   DEPTH DRILLER
 DL  .F               653:   DEPTH LOGGER
 BLI .F               646:   BOTTOM LOG INTERVAL
 TLI .F                30:   TOP LOG INTERVAL
 CS  .IN            8.625:   CASING SIZE
 CBD .F                46:   CASING BOTTOM DRILLER
 CBL .F                46:   CASING BOTTOM LOGGER
 BS  .IN            7.875:   BIT SIZE
 BSD .F               685:   BIT SIZE AT DEPTH
 DFT .                KCL:   DRILLING FLUID TYPE
 DFD .                8.7:   DRILLING FLUID DENSITY
 DFV .                 33:   DRILLING FLUID VISCOSITY
 DFPH.                  9:   DRILLING FLUID PH
 MSS .           FLOWLINE:   MUD SAMPLE SOURCE
 RMS .OHMM            .18:   RESISTIVITY MUD SAMPLE
 MST .F                86:   MUD SAMPLE TEMPERATURE
 RMF .OHMM            .16:   RESISTIVITY MUD FILTRATE SAMPLE
 MFST.F                86:   MUD FILTRATE SAMPLE TEMPERATURE
 RMC .OHMM            .52:   RESISTIVITY MUD CAKE
 MCST.F                86:   MUD CAKE SAMPLE TEMPERATURE
 MFSS.               MEAS:   MUD FILTRATE SAMPLE SOURCE
 MCSS.               MEAS:   MUD CAKE SAMPLE SOURCE
 BHT .F                70:   BOTTOM HOLE TEMPERATURE
 TCS .HRS               2:   TIME CURCULATED STOPPED
 MRT .F                70:   MAXIMUM RECORDED TEMPERATURE
 LUN .               2958:   LOGGING UNIT NUMBER
 LUL .               CASP:   LOGGING UNIT LOCATION
 ENGI.           REYNOLDS:   RECORDING ENGINEER
 WITN.              AMEND:   WITNESSED BY
 CLNT.            A2DTECH:   CLIENT CODE
 ORIG.           5" PRINT:   ORIGIN OF DATA
 UWI .       490251070100:   UNIQUE WELL ID
 DICO. A2D Technologies, Inc.:   DIGITIZING COMPANY
~OTHER INFORMATION
~A   DEPT      SPR         SN        ILD       CALD         GRD      DPHI       RHOB       CORR   
# ...
  224.5000   -33.5089     7.8844     7.4699     7.6900    96.6752     0.1195     2.4858     0.0225
  225.0000   -33.0626     7.9349     7.4976     7.6900    96.7187     0.1188     2.4847     0.0264
  225.5000   -32.8184     7.9861     7.5254     7.6900    98.0599     0.1220     2.4794     0.0303
  226.0000   -32.7719     8.0375     7.5561     7.6900   101.5243     0.1252     2.4737     0.0343
  226.5000   -32.7302     8.0892     7.6114     7.6900   102.6376     0.1164     2.4844     0.0307
  227.0000   -32.6878     8.1413     7.6733     7.6900    98.3346     0.1097     2.5009     0.0265
  227.5000   -32.6523     8.1938     7.7358     7.6900    98.4247     0.1064     2.5048     0.0222
  228.0000   -32.2789     8.2465     7.7987     7.6900    98.9691     0.1163     2.4955     0.0185
  228.5000   -31.7637     8.2996     7.8621     7.6900    99.3041     0.1228     2.4849     0.0185
  229.0000   -31.6806     8.3531     7.9261     7.6900    98.3199     0.1236     2.4792     0.0188
  229.5000   -31.7354     8.4068     7.9841     7.6900    96.4396     0.1236     2.4780     0.0194
  230.0000   -31.7939     8.4610     8.0530     7.6900    95.4578     0.1210     2.4786     0.0200
  230.5000   -31.8051     8.5154     8.1162     7.6900    99.2121     0.1180     2.4850     0.0206
  231.0000   -31.6696     8.5703     8.1799     7.6900    98.1467     0.1176     2.4871     0.0212
  231.5000   -31.5571     8.6255     8.2441     7.6900    96.0153     0.1172     2.4869     0.0217
  232.0000   -31.4470     8.6810     8.3088     7.6900    95.2989     0.1152     2.4891     0.0223
  232.5000   -31.6530     8.7369     8.3740     7.6900   106.9728     0.1132     2.4965     0.0229
  233.0000   -32.0890     8.7931     8.4396     7.6900   104.8429     0.1154     2.4927     0.0235
  233.5000   -32.5219     8.8432     8.5059     7.6900   100.0838     0.1176     2.4868     0.0241
  234.0000   -32.9566     8.8780     8.5726     7.6900    97.4337     0.1170     2.4869     0.0247
  234.5000   -33.3897     8.9130     8.6394     7.6900    99.2979     0.1154     2.4886     0.0253
  235.0000   -34.1061     8.9482     8.7067     7.6900   101.6122     0.1137     2.4912     0.0258
  235.5000   -34.8539     8.9835     8.7743     7.6900   103.9551     0.1120     2.4944     0.0264
  236.0000   -35.2189     9.0189     8.8425     7.6900   104.9579     0.1120     2.4979     0.0270
  236.5000   -35.0356     9.0545     8.9113     7.6900   103.4038     0.1120     2.4980     0.0276
  237.0000   -34.6465     9.1113     8.9805     7.6900   102.7497     0.1112     2.4986     0.0282
  237.5000   -34.2559     9.2183     9.0504     7.6900   102.6721     0.1009     2.5053     0.0279
  238.0000   -33.8548     9.3265     9.1207     7.6900   101.8010     0.0896     2.5173     0.0261
  238.5000   -33.8961     9.4360     9.1916     7.6900    98.8845     0.0781     2.5361     0.0243
  239.0000   -34.0312     9.5468     9.2631     7.6900    95.9743     0.0668     2.5545     0.0226
  239.5000   -34.1617     9.6589     9.3351     7.6900    93.1392     0.0628     2.5703     0.0208
  240.0000   -34.0523     9.7723     9.4077     7.6900    92.6128     0.0801     2.5544     0.0204
  240.5000   -33.6961     9.8870     9.4808     7.6900    92.4026     0.0971     2.5275     0.0202
  241.0000   -33.3208    10.0031     9.5545     7.6900    92.1631     0.1136     2.4959     0.0201
  241.5000   -33.4347    10.1206     9.6288     7.6900    92.4065     0.1140     2.5063     0.0199
  242.0000   -33.7092    10.2394     9.7037     7.6900    92.8340     0.1035     2.5303     0.0198
  242.5000   -33.9910    10.3596     9.7715     7.6900    91.6780     0.0909     2.5545     0.0196
  243.0000   -34.2723    10.4203     9.6700     7.6900    91.7111     0.0788     2.5625     0.0195
  243.5000   -34.5534    10.3516     9.5785     7.6900    93.8689     0.0788     2.5566     0.0193
  244.0000   -34.8297    10.2896     9.4880     7.6900    97.4418     0.0931     2.5391     0.0192
  244.5000   -35.0159    10.2279     9.3983     7.6900    97.9597     0.1045     2.5205     0.0190
  245.0000   -34.9380    10.1666     9.3094     7.6900    98.2566     0.1160     2.5017     0.0189
  245.5000   -34.8683    10.1057     9.2406     7.6900    97.1065     0.1252     2.4831     0.0187
  246.0000   -34.7979    10.0451     9.2167     7.6900    97.1911     0.1261     2.4748     0.0185
  246.5000   -34.7276     9.9849     9.1935     7.6900    99.6112     0.1217     2.4785     0.0199
  247.0000   -34.6573     9.9250     9.1701     7.6900   101.9724     0.1232     2.4781     0.0214
  247.5000   -34.5870     9.8656     9.1467     7.6900   104.1251     0.1252     2.4764     0.0229
  248.0000   -34.5167     9.8064     9.1234     7.6900   104.3302     0.1225     2.4764     0.0245
  248.5000   -34.4464     9.7477     9.1001     7.6900   103.8884     0.1185     2.4862     0.0260
  249.0000   -34.3760     9.6892     9.0769     7.6900   101.6243     0.1160     2.4897     0.0276
  249.5000   -34.3057     9.6312     9.0538     7.6900    99.2662     0.1152     2.4890     0.0292
  250.0000   -34.2355     9.5734     9.0307     7.6900    98.1397     0.1124     2.4959     0.0305
  250.5000   -34.1655     9.5161     9.0076     7.6900   101.6287     0.1084     2.5047     0.0289
  251.0000   -34.0955     9.4590     8.9846     7.6900   105.5415     0.1058     2.5089     0.0274
  251.5000   -33.9961     9.4023     8.9617     7.6900   107.3668     0.1038     2.5113     0.0259
  252.0000   -33.6937     9.3460     8.9389     7.6900   104.3829     0.1018     2.5139     0.0244
  252.5000   -33.3833     9.2899     8.9161     7.6900   101.3697     0.1029     2.5137     0.0229
  253.0000   -33.4634     9.2344     8.8933     7.6900    99.3225     0.1070     2.5070     0.0214
  253.5000   -33.9056     9.1784     8.8707     7.6900   100.3071     0.1111     2.4999     0.0199
  254.0000   -34.3532     9.1492     8.8480     7.6900   101.4645     0.1132     2.4998     0.0185
  254.5000   -34.8073     9.1296     8.8254     7.6900   100.9069     0.1076     2.5029     0.0182
  255.0000   -34.7672     9.1101     8.8029     7.6900    98.9716     0.1072     2.5051     0.0180
  255.5000   -34.6929     9.0906     8.7805     7.6900    98.2888     0.1068     2.5012     0.0178
  256.0000   -34.6905     9.0712     8.7581     7.6900    98.3001     0.1106     2.4957     0.0175
  256.5000   -35.1908     9.0518     8.7358     7.6900    98.2955     0.1140     2.4931     0.0172
  257.0000   -35.6873     9.0325     8.7135     7.6900   100.1101     0.1136     2.4944     0.0170
  257.5000   -36.0672     9.0132     8.6912     7.6900   102.2838     0.1128     2.4961     0.0168
  258.0000   -36.1673     8.9842     8.6720     7.6900   100.8859     0.1160     2.4915     0.0165
  258.5000   -36.2725     8.8921     8.6720     7.6900    99.3966     0.1162     2.4891     0.0163
  259.0000   -36.3767     8.8008     8.5927     7.6900    99.6710     0.1147     2.4920     0.0160
  259.5000   -36.2418     8.7106     8.4962     7.6900   100.7869     0.1136     2.4949     0.0158
  260.0000   -36.2743     8.6212     8.3669     7.6900   102.4054     0.1136     2.4943     0.0155
  260.5000   -36.3292     8.5328     8.2396     7.6900   103.9882     0.1149     2.4917     0.0153
  261.0000   -36.3822     8.4452     8.1142     7.6900   104.8606     0.1161     2.4891     0.0150
  261.5000   -36.4348     8.3586     7.9907     7.6900   104.8963     0.1172     2.4890     0.0148
  262.0000   -36.4874     8.2728     7.8691     7.6900   106.6499     0.1191     2.4882     0.0145
  262.5000   -36.5401     8.1880     7.7494     7.6900   109.4061     0.1208     2.4852     0.0143
  263.0000   -36.5927     8.1040     7.6314     7.6900   112.4066     0.1225     2.4823     0.0140
  263.5000   -36.6453     8.0208     7.5153     7.6900   110.7958     0.1242     2.4794     0.0138
  264.0000   -36.6980     7.9841     7.4186     7.6900   107.7564     0.1259     2.4766     0.0135
  264.5000   -36.7506     7.9841     7.4186     7.6900   109.4677     0.1276     2.4741     0.0133
