~VERSION INFORMATION
 VERS.                2.0:   CWLS LOG ASCII STANDARD - VERSION 2.0
 WRAP.                 NO:   ONE LINE PER DEPTH STEP
~WELL INFORMATION
#MNEM.UNIT      DATA TYPE    INFORMATION
#----------   ------------   ------------------------------
 STRT.F           28.0000:   START DEPTH
 STOP.F          546.5000:   STOP DEPTH
 STEP.F            0.5000:   STEP LENGTH
 NULL.          -999.2500:   NO VALUE
 COMP. LAWRENCE/ALLISON INC:   COMPANY
 WELL.    55-66 SX #10-10:   WELL
 FLD .            WILDCAT:   FIELD
 LOC .      S10 T38N R78W:   LOCATION
 CNTY.            NATRONA:   COUNTY
 STAT.            WYOMING:   STATE
 CTRY. UNITED STATES OF AMERICA:   COUNTRY
 SRVC.            Unknown:   SERVICE COMPANY
 DATE.        20-AUG-1984:   LOGDATE
 API .       490251098000:   API NUMBER
~CURVE INFORMATION
#MNEM.UNIT       API CODE    CURVE DESCRIPTION
#----------   ------------   ------------------------------
 DEPT.F                  :   
 CNC .DEC    42 890 03 00:   NEUTRON POROSITY SANDSTONE
 CALD.IN     45 280 60 00:   CALIPER FROM DENSITY LOG
 DEN .G/C3   45 350 01 00:   COMPENSATED BULK DENSTIY
 PORD.DEC    45 890 12 00:   POROSITY DENSITY STONESTONE
 CORR.G/C3   45 356 01 00:   DENSITY CORRECTION
 SPR .MV     07 010 01 00:   SPONTANEOUS POTENTIAL
 RFOC.OHMM   07 220 04 00:   RESISTIVITY FOCUSED LOG
 RILD.OHMM   07 120 46 00:   INDUCTION LOG DEEP RESISTIVITY
 RILM.OHMM   07 120 44 00:   INDUCTION LOG MEDIUM RESISTIVITY
 AC  .US/F   60 520 00 00:   ACCOUSTIC
 GRD .GAPI   45 310 01 00:   GAMMA RAY FROM DENSITY LOG
~PARAMETER INFORMATION
#MNEM.UNIT          VALUE    DESCRIPTION
#----------   ------------   ------------------------------
 PD  .                 GL:   PERMANENT DATUM
 EPD .F              5200:   ELEVATION PERMANENT DATUM
 LMF .                 GL:   LOG MEASURED FROM
 DMF .                 GL:   DRILLING MEASURED FROM
 EGL .F              5200:   GROUND LEVEL
 DATE.        20-AUG-1984:   RUN DATE
 RUN .                  1:   RUN NUMBER
 DD  .F               554:   DEPTH DRILLER
 DL  .F               548:   DEPTH LOGGER
 BLI .F               546:   BOTTOM LOG INTERVAL
 TLI .F                30:   TOP LOG INTERVAL
 CS  .IN            9.625:   CASING SIZE
 CBD .F                46:   CASING BOTTOM DRILLER
 CBL .F                41:   CASING BOTTOM LOGGER
 BS  .IN            7.875:   BIT SIZE
 BSD .F               554:   BIT SIZE AT DEPTH
 DFT .          KCL WATER:   DRILLING FLUID TYPE
 MSS .           FLOWLINE:   MUD SAMPLE SOURCE
 RMS .OHMM           .691:   RESISTIVITY MUD SAMPLE
 MST .F                82:   MUD SAMPLE TEMPERATURE
 MRT .F               100:   MAXIMUM RECORDED TEMPERATURE
 LUN .               6307:   LOGGING UNIT NUMBER
 LUL .               GLTE:   LOGGING UNIT LOCATION
 ENGI.           FAHLSING:   RECORDING ENGINEER
 WITN.           JENNINGS:   WITNESSED BY
 CLNT.            A2DTECH:   CLIENT CODE
 ORIG.       2", 5" PRINT:   ORIGIN OF DATA
 UWI .       490251098000:   UNIQUE WELL ID
 DICO. A2D Technologies, Inc.:   DIGITIZING COMPANY
~OTHER INFORMATION
~A   DEPT      CNC       CALD        DEN       PORD       CORR        SPR       RFOC       RILD       RILM         AC        GRD   
# ...
  241.5000     0.3033     7.8420     2.4510     0.1380    -0.0250   -37.8490     9.1140     8.6270     8.8740   106.7480   115.9910
  242.0000     0.2947     7.8430     2.4510     0.1360    -0.0400   -37.6400     9.2150     8.7540     8.9760   106.5590   115.4530
  242.5000     0.3210     7.8430     2.4560     0.1330    -0.0430   -37.4290     9.3160     8.9480     9.0310   106.4720   117.3280
  243.0000     0.3438     7.8430     2.4620     0.1300    -0.0230   -37.5720     9.3690     8.9150     9.0310   106.3850   118.6630
  243.5000     0.3571     7.8430     2.4670     0.1280    -0.0010   -37.7680     9.3290     8.8450     8.9480   106.2980   116.8260
  244.0000     0.3119     7.8430     2.4730     0.1250     0.0210   -37.9670     9.2910     8.7750     8.9220   106.2180   114.9450
  244.5000     0.3027     7.8430     2.4760     0.1220     0.0300   -38.1660     9.2530     8.7050     8.8920   106.4330   113.0470
  245.0000     0.2994     7.8430     2.4790     0.1200     0.0300   -38.3650     9.2160     8.6350     8.8630   106.6330   113.0440
  245.5000     0.2991     7.8430     2.4780     0.1210     0.0300   -38.5640     9.1780     8.5640     8.8330   106.8160   114.6740
  246.0000     0.3061     7.8430     2.4770     0.1220     0.0240   -38.7640     9.1400     8.4940     8.8030   107.2840   118.0850
  246.5000     0.3122     7.8430     2.4760     0.1230    -0.0010   -38.9650     9.1030     8.4240     8.7740   107.7150   121.3790
  247.0000     0.3329     7.8430     2.4760     0.1240    -0.0040   -38.7610     9.0650     8.3540     8.7440   108.1470   123.2630
  247.5000     0.3468     7.8430     2.4780     0.1220     0.0100   -38.4320     9.0270     8.2840     8.7140   108.5790   121.3890
  248.0000     0.3417     7.8430     2.4810     0.1200     0.0220   -38.1010     8.9900     8.2140     8.6850   108.7410   120.5710
  248.5000     0.3433     7.8430     2.4770     0.1220     0.0300   -37.7700     8.9480     8.1440     8.6550   108.7830   121.6170
  249.0000     0.3513     7.8430     2.4740     0.1240     0.0110   -37.4380     9.0310     8.0730     8.6250   108.7830   122.0900
  249.5000     0.3447     7.8430     2.4700     0.1260    -0.0050   -37.1050     9.0330     8.0030     8.5950   108.6830   121.0200
  250.0000     0.3249     7.8430     2.4660     0.1280    -0.0130   -36.7720     9.0310     7.9400     8.5660   108.6130   119.8600
  250.5000     0.3205     7.8430     2.4640     0.1280     0.0070   -36.4320     9.0310     7.8680     8.5360   108.7710   120.5860
  251.0000     0.3254     7.8430     2.4720     0.1230     0.0300   -36.6800     9.0310     7.6400     8.5060   108.7170   121.5300
  251.5000     0.3414     7.8430     2.4820     0.1180     0.0530   -36.9800     9.0310     7.4740     8.4770   108.5830   122.4490
  252.0000     0.3482     7.8430     2.4890     0.1150     0.0530   -37.2820     9.0310     7.3070     8.2570   108.4490   122.1900
  252.5000     0.3457     7.8430     2.4860     0.1180     0.0270   -37.5830     8.9480     7.1410     7.9600   108.5260   121.0520
  253.0000     0.3363     7.8430     2.4740     0.1260     0.0070   -37.8850     8.4880     6.9740     7.6620   109.4710   119.9990
  253.5000     0.3205     7.8430     2.4610     0.1340    -0.0100   -38.1860     7.9070     6.8080     7.3640   110.6280   123.2070
  254.0000     0.3167     7.8430     2.4490     0.1460     0.0090   -38.4870     7.0460     6.6410     6.9180   111.7850   127.1710
  254.5000     0.3158     7.8430     2.4400     0.1420     0.0300   -38.7890     7.2430     6.4750     6.9290   112.9420   129.1740
  255.0000     0.3154     7.8430     2.4500     0.1340     0.0280   -39.1010     7.6820     6.3080     6.9500   112.8040   126.1770
  255.5000     0.3283     7.8430     2.4610     0.1280     0.0160   -39.2120     8.1610     6.1420     6.9810   111.9500   123.2380
  256.0000     0.3571     7.8430     2.4620     0.1300     0.0040   -39.2770     8.6390     5.9750     6.8340   111.0780   120.5010
  256.5000     0.3582     7.8430     2.4580     0.1350    -0.0030   -39.3400     8.8660     5.8570     6.5530   110.4090   118.8760
  257.0000     0.3511     7.8430     2.4490     0.1390    -0.0020   -39.4020     8.2270     5.8080     6.2710   111.4070   118.6250
  257.5000     0.3569     7.8430     2.4290     0.1530     0.0000   -39.4650     7.5520     5.7560     6.0820   113.0500   120.6140
  258.0000     0.3599     7.8430     2.4090     0.1650     0.0020   -39.5250     6.8770     5.7560     6.1380   114.6930   122.7250
  258.5000     0.3521     7.8430     2.3940     0.1720     0.0010   -39.5420     6.4270     5.7560     6.2520   115.2210   121.1720
  259.0000     0.3294     7.8430     2.4080     0.1600    -0.0010   -39.1720     7.0240     5.9910     6.5190   113.6310   117.5540
  259.5000     0.3384     7.8430     2.4250     0.1510     0.0010   -38.8370     7.8030     6.3120     6.9690   111.3310   113.9430
  260.0000     0.3456     7.8430     2.4430     0.1420     0.0060   -38.5050     8.5830     6.6330     7.4200   109.0320   111.4650
  260.5000     0.3477     7.8430     2.4600     0.1340     0.0100   -38.1760     8.8660     6.9530     7.8700   108.2290   114.5230
  261.0000     0.3420     7.8430     2.4620     0.1310     0.0060   -37.8490     8.7890     7.2740     8.3200   107.8050   117.4420
  261.5000     0.3289     7.8430     2.4610     0.1330     0.0010   -37.5930     8.6460     7.5940     8.7850   107.4500   120.3600
  262.0000     0.3307     7.8430     2.4590     0.1340    -0.0030   -37.6000     8.4680     8.0140     8.7850   107.0950   121.7080
  262.5000     0.3332     7.8430     2.4580     0.1330     0.0030   -37.5520     8.5730     7.7370     8.3010   106.7400   122.1070
  263.0000     0.3390     7.8430     2.4590     0.1320     0.0030   -37.4970     8.7140     7.2340     7.8800   106.3850   120.9840
  263.5000     0.3541     7.8430     2.4610     0.1310     0.0020   -37.4390     8.8550     6.7310     7.4580   106.0300   119.1820
  264.0000     0.3723     7.8430     2.4620     0.1300     0.0000   -37.4180     9.0310     6.2280     7.0370   105.6190   116.9050
  264.5000     0.3890     7.8430     2.4640     0.1290    -0.0010   -38.3680     8.9480     5.7030     6.6150   106.2180   114.6180
  265.0000     0.3809     7.8430     2.4650     0.1400     0.0010   -39.2720     7.8900     5.5910     6.1930   108.6030   113.1240
  265.5000     0.3700     7.8430     2.4440     0.1560     0.0160   -40.1810     6.7870     5.4420     5.7560   112.1240   116.3980
  266.0000     0.3718     7.8430     2.4150     0.1730     0.0310   -41.0900     5.2020     5.2020     5.9850   114.8900   119.4510
  266.5000     0.3671     7.8430     2.3950     0.1590     0.0290   -41.9300     5.7080     5.1550     6.2230   115.9980   114.3500
  267.0000     0.3534     7.8430     2.4300     0.1400     0.0220   -42.1290     6.6020     5.1550     6.4610   113.7230   112.4370
  267.5000     0.3262     7.8430     2.4650     0.1190     0.0150   -41.8050     7.4970     5.2020     6.6980   111.4400   113.8660
  268.0000     0.3388     7.8430     2.4810     0.1190     0.0380   -41.2830     8.2380     5.7240     6.9360   109.6970   115.7540
  268.5000     0.3405     7.8430     2.4820     0.1180     0.0570   -40.8050     7.1770     6.1490     7.1740   108.8460   115.5410
  269.0000     0.3331     7.8430     2.4830     0.1150     0.0490   -40.3330     7.5140     6.5740     7.4120   108.5430   114.3070
  269.5000     0.3259     7.8430     2.4920     0.1110     0.0460   -39.8610     8.1000     6.9980     7.6500   107.7050   113.0360
  270.0000     0.3213     7.8430     2.4990     0.1070     0.0580   -39.5000     8.6860     7.4230     7.8880   106.8660   113.3240
  270.5000     0.3197     7.8430     2.5060     0.1070     0.0540   -39.3020     9.2830     7.8480     8.1440   106.0280   114.7770
  271.0000     0.3131     7.8430     2.5040     0.1080     0.0450   -39.1040     9.2060     8.0040     8.3690   105.5860   116.1680
  271.5000     0.3160     7.8430     2.5020     0.1060     0.0360   -38.5790     9.1260     8.1690     8.5940   105.3770   117.6430
