~VERSION INFORMATION
 VERS.                2.0:   CWLS LOG ASCII STANDARD - VERSION 2.0
 WRAP.                 NO:   ONE LINE PER DEPTH STEP
~WELL INFORMATION
#MNEM.UNIT      DATA TYPE    INFORMATION
#----------   ------------   ------------------------------
 STRT.F            1.0000:   START DEPTH
 STOP.F          755.5000:   STOP DEPTH
 STEP.F            0.5000:   STEP LENGTH
 NULL.          -999.2500:   NO VALUE
 COMP. FENIX & SCISSON INC:   COMPANY
 WELL.       25-SX #25-14:   WELL
 FLD .        TEAPOT DOME:   FIELD
 LOC .      S14 T38N R78W:   LOCATION
 CNTY.            NATRONA:   COUNTY
 STAT.            WYOMING:   STATE
 CTRY. UNITED STATES OF AMERICA:   COUNTRY
 SRVC.           BIRDWELL:   SERVICE COMPANY
 DATE.        29-DEC-1978:   LOGDATE
 API .       490251076000:   API NUMBER
~CURVE INFORMATION
#MNEM.UNIT       API CODE    CURVE DESCRIPTION
#----------   ------------   ------------------------------
 DEPT.F                  :   
 SPR .MV     05 010 01 00:   SPONTANEOUS POTENTIAL FROM RES.
 SN  .OHMM   05 040 16 00:   SHORT NORMAL 16"
 IL  .OHMM   05 120 00 00:   INDUCTION LOG
 CALD.IN     45 280 60 00:   CALIPER
 GRD .GAPI   45 310 01 00:   GAMMA RAY FROM DENSITY LOG
 CORR.G/C3   45 356 01 00:   DENSITY CORRECTION
 DPHI.DEC    45 890 12 00:   DENSITY POROSITY SANDSTONE
 RHOB.G/C3   45 350 01 00:   BULK DENSITY
~PARAMETER INFORMATION
#MNEM.UNIT          VALUE    DESCRIPTION
#----------   ------------   ------------------------------
 PD  .                 GL:   PERMANENT DATUM
 EPD .F              5214:   ELEVATION PERMANENT DATUM
 LMF .                 KB:   LOG MEASURED FROM
 DAPD.F                 4:   FEET ABOVE PERMANENT DATUM
 DMF .                 KB:   DRILLING MEASURED FROM
 EKB .F              5218:   KELLING BUSHING
 EGL .F              5214:   GROUND LEVEL
 DATE.           12-29-79:   RUN DATE
 RUN .                  1:   RUN NUMBER
 DD  .F               765:   DEPTH DRILLER
 DL  .F               747:   DEPTH LOGGER
 BLI .F               740:   BOTTOM LOG INTERVAL
 TLI .F                40:   TOP LOG INTERVAL
 CS  .IN            8.625:   CASING SIZE
 CBD .F                40:   CASING BOTTOM DRILLER
 CBL .F                40:   CASING BOTTOM LOGGER
 BS  .IN            7.875:   BIT SIZE
 BSD .F               765:   BIT SIZE AT DEPTH
 DFT .                KCL:   DRILLING FLUID TYPE
 DFD .                8.8:   DRILLING FLUID DENSITY
 DFV .                 48:   DRILLING FLUID VISCOSITY
 DFPH.                9.2:   DRILLING FLUID PH
 MSS .           FLOWLINE:   MUD SAMPLE SOURCE
 RMS .OHMM            .17:   RESISTIVITY MUD SAMPLE
 MST .F                56:   MUD SAMPLE TEMPERATURE
 RMF .OHMM            .15:   RESISTIVITY MUD FILTRATE SAMPLE
 MFST.F                56:   MUD FILTRATE SAMPLE TEMPERATURE
 RMC .OHMM            .23:   RESISTIVITY MUD CAKE
 MCST.F                64:   MUD CAKE SAMPLE TEMPERATURE
 MFSS.           MEASURED:   MUD FILTRATE SAMPLE SOURCE
 MCSS.           MEASURED:   MUD CAKE SAMPLE SOURCE
 RMB .OHMM            .16:   RESISTIVITY MUD AT BHT
 BHT .F                59:   BOTTOM HOLE TEMPERATURE
 TCS .HRS              12:   TIME CURCULATED STOPPED
 MRT .F                59:   MAXIMUM RECORDED TEMPERATURE
 LUN .               2958:   LOGGING UNIT NUMBER
 LUL .             CASPER:   LOGGING UNIT LOCATION
 ENGI.            ROLLINS:   RECORDING ENGINEER
 WITN.         RICHARDSON:   WITNESSED BY
 CLNT.            A2DTECH:   CLIENT CODE
 ORIG.           5" PRINT:   ORIGIN OF DATA
 UWI .       490251076000:   UNIQUE WELL ID
 DICO. A2D Technologies, Inc.:   DIGITIZING COMPANY
~OTHER INFORMATION
~A    DEPT     SPR         SN         IL       CALD         GRD      CORR       DPHI       RHOB   
# ...
   41.5000  -999.2500  -999.2500  -999.2500     7.3900   100.7260    -0.0190  -999.2500  -999.2500
   42.0000  -999.2500  -999.2500  -999.2500     7.3720   100.5890    -0.0310  -999.2500     2.2930
   42.5000  -999.2500     4.6430  -999.2500     7.3570   100.5330    -0.0340     0.2040     2.3130
   43.0000  -999.2500  -999.2500  -999.2500     7.3710   100.4960    -0.0360     0.1980     2.3190
   43.5000   -44.9130  -999.2500  -999.2500     7.4390   100.3970    -0.0370     0.2030     2.3140
   44.0000   -46.3420     5.2720  -999.2500     7.4810    98.9110    -0.0380     0.1950     2.3230
   44.5000   -47.7710     5.6020  -999.2500     7.4900    97.4740    -0.0390     0.1830     2.3390
   45.0000   -48.7870     5.7940     3.9560     7.5050    97.2810    -0.0400     0.1760     2.3550
   45.5000   -50.2650     5.7840     3.9630     7.5420    99.7090    -0.0400     0.1710     2.3690
   46.0000   -51.3900     5.7640     3.9690     7.5780   102.5360    -0.0410     0.1670     2.3790
   46.5000   -52.0160     5.7430     3.9780     7.6130   104.4470    -0.0390     0.1650     2.3880
   47.0000   -51.9990     5.7220     3.9640     7.6240   104.1190    -0.0380     0.1630     2.3970
   47.5000   -52.2980     5.7020     3.9820     7.6310   104.1150    -0.0370     0.1600     2.4030
   48.0000   -53.0190     5.5530     3.8190     7.6380   107.3800    -0.0360     0.1560     2.4080
   48.5000   -53.7590     5.3810     3.7050     7.6460   110.1270    -0.0340     0.1560     2.4120
   49.0000   -54.4630     5.1670     3.6250     7.6530   108.2530    -0.0330     0.1570     2.4130
   49.5000   -54.6650     5.2420     3.6560     7.6550   106.8860    -0.0320     0.1580     2.4020
   50.0000   -54.8850     4.9300     3.6250     7.6430   105.1320    -0.0290     0.1730     2.3900
   50.5000   -55.1100     4.7640     3.5640     7.6320   103.1720    -0.0210     0.1850     2.3780
   51.0000   -55.3300     4.4950     3.3630     7.6210   101.2060    -0.0160     0.1930     2.3660
   51.5000   -55.5230     4.2520     3.1620     7.6100    99.1580    -0.0070     0.2060     2.3540
   52.0000   -57.0890     4.0090     2.9610     7.5990    98.4530     0.0050     0.2220     2.3350
   52.5000   -58.9100     3.7670     2.7600     7.6310    97.8540     0.0190     0.2380     2.3130
   53.0000   -59.6020     3.5240     2.6450     7.6510    97.8410     0.0430     0.2540     2.2880
   53.5000   -60.2850     3.2810     2.6040     7.6200    98.2100     0.0790     0.2690     2.2610
   54.0000   -60.9720     2.9290     2.5770     7.5910   100.7340     0.1150     0.2780     2.2340
   54.5000   -61.6530     2.9450     2.5950     7.5620   102.1170     0.1510     0.2820     2.2120
   55.0000   -62.2790     2.9740     2.6080     7.5320   102.2350     0.1680     0.2620     2.2020
   55.5000   -62.4860     3.0050     2.6210     7.5080   102.3550     0.1480     0.2450     2.2220
   56.0000   -62.6290     3.1560     2.7470     7.4890   102.5420     0.1180     0.2270     2.3490
   56.5000   -62.6450     3.3120     2.8760     7.4710   104.0860     0.1030     0.2090     2.3420
   57.0000   -62.6630     3.4680     3.0060     7.4570   105.6690     0.0960     0.1970     2.3370
   57.5000   -62.6800     3.5870     3.1630     7.4600   105.4300     0.0820     0.1910     2.3420
   58.0000   -62.6960     3.6470     3.1600     7.4620   105.3030     0.0610     0.1840     2.3530
   58.5000   -62.7120     3.7080     3.1580     7.4650   107.9440     0.0400     0.1780     2.3600
   59.0000   -62.7280     3.7190     3.1550     7.4670   108.5860     0.0190     0.1650     2.3660
   59.5000   -62.7440     3.7190     3.1520     7.4700   108.9210    -0.0020     0.1550     2.3780
   60.0000   -62.7600     3.7190     3.1490     7.4720   108.3160    -0.0240     0.1730     2.3920
   60.5000   -62.7760     3.7190     3.1460     7.4750   106.7210    -0.0330     0.1710     2.3940
   61.0000   -62.7920     3.6920     3.1430     7.4760   106.6010    -0.0320     0.1680     2.3860
   61.5000   -62.8080     3.6590     3.1400     7.4700   106.5270    -0.0310     0.1650     2.3760
   62.0000   -62.8360     3.6260     3.1350     7.4650   105.4800    -0.0340     0.1670     2.3840
   62.5000   -63.3960     3.5950     3.1380     7.4590   103.2750    -0.0370     0.1730     2.3980
   63.0000   -63.4330     3.5030     2.9210     7.4400   101.8010    -0.0370     0.1780     2.3920
   63.5000   -63.5080     3.4150     2.7500     7.4040   101.7240    -0.0370     0.1840     2.3780
   64.0000   -63.7980     3.3050     2.5780     7.3810   101.1390    -0.0370     0.1970     2.3630
   64.5000   -64.0820     3.1590     2.4060     7.4050    98.7610    -0.0370     0.2110     2.3490
   65.0000   -64.3630     2.9470     2.2480     7.4280    96.4560    -0.0370     0.2260     2.3340
   65.5000   -64.6440     2.7360     2.2610     7.4510    94.9460    -0.0370     0.2410     2.3170
   66.0000   -64.8320     2.6440     2.2760     7.4740    93.5950    -0.0370     0.2440     2.2970
   66.5000   -64.8290     2.6700     2.2910     7.4970    96.6650    -0.0370     0.2430     2.2740
   67.0000   -64.8280     2.7240     2.3070     7.5190   101.6630    -0.0360     0.2350     2.2450
   67.5000   -64.7920     2.7830     2.3220     7.5380   102.1460    -0.0350     0.2200     2.2600
   68.0000   -64.5760     2.9440     2.4320     7.5370   101.8110    -0.0330     0.2050     2.3450
   68.5000   -64.3610     3.2420     2.5820     7.5370   101.4880    -0.0320     0.1900     2.3780
   69.0000   -64.2170     3.4170     2.7310     7.5370   101.7550    -0.0300     0.1760     2.3970
   69.5000   -64.1880     3.4220     2.8800     7.5370   102.0360    -0.0290     0.1670     2.4030
   70.0000   -64.1580     3.4270     2.9790     7.5370   102.3140    -0.0270     0.1700     2.3980
   70.5000   -64.1280     3.4320     2.9290     7.5370   103.0060    -0.0260     0.1720     2.3920
   71.0000   -64.0980     3.4370     2.8700     7.5370   104.2600    -0.0240     0.1670     2.3890
   71.5000   -64.0680     3.4420     2.8300     7.5370   103.0010    -0.0230     0.1630     2.3900
   72.0000   -64.0370     3.4440     2.8290     7.5370   100.9350    -0.0210     0.1690     2.3970
   72.5000   -64.0590     3.4090     2.8160     7.5350    98.8530    -0.0190     0.1730     2.3970
   73.0000   -64.1040     3.3780     2.8020     7.5300    98.1880    -0.0180     0.1860     2.3880
   73.5000   -64.1510     3.3480     2.7780     7.5260    98.9120    -0.0150     0.1990     2.3750
   74.0000   -64.2010     3.3100     2.7550     7.5220   100.1270    -0.0010     0.2120     2.3590
   74.5000   -64.3500     3.2600     2.7330     7.5190   101.6700     0.0140     0.2210     2.3420
   75.0000   -64.8190     3.2110     2.7200     7.4780   102.5280     0.0300     0.2270     2.3250
   75.5000   -65.2350     3.1610     2.6820     7.4820   102.6680     0.0460     0.2230     2.3080
   76.0000   -65.4040     3.1120     2.6060     7.4880   102.0110     0.0800     0.2200     2.3030
   76.5000   -65.5610     3.0060     2.4750     7.4940   101.1960     0.1140     0.2110     2.3050
   77.0000   -65.7180     2.8910     2.3100     7.4990   100.9070     0.1360     0.1920     2.3070
   77.5000   -65.8760     2.7770     2.1510     7.5050   100.9960     0.1590     0.1780     2.3090
   78.0000   -66.0330     2.6660     1.9900     7.5110   101.0850     0.1570     0.1800     2.3060
   78.5000   -66.1900     2.4690     1.8320     7.5160   101.1750     0.1380     0.1860     2.2890
   79.0000   -66.3470     2.2870     1.8780     7.5220   101.2640     0.1110     0.1970     2.2720
   79.5000   -66.5030     2.1740     1.9360     7.5280   101.3500     0.0880     0.2080     2.2340
   80.0000   -66.6460     2.1540     2.0310     7.5330   101.4420     0.0660     0.2190     2.1960
   80.5000   -66.6950     2.2200     2.1270     7.5390   101.0570     0.0440     0.2270     2.1600
   81.0000   -66.7450     2.3370     2.2220     7.5450    99.1910     0.0210     0.2040     2.2190
   81.5000   -66.7950     2.5120     2.3180     7.5500    94.6290     0.0100     0.1820     2.2770
