~VERSION INFORMATION
 VERS.                2.0:   CWLS LOG ASCII STANDARD - VERSION 2.0
 WRAP.                 NO:   ONE LINE PER DEPTH STEP
~WELL INFORMATION
#MNEM.UNIT      DATA TYPE    INFORMATION
#----------   ------------   ------------------------------
 STRT.F           40.0000:   START DEPTH
 STOP.F          512.0000:   STOP DEPTH
 STEP.F            0.5000:   STEP LENGTH
 NULL.          -999.2500:   NO VALUE
 COMP. FENIX & SCISSON INC:   COMPANY
 WELL.    SX 3FO 55 #52-3:   WELL
 FLD .             TEAPOT:   FIELD
 LOC .       S3 T38N R78W:   LOCATION
 CNTY.            NATRONA:   COUNTY
 STAT.            WYOMING:   STATE
 CTRY. UNITED STATES OF AMERICA:   COUNTRY
 SRVC.              Welex:   SERVICE COMPANY
 DATE.        28-JUN-1980:   LOGDATE
 API .       490251081600:   API NUMBER
~CURVE INFORMATION
#MNEM.UNIT       API CODE    CURVE DESCRIPTION
#----------   ------------   ------------------------------
 DEPT.F                  :   
 GRD .GAPI   45 310 01 00:   GAMMA RAY FROM DENSITY LOG
 CALD.IN     45 280 60 00:   CALIPER
 RHOB.G/C3   45 350 01 00:   BULK DENSITY
 DPHI.DEC    45 890 12 00:   DENSITY POROSITY SANDSTONE
 CORR.G/C3   45 356 01 00:   DENSITY CORRECTION
~PARAMETER INFORMATION
#MNEM.UNIT          VALUE    DESCRIPTION
#----------   ------------   ------------------------------
 PD  .                 GL:   PERMANENT DATUM
 EPD .F              5161:   ELEVATION PERMANENT DATUM
 LMF .                 KB:   LOG MEASURED FROM
 DAPD.F                 5:   FEET ABOVE PERMANENT DATUM
 DMF .                 KB:   DRILLING MEASURED FROM
 EKB .F              5166:   KELLING BUSHING
 EGL .F              5161:   GROUND LEVEL
 DATE.            6-28-80:   RUN DATE
 RUN .                  1:   RUN NUMBER
 DD  .F               514:   DEPTH DRILLER
 DL  .F               514:   DEPTH LOGGER
 BLI .F               512:   BOTTOM LOG INTERVAL
 TLI .F                46:   TOP LOG INTERVAL
 CS  .IN                7:   CASING SIZE
 BS  .IN             6.25:   BIT SIZE
 BSD .F               514:   BIT SIZE AT DEPTH
 DFT .        AIR DRILLED:   DRILLING FLUID TYPE
 BHT .F                74:   BOTTOM HOLE TEMPERATURE
 TCS .HRS               2:   TIME CURCULATED STOPPED
 MRT .F                74:   MAXIMUM RECORDED TEMPERATURE
 ENGI.            TOTHILL:   RECORDING ENGINEER
 WITN.              AMEND:   WITNESSED BY
 CLNT.            A2DTECH:   CLIENT CODE
 ORIG.           5" PRINT:   ORIGIN OF DATA
 UWI .       490251081600:   UNIQUE WELL ID
 DICO. A2D Technologies, Inc.:   DIGITIZING COMPANY
~OTHER INFORMATION
~A   DEPT       GRD        CALD       RHOB       DPHI       CORR 
# ...
  223.0000   129.4838     6.3929     2.4713     0.1213     0.0240
  223.5000   130.2182     6.3921     2.4609     0.1276     0.0171
  224.0000   129.9436     6.3913     2.4502     0.1340     0.0061
  224.5000   129.3123     6.3905     2.4399     0.1384     0.0053
  225.0000   128.6915     6.3896     2.4393     0.1397     0.0137
  225.5000   127.7408     6.3888     2.4479     0.1373     0.0219
  226.0000   126.7939     6.3880     2.4582     0.1299     0.0302
  226.5000   127.3429     6.3872     2.4682     0.1246     0.0386
  227.0000   128.2650     6.3864     2.4667     0.1254     0.0377
  227.5000   129.2020     6.3856     2.4506     0.1323     0.0309
  228.0000   130.1432     6.3848     2.4379     0.1393     0.0238
  228.5000   131.2524     6.3857     2.4340     0.1423     0.0225
  229.0000   131.1536     6.3880     2.4306     0.1453     0.0233
  229.5000   130.2795     6.3902     2.4274     0.1473     0.0249
  230.0000   127.0600     6.3925     2.4299     0.1466     0.0305
  230.5000   125.6774     6.3947     2.4385     0.1435     0.0355
  231.0000   126.0416     6.3970     2.4456     0.1381     0.0255
  231.5000   126.4532     6.3992     2.4450     0.1360     0.0146
  232.0000   127.2765     6.4015     2.4605     0.1311     0.0075
  232.5000   128.1121     6.4038     2.4662     0.1249     0.0032
  233.0000   129.0689     6.4052     2.4586     0.1252    -0.0012
  233.5000   129.6864     6.4063     2.4510     0.1318    -0.0055
  234.0000   130.1886     6.4074     2.4446     0.1373    -0.0099
  234.5000   130.6860     6.4085     2.4493     0.1359    -0.0128
  235.0000   131.5586     6.4096     2.4440     0.1371    -0.0156
  235.5000   132.8351     6.4107     2.4432     0.1382    -0.0178
  236.0000   133.3562     6.4118     2.4469     0.1364    -0.0158
  236.5000   131.7295     6.4130     2.4515     0.1346    -0.0139
  237.0000   129.9161     6.4141     2.4540     0.1328    -0.0120
  237.5000   128.5392     6.4152     2.4583     0.1309    -0.0099
  238.0000   129.5019     6.4163     2.4639     0.1271    -0.0032
  238.5000   130.4299     6.4174     2.4646     0.1257     0.0040
  239.0000   131.3670     6.4185     2.4708     0.1223     0.0112
  239.5000   132.3498     6.4196     2.4821     0.1168     0.0184
  240.0000   133.5459     6.4208     2.4846     0.1138     0.0258
  240.5000   135.0388     6.4219     2.4893     0.1111     0.0312
  241.0000   136.5292     6.4230     2.4942     0.1083     0.0360
  241.5000   138.0340     6.4243     2.4885     0.1088     0.0316
  242.0000   138.0998     6.4167     2.4819     0.1142     0.0258
  242.5000   138.4625     6.4074     2.4752     0.1183     0.0199
  243.0000   138.9005     6.3979     2.4742     0.1198     0.0163
  243.5000   139.3455     6.3884     2.4780     0.1179     0.0180
  244.0000   139.6847     6.3845     2.4846     0.1144     0.0194
  244.5000   138.2661     6.3845     2.4912     0.1106     0.0254
  245.0000   136.7297     6.3844     2.4866     0.1102     0.0328
  245.5000   134.7722     6.3845     2.4710     0.1182     0.0383
  246.0000   134.7813     6.3845     2.4554     0.1297     0.0110
  246.5000   135.5795     6.3845     2.4431     0.1360    -0.0048
  247.0000   136.4186     6.3845     2.4385     0.1401    -0.0015
  247.5000   137.4430     6.3845     2.4340     0.1432     0.0018
  248.0000   138.4586     6.3845     2.4256     0.1473     0.0020
  248.5000   138.8055     6.3845     2.4221     0.1505     0.0020
  249.0000   138.9535     6.3845     2.4309     0.1475     0.0020
  249.5000   137.0351     6.3845     2.4341     0.1447     0.0021
  250.0000   134.4226     6.3845     2.4506     0.1384     0.0079
  250.5000   131.8193     6.3845     2.4650     0.1287     0.0194
  251.0000   131.0116     6.3845     2.4699     0.1225     0.0299
  251.5000   130.4385     6.3845     2.4710     0.1206     0.0312
  252.0000   130.4778     6.3845     2.4680     0.1219     0.0340
  252.5000   131.1671     6.3845     2.4707     0.1210     0.0426
  253.0000   131.8542     6.3845     2.4776     0.1178     0.0508
  253.5000   132.5491     6.3845     2.4776     0.1171     0.0458
  254.0000   133.2344     6.3845     2.4734     0.1193     0.0348
  254.5000   132.8492     6.3845     2.4644     0.1244     0.0190
  255.0000   132.3383     6.3845     2.4594     0.1293     0.0041
  255.5000   132.2415     6.3845     2.4694     0.1214     0.0108
  256.0000   132.1681     6.3845     2.4649     0.1234     0.0078
  256.5000   131.4830     6.3845     2.4582     0.1281     0.0029
  257.0000   130.4947     6.3845     2.4547     0.1298    -0.0018
  257.5000   129.4989     6.3845     2.4532     0.1321     0.0005
  258.0000   128.4957     6.3845     2.4564     0.1295     0.0030
  258.5000   127.9438     6.3845     2.4533     0.1289     0.0055
  259.0000   128.3973     6.3845     2.4470     0.1334     0.0087
  259.5000   128.9241     6.3845     2.4530     0.1355     0.0112
  260.0000   129.7389     6.3845     2.4716     0.1260     0.0316
  260.5000   130.5409     6.3845     2.4741     0.1182     0.0410
  261.0000   131.2475     6.3845     2.4710     0.1200     0.0399
  261.5000   131.9232     6.3845     2.4727     0.1226     0.0388
  262.0000   131.3319     6.3845     2.4812     0.1172     0.0373
  262.5000   130.3398     6.3845     2.4900     0.1098     0.0357
  263.0000   129.3477     6.3845     2.4977     0.1055     0.0340
  263.5000   128.3557     6.3845     2.5057     0.0990     0.0325
  264.0000   127.4564     6.3845     2.5069     0.1030     0.0320
  264.5000   126.7102     6.3845     2.5066     0.1007     0.0359
  265.0000   125.9765     6.3845     2.5181     0.0962     0.0397
  265.5000   125.8675     6.3845     2.5215     0.0936     0.0438
  266.0000   125.7856     6.3845     2.5315     0.0904     0.0451
  266.5000   125.3470     6.3845     2.5397     0.0892     0.0448
  267.0000   124.6986     6.3845     2.5265     0.0910     0.0351
  267.5000   124.4733     6.3845     2.5284     0.0907     0.0320
  268.0000   124.2141     6.3845     2.5278     0.0914     0.0299
  268.5000   124.4152     6.3845     2.5245     0.0927     0.0280
  269.0000   124.4314     6.3845     2.5213     0.0938     0.0293
  269.5000   123.5938     6.3845     2.5223     0.0930     0.0349
  270.0000   123.4020     6.3845     2.5269     0.0922     0.0344
  270.5000   123.2408     6.3845     2.5145     0.0998     0.0270
  271.0000   123.3177     6.3845     2.5049     0.1014     0.0200
  271.5000   124.4973     6.3845     2.4991     0.1030     0.0163
  272.0000   123.8462     6.3845     2.4936     0.1058     0.0193
  272.5000   122.8648     6.3845     2.4939     0.1059     0.0232
  273.0000   123.5435     6.3845     2.4959     0.1041     0.0250
  273.5000   124.1743     6.3845     2.4978     0.1038     0.0262
  274.0000   124.2819     6.3845     2.4999     0.1060     0.0276
  274.5000   124.2946     6.3845     2.4899     0.1114     0.0205
  275.0000   123.4920     6.3845     2.4728     0.1183     0.0085
  275.5000   121.6488     6.3845     2.4559     0.1276    -0.0036
  276.0000   121.2558     6.3845     2.4506     0.1325    -0.0033
  276.5000   121.5227     6.3845     2.4465     0.1342     0.0036
  277.0000   121.9913     6.3845     2.4480     0.1347     0.0104
  277.5000   123.4761     6.3845     2.4506     0.1341     0.0240
  278.0000   127.2638     6.3845     2.4538     0.1320     0.0409
  278.5000   129.7295     6.3845     2.4565     0.1297     0.0526
  279.0000   131.1703     6.3845     2.4555     0.1321     0.0557
  279.5000   130.0988     6.3845     2.4600     0.1304     0.0578
  280.0000   126.8489     6.3845     2.4658     0.1274     0.0501
  280.5000   121.5485     6.3845     2.4749     0.1197     0.0418
  281.0000   116.5826     6.3845     2.4876     0.1108     0.0382
  281.5000   113.9848     6.3844     2.5057     0.1016     0.0400
  282.0000   111.6058     6.3821     2.4967     0.1119     0.0337
  282.5000   110.2733     6.3766     2.4838     0.1132     0.0261
  283.0000   109.8995     6.3712     2.4805     0.1156     0.0311
  283.5000   109.2652     6.3658     2.4862     0.1126     0.0429
