~VERSION INFORMATION
 VERS.                2.0:   CWLS LOG ASCII STANDARD - VERSION 2.0
 WRAP.                 NO:   ONE LINE PER DEPTH STEP
~WELL INFORMATION
#MNEM.UNIT      DATA TYPE    INFORMATION
#----------   ------------   ------------------------------
 STRT.F           27.0000:   START DEPTH
 STOP.F          713.0000:   STOP DEPTH
 STEP.F            0.5000:   STEP LENGTH
 NULL.          -999.2500:   NO VALUE
 COMP. FENIX & SCISSON INC:   COMPANY
 WELL.       NPR 3 #44-34:   WELL
 FLD .        TEAPOT DOME:   FIELD
 LOC .      S34 T39N R78W:   LOCATION
 CNTY.            NATRONA:   COUNTY
 STAT.            WYOMING:   STATE
 CTRY. UNITED STATES OF AMERICA:   COUNTRY
 SRVC.           BIRDWELL:   SERVICE COMPANY
 DATE.        24-AUG-1978:   LOGDATE
 API .       490251070000:   API NUMBER
~CURVE INFORMATION
#MNEM.UNIT       API CODE    CURVE DESCRIPTION
#----------   ------------   ------------------------------
 DEPT.F                  :   
 SPR .MV     05 010 01 00:   SPONTANEOUS POTENTIAL FROM RES.
 ILD .OHMM   05 120 46 00:   INDUCTION LOG DEEP
 SN  .OHMM   05 040 16 00:   SHORT NORMAL 16"
 CALD.IN     45 280 60 00:   CALIPER
 GRD .GAPI   45 310 01 00:   GAMMA RAY FROM DENSITY LOG
 DEN .G/C3   45 350 01 00:   COMPENSATED BULK DENSTIY
 DPHI.DEC    45 890 12 00:   DENSITY POROSITY SANDSTONE
 CORR.G/C3   45 356 01 00:   DENSITY CORRECTION
~PARAMETER INFORMATION
#MNEM.UNIT          VALUE    DESCRIPTION
#----------   ------------   ------------------------------
 PD  .                 GL:   PERMANENT DATUM
 EPD .F              5124:   ELEVATION PERMANENT DATUM
 LMF .                 KB:   LOG MEASURED FROM
 DAPD.F                 4:   FEET ABOVE PERMANENT DATUM
 DMF .                 KB:   DRILLING MEASURED FROM
 EKB .F              5128:   KELLING BUSHING
 EGL .F              5124:   GROUND LEVEL
 DATE.            8-24-78:   RUN DATE
 RUN .                  1:   RUN NUMBER
 DD  .F               716:   DEPTH DRILLER
 DL  .F               713:   DEPTH LOGGER
 BLI .F               707:   BOTTOM LOG INTERVAL
 TLI .F                50:   TOP LOG INTERVAL
 CS  .IN            8.625:   CASING SIZE
 CBD .F                40:   CASING BOTTOM DRILLER
 BS  .IN            7.875:   BIT SIZE
 BSD .F               716:   BIT SIZE AT DEPTH
 DFT .            MUD KCL:   DRILLING FLUID TYPE
 DFD .                8.6:   DRILLING FLUID DENSITY
 DFV .                 34:   DRILLING FLUID VISCOSITY
 DFL .                7.4:   DRILLING FLUID LOSS
 MSS .          FLOW LINE:   MUD SAMPLE SOURCE
 RMS .OHMM            .18:   RESISTIVITY MUD SAMPLE
 MST .F                76:   MUD SAMPLE TEMPERATURE
 RMF .OHMM            .16:   RESISTIVITY MUD FILTRATE SAMPLE
 MFST.F                92:   MUD FILTRATE SAMPLE TEMPERATURE
 RMC .OHMM             .3:   RESISTIVITY MUD CAKE
 MCST.F                86:   MUD CAKE SAMPLE TEMPERATURE
 MFSS.               MEAS:   MUD FILTRATE SAMPLE SOURCE
 TCS .HRS               3:   TIME CURCULATED STOPPED
 MRT .F                72:   MAXIMUM RECORDED TEMPERATURE
 LUN .               2958:   LOGGING UNIT NUMBER
 LUL .               CASP:   LOGGING UNIT LOCATION
 ENGI.           REYNOLDS:   RECORDING ENGINEER
 WITN.              AMEND:   WITNESSED BY
 CLNT.            A2DTECH:   CLIENT CODE
 ORIG.           5" PRINT:   ORIGIN OF DATA
 UWI .       490251070000:   UNIQUE WELL ID
 DICO. A2D Technologies, Inc.:   DIGITIZING COMPANY
~OTHER INFORMATION
~A   DEPT      SPR        ILD         SN       CALD         GRD       DEN       DPHI       CORR   
# ...
  310.5000   -67.8065     8.0427     8.3427     8.8447   112.8234     2.4984     0.1272     0.0185
  311.0000   -67.8651     8.0427     8.3427     8.8434   116.2484     2.4892     0.1258     0.0189
  311.5000   -67.9238     8.0427     8.3427     8.8421   117.2571     2.4923     0.1228     0.0193
  312.0000   -67.9824     8.0427     8.3427     8.8408   106.3951     2.5029     0.1148     0.0202
  312.5000   -68.0410     8.0427     8.3427     8.8395    98.5522     2.5135     0.1063     0.0223
  313.0000   -68.0997     8.0427     8.3427     8.8383    98.5778     2.5241     0.0978     0.0244
  313.5000   -68.1586     8.0427     8.3427     8.8299   102.1714     2.5348     0.0949     0.0264
  314.0000   -68.2196     8.0428     8.3427     8.8160   103.2756     2.5370     0.1046     0.0265
  314.5000   -68.1616     8.0428     8.3427     8.8020   102.6668     2.5271     0.1128     0.0245
  315.0000   -68.0819     8.0429     8.3427     8.7962   103.1141     2.5122     0.1132     0.0226
  315.5000   -68.0018     8.0233     8.3427     8.7941   103.4408     2.5108     0.1128     0.0206
  316.0000   -67.9218     7.9960     8.3427     8.7921   103.4136     2.5161     0.1074     0.0195
  316.5000   -67.8396     7.9697     8.3427     8.7900   102.3576     2.5223     0.1036     0.0192
  317.0000   -67.8897     7.9694     8.3427     8.7879   100.8021     2.5185     0.1093     0.0190
  317.5000   -67.9639     7.9694     8.3427     8.7859   101.1374     2.5096     0.1138     0.0188
  318.0000   -68.0253     7.9694     8.3428     8.7838   102.9791     2.5006     0.1183     0.0185
  318.5000   -67.9890     7.9698     8.3422     8.7818   106.3978     2.4991     0.1190     0.0183
  319.0000   -67.9542     7.9685     8.3439     8.7797   107.6607     2.4993     0.1189     0.0181
  319.5000   -67.9196     7.9724     8.2234     8.7776   106.9716     2.4996     0.1186     0.0179
  320.0000   -67.8849     7.8129     8.1556     8.7756   105.3912     2.4998     0.1185     0.0176
  320.5000   -67.8511     7.6829     8.0883     8.7735   104.6610     2.4996     0.1188     0.0182
  321.0000   -67.8464     7.6750     8.0216     8.7714   104.6994     2.4984     0.1196     0.0201
  321.5000   -67.8977     7.6610     7.9678     8.7694   104.7857     2.4980     0.1204     0.0221
  322.0000   -67.9481     7.6470     7.9602     8.7673   106.5055     2.4969     0.1218     0.0235
  322.5000   -67.9987     7.6330     7.9527     8.7653   110.4031     2.4934     0.1241     0.0228
  323.0000   -68.0493     7.6192     7.9451     8.7632   108.5357     2.4901     0.1264     0.0220
  323.5000   -68.0998     7.6129     7.9375     8.7611   113.1197     2.4880     0.1260     0.0212
  324.0000   -68.1503     7.6129     7.9300     8.7591   112.9445     2.4892     0.1256     0.0204
  324.5000   -68.2008     7.6128     7.9224     8.7562   108.7099     2.4918     0.1211     0.0196
  325.0000   -68.2315     7.6128     7.9149     8.7499   106.1152     2.4988     0.1177     0.0188
  325.5000   -68.2497     7.6127     7.9072     8.7437   105.6798     2.5018     0.1160     0.0180
  326.0000   -68.2673     7.6128     7.8968     8.7377   106.0410     2.5047     0.1143     0.0187
  326.5000   -68.2848     7.6933     7.9530     8.7374   106.2111     2.5145     0.0988     0.0222
  327.0000   -68.3024     7.7965     8.0483     8.7375   105.0687     2.5276     0.1032     0.0239
  327.5000   -68.3199     7.9012     8.1447     8.7375   103.9040     2.5216     0.1076     0.0246
  328.0000   -68.3375     8.0077     8.2425     8.7375   102.5013     2.5150     0.1119     0.0253
  328.5000   -68.3550     8.1176     8.3424     8.7375   104.4745     2.5084     0.1139     0.0261
  329.0000   -68.3726     8.1164     8.3657     8.7375   105.9686     2.5061     0.1128     0.0269
  329.5000   -68.3905     8.1167     8.3891     8.7375   103.6806     2.5118     0.1104     0.0269
  330.0000   -68.4100     8.1167     8.4127     8.7375   104.7375     2.5161     0.1093     0.0240
  330.5000   -68.4199     8.1167     8.4363     8.7375   105.2280     2.5187     0.1051     0.0215
  331.0000   -68.0524     8.1167     8.4599     8.7375   101.6407     2.5280     0.0988     0.0214
  331.5000   -67.6550     8.1167     8.4836     8.7375    98.5419     2.5381     0.0926     0.0193
  332.0000   -67.4744     8.1167     8.5060     8.7375    98.5854     2.5482     0.0864     0.0172
  332.5000   -67.5800     8.1167     8.5261     8.7375    99.3184     2.5542     0.0936     0.0160
  333.0000   -67.6827     8.1167     8.5464     8.7375   100.2439     2.5362     0.1042     0.0147
  333.5000   -67.7877     8.1167     8.5668     8.7375   103.9747     2.5169     0.1155     0.0135
  334.0000   -67.8010     8.1167     8.5872     8.7375   107.7191     2.5002     0.1183     0.0122
  334.5000   -67.7570     8.1166     8.6077     8.7375   107.6961     2.4977     0.1214     0.0109
  335.0000   -67.7116     8.1168     8.6282     8.7375   105.6219     2.4951     0.1232     0.0097
  335.5000   -67.6665     8.1341     8.6489     8.7375   104.2911     2.4950     0.1223     0.0084
  336.0000   -67.6350     8.1877     8.6791     8.7375   103.5799     2.4950     0.1202     0.0078
  336.5000   -67.6779     8.2416     8.7130     8.7375   106.3851     2.4983     0.1181     0.0093
  337.0000   -67.7195     8.2960     8.7469     8.7375   107.7930     2.5007     0.1194     0.0106
  337.5000   -67.7610     8.3506     8.7810     8.7366   107.7987     2.4888     0.1309     0.0121
  338.0000   -67.8024     8.4057     8.8152     8.7327   109.2188     2.4760     0.1379     0.0156
  338.5000   -67.8438     8.4468     8.8495     8.7290   110.6189     2.4683     0.1400     0.0191
  339.0000   -67.8853     8.4835     8.8839     8.7252   110.5434     2.4687     0.1371     0.0192
  339.5000   -67.9269     8.5069     8.9185     8.7215   109.8122     2.4735     0.1336     0.0185
  340.0000   -67.9680     8.5294     8.9533     8.7178   108.7580     2.4796     0.1252     0.0178
  340.5000   -68.0106     8.5520     9.0344     8.7141   107.1613     2.4898     0.1168     0.0178
  341.0000   -67.8824     8.5751     9.2133     8.7104   105.4799     2.5043     0.1103     0.0183
  341.5000   -67.6249     8.7052     9.3957     8.7066   100.0392     2.5113     0.1104     0.0188
  342.0000   -67.3659     8.8399     9.5709     8.7029    98.1519     2.5022     0.1212     0.0193
  342.5000   -67.0957     8.9767     9.6434     8.6992    97.7532     2.4927     0.1232     0.0130
  343.0000   -67.0019     9.1156     9.7125     8.6955    97.4827     2.4996     0.1085     0.0054
  343.5000   -66.9438     9.2567     9.7821     8.6916    96.7752     2.5110     0.1068     0.0055
  344.0000   -66.8882     9.3972     9.8705     8.6878    95.9376     2.5151     0.1115     0.0107
  344.5000   -66.8249     9.4626    10.0284     8.6841    96.2311     2.5089     0.1176     0.0186
  345.0000   -66.6143     9.5271    10.1888     8.6803    98.2658     2.5017     0.1227     0.0257
  345.5000   -66.4058     9.5997    10.3521     8.6765    99.0530     2.4946     0.1270     0.0255
  346.0000   -66.2303     9.6887    10.5168     8.6727    96.0761     2.4883     0.1280     0.0255
  346.5000   -66.2346     9.7783    10.5957     8.6689    94.7990     2.4901     0.1208     0.0255
  347.0000   -66.2350     9.8688    10.6187     8.6651    91.1235     2.5004     0.1125     0.0255
  347.5000   -66.2351     9.9602    10.6428     8.6613    88.7049     2.5105     0.1116     0.0255
  348.0000   -66.2351    10.0531    10.6669     8.6575    88.0376     2.5118     0.1116     0.0263
  348.5000   -66.2351    10.1109    10.6823     8.6587    90.6223     2.5127     0.1095     0.0278
  349.0000   -66.2351    10.0818    10.6823     8.6602    93.2915     2.5154     0.1042     0.0292
  349.5000   -66.2351    10.0597    10.6334     8.6618    90.7975     2.5253     0.1008     0.0282
  350.0000   -66.2351    10.0379    10.5746     8.6633    87.8099     2.5205     0.1058     0.0264
  350.5000   -66.2351    10.0129    10.5162     8.6648    89.8903     2.5153     0.1090     0.0266
