~VERSION INFORMATION
 VERS.                2.0:   CWLS LOG ASCII STANDARD - VERSION 2.0
 WRAP.                 NO:   ONE LINE PER DEPTH STEP
~WELL INFORMATION
#MNEM.UNIT      DATA TYPE    INFORMATION
#----------   ------------   ------------------------------
 STRT.F            7.0000:   START DEPTH
 STOP.F          549.0000:   STOP DEPTH
 STEP.F            0.5000:   STEP LENGTH
 NULL.          -999.2500:   NO VALUE
 COMP. LAWRENCE-ALLISON &AS:   COMPANY
 WELL. NPR 3 #51-62-SX-10-LP3:   WELL
 FLD .             TEAPOT:   FIELD
 LOC .      S10 T38N R78W:   LOCATION
 CNTY.            NATRONA:   COUNTY
 STAT.            WYOMING:   STATE
 CTRY. UNITED STATES OF AMERICA:   COUNTRY
 SRVC.      Dresser Atlas:   SERVICE COMPANY
 DATE.        10-DEC-1984:   LOGDATE
 API .       490251099500:   API NUMBER
~CURVE INFORMATION
#MNEM.UNIT       API CODE    CURVE DESCRIPTION
#----------   ------------   ------------------------------
 DEPT.F                  :   
 SPR .MV     07 010 01 00:   SPONTANEOUS POTENTIAL
 RILD.OHMM   07 120 46 00:   INDUCTION LOG DEEP RESISTIVITY
 RILM.OHMM   07 120 44 00:   INDUCTION LOG MEDIUM RESISTIVITY
 RFOC.OHMM   07 220 04 00:   RESISTIVITY FOCUSED LOG
 DT  .US/F   60 520 00 00:   INTERVAL TRANSIT TIME
 PORD.DEC    45 890 12 00:   POROSITY DENSITY SANDSTONE
 CNCF.DEC    42 890 03 00:   NEUTRON POROSITY SANDSTONE
 CALD.IN     45 280 60 00:   CALIPER FROM DENSITY LOG
 GRD .GAPI   45 310 01 00:   GAMMA RAY FROM DENSITY LOG
 CORR.G/C3   45 356 01 00:   DENSITY CORRECTION
 DEN .G/C3   45 350 01 00:   COMPENSATED BULK DENSTIY
~PARAMETER INFORMATION
#MNEM.UNIT          VALUE    DESCRIPTION
#----------   ------------   ------------------------------
 PD  .                 GL:   PERMANENT DATUM
 EPD .F              5179:   ELEVATION PERMANENT DATUM
 LMF .                 GL:   LOG MEASURED FROM
 DMF .                 GL:   DRILLING MEASURED FROM
 EGL .F              5179:   GROUND LEVEL
 DATE.        10-DEC-1984:   RUN DATE
 RUN .                  1:   RUN NUMBER
 DD  .F               554:   DEPTH DRILLER
 DL  .F               551:   DEPTH LOGGER
 BLI .F               549:   BOTTOM LOG INTERVAL
 TLI .F                20:   TOP LOG INTERVAL
 CS  .IN            8.625:   CASING SIZE
 CBD .F                20:   CASING BOTTOM DRILLER
 CBL .F                20:   CASING BOTTOM LOGGER
 BS  .IN            7.875:   BIT SIZE
 BSD .F               554:   BIT SIZE AT DEPTH
 DFT .         KCL- WATER:   DRILLING FLUID TYPE
 MSS .           MUD TANK:   MUD SAMPLE SOURCE
 RMS .OHMM           .168:   RESISTIVITY MUD SAMPLE
 MST .F                77:   MUD SAMPLE TEMPERATURE
 RMF .OHMM           .126:   RESISTIVITY MUD FILTRATE SAMPLE
 MFST.F                77:   MUD FILTRATE SAMPLE TEMPERATURE
 RMC .OHMM            .21:   RESISTIVITY MUD CAKE
 MCST.F                77:   MUD CAKE SAMPLE TEMPERATURE
 MFSS.               CALC:   MUD FILTRATE SAMPLE SOURCE
 MCSS.               CALC:   MUD CAKE SAMPLE SOURCE
 RMB .OHMM            .15:   RESISTIVITY MUD AT BHT
 BHT .F                85:   BOTTOM HOLE TEMPERATURE
 TCS .HRS             3.5:   TIME CURCULATED STOPPED
 MRT .F               100:   MAXIMUM RECORDED TEMPERATURE
 LUN .               6270:   LOGGING UNIT NUMBER
 LUL .                 FM:   LOGGING UNIT LOCATION
 ENGI.          E. GOVETT:   RECORDING ENGINEER
 WITN.             GROOMS:   WITNESSED BY
 CLNT.            A2DTECH:   CLIENT CODE
 ORIG.           5" PRINT:   ORIGIN OF DATA
 UWI .       490251099500:   UNIQUE WELL ID
 DICO. A2D Technologies, Inc.:   DIGITIZING COMPANY
~OTHER INFORMATION
~A    DEPT     SPR       RILD       RILM       RFOC         DT       PORD         CNCF     CALD        GRD       CORR        DEN   
# ...
  190.0000   -61.2460     7.9845     6.7618     8.5096   103.7138     0.1275     0.3081     7.7235   105.9246     0.0322     2.4702
  190.5000   -61.0917     7.8773     6.7632     8.2811   104.6860     0.1335     0.3045     7.7071   105.9143     0.0245     2.4582
  191.0000   -61.0858     7.7179     6.7646     8.1712   105.1319     0.1347     0.2987     7.7058   105.9037     0.0214     2.4552
  191.5000   -61.0799     7.5617     6.5812     8.0626   105.4274     0.1341     0.2864     7.7045   105.7213     0.0153     2.4559
  192.0000   -61.0739     7.4596     6.2711     7.9555   106.0237     0.1311     0.2837     7.7332   104.0762     0.0018     2.4604
  192.5000   -61.3648     7.3594     6.1007     7.8499   106.7704     0.1266     0.3040     7.7318   102.8628    -0.0027     2.4702
  193.0000   -61.5074     7.2111     6.0180     7.7995   107.0661     0.1236     0.3140     7.7455   103.1532    -0.0013     2.4763
  193.5000   -61.5013     7.1143     6.0196     7.6421   107.2113     0.1251     0.3206     7.7442   107.5038     0.0032     2.4717
  194.0000   -61.6439     6.7330     5.9380     7.5407   107.5066     0.1324     0.3152     7.7429   109.9020     0.0047     2.4612
  194.5000   -61.6378     5.8231     5.7770     7.3901   107.9525     0.1363     0.3012     7.7265   106.5808     0.0046     2.4544
  195.0000   -61.6319     5.4351     5.5816     7.1917   108.3985     0.1372     0.2938     7.6952   104.4652     0.0061     2.4521
  195.5000   -61.6260     5.1795     5.1021     7.1447   108.8451     0.1360     0.2874     7.7090   104.6052     0.0091     2.4514
  196.0000   -61.6201     4.8010     4.5997     7.1490   109.7596     0.1341     0.2890     7.7376   107.9032     0.0151     2.4521
  196.5000   -61.6141     4.7034     4.3527     6.9091   110.6557     0.1346     0.2959     7.7513   111.0507     0.0225     2.4574
  197.0000   -61.7566     4.7054     4.2054     5.6547   112.0290     0.1361     0.3081     7.7496   116.1532     0.0270     2.4521
  197.5000   -61.7507     4.8060     4.2355     4.8918   115.1842     0.1481     0.3205     7.7483   117.6466     0.0285     2.4369
  198.0000   -61.5964     4.9771     4.6035     4.6944   116.9002     0.1659     0.3410     7.7469   117.7866     0.0269     2.4065
  198.5000   -61.5905     5.2627     5.0035     5.3578   118.5875     0.1834     0.3547     7.7456   116.5544     0.0194     2.3849
  199.0000   -61.4362     5.5646     5.3263     6.4625   117.0772     0.1897     0.3450     7.7443   113.4024     0.0193     2.3617
  199.5000   -61.2819     5.9660     5.7891     7.5297   114.5908     0.1900     0.3214     7.7430   108.7304     0.0208     2.3640
  200.0000   -61.2760     6.2795     6.1576     8.1286   109.5642     0.1624     0.2940     7.7269   103.1569     0.0207     2.4035
  200.5000   -61.4214     6.6314     6.6120     8.0873   106.4629     0.1325     0.2789     7.6952    99.0908     0.0252     2.4431
  201.0000   -61.4184     7.0520     7.0330     8.0519   105.4825     0.1304     0.2765     7.6937    99.5359     0.0266     2.4626
  201.5000   -61.5639     7.5080     7.0841     8.0274   105.4795     0.1356     0.2883     7.6744   102.0864     0.0265     2.4609
  202.0000   -61.5603     7.7211     7.0861     8.0972   105.8525     0.1359     0.2949     7.6454   106.8924    -0.0067     2.4520
  202.5000   -61.5573     7.8310     7.0880     8.3757   106.3758     0.1314     0.2868     7.6439   110.3451    -0.0071     2.4519
  203.0000   -61.4060     7.9425     7.0899     8.6144   106.3728     0.1287     0.2847     7.6578   111.9933     0.0127     2.4606
  203.5000   -61.1064     7.9447     7.0919     8.8600   106.1443     0.1239     0.3002     7.6559   110.6339     0.0428     2.4688
  204.0000   -60.8067     7.9468     7.0938     8.9253   105.4646     0.1242     0.3081     7.6545   111.3798     0.0489     2.4759
  204.5000   -60.5070     7.9490     7.0957     8.9910   105.0105     0.1242     0.3102     7.6684   113.3287     0.0366     2.4721
  205.0000   -60.3557     7.9512     7.0977     8.9326   104.9323     0.1239     0.3074     7.6665   115.1273     0.0320     2.4728
  205.5000   -60.2044     7.9534     7.0996     8.9363   104.9293     0.1221     0.3046     7.6650   114.5198     0.0350     2.4788
  206.0000   -60.2015     7.9555     7.1015     8.8170   104.9213     0.1194     0.3096     7.6786   110.1529     0.0379     2.4878
  206.5000   -60.0502     7.9577     7.0545     8.8206   104.6902     0.1137     0.3190     7.6771   108.3424     0.0394     2.4877
  207.0000   -59.8989     7.7918     7.0564     8.7624   104.3840     0.1137     0.3201     7.6756   108.3365     0.0423     2.4877
  207.5000   -59.8960     7.6909     6.9612     8.7669   104.1654     0.1201     0.3056     7.6741   111.0373     0.0422     2.4771
  208.0000   -59.8931     7.7466     6.8673     8.7091   104.0874     0.1222     0.2977     7.6727   112.8361     0.0404     2.4763
  208.5000   -59.8901     7.7492     6.8218     8.5929   104.9859     0.1222     0.2953     7.7165   111.0253     0.0315     2.4777
  209.0000   -59.8872     7.7513     6.8238     8.5378   105.3589     0.1174     0.2937     7.7310   111.0194     0.0329     2.4845
  209.5000   -59.8843     7.8073     6.8260     8.4824   105.8070     0.1111     0.2914     7.7282   111.0134     0.0374     2.5025
  210.0000   -60.1781     7.8638     6.8279     8.4860   106.5559     0.1030     0.2944     7.7264   110.5563     0.0433     2.5085
  210.5000   -60.1751     7.8659     6.8297     8.5485   106.9296     0.1051     0.3046     7.7099   110.0992     0.0372     2.5024
  211.0000   -60.1721     7.8681     6.8316     8.5520   106.9259     0.1075     0.3131     7.7235   108.4391     0.0311     2.5016
  211.5000   -60.1686     7.6550     6.8335     8.5556   106.6973     0.1066     0.3240     7.7220   104.5198     0.0356     2.5016
  212.0000   -60.1656     7.3453     6.7413     8.5591   106.5447     0.1021     0.3173     7.7205   104.9844     0.0460     2.5083
  212.5000   -60.1627     7.1464     6.6961     8.4938   106.7665     0.1033     0.3052     7.7190   106.8668     0.0429     2.5075
  213.0000   -60.1598     6.7628     6.6063     8.3899   106.8395     0.1051     0.2976     7.7176   111.0739     0.0368     2.5052
  213.5000   -60.1569     6.3556     6.3832     8.3942   106.4598     0.1082     0.2958     7.7161   113.0923     0.0353     2.4969
  214.0000   -60.3023     6.0563     5.2961     8.5148   106.3065     0.1127     0.2973     7.7296   113.2153     0.0307     2.4901
  214.5000   -60.8928     5.9333     4.9090     8.5775   106.2283     0.1136     0.2940     7.7435   113.0575     0.0306     2.4923
  215.0000   -61.3358     5.8533     4.9444     7.5753   106.6764     0.1136     0.2919     7.7417   113.9537     0.0290     2.4930
  215.5000   -61.7779     5.7743     5.0496     5.8655   108.2524     0.1136     0.3043     7.7402   116.5042     0.0244     2.4914
  216.0000   -61.7743     5.6555     5.2299     5.4000   111.4825     0.1166     0.3457     7.7387   115.7463     0.0183     2.4808
  216.5000   -61.6230     5.5003     5.3067     5.6705   114.5622     0.1284     0.3629     7.7372   113.9358     0.0182     2.4544
  217.0000   -61.1749     5.3125     5.3416     7.3296   116.0630     0.1514     0.3366     7.7352   114.3810     0.0182     2.4205
  217.5000   -60.7269     5.1385     5.2332     7.8584   115.3833     0.1619     0.2994     7.7178   116.9314     0.0181     2.4084
  218.0000   -60.4272     5.0691     5.0219     8.0824   112.9743     0.1542     0.2982     7.7027   116.1736     0.0180     2.4196
  218.5000   -60.4243     5.0007     4.7526     8.1411   110.6405     0.1316     0.3118     7.7009   111.0548     0.0511     2.4557
  219.0000   -60.4214     4.9672     4.4977     7.8681   109.7353     0.1201     0.3102     7.7295   107.2894     0.0480     2.4828
  219.5000   -60.2700     5.0035     4.3760     6.6200   109.9579     0.1175     0.3063     7.7430   107.1346     0.0374     2.4873
  220.0000   -60.1187     5.0747     4.5001     5.1972   111.9098     0.1210     0.3072     7.7415   109.6835     0.0237     2.4767
