~VERSION INFORMATION
 VERS.                2.0:   CWLS LOG ASCII STANDARD - VERSION 2.0
 WRAP.                 NO:   ONE LINE PER DEPTH STEP
~WELL INFORMATION
#MNEM.UNIT      DATA TYPE    INFORMATION
#----------   ------------   ------------------------------
 STRT.F           20.0000:   START DEPTH
 STOP.F          710.0000:   STOP DEPTH
 STEP.F            0.5000:   STEP LENGTH
 NULL.          -999.2500:   NO VALUE
 COMP. FENIX & SCISSON INC:   COMPANY
 WELL.     NPR-3 #42SX-34:   WELL
 FLD .             TEAPOT:   FIELD
 LOC .      S34 T39N R78W:   LOCATION
 CNTY.            NATRONA:   COUNTY
 STAT.            WYOMING:   STATE
 CTRY. UNITED STATES OF AMERICA:   COUNTRY
 SRVC.           BIRDWELL:   SERVICE COMPANY
 DATE.        30-AUG-1978:   LOGDATE
 API .       490251070800:   API NUMBER
~CURVE INFORMATION
#MNEM.UNIT       API CODE    CURVE DESCRIPTION
#----------   ------------   ------------------------------
 DEPT.F                  :   
 SPR .MV     05 010 01 00:   SPONTANEOUS POTENTIAL
 SN  .OHMM   05 040 16 00:   SHORT NORMAL 16'
 ILD .OHMM   05 120 46 00:   INDUCTION LOG DEEP RESISTIVITY
 GRD .GAPI   45 310 01 00:   GAMMA RAY FROM DENSITY LOG
 CALD.IN     45 280 60 00:   CALIPER
 RHOB.G/C3   45 350 01 00:   BULK DENSITY
 DPHI.DEC    45 890 12 00:   DENSITY POROSITY SANDSTONE
 CORR.G/C3   45 356 01 00:   DENSITY CORRECTION
~PARAMETER INFORMATION
#MNEM.UNIT          VALUE    DESCRIPTION
#----------   ------------   ------------------------------
 PD  .                 GL:   PERMANENT DATUM
 EPD .F              5079:   ELEVATION PERMANENT DATUM
 LMF .                 KB:   LOG MEASURED FROM
 DAPD.F                 4:   FEET ABOVE PERMANENT DATUM
 DMF .                 KB:   DRILLING MEASURED FROM
 EKB .F              5083:   KELLING BUSHING
 EGL .F              5079:   GROUND LEVEL
 DATE.            8-30-78:   RUN DATE
 RUN .                  1:   RUN NUMBER
 DD  .F               705:   DEPTH DRILLER
 DL  .F               708:   DEPTH LOGGER
 BLI .F               702:   BOTTOM LOG INTERVAL
 TLI .F                50:   TOP LOG INTERVAL
 CS  .IN            8.625:   CASING SIZE
 CBD .F                40:   CASING BOTTOM DRILLER
 CBL .F                40:   CASING BOTTOM LOGGER
 BS  .IN            7.875:   BIT SIZE
 BSD .F               705:   BIT SIZE AT DEPTH
 DFT .                KCL:   DRILLING FLUID TYPE
 DFD .                8.6:   DRILLING FLUID DENSITY
 DFV .                 34:   DRILLING FLUID VISCOSITY
 DFPH.                  9:   DRILLING FLUID PH
 DFL .                7.4:   DRILLING FLUID LOSS
 MSS .           FLOWLINE:   MUD SAMPLE SOURCE
 RMS .OHMM             .3:   RESISTIVITY MUD SAMPLE
 MST .F                80:   MUD SAMPLE TEMPERATURE
 RMF .OHMM             .4:   RESISTIVITY MUD FILTRATE SAMPLE
 MFST.F                80:   MUD FILTRATE SAMPLE TEMPERATURE
 RMC .OHMM             .5:   RESISTIVITY MUD CAKE
 MCST.F                82:   MUD CAKE SAMPLE TEMPERATURE
 MFSS.               MEAS:   MUD FILTRATE SAMPLE SOURCE
 MCSS.               MEAS:   MUD CAKE SAMPLE SOURCE
 RMB .OHMM            .32:   RESISTIVITY MUD AT BHT
 BHT .F                73:   BOTTOM HOLE TEMPERATURE
 TCS .HRS               3:   TIME CURCULATED STOPPED
 MRT .F                73:   MAXIMUM RECORDED TEMPERATURE
 LUN .               3006:   LOGGING UNIT NUMBER
 LUL .               CASP:   LOGGING UNIT LOCATION
 ENGI.            POINTER:   RECORDING ENGINEER
 WITN.              AMEND:   WITNESSED BY
 CLNT.            A2DTECH:   CLIENT CODE
 ORIG.           5" PRINT:   ORIGIN OF DATA
 UWI .       490251070800:   UNIQUE WELL ID
 DICO. A2D Technologies, Inc.:   DIGITIZING COMPANY
~OTHER INFORMATION
~A   DEPT      SPR         SN        ILD         GRD      CALD       RHOB       DPHI       CORR   
# ...
  303.5000   -46.0608    12.6628    12.6049    87.3081     9.0726     2.4558     0.1390     0.0359
  304.0000   -46.0895    12.6342    12.5040    84.3336     9.0395     2.4556     0.1385     0.0351
  304.5000   -46.1180    12.6056    12.5040    79.5191     9.0302     2.4563     0.1357     0.0344
  305.0000   -46.1469    12.5772    12.5039    77.5884     9.0260     2.4597     0.1330     0.0336
  305.5000   -46.1754    12.5487    12.5037    76.0505     9.0255     2.4661     0.1303     0.0329
  306.0000   -46.1995    12.5035    12.5036    75.8072     9.0224     2.4711     0.1275     0.0322
  306.5000   -46.1998    12.5184    12.5035    75.5620     9.0199     2.4745     0.1259     0.0314
  307.0000   -46.2004    12.5557    12.5035    75.5762     9.0177     2.4781     0.1248     0.0308
  307.5000   -46.2001    12.5933    12.5029    75.6549     9.0152     2.4797     0.1236     0.0303
  308.0000   -46.1998    12.6312    12.5021    74.8126     9.0129     2.4732     0.1320     0.0353
  308.5000   -46.1998    12.6688    12.5037    71.4182     9.0105     2.4619     0.1364     0.0404
  309.0000   -46.1994    12.7258    12.4406    72.9491     9.0081     2.4567     0.1320     0.0455
  309.5000   -46.1989    12.7160    12.3516    77.9907     9.0056     2.4636     0.1284     0.0499
  310.0000   -46.1998    12.6188    12.2615    82.8020     9.0032     2.4677     0.1284     0.0474
  310.5000   -46.1982    12.5229    12.2998    81.3114     9.0008     2.4689     0.1284     0.0454
  311.0000   -46.1965    12.4271    12.0512    79.9590     8.9984     2.4708     0.1284     0.0333
  311.5000   -46.2534    12.3323    12.0512    78.1892     8.9960     2.4664     0.1414     0.0239
  312.0000   -46.4741    12.2381    11.9620    80.1975     8.9936     2.4476     0.1532     0.0147
  312.5000   -46.6922    12.1447    11.8676    82.7496     8.9913     2.4334     0.1588     0.0221
  313.0000   -46.9150    12.0519    11.7740    85.6248     8.9985     2.4268     0.1505     0.0294
  313.5000   -47.1316    11.9599    11.6811    86.7901     9.0133     2.4358     0.1412     0.0350
  314.0000   -47.3514    11.8686    11.5889    85.3173     9.0274     2.4524     0.1319     0.0364
  314.5000   -47.3460    11.7779    11.4975    81.2675     9.0414     2.4640     0.1314     0.0382
  315.0000   -47.2713    11.6880    11.4068    75.4178     9.0555     2.4644     0.1332     0.0401
  315.5000   -47.1954    11.5987    11.3168    74.7285     9.0697     2.4633     0.1350     0.0419
  316.0000   -47.1231    11.5102    11.2275    74.2043     9.0839     2.4624     0.1319     0.0437
  316.5000   -47.0492    11.4223    11.1630    73.9047     9.0975     2.4613     0.1292     0.0455
  317.0000   -46.9753    11.3350    11.1126    74.0201     9.1127     2.4650     0.1316     0.0465
  317.5000   -46.9017    11.2485    11.0624    74.3517     9.1025     2.4651     0.1344     0.0471
  318.0000   -46.8280    11.1626    11.0124    76.8011     9.0824     2.4606     0.1374     0.0478
  318.5000   -46.7546    11.0774    10.9627    79.8631     9.0626     2.4564     0.1404     0.0484
  319.0000   -46.6807    10.9928    10.9132    83.1566     9.0438     2.4524     0.1411     0.0490
  319.5000   -46.6072    10.9088    10.8639    83.1862     9.0242     2.4506     0.1388     0.0499
  320.0000   -46.5338    10.8255    10.8148    81.4141     9.0034     2.4502     0.1402     0.0484
  320.5000   -46.4585    10.7429    10.7902    79.8981     8.9908     2.4496     0.1417     0.0448
  321.0000   -46.3874    10.6608    10.7902    78.7908     8.9921     2.4490     0.1433     0.0420
  321.5000   -46.3136    10.5933    10.7902    80.4802     8.9920     2.4450     0.1459     0.0421
  322.0000   -46.2281    10.6843    10.7902    81.9773     8.9918     2.4399     0.1489     0.0420
  322.5000   -46.2837    10.7627    10.7902    83.0381     8.9920     2.4350     0.1518     0.0420
  323.0000   -46.5082    10.8417    10.7902    81.7398     8.9919     2.4328     0.1540     0.0420
  323.5000   -46.7201    10.9213    10.7902    79.6388     8.9919     2.4312     0.1540     0.0421
  324.0000   -46.9309    10.9908    10.6090    79.2150     8.9920     2.4348     0.1499     0.0440
  324.5000   -47.1459    10.7817    10.4128    81.5876     8.9920     2.4394     0.1462     0.0456
  325.0000   -47.3585    10.6002    10.2202    83.8892     8.9920     2.4442     0.1425     0.0474
  325.5000   -47.5726    10.4218    10.0311    84.0249     8.9920     2.4491     0.1389     0.0491
  326.0000   -47.7854    10.2464     9.8456    82.6861     8.9920     2.4539     0.1352     0.0500
  326.5000   -47.9967    10.0740     9.6635    81.4752     8.9920     2.4587     0.1337     0.0487
  327.0000   -48.2163     9.8388     9.4847    80.4513     8.9920     2.4629     0.1327     0.0475
  327.5000   -48.4219     9.5824     9.3093    79.9180     8.9920     2.4637     0.1327     0.0463
  328.0000   -48.5820     9.3327     9.1371    80.7505     8.9920     2.4644     0.1331     0.0450
  328.5000   -48.3472     8.9749     8.9681    82.7460     8.9920     2.4650     0.1335     0.0438
  329.0000   -48.1491     9.0437     8.8111    82.9328     8.9920     2.4657     0.1340     0.0425
  329.5000   -47.9316     9.2014     8.8553    83.4672     8.9920     2.4663     0.1328     0.0413
  330.0000   -47.7193     9.3617     8.9220    83.9703     8.9920     2.4669     0.1313     0.0401
  330.5000   -47.5090     9.5236     8.9892    84.4869     8.9920     2.4676     0.1300     0.0388
  331.0000   -47.2956     9.6611     9.0569    84.5969     8.9920     2.4682     0.1296     0.0376
  331.5000   -47.0835     9.7874     9.1251    82.4566     8.9920     2.4688     0.1293     0.0364
  332.0000   -46.8701     9.8953     9.1938    79.8791     8.9920     2.4668     0.1324     0.0351
  332.5000   -46.6596    10.0040     9.2631    81.8513     8.9920     2.4638     0.1340     0.0339
  333.0000   -46.4482    10.1138     9.3117    85.2359     8.9920     2.4611     0.1323     0.0327
  333.5000   -46.2291    10.2094     9.3930    89.0536     8.9920     2.4626     0.1308     0.0314
  334.0000   -46.0320    10.1523     9.4827    90.3418     8.9919     2.4613     0.1335     0.0302
  334.5000   -45.8218    10.1033     9.5733    88.8586     8.9920     2.4577     0.1357     0.0290
  335.0000   -46.0897    10.0537     9.6647    89.1336     8.9919     2.4600     0.1311     0.0277
  335.5000   -46.3927    10.0044     9.7570    89.9742     8.9919     2.4666     0.1320     0.0265
  336.0000   -46.7037     9.9553     9.8408    88.7095     8.9933     2.4636     0.1347     0.0254
  336.5000   -46.9829     9.9065     9.8239    85.8533     8.9994     2.4606     0.1374     0.0244
  337.0000   -47.0416     9.8579     9.7722    83.3782     9.0053     2.4573     0.1404     0.0233
  337.5000   -47.1347     9.8096     9.7207    81.3124     9.0115     2.4539     0.1404     0.0222
  338.0000   -47.2104     9.7615     9.6695    84.1950     9.0175     2.4549     0.1397     0.0231
  338.5000   -47.2890     9.7149     9.6186    86.8943     9.0236     2.4578     0.1373     0.0265
  339.0000   -47.3694     9.6630     9.5680    87.9175     9.0298     2.4606     0.1349     0.0298
  339.5000   -47.4479     9.6802     9.5175    88.0600     9.0323     2.4636     0.1339     0.0300
  340.0000   -47.5271     9.6991     9.4674    88.9744     9.0321     2.4646     0.1336     0.0301
  340.5000   -47.6053     9.7187     9.4175    91.1009     9.0321     2.4632     0.1334     0.0300
  341.0000   -47.6861     9.7390     9.3678    90.9027     9.0322     2.4618     0.1332     0.0300
  341.5000   -47.7649     9.7595     9.3183    88.4040     9.0321     2.4600     0.1359     0.0300
  342.0000   -47.7967     9.7797     9.2690    86.1208     9.0322     2.4571     0.1384     0.0300
  342.5000   -47.6899     9.7999     9.2200    83.6868     9.0321     2.4542     0.1409     0.0300
  343.0000   -47.5993     9.8196     9.1713    83.1821     9.0318     2.4512     0.1434     0.0300
  343.5000   -47.5087     9.8399     9.1409    84.1229     9.0359     2.4484     0.1459     0.0300
