~VERSION INFORMATION
 VERS.                2.0:   CWLS LOG ASCII STANDARD - VERSION 2.0
 WRAP.                 NO:   ONE LINE PER DEPTH STEP
~WELL INFORMATION
#MNEM.UNIT      DATA TYPE    INFORMATION
#----------   ------------   ------------------------------
 STRT.F           12.0000:   START DEPTH
 STOP.F          551.0000:   STOP DEPTH
 STEP.F            0.5000:   STEP LENGTH
 NULL.          -999.2500:   NO VALUE
 COMP. LAWRENCE-ALLISON &AS:   COMPANY
 WELL. NPR 3 #58-46SX3LP4:   WELL
 FLD .             TEAPOT:   FIELD
 LOC .       S3 T38N R78W:   LOCATION
 CNTY.            NATRONA:   COUNTY
 STAT.            WYOMING:   STATE
 CTRY. UNITED STATES OF AMERICA:   COUNTRY
 SRVC.      Dresser Atlas:   SERVICE COMPANY
 DATE.        14-DEC-1984:   LOGDATE
 API .       490251099900:   API NUMBER
~CURVE INFORMATION
#MNEM.UNIT       API CODE    CURVE DESCRIPTION
#----------   ------------   ------------------------------
 DEPT.F                  :   
 RD  .OHMM   11 220 10 00:   RESISTIVITY DEEP
 RS  .OHMM   11 220 09 00:   RESISTIVITY SHALLOW
 SPR .MV     11 010 01 00:   SPONTANEOUS POTENTIAL FROM RES.
 AC  .US/F   60 520 00 00:   ACOUSTIC SONIC
 CALD.IN     45 280 60 00:   CALIPER FROM DENSITY
 CORR.G/C3   45 356 01 00:   DENSITY CORRECTION
 DEN .G/C3   45 350 01 00:   COMPENSATED BULK DENSTIY
 GRD .GAPI   45 310 01 00:   GAMMA RAY FROM DENSITY LOG
 PORD.DEC    45 890 12 00:   POROSITY DENSITY SANDSTONE
 CNC .DEC    42 890 03 00:   NEUTRON POROSITY SANDSTONE
~PARAMETER INFORMATION
#MNEM.UNIT          VALUE    DESCRIPTION
#----------   ------------   ------------------------------
 PD  .                 GL:   PERMANENT DATUM
 EPD .F              5201:   ELEVATION PERMANENT DATUM
 LMF .                 GL:   LOG MEASURED FROM
 DMF .                 GL:   DRILLING MEASURED FROM
 EGL .F              5201:   GROUND LEVEL
 DATE.        14-DEC-1984:   RUN DATE
 RUN .                  1:   RUN NUMBER
 DD  .F               552:   DEPTH DRILLER
 DL  .F               552:   DEPTH LOGGER
 BLI .F               550:   BOTTOM LOG INTERVAL
 TLI .F                20:   TOP LOG INTERVAL
 CS  .IN            8.625:   CASING SIZE
 CBD .F                20:   CASING BOTTOM DRILLER
 CBL .F                20:   CASING BOTTOM LOGGER
 BS  .IN            7.875:   BIT SIZE
 BSD .F               552:   BIT SIZE AT DEPTH
 DFT .          KCL WATER:   DRILLING FLUID TYPE
 MSS .            MUDTANK:   MUD SAMPLE SOURCE
 RMS .OHMM          0.152:   RESISTIVITY MUD SAMPLE
 MST .F                76:   MUD SAMPLE TEMPERATURE
 RMF .OHMM           0.11:   RESISTIVITY MUD FILTRATE SAMPLE
 MFST.F                76:   MUD FILTRATE SAMPLE TEMPERATURE
 RMC .OHMM           0.19:   RESISTIVITY MUD CAKE
 MCST.F                76:   MUD CAKE SAMPLE TEMPERATURE
 MFSS.               CALC:   MUD FILTRATE SAMPLE SOURCE
 MCSS.               CALC:   MUD CAKE SAMPLE SOURCE
 TCS .HRS               5:   TIME CURCULATED STOPPED
 MRT .F               100:   MAXIMUM RECORDED TEMPERATURE
 LUN .               6270:   LOGGING UNIT NUMBER
 ENGI.            LEBSOCK:   RECORDING ENGINEER
 WITN.        GREG GROOMS:   WITNESSED BY
 CLNT.            A2DTECH:   CLIENT CODE
 ORIG.           5" PRINT:   ORIGIN OF DATA
 UWI .       490251099900:   UNIQUE WELL ID
 DICO. A2D Technologies, Inc.:   DIGITIZING COMPANY
~OTHER INFORMATION
~A   DEPT       RD         RS        SPR         AC       CALD       CORR        DEN        GRD       PORD          CNC 
# ...
  246.5000     9.6870     8.0680   -67.2920   113.1345     7.7604    -0.0079     2.4369   108.7629     0.1451     0.3010
  247.0000     7.5547     6.7441   -66.9835   116.3606     7.7754    -0.0019     2.4338   112.8171     0.1454     0.3023
  247.5000     7.0054     6.1256   -66.9718   116.3561     7.7752     0.0041     2.4096   116.5705     0.1509     0.3039
  248.0000     7.1573     6.1298   -66.8116   114.3982     7.7750    -0.0005     2.3597   117.6172     0.1731     0.3193
  248.5000     7.6758     6.7114   -66.5031   111.7641     7.7749    -0.0111     2.3487   118.5136     0.1945     0.3287
  249.0000     9.0073     7.6068   -66.3430   110.3321     7.7747    -0.0097     2.3656   119.8610     0.1936     0.3245
  249.5000    10.2810     8.4446   -66.3313   109.5011     7.7746    -0.0007     2.3913   120.6069     0.1736     0.3081
  250.0000    10.9497     9.3100   -66.3054   108.8204     7.7791     0.0065     2.4154   120.3003     0.1615     0.2952
  250.5000    11.5014     9.7145   -66.2024   107.3053     7.8045     0.0173     2.4169   114.8541     0.1577     0.2916
  251.0000    11.9976     9.9284   -65.9970   106.2489     7.7594     0.0202     2.4335   106.4361     0.1527     0.2867
  251.5000    12.5152    10.1371   -65.9837   106.0150     7.7444     0.0141     2.4553   103.1399     0.1363     0.2807
  252.0000    12.7867    10.2146   -65.9703   105.7060     7.7444     0.0020     2.4727   102.7068     0.1275     0.2897
  252.5000    13.0640    10.3334   -65.9570   105.2567     7.7444    -0.0011     2.4689   107.3233     0.1242     0.2922
  253.0000    13.3474    10.3420   -65.9410   105.0248     7.7444     0.0094     2.4681   110.3759     0.1254     0.2861
  253.5000    13.3566    10.3491   -65.9278   104.9574     7.7444     0.0199     2.4696   109.4316     0.1251     0.2816
  254.0000    13.3658    10.3562   -65.9146   105.1783     7.7444     0.0259     2.4816   107.9218     0.1220     0.2801
  254.5000    13.1484    10.3633   -65.9014   105.3241     7.7444     0.0289     2.4876   108.4331     0.1178     0.2792
  255.0000    13.0659    10.4423   -65.7397   105.3947     7.7444     0.0273     2.4876   114.5865     0.1157     0.2786
  255.5000    13.1666    10.5950   -65.5781   105.1637     7.7444     0.0182     2.4883   114.8872     0.1144     0.2771
  256.0000    13.1748    10.6758   -65.4165   104.6333     7.7444     0.0106     2.4883   113.3835     0.1135     0.2731
  256.5000    13.3663    10.7573   -65.1066   104.2532     7.7444     0.0271     2.4875   105.5639     0.1132     0.2628
  257.0000    13.4673    10.8394   -65.2450   103.8731     7.7444     0.0406     2.4837   104.6617     0.1147     0.2587
  257.5000    13.6631    10.9221   -65.3802   103.6432     7.7744     0.0391     2.4799   103.3083     0.1181     0.2594
  258.0000    13.7663    10.9295   -65.6604   103.4133     7.8045     0.0315     2.4769   100.4511     0.1211     0.2624
  258.5000    13.5858    10.9370   -66.0955   103.4840     7.8045     0.0118     2.4738    99.5489     0.1238     0.2660
  259.0000    13.2236    10.7924   -66.2307   104.2308     7.8045    -0.0139     2.4647   101.5038     0.1272     0.2681
  259.5000    12.8711    10.4346   -66.5109   104.9025     7.8045     0.0056     2.4586   106.1654     0.1308     0.2690
  260.0000    12.5279    10.2256   -66.4976   105.1234     7.8045     0.0222     2.4571   107.3684     0.1329     0.2669
  260.5000    12.2785    10.0938   -66.3360   105.0438     7.8045     0.0251     2.4525   104.0602     0.1351     0.2648
  261.0000    12.2862    10.0294   -65.8777   104.2129     7.8045    -0.0202     2.4418   103.7594     0.1384     0.2617
  261.5000    12.5688    10.2484   -65.4194   102.7058     7.8045    -0.0323     2.4342   107.9699     0.1446     0.2584
  262.0000    13.4826    10.8387   -64.9610   101.3490     7.8045    -0.0173     2.4298   109.4737     0.1480     0.2566
  262.5000    14.2477    11.4631   -64.6511   100.1424     7.8045    -0.0083     2.4392   106.7669     0.1483     0.2560
  263.0000    14.7425    12.0398   -64.1927    99.2363     7.8045    -0.0114     2.4478   101.6541     0.1443     0.2551
  263.5000    14.6500    12.3860   -64.0311    99.0827     7.8045    -0.0099     2.4554    97.8947     0.1385     0.2412
  264.0000    13.5862    12.7420   -63.5727   101.2559     7.7895    -0.0040     2.4614    95.3383     0.1334     0.2379
  264.5000    11.1261    12.2326   -63.2626   106.1350     7.7895     0.0065     2.4629    99.6992     0.1313     0.2624
  265.0000     8.2714     9.8792   -62.9525   110.9389     7.7895     0.0185     2.4613   107.0677     0.1303     0.2872
  265.5000     6.5437     6.1693   -62.4941   116.4942     7.7919     0.0381     2.4371   112.3308     0.1300     0.3292
  266.0000     5.8624     5.5728   -62.1583   116.7703     7.8045     0.0456     2.3940   120.0000     0.1330     0.3507
  266.5000     6.2424     5.5805   -61.4262   112.6535     7.8045     0.0485     2.3313   121.2030     0.1879     0.3398
  267.0000     7.7382     6.1034   -60.8195   103.8587     7.8045     0.0440     2.3154   118.7970     0.2127     0.2872
  267.5000    11.1674     9.0769   -60.2128    98.3696     7.8045     0.0182     2.3539   109.1729     0.2145     0.2564
  268.0000    14.7315    12.3789   -59.6061    98.3592     7.8045    -0.0014     2.4317    99.8496     0.2063     0.2470
  268.5000    15.2588    13.5525   -58.8510    98.4358     7.7895     0.0000     2.4853   101.5038     0.1418     0.2555
  269.0000    15.1631    13.4683   -58.0959    98.4313     7.7744     0.0030     2.4875   101.6541     0.1190     0.2588
  269.5000    14.9619    13.3824   -57.1925    98.5800     7.7744     0.0029     2.4784   100.1504     0.1154     0.2591
  270.0000    14.7679    13.2993   -56.4374    99.0333     7.7594     0.0074     2.4746    98.3459     0.1151     0.2546
  270.5000    14.6730    13.2167   -55.3856    99.5517     7.7594     0.0179     2.4776    96.6917     0.1217     0.2504
  271.0000    14.5810    13.1346   -54.4822   100.3276     7.7444     0.0133     2.4798    95.3383     0.1226     0.2492
  271.5000    14.5922    13.0531   -53.5787   101.2106     7.7444     0.0102     2.4791    95.9398     0.1202     0.2504
  272.0000    14.7025    12.9720   -52.6753   101.9484     7.7444     0.0055     2.4805    98.6466     0.1193     0.2613
  272.5000    14.9162    13.1639   -52.0686   102.0814     7.7444     0.0026     2.4835    98.3459     0.1190     0.2658
  273.0000    15.2381    13.5424   -51.1651   101.1742     7.7444     0.0025     2.4895    97.4436     0.1175     0.2616
  273.5000    15.7834    14.4218   -50.5584    99.3666     7.7444     0.0058     2.4910    95.9398     0.1153     0.2489
  274.0000    17.5178    15.6803   -49.9517    96.8827     7.7444     0.0285     2.4910    94.1353     0.1129     0.2314
  274.5000    20.4063    18.6521   -49.3450    95.2254     7.7444     0.0858     2.4842    90.5263     0.1128     0.2305
  275.0000    24.2689    21.5818   -48.8867    96.5733     7.7444     0.1006     2.4396    84.8120     0.1350     0.2365
  275.5000    26.0211    23.7918   -48.4284    99.2735     7.7444     0.0969     2.4092    76.9531     0.1577     0.2453
  276.0000    23.6045    22.9991   -47.8216   104.3028     7.7444     0.0775     2.4147    71.5549     0.1620     0.2489
  276.5000    22.2102    22.0796   -47.3633   109.4824     7.7444     0.0413     2.4184    68.8001     0.1562     0.2519
  277.0000    22.0857    21.9387   -46.9050   111.2811     7.7444     0.0412     2.4063    64.6256     0.1589     0.2680
  277.5000    22.5889    22.7299   -46.7409   110.9010     7.7594     0.0427     2.3780    63.4436     0.1789     0.2882
  278.0000    24.0283    24.5431   -46.4253   110.1452     7.7744     0.0366     2.3261    63.8677     0.1995     0.2952
  278.5000    26.6687    26.8699   -46.1231   110.2158     7.7744     0.0229     2.3306    71.4044     0.2104     0.2904
  279.0000    28.9921    29.0133   -45.9614   111.4886     7.7744     0.0018     2.3419    75.6873     0.2082     0.2789
  279.5000    29.8229    29.8474   -45.6513   113.6629     7.7744    -0.0013     2.3411    75.7895     0.2016     0.2629
