~VERSION INFORMATION
 VERS.                2.0:   CWLS LOG ASCII STANDARD - VERSION 2.0
 WRAP.                 NO:   ONE LINE PER DEPTH STEP
~WELL INFORMATION
#MNEM.UNIT      DATA TYPE    INFORMATION
#----------   ------------   ------------------------------
 STRT.F            1.5000:   START DEPTH
 STOP.F          440.0000:   STOP DEPTH
 STEP.F            0.5000:   STEP LENGTH
 NULL.          -999.2500:   NO VALUE
 COMP.       F D SERV INC:   COMPANY
 WELL. NAVAL PETROLEUM RESERVE 3 SX-3 #78-2-3:   WELL
 FLD .             TEAPOT:   FIELD
 LOC .       S3 T38N R78W:   LOCATION
 CNTY.            NATRONA:   COUNTY
 STAT.            WYOMING:   STATE
 CTRY. UNITED STATES OF AMERICA:   COUNTRY
 SRVC.     Atlas Wireline:   SERVICE COMPANY
 DATE.        21-OCT-1992:   LOGDATE
 API .       490252255500:   API NUMBER
~CURVE INFORMATION
#MNEM.UNIT       API CODE    CURVE DESCRIPTION
#----------   ------------   ------------------------------
 DEPT.F                  :   
 GRR .GAPI   07 310 01 00:   GAMMA RAY
 RILD.OHMM   07 120 46 00:   INDUCTION LOG DEEP RESISTIVITY
 RILM.OHMM   07 120 44 00:   INDUCTION LOG MEDIUM RESISTIVITY
~PARAMETER INFORMATION
#MNEM.UNIT          VALUE    DESCRIPTION
#----------   ------------   ------------------------------
 PD  .                 GL:   PERMANENT DATUM
 EPD .F              5132:   ELEVATION PERMANENT DATUM
 LMF .                 KB:   LOG MEASURED FROM
 DAPD.F                10:   FEET ABOVE PERMANENT DATUM
 DMF .                 KB:   DRILLING MEASURED FROM
 EKB .F              5142:   KELLING BUSHING
 EDF .F              5141:   DRILLING FLOOR
 EGL .F              5132:   GROUND LEVEL
 DATE.        21-OCT-1992:   RUN DATE
 RUN .                  1:   RUN NUMBER
 DD  .F               445:   DEPTH DRILLER
 DL  .F               448:   DEPTH LOGGER
 BLI .F               440:   BOTTOM LOG INTERVAL
 CS  .IN            8.625:   CASING SIZE
 CBD .F                85:   CASING BOTTOM DRILLER
 CBL .F                98:   CASING BOTTOM LOGGER
 BS  .IN            7.875:   BIT SIZE
 BSD .F               445:   BIT SIZE AT DEPTH
 DFT .           AIR FOAM:   DRILLING FLUID TYPE
 TCS .HRS               2:   TIME CURCULATED STOPPED
 MRT .F                70:   MAXIMUM RECORDED TEMPERATURE
 LUN .            HL-6274:   LOGGING UNIT NUMBER
 LUL .             CASPER:   LOGGING UNIT LOCATION
 ENGI.             RAUTIO:   RECORDING ENGINEER
 WITN.        GARY STRONG:   WITNESSED BY
 CLNT.            A2DTECH:   CLIENT CODE
 ORIG.           5" PRINT:   ORIGIN OF DATA
 UWI .       490252255500:   UNIQUE WELL ID
 DICO. A2D Technologies, Inc.:   DIGITIZING COMPANY
~OTHER INFORMATION
~A    DEPT      GRR      RILD       RILM   
# ...
  183.5000   129.8517     7.6737     7.6120
  184.0000   129.5684     7.7276     7.7220
  184.5000   134.4004     7.8359     7.8765
  185.0000   133.1982     7.8908     7.9292
  185.5000   130.7893     7.8914     7.8719
  186.0000   127.1737     7.8919     7.8698
  186.5000   126.2730     7.9473     7.9225
  187.0000   128.7230     8.0031     8.0405
  187.5000   131.4605     8.0593     8.0848
  188.0000   130.8122     8.1159     8.1389
  188.5000   127.4983     8.1164     8.1362
  189.0000   127.8044     8.1170     8.1906
  189.5000   129.6187     8.1739     8.1318
  190.0000   130.8297     8.1745     8.1296
  190.5000   130.2287     8.1186     8.1274
  191.0000   127.7778     8.1192     8.1252
  191.5000   126.3179     8.1198     8.1225
  192.0000   127.5300     8.0642     8.1203
  192.5000   128.4394     8.0648     8.1181
  193.0000   127.5388     8.0655     8.1159
  193.5000   127.2413     8.0660     8.1138
  194.0000   128.4525     8.0109     8.1188
  194.5000   131.3249     7.9012     8.1094
  195.0000   134.7972     7.9018     8.0511
  195.5000   136.0082     7.9023     7.8826
  196.0000   133.2976     7.9028     7.8804
  196.5000   132.3959     7.6874     7.7697
  197.0000   132.4014     7.4264     7.6075
  197.5000   131.1991     6.8822     7.3972
  198.0000   130.6002     6.5117     6.9958
  198.5000   131.8123     6.1187     6.4798
  199.0000   133.9283     5.5537     5.9045
  199.5000   133.6310     5.0759     5.0793
  200.0000   132.4287     4.7695     4.6077
  200.5000   131.2254     4.3145     4.0654
  201.0000   130.9130     3.4689     3.6120
  201.5000   132.1664     2.9996     3.0782
  202.0000   134.8606     2.7606     2.7349
  202.5000   134.8649     2.6668     2.5910
  203.0000   130.0428     2.6121     2.5732
  203.5000   122.5057     2.4875     2.5913
  204.0000   114.3408     2.5397     2.7210
  204.5000   117.6608     2.6292     2.8426
  205.0000   127.0137     2.7598     2.9779
  205.5000   133.3500     2.9373     3.2143
  206.0000   135.1615     3.2815     3.8237
  206.5000   134.8612     3.8748     4.5170
  207.0000   134.5610     4.4608     4.7753
  207.5000   135.7695     5.1115     5.0834
  208.0000   135.4689     5.5930     5.4532
  208.5000   135.4708     5.9527     5.8413
  209.0000   136.0756     6.2053     6.1752
  209.5000   139.3953     6.3795     6.3495
  210.0000   140.6034     6.4239     6.4387
  210.5000   140.3032     6.3795     6.3945
  211.0000   139.3635     6.3283     6.1769
  211.5000   139.0995     5.9941     5.8436
  212.0000   139.1013     5.6710     5.4085
  212.5000   139.7061     5.2551     4.9477
  213.0000   141.2158     4.8696     4.7134
  213.5000   147.8538     4.5754     4.5529
  214.0000   150.2685     4.4504     4.4904
  214.5000   148.1523     4.4197     4.4288
  215.0000   145.3645     4.3892     4.4600
  215.5000   140.6202     4.4504     4.4914
  216.0000   135.4934     4.5438     4.6216
  216.5000   133.0813     4.7039     4.7816
  217.0000   134.2897     4.9375     5.0550
  217.5000   138.8161     5.2566     5.4186
  218.0000   139.4209     5.5609     5.7683
  218.5000   139.4223     5.8708     6.0981
  219.0000   141.0207     6.1624     6.4021
  219.5000   141.8385     6.5135     6.7217
  220.0000   140.3320     6.7898     7.0141
  220.5000   139.4285     7.1270     7.3570
  221.0000   138.2234     7.4294     7.5646
  221.5000   139.4315     7.5330     7.6709
  222.0000   144.2595     7.5418     7.6714
  222.5000   147.2876     7.6381     7.6719
  223.0000   146.5310     7.5330     7.5667
  223.5000   141.2476     7.3272     7.4113
  224.0000   140.6454     7.1766     7.2590
  224.5000   142.1555     7.0779     7.0120
  225.0000   144.2686     6.8845     6.7733
  225.5000   145.6295     6.6964     6.4975
  226.0000   149.0983     6.5060     6.2763
  226.5000   147.8931     6.1199     6.0626
  227.0000   142.1631     5.6710     5.8157
  227.5000   139.4496     5.4027     5.4975
  228.0000   140.6577     5.0412     5.0627
  228.5000   143.0724     4.7695     4.7564
  229.0000   144.5862     4.6072     4.5312
  229.5000   145.4887     4.5438     4.5001
  230.0000   144.5855     4.5438     4.5318
  230.5000   140.9670     4.6072     4.6274
  231.0000   137.9519     4.7695     4.8246
  231.5000   137.3497     4.9719     5.1095
  232.0000   139.7648     5.2551     5.3547
  232.5000   141.8779     5.5544     5.8202
  233.0000   142.8004     5.9527     6.2389
  233.5000   147.7511     6.2954     6.5500
  234.0000   149.7258     6.6197     6.7817
  234.5000   145.5040     6.9805     6.9731
  235.0000   140.6789     7.1766     7.0711
  235.5000   139.4734     7.2767     7.1704
  236.0000   140.9835     7.3781     7.2712
  236.5000   144.6049     7.4810     7.3224
  237.0000   147.0196     7.4810     7.4252
  237.5000   146.6692     7.4810     7.4257
  238.0000   146.1175     7.4810     7.4262
  238.5000   147.9293     7.5330     7.3753
  239.0000   148.5341     7.5330     7.3759
  239.5000   147.9323     7.4810     7.4277
  240.0000   146.4254     7.3781     7.3768
  240.5000   144.6169     7.3272     7.3263
  241.0000   143.1101     7.3272     7.2761
  241.5000   144.6202     7.2767     7.1268
  242.0000   145.8283     7.1766     7.0779
  242.5000   146.4327     7.1766     7.0784
  243.0000   144.3229     7.1766     7.1282
  243.5000   141.0061     7.1270     7.1287
  244.0000   139.4989     7.1270     7.0800
  244.5000   140.4058     7.1270     7.1794
  245.0000   142.2574     7.0779     7.0808
  245.5000   145.2356     6.9303     6.6989
  246.0000   150.0636     6.6735     6.1640
  246.5000   150.6684     6.0357     5.7911
  247.0000   150.0662     5.7901     5.3635
  247.5000   150.3696     5.6710     5.2192
  248.0000   154.2927     5.5544     5.2197
  248.5000   160.0257     5.4027     5.3299
  249.0000   159.3755     5.2916     5.3673
  249.5000   150.0742     5.2188     5.3677
  250.0000   144.6458     5.1411     5.3309
  250.5000   143.1390     5.0762     5.2214
  251.0000   141.9334     5.0412     5.0725
  251.5000   141.9352     5.0064     4.8048
  252.0000   143.7467     5.0064     4.7062
  252.5000   150.3846     4.9719     4.6739
  253.0000   150.0844     4.9719     4.7068
  253.5000   148.2763     4.9719     4.7729
  254.0000   145.5628     5.0470     4.9076
  254.5000   143.1510     5.2188     5.0813
  255.0000   142.2471     5.4027     5.3850
  255.5000   143.1539     5.7501     5.6790
  256.0000   147.9819     6.2053     5.8392
  256.5000   149.1900     6.3795     6.1730
  257.0000   147.6188     6.5587     6.4808
  257.5000   143.4618     6.6964     6.5264
  258.0000   140.4467     6.5967     6.3481
  258.5000   138.3365     6.3795     6.0032
  259.0000   139.2430     6.0357     5.4338
  259.5000   140.4511     5.4402     5.0148
  260.0000   141.6592     5.1828     4.7773
  260.5000   143.7722     4.9719     4.6468
  261.0000   149.7585     4.9375     4.6471
  261.5000   154.0320     4.9390     4.6798
  262.0000   151.0168     5.0064     4.8454
  262.5000   146.4429     5.0762     5.0892
  263.0000   145.5896     5.2551     5.2794
  263.5000   145.8928     5.5161     5.6069
  264.0000   144.6879     5.7901     5.8864
  264.5000   141.9745     6.1624     6.3981
  265.0000   140.7693     6.5587     6.8584
  265.5000   140.4691     6.9343     7.1011
  266.0000   139.5495     7.1353     7.3523
  266.5000   136.8525     7.3781     7.5076
  267.0000   132.6307     7.4810     7.5082
  267.5000   131.1235     7.5330     7.5610
  268.0000   132.9353     7.5330     7.6142
  268.5000   135.3501     7.5330     7.6677
  269.0000   136.5581     7.5330     7.6151
  269.5000   136.8613     7.5330     7.6687
  270.0000   136.8630     7.5854     7.7765
  270.5000   136.2611     7.6912     7.8857
  271.0000   135.3576     7.7984     7.8863
  271.5000   134.4537     7.9072     7.7242
  272.0000   135.3605     7.6912     7.6183
  272.5000   135.9653     7.5330     7.6720
  273.0000   131.9005     7.5330     7.7258
  273.5000   129.9350     7.5330     7.5149
  274.0000   131.1435     7.5942     7.6735
