~VERSION INFORMATION
 VERS.                2.0:   CWLS LOG ASCII STANDARD - VERSION 2.0
 WRAP.                 NO:   ONE LINE PER DEPTH STEP
~WELL INFORMATION
#MNEM.UNIT      DATA TYPE    INFORMATION
#----------   ------------   ------------------------------
 STRT.F            0.0000:   START DEPTH
 STOP.F         2182.0000:   STOP DEPTH
 STEP.F            0.1000:   STEP LENGTH
 NULL.          -999.2500:   NO VALUE
 COMP.       FLUOR DANIEL:   COMPANY
 WELL.   75-1 X 29 #75-29:   WELL
 FLD .             TEAPOT:   FIELD
 LOC .      S29 T39N R78W:   LOCATION
 CNTY.            NATRONA:   COUNTY
 STAT.            WYOMING:   STATE
 CTRY. UNITED STATES OF AMERICA:   COUNTRY
 SRVC.      Western Atlas:   SERVICE COMPANY
 DATE.        10-MAY-1996:   LOGDATE
 API .       490252279100:   API NUMBER
~CURVE INFORMATION
#MNEM.UNIT       API CODE    CURVE DESCRIPTION
#----------   ------------   ------------------------------
 DEPT.F                  :   
 GRR .GAPI   07 310 01 00:   GAMMA RAY
 RFOC.OHMM   07 220 04 00:   RESISTIVITY FOCUSED LOG
 RILD.OHMM   07 120 46 00:   INDUCTION LOG DEEP RESISTIVITY
 RILM.OHMM   07 120 44 00:   INDUCTION LOG MEDIUM RESISTIVITY
~PARAMETER INFORMATION
#MNEM.UNIT          VALUE    DESCRIPTION
#----------   ------------   ------------------------------
 PD  .                 GL:   PERMANENT DATUM
 EPD .F              5031:   ELEVATION PERMANENT DATUM
 LMF .                 KB:   LOG MEASURED FROM
 DAPD.F                10:   FEET ABOVE PERMANENT DATUM
 DMF .                 KB:   DRILLING MEASURED FROM
 EKB .F              5041:   KELLING BUSHING
 EDF .F              5040:   DRILLING FLOOR
 EGL .F              5031:   GROUND LEVEL
 DATE.        10-MAY-1996:   RUN DATE
 RUN .                  1:   RUN NUMBER
 DD  .F              2188:   DEPTH DRILLER
 DL  .F              2184:   DEPTH LOGGER
 BLI .F              2182:   BOTTOM LOG INTERVAL
 TLI .F               400:   TOP LOG INTERVAL
 CS  .IN                7:   CASING SIZE
 CBD .F               400:   CASING BOTTOM DRILLER
 CBL .F               400:   CASING BOTTOM LOGGER
 BS  .IN             6.25:   BIT SIZE
 BSD .F              2188:   BIT SIZE AT DEPTH
 DFT .                AIR:   DRILLING FLUID TYPE
 MRT .F                97:   MAXIMUM RECORDED TEMPERATURE
 LUN .            HL-6530:   LOGGING UNIT NUMBER
 LUL .             CASPER:   LOGGING UNIT LOCATION
 ENGI.           BROWNLOW:   RECORDING ENGINEER
 WITN.             LEBEAU:   WITNESSED BY
 CLNT.            A2DTECH:   CLIENT CODE
 ORIG.           5" PRINT:   ORIGIN OF DATA
 UWI .       490252279100:   UNIQUE WELL ID
 DICO. A2D Technologies, Inc.:   DIGITIZING COMPANY
~OTHER INFORMATION
~A    DEPT      GRR      RFOC       RILD       RILM   
# ...
 1460.0000   117.0035  -999.2500     8.0957     8.3461
 1460.1000   118.1284  -999.2500     8.0957     8.3436
 1460.2000   118.3529  -999.2500     8.0501     8.2882
 1460.3000   118.6054  -999.2500     8.0398     8.2881
 1460.4000   118.7282  -999.2500     8.0398     8.2563
 1460.5000   118.8086  -999.2500     8.0398     8.2083
 1460.6000   119.0276  -999.2500     8.0398     8.1738
 1460.7000   119.0262  -999.2500     8.0398     8.1697
 1460.8000   119.7420  -999.2500     8.0398     8.1171
 1460.9000   120.3109  -999.2500     8.0006     8.1170
 1461.0000   120.8165  -999.2500     7.9842     8.0840
 1461.1000   121.2276  -999.2500     7.9842     8.0371
 1461.2000   121.4337  -999.2500     7.9716     8.0050
 1461.3000   121.4323  -999.2500     7.9291     7.9992
 1461.4000   121.7325  -999.2500     7.9291     7.9496
 1461.5000   121.9357  -999.2500     7.8878     7.9067
 1461.6000   122.1879  -999.2500     7.8420     7.8945
 1461.7000   122.4403  -999.2500     7.8200     7.8695
 1461.8000   122.6329  -999.2500     7.8050     7.8398
 1461.9000   122.6316  -999.2500     7.7660     7.8397
 1462.0000   122.6303  -999.2500     7.7660     7.8396
 1462.1000   122.4120  -999.2500     7.7230     7.8395
 1462.2000   121.9879  -999.2500     7.7123     7.8394
 1462.3000   121.3580  -999.2500     7.6865     7.8393
 1462.4000   120.6691  -999.2500     7.6591     7.8214
 1462.5000   120.1861  -999.2500     7.6591     7.7850
 1462.6000   119.9082  -999.2500     7.6587     7.7848
 1462.7000   119.9071  -999.2500     7.6062     7.7847
 1462.8000   119.9059  -999.2500     7.6062     7.7480
 1462.9000   120.0392  -999.2500     7.6062     7.7308
 1463.0000   120.2915  -999.2500     7.6062     7.7307
 1463.1000   120.5825  -999.2500     7.6062     7.7200
 1463.2000   121.1076  -999.2500     7.6062     7.6771
 1463.3000   121.8383  -999.2500     7.6062     7.6770
 1463.4000   122.5976  -999.2500     7.6062     7.6769
 1463.5000   123.3572  -999.2500     7.6062     7.6475
 1463.6000   124.2170  -999.2500     7.6062     7.6237
 1463.7000   125.1268  -999.2500     7.5924     7.6236
 1463.8000   125.6397  -999.2500     7.5536     7.6235
 1463.9000   126.8306  -999.2500     7.5536     7.6234
 1464.0000   128.2929  -999.2500     7.5536     7.6233
 1464.1000   129.5844  -999.2500     7.5536     7.6232
 1464.2000   130.2584  -999.2500     7.5536     7.6231
 1464.3000   130.5108  -999.2500     7.5375     7.6369
 1464.4000   130.7464  -999.2500     7.5015     7.6759
 1464.5000   130.7449  -999.2500     7.5015     7.6757
 1464.6000   130.7439  -999.2500     7.4497     7.6756
 1464.7000   130.7427  -999.2500     7.4497     7.6755
 1464.8000   130.7415  -999.2500     7.4497     7.6755
 1464.9000   130.7402  -999.2500     7.4497     7.6911
 1465.0000   130.7391  -999.2500     7.4394     7.7286
 1465.1000   130.7378  -999.2500     7.3982     7.7284
 1465.2000   130.7366  -999.2500     7.3982     7.7283
 1465.3000   130.5477  -999.2500     7.3982     7.7282
 1465.4000   130.1536  -999.2500     7.3982     7.7282
 1465.5000   129.6453  -999.2500     7.3982     7.7280
 1465.6000   129.1367  -999.2500     7.3982     7.7368
 1465.7000   128.6190  -999.2500     7.3982     7.7815
 1465.8000   128.3686  -999.2500     7.3982     7.7814
 1465.9000   127.9132  -999.2500     7.3982     7.7813
 1466.0000   127.5577  -999.2500     7.4298     7.7811
 1466.1000   127.0933  -999.2500     7.4497     7.8005
 1466.2000   126.3877  -999.2500     7.4497     7.8351
 1466.3000   125.8615  -999.2500     7.4497     7.8349
 1466.4000   124.6888  -999.2500     7.4497     7.8348
 1466.5000   124.0458  -999.2500     7.4922     7.8735
 1466.6000   123.6155  -999.2500     7.5015     7.8890
 1466.7000   123.4788  -999.2500     7.5277     7.8889
 1466.8000   123.4775  -999.2500     7.5536     7.8888
 1466.9000   123.4982  -999.2500     7.5536     7.8887
 1467.0000   123.7766  -999.2500     7.5550     7.8886
 1467.1000   124.0030  -999.2500     7.6062     7.9294
 1467.2000   124.6144  -999.2500     7.6062     7.9432
 1467.3000   125.3739  -999.2500     7.6062     7.9431
 1467.4000   125.9669  -999.2500     7.6062     7.9430
 1467.5000   126.2193  -999.2500     7.6062     7.9429
 1467.6000   126.4844  -999.2500     7.6062     7.9428
 1467.7000   126.4833  -999.2500     7.6062     7.9426
 1467.8000   126.4820  -999.2500     7.6062     7.9765
 1467.9000   126.4808  -999.2500     7.6379     7.9976
 1468.0000   126.3831  -999.2500     7.6591     7.9975
 1468.1000   126.1768  -999.2500     7.6591     7.9974
 1468.2000   126.1756  -999.2500     7.6656     7.9973
 1468.3000   126.1741  -999.2500     7.7123     8.0421
 1468.4000   126.1731  -999.2500     7.7123     8.0526
 1468.5000   126.1720  -999.2500     7.7470     8.0526
 1468.6000   126.0609  -999.2500     7.7660     8.0706
 1468.7000   125.8679  -999.2500     7.7838     8.1083
 1468.8000   125.8528  -999.2500     7.8200     8.1081
 1468.9000   125.5636  -999.2500     7.8200     8.1644
 1469.0000   125.5626  -999.2500     7.8200     8.1643
 1469.1000   125.3902  -999.2500     7.8200     8.1936
 1469.2000   125.1354  -999.2500     7.8491     8.2208
 1469.3000   124.8806  -999.2500     7.8743     8.2207
 1469.4000   124.6259  -999.2500     7.8743     8.2226
 1469.5000   124.3498  -999.2500     7.8776     8.2775
 1469.6000   124.1160  -999.2500     7.9291     8.2774
 1469.7000   123.8613  -999.2500     7.9291     8.2773
 1469.8000   123.7430  -999.2500     7.9291     8.2996
 1469.9000   123.7418  -999.2500     7.9291     8.3346
 1470.0000   123.7406  -999.2500     7.9291     8.3345
 1470.1000   123.7393  -999.2500     7.9291     8.3344
 1470.2000   123.7382  -999.2500     7.9291     8.3343
 1470.3000   123.7370  -999.2500     7.9291     8.3341
 1470.4000   123.7358  -999.2500     7.9291     8.3341
 1470.5000   123.8361  -999.2500     7.9291     8.3339
 1470.6000   124.0350  -999.2500     7.9291     8.3338
 1470.7000   124.0451  -999.2500     7.9291     8.3337
 1470.8000   124.6357  -999.2500     7.9291     8.3335
 1470.9000   124.8455  -999.2500     7.9291     8.3334
 1471.0000   125.0980  -999.2500     7.9291     8.3334
 1471.1000   125.5805  -999.2500     7.9291     8.3332
 1471.2000   126.4069  -999.2500     7.9291     8.3331
 1471.3000   127.4002  -999.2500     7.9291     8.3330
 1471.4000   128.2484  -999.2500     7.9291     8.3329
 1471.5000   128.9201  -999.2500     7.9291     8.3328
 1471.6000   129.5037  -999.2500     7.9291     8.3327
 1471.7000   129.8814  -999.2500     7.9291     8.3325
 1471.8000   129.9737  -999.2500     7.9291     8.3230
 1471.9000   129.7509  -999.2500     7.9291     8.2748
 1472.0000   129.7495  -999.2500     7.9291     8.2747
 1472.1000   129.7484  -999.2500     7.9291     8.2746
 1472.2000   129.7472  -999.2500     7.9291     8.2744
 1472.3000   129.4635  -999.2500     7.9291     8.2744
 1472.4000   128.8620  -999.2500     7.9291     8.2632
 1472.5000   128.2353  -999.2500     7.9291     8.2170
 1472.6000   128.2341  -999.2500     7.9291     8.2169
 1472.7000   128.2329  -999.2500     7.9291     8.2168
 1472.8000   128.2317  -999.2500     7.9291     8.2167
 1472.9000   128.2305  -999.2500     7.8927     8.2166
 1473.0000   128.2293  -999.2500     7.8743     8.2165
 1473.1000   128.2280  -999.2500     7.8743     8.2163
 1473.2000   128.2579  -999.2500     7.8640     8.2162
 1473.3000   129.1304  -999.2500     7.8200     8.2161
 1473.4000   129.9930  -999.2500     7.8200     8.1830
 1473.5000   131.0063  -999.2500     7.8200     8.1592
 1473.6000   131.7801  -999.2500     7.8200     8.1591
 1473.7000   132.1424  -999.2500     7.7986     8.1590
 1473.8000   132.1412  -999.2500     7.7660     8.1588
 1473.9000   132.1399  -999.2500     7.7660     8.1151
 1474.0000   132.1388  -999.2500     7.7660     8.1023
 1474.1000   132.1376  -999.2500     7.7251     8.1022
 1474.2000   132.1364  -999.2500     7.7123     8.0859
 1474.3000   132.1352  -999.2500     7.7123     8.0461
 1474.4000   132.1339  -999.2500     7.6971     8.0459
 1474.5000   132.1327  -999.2500     7.6591     8.0458
