~VERSION INFORMATION
 VERS.                2.0:   CWLS LOG ASCII STANDARD - VERSION 2.0
 WRAP.                 NO:   ONE LINE PER DEPTH STEP
~WELL INFORMATION
#MNEM.UNIT      DATA TYPE    INFORMATION
#----------   ------------   ------------------------------
 STRT.F           45.5000:   START DEPTH
 STOP.F          740.0000:   STOP DEPTH
 STEP.F            0.5000:   STEP LENGTH
 NULL.          -999.2500:   NO VALUE
 COMP. FENIX & SCISSON INC:   COMPANY
 WELL.       NPR 3 #22-14:   WELL
 FLD .             TEAPOT:   FIELD
 LOC .      S14 T38N R78W:   LOCATION
 CNTY.            NATRONA:   COUNTY
 STAT.            WYOMING:   STATE
 CTRY. UNITED STATES OF AMERICA:   COUNTRY
 SRVC.           BIRDWELL:   SERVICE COMPANY
 DATE.        23-DEC-1978:   LOGDATE
 API .       490251075800:   API NUMBER
~CURVE INFORMATION
#MNEM.UNIT       API CODE    CURVE DESCRIPTION
#----------   ------------   ------------------------------
 DEPT.F                  :   
 SPR .MV     05 010 01 00:   SPONTANEOUS POTENTIAL FROM RES.
 SN  .OHMM   05 040 16 00:   SHORT NORMAL 16"
 IL  .OHMM   05 120 00 00:   INDUCTION LOG
 CALD.IN     45 280 60 00:   CALIPER
 GRD .GAPI   45 310 01 00:   GAMMA RAY FROM DENSITY LOG
 RHOB.G/C3   45 350 01 00:   BULK DENSITY
 DPHI.DEC    45 890 12 00:   DENSITY POROSITY SANDSTONE
 CORR.G/C3   45 356 01 00:   DENSITY CORRECTION
~PARAMETER INFORMATION
#MNEM.UNIT          VALUE    DESCRIPTION
#----------   ------------   ------------------------------
 PD  .                 GL:   PERMANENT DATUM
 EPD .F              5212:   ELEVATION PERMANENT DATUM
 LMF .                 KB:   LOG MEASURED FROM
 DAPD.F                 4:   FEET ABOVE PERMANENT DATUM
 DMF .                 KB:   DRILLING MEASURED FROM
 EKB .F              5216:   KELLING BUSHING
 EGL .F              5212:   GROUND LEVEL
 DATE.           12-23-78:   RUN DATE
 RUN .                  1:   RUN NUMBER
 DD  .F               735:   DEPTH DRILLER
 DL  .F               740:   DEPTH LOGGER
 BLI .F               733:   BOTTOM LOG INTERVAL
 TLI .F                50:   TOP LOG INTERVAL
 CS  .IN            8.625:   CASING SIZE
 CBD .F                40:   CASING BOTTOM DRILLER
 CBL .F                40:   CASING BOTTOM LOGGER
 BS  .IN            7.875:   BIT SIZE
 BSD .F               735:   BIT SIZE AT DEPTH
 DFT .                KCL:   DRILLING FLUID TYPE
 DFD .                8.7:   DRILLING FLUID DENSITY
 DFV .                 35:   DRILLING FLUID VISCOSITY
 DFPH.               10.5:   DRILLING FLUID PH
 DFL .               11.6:   DRILLING FLUID LOSS
 MSS .           FLOWLINE:   MUD SAMPLE SOURCE
 RMS .OHMM             .5:   RESISTIVITY MUD SAMPLE
 MST .F                60:   MUD SAMPLE TEMPERATURE
 RMF .OHMM             .5:   RESISTIVITY MUD FILTRATE SAMPLE
 MFST.F                60:   MUD FILTRATE SAMPLE TEMPERATURE
 RMC .OHMM             .7:   RESISTIVITY MUD CAKE
 MCST.F                60:   MUD CAKE SAMPLE TEMPERATURE
 MFSS.           MEASURED:   MUD FILTRATE SAMPLE SOURCE
 MCSS.           MEASURED:   MUD CAKE SAMPLE SOURCE
 RMB .OHMM           .518:   RESISTIVITY MUD AT BHT
 BHT .F                58:   BOTTOM HOLE TEMPERATURE
 TCS .HRS               5:   TIME CURCULATED STOPPED
 MRT .F                58:   MAXIMUM RECORDED TEMPERATURE
 LUN .               2958:   LOGGING UNIT NUMBER
 LUL .             CASPER:   LOGGING UNIT LOCATION
 ENGI.         B. ROLLINS:   RECORDING ENGINEER
 WITN.              IMMEL:   WITNESSED BY
 CLNT.            A2DTECH:   CLIENT CODE
 ORIG.           5" PRINT:   ORIGIN OF DATA
 UWI .       490251075800:   UNIQUE WELL ID
 DICO. A2D Technologies, Inc.:   DIGITIZING COMPANY
~OTHER INFORMATION
~A   DEPT      SPR         SN         IL       CALD         GRD      RHOB       DPHI       CORR   
# ...
  410.0000  -999.2500     8.6950     9.3500     8.0660    93.0140     2.4770     0.1210     0.0220
  410.5000  -999.2500     8.6850     9.3920     8.0710    93.8040     2.4820     0.1220     0.0230
  411.0000  -999.2500     8.6740     9.3410     8.0760    93.7640     2.4810     0.1230     0.0270
  411.5000  -999.2500     8.6630     9.2680     8.0810    93.7360     2.4790     0.1250     0.0370
  412.0000  -999.2500     8.6540     9.1950     8.0860    93.7100     2.4770     0.1230     0.0460
  412.5000  -999.2500     8.6020     9.1230     8.0910    93.6820     2.4770     0.1170     0.0550
  413.0000  -999.2500     8.4560     9.0500     8.0960    93.6540     2.4860     0.1120     0.0580
  413.5000  -999.2500     8.3110     8.9700     8.1010    93.6250     2.4960     0.1070     0.0610
  414.0000  -999.2500     8.1650     8.7880     8.1060    93.5990     2.5050     0.1120     0.0640
  414.5000  -999.2500     8.0190     8.5860     8.1110    93.9650     2.5010     0.1130     0.0670
  415.0000  -999.2500     7.8730     8.3840     8.1160    94.6510     2.4940     0.1140     0.0670
  415.5000  -999.2500     7.7420     8.1820     8.1210    95.7230     2.4930     0.1140     0.0650
  416.0000  -999.2500     7.4770     7.9800     8.1260    96.7880     2.4920     0.1150     0.0630
  416.5000  -999.2500     7.2360     7.7790     8.1180    97.2890     2.4910     0.1160     0.0610
  417.0000  -999.2500     6.9950     7.5770     8.0590    96.9960     2.4910     0.1130     0.0600
  417.5000  -999.2500     6.7540     7.3750     8.0990    96.3440     2.4910     0.1190     0.0590
  418.0000  -999.2500     6.5130     7.1930     8.1670    94.2480     2.4920     0.1280     0.0650
  418.5000  -999.2500     6.2720     7.1270     8.1270    92.1690     2.4790     0.1370     0.0700
  419.0000  -999.2500     6.1520     7.1270     8.0830    90.9980     2.4610     0.1450     0.0750
  419.5000  -999.2500     6.3550     7.2930     8.1060    91.9010     2.4460     0.1520     0.0770
  420.0000  -999.2500     6.7610     7.5300     8.1410    93.2150     2.4390     0.1460     0.0740
  420.5000  -999.2500     7.1670     8.0110     8.1210    94.2310     2.4350     0.1330     0.0710
  421.0000  -999.2500     7.5730     8.5950     8.0880    94.2060     2.4520     0.1250     0.0670
  421.5000  -999.2500     7.9790     9.0350     8.0960    94.2140     2.4760     0.1190     0.0640
  422.0000  -999.2500     8.1820     9.3310     8.1040    93.6940     2.4880     0.1120     0.0610
  422.5000  -999.2500     8.3140     9.4790     8.1090    92.9510     2.4950     0.1100     0.0610
  423.0000  -999.2500     8.4610     9.4790     8.0770    92.3180     2.4970     0.1120     0.0610
  423.5000  -999.2500     8.6090     9.5460     8.0460    91.9920     2.4960     0.1140     0.0620
  424.0000  -999.2500     8.7560     9.6800     8.0670    92.4090     2.4940     0.1150     0.0650
  424.5000  -999.2500     8.9030     9.8150     8.1440    94.2620     2.4910     0.1170     0.0690
  425.0000  -999.2500     9.0510     9.9490     8.1430    96.7680     2.4890     0.1180     0.0760
  425.5000  -999.2500     9.1980    10.0170     8.0830    98.9560     2.4870     0.1170     0.0850
  426.0000  -999.2500     9.3450    10.0170     8.1240    98.3340     2.4870     0.1160     0.0930
  426.5000  -999.2500     9.4930    10.0170     8.1860    98.0170     2.4870     0.1130     0.0980
  427.0000  -999.2500     9.5660    10.0170     8.1560    98.0070     2.4870     0.1090     0.1020
  427.5000  -999.2500     9.5660    10.0170     8.1250    97.7870     2.4940     0.1060     0.1070
  428.0000  -999.2500     9.5660    10.0170     8.1060    97.1020     2.5010     0.1030     0.1110
  428.5000  -999.2500     9.5660    10.0170     8.0990    96.7670     2.5090     0.1010     0.1110
  429.0000  -999.2500     9.5660    10.0170     8.0920    95.9170     2.5110     0.0980     0.1090
  429.5000  -999.2500     9.5660    10.0170     8.0840    94.6090     2.5130     0.0960     0.1080
  430.0000  -999.2500     9.5660    10.0170     8.0770    93.9690     2.5160     0.1010     0.1060
  430.5000  -999.2500     9.5660    10.0170     8.0690    93.8870     2.5190     0.1060     0.1120
  431.0000  -999.2500     9.5660    10.0170     8.0620    93.8560     2.5140     0.1110     0.1220
  431.5000  -999.2500     9.5660    10.0170     8.0550    94.1940     2.5060     0.1130     0.1330
  432.0000  -999.2500     9.5660    10.0170     8.0460    94.5490     2.4980     0.1130     0.1430
  432.5000  -999.2500     9.5660    10.0170     8.0310    94.0910     2.4930     0.1090     0.1520
  433.0000  -999.2500     9.5660    10.0170     8.0170    93.7890     2.4950     0.0980     0.1450
  433.5000  -999.2500     9.5660    10.0170     8.0030    93.7520     2.5070     0.0820     0.1260
  434.0000  -999.2500     9.5660    10.0170     7.9890    93.7120     2.5330     0.0660     0.1080
  434.5000  -999.2500     9.5660    10.0170     7.9760    93.6720     2.5600     0.0590     0.1240
  435.0000  -999.2500     9.5350    10.0170     7.9620    93.6270     2.5820     0.0620     0.1470
  435.5000  -999.2500     9.4330    10.0180     7.9480    93.2910     2.5680     0.0660     0.1420
  436.0000  -999.2500     9.3300    10.0170     7.9340    91.5050     2.5540     0.0690     0.1330
  436.5000  -999.2500     9.2270     9.6080     7.9200    90.5530     2.5450     0.0670     0.1230
  437.0000  -999.2500     9.1240     9.3350     7.9060    93.0770     2.5550     0.0590     0.1200
  437.5000  -999.2500     9.0210     9.0620     7.8920    98.2190     2.5680     0.0660     0.1370
  438.0000  -999.2500     8.9190     8.7890     7.8790    98.1090     2.5800     0.0810     0.1490
  438.5000  -999.2500     8.7310     8.5170     7.8790    95.1300     2.5570     0.0920     0.1570
  439.0000  -999.2500     8.5070     8.2440     7.9000    95.7970     2.5300     0.0930     0.1640
  439.5000  -999.2500     8.2840     7.9710     7.9210    96.6510     2.5270     0.0940     0.1720
  440.0000  -999.2500     8.0600     7.6710     7.9910    98.9980     2.5240     0.0950     0.1790
  440.5000  -999.2500     7.8140     7.2000     8.0500   100.3590     2.5210     0.1030     0.1860
  441.0000  -999.2500     7.3040     6.6760     8.0490    97.9260     2.5110     0.1100     0.1960
  441.5000  -999.2500     6.7380     6.1510     8.0500    94.0380     2.5000     0.1180     0.2190
  442.0000  -999.2500     6.1730     5.6270     8.0500    93.4100     2.4890     0.1280     0.2480
  442.5000  -999.2500     5.6630     5.1030     8.0500    93.9060     2.4790     0.1240     0.2680
  443.0000  -999.2500     5.2200     4.5790     8.0500    94.4820     2.4740     0.1180     0.2650
  443.5000  -999.2500     4.8180     4.0550     8.0500    94.8320     2.4820     0.1090     0.2410
  444.0000  -999.2500     4.4150     3.4780     8.0500    94.8860     2.4980     0.0990     0.1810
  444.5000  -999.2500     4.0120     3.4710     8.0500    94.9420     2.5140     0.0890     0.1190
  445.0000  -999.2500     3.6100     3.4610     8.0500    95.0000     2.5300     0.0810     0.0570
  445.5000  -999.2500     3.2070     3.4510     8.0500    95.0240     2.5440     0.1390     0.0490
  446.0000  -999.2500     3.0860     3.4460     8.0500    94.0800     2.4710     0.1890     0.0480
  446.5000  -999.2500     3.1300     3.6770     8.0570    92.8230     2.3920     0.2420     0.0470
  447.0000  -999.2500     3.3780     4.0760     8.0860    92.6700     2.3140     0.2630     0.0460
  447.5000  -999.2500     3.8680     4.4740     8.1150    92.6300     2.2570     0.2780     0.0450
  448.0000  -999.2500     4.3580     4.8720     8.0910    92.6780     2.2250     0.2710     0.0440
  448.5000  -999.2500     4.8470     5.2880     8.0790    92.7280     2.2320     0.2430     0.0520
  449.0000  -999.2500     5.3370     5.7210     8.1070    92.7900     2.2680     0.2160     0.0600
  449.5000  -999.2500     5.8270     6.1540     8.0950    93.0240     2.3310     0.1880     0.0690
  450.0000  -999.2500     6.3170     6.5870     8.0830    94.7380     2.3730     0.1610     0.0770
