~VERSION INFORMATION
 VERS.                2.0:   CWLS LOG ASCII STANDARD - VERSION 2.0
 WRAP.                 NO:   ONE LINE PER DEPTH STEP
~WELL INFORMATION
#MNEM.UNIT      DATA TYPE    INFORMATION
#----------   ------------   ------------------------------
 STRT.F           30.0000:   START DEPTH
 STOP.F          597.0000:   STOP DEPTH
 STEP.F            0.5000:   STEP LENGTH
 NULL.          -999.2500:   NO VALUE
 COMP. FENIX & SCISSON-U.S. NAVY:   COMPANY
 WELL.    NPR #3 #15-S-11:   WELL
 FLD .             TEAPOT:   FIELD
 LOC .      S11 T38N R78W:   LOCATION
 CNTY.            NATRONA:   COUNTY
 STAT.            WYOMING:   STATE
 CTRY. UNITED STATES OF AMERICA:   COUNTRY
 SRVC.       Schlumberger:   SERVICE COMPANY
 DATE.        22-FEB-1977:   LOGDATE
 API .       490251028000:   API NUMBER
~CURVE INFORMATION
#MNEM.UNIT       API CODE    CURVE DESCRIPTION
#----------   ------------   ------------------------------
 DEPT.F                  :   
 SPR .MV     07 010 01 00:   SPONTANEOUS POTENTIAL
 ILD .OHMM   07 120 46 00:   INDUCTION LOG DEEP RES
 ILM .OHMM   07 120 44 00:   INDUCTION LOG MEDIUM RES
 LL8 .OHMM   07 220 08 00:   LATEROLOG-8 RES
 CALD.IN     45 280 60 00:   CALIPER FROM DENSITY LOG
 GRD .GAPI   45 310 01 00:   GAMMA RAY FROM DENSITY LOG
 CORR.G/C3   45 356 01 00:   DENSITY CORRECTION
 RHOB.G/C3   45 350 01 00:   BULK DENSITY
 DPHI.DEC    45 890 12 00:   DENSITY POROSITY SANDSTONE
~PARAMETER INFORMATION
#MNEM.UNIT          VALUE    DESCRIPTION
#----------   ------------   ------------------------------
 PD  .                 GL:   PERMANENT DATUM
 EPD .F              5188:   ELEVATION PERMANENT DATUM
 LMF .                 KB:   LOG MEASURED FROM
 DAPD.F                 5:   FEET ABOVE PERMANENT DATUM
 DMF .                 KB:   DRILLING MEASURED FROM
 EKB .F              5193:   KELLING BUSHING
 EGL .F              5188:   GROUND LEVEL
 DATE.         22FEB-1977:   RUN DATE
 RUN .                  1:   RUN NUMBER
 DD  .F               598:   DEPTH DRILLER
 DL  .F               598:   DEPTH LOGGER
 BLI .F               597:   BOTTOM LOG INTERVAL
 TLI .F                35:   TOP LOG INTERVAL
 CS  .IN            8.625:   CASING SIZE
 CBD .F                42:   CASING BOTTOM DRILLER
 CBL .F                45:   CASING BOTTOM LOGGER
 BS  .IN            7.875:   BIT SIZE
 BSD .F               598:   BIT SIZE AT DEPTH
 DFT .                KCL:   DRILLING FLUID TYPE
 DFD .                8.7:   DRILLING FLUID DENSITY
 DFV .                 31:   DRILLING FLUID VISCOSITY
 DFPH.                  8:   DRILLING FLUID PH
 DFL .                7.2:   DRILLING FLUID LOSS
 MSS .           MUD TANK:   MUD SAMPLE SOURCE
 RMS .OHMM           .526:   RESISTIVITY MUD SAMPLE
 MST .F                70:   MUD SAMPLE TEMPERATURE
 RMF .OHMM           .515:   RESISTIVITY MUD FILTRATE SAMPLE
 MFST.F                71:   MUD FILTRATE SAMPLE TEMPERATURE
 RMC .OHMM            .77:   RESISTIVITY MUD CAKE
 MCST.F                70:   MUD CAKE SAMPLE TEMPERATURE
 MFSS.               MEAS:   MUD FILTRATE SAMPLE SOURCE
 MCSS.               CALC:   MUD CAKE SAMPLE SOURCE
 RMB .OHMM            .67:   RESISTIVITY MUD AT BHT
 BHT .F                55:   BOTTOM HOLE TEMPERATURE
 TCS .HRS            0600:   TIME CURCULATED STOPPED
 MRT .F                55:   MAXIMUM RECORDED TEMPERATURE
 LUN .               5642:   LOGGING UNIT NUMBER
 LUL .               CSPR:   LOGGING UNIT LOCATION
 ENGI.                FIX:   RECORDING ENGINEER
 WITN.         STUEBINGER:   WITNESSED BY
 CLNT.            A2DTECH:   CLIENT CODE
 ORIG.           5" PRINT:   ORIGIN OF DATA
 UWI .       490251028000:   UNIQUE WELL ID
 DICO. A2D Technologies, Inc.:   DIGITIZING COMPANY
~OTHER INFORMATION
~A   DEPT      SPR        ILD        ILM        LL8       CALD         GRD      CORR       RHOB       DPHI   
# ...
  322.0000   -26.2623     6.8187     6.8388     7.8574     8.2369   128.8597     0.0048     2.4374     0.1249
  322.5000   -26.2592     6.7270     6.7474     7.8066     8.2378   128.1146     0.0033     2.4315     0.1265
  323.0000   -26.1054     6.6361     6.6119     7.7561     8.2387   129.4753     0.0049     2.4338     0.1252
  323.5000   -25.9515     6.4574     6.3895     7.5489     8.2396   129.7813     0.0079     2.4361     0.1294
  324.0000   -25.9485     6.2398     6.1321     7.2958     8.2405   128.2892     0.0071     2.4354     0.1342
  324.5000   -25.9455     5.9467     5.8042     7.2479     8.2414   129.0475    -0.0041     2.4324     0.1303
  325.0000   -25.7916     5.6674     5.5319     7.2011     8.2423   132.5084     0.0079     2.4249     0.1342
  325.5000   -25.6377     5.4012     5.3091     7.0572     8.2432   133.5670     0.0094     2.4002     0.1420
  326.0000   -25.6347     5.2192     5.1661     5.8594     8.2441   134.3253     0.0049     2.3920     0.1537
  326.5000   -25.4809     5.1135     5.1319     5.0358     8.2450   134.4811     0.0011     2.3830     0.1637
  327.0000   -25.3270     5.0444     5.1342     4.8335     8.2459   131.1872    -0.0003     2.3973     0.1628
  327.5000   -25.6256     5.0111     5.1717     5.3632     8.2468   127.2908     0.0027     2.4288     0.1411
  328.0000   -25.9250     5.0478     5.4302     7.1704     8.2477   125.6467     0.0124     2.4491     0.1245
  328.5000   -26.3745     5.2631     5.7016     7.9562     8.2486   128.9575     0.0154     2.4386     0.1188
  329.0000   -26.6724     5.5258     6.0699     8.2391     8.2343   131.9680     0.0117     2.4544     0.1209
  329.5000   -26.8209     5.8823     6.4620     8.2997     8.2354   134.9786     0.0110     2.4384     0.1242
  330.0000   -26.9680     6.4375     6.7849     8.3032     8.2212   137.9891     0.0140     2.4665     0.1190
  330.5000   -26.8141     6.8528     7.0261     8.1928     8.2071   138.2951     0.0147     2.4418     0.1148
  331.0000   -26.8111     7.0960     7.2760     8.0830     8.2082   133.3495     0.0147     2.4394     0.1247
  331.5000   -26.8081     7.2469     7.4827     8.2565     8.2241   130.9546     0.0147     2.4546     0.1208
  332.0000   -26.6542     7.4009     7.5897     8.7291     8.2250   128.1093     0.0140     2.4659     0.1157
  332.5000   -26.6512     7.4545     7.6982     8.9773     8.2259   127.8147     0.0117     2.4743     0.1103
  333.0000   -26.4973     7.4567     7.8082     9.1060     8.2417   130.2265     0.0095     2.4599     0.1121
  333.5000   -26.3435     7.4589     7.8653     9.1730     8.2274   134.2880     0.0058     2.4517     0.1181
  334.0000   -26.3404     7.4611     8.0330     9.2404     8.2285   136.6980     0.0043     2.4690     0.1157
  334.5000   -26.1866     7.4113     8.0917     9.2443     8.2294   136.2551     0.0020     2.4695     0.1126
  335.0000   -26.0327     7.4140     8.0947     9.2474     8.2303   135.2115    -0.0032     2.4503     0.1220
  335.5000   -25.8789     7.3645     8.1538     9.2513     8.2462   134.9169    -0.0070     2.4428     0.1271
  336.0000   -25.5742     7.3672     8.2134     9.1914     8.2471   137.3287    -0.0107     2.4391     0.1256
  336.5000   -25.4203     7.3694     8.2734     9.1841     8.2328   138.2371    -0.0130     2.4384     0.1231
  337.0000   -25.2665     7.4742     8.2764     9.1358     8.2339   134.9413    -0.0107     2.4377     0.1282
  337.5000   -24.9618     7.4764     8.2794     9.0768     8.2348   131.7957    -0.0077     2.4422     0.1306
  338.0000   -24.9588     7.5305     8.3399     9.0182     8.2357   131.5010    -0.0024     2.4565     0.1234
  338.5000   -25.2582     7.5327     8.3429     9.0317     8.2516   135.5645     0.0021     2.4715     0.1135
  339.0000   -25.8577     7.5350     8.3459     9.2242     8.2525   137.8243     0.0043     2.4858     0.1083
  339.5000   -26.1571     7.5372     8.3490     9.4207     8.2382   138.1302     0.0051     2.4994     0.1011
  340.0000   -26.4557     7.5394     8.3520     9.6215     8.2540   135.6156     0.0014     2.4821     0.1041
  340.5000   -26.7543     7.5939     8.3551     9.7504     8.2400   134.8420    -0.0024     2.4777     0.1077
  341.0000   -26.9021     7.5962     8.3581     9.6873     8.2411   136.8018    -0.0016     2.4724     0.1098
  341.5000   -26.8984     7.5455     8.3035     9.5585     8.2570   136.9594     0.0029     2.4717     0.1107
  342.0000   -26.8953     7.4957     8.3065     9.4314     8.2578   136.0658     0.0059     2.4808     0.1101
  342.5000   -26.8929     7.4985     8.3096     9.3705     8.2587   138.5661     0.0089     2.5011     0.1004
  343.0000   -26.8899     7.3976     8.2553     9.3099     8.2744   140.7567     0.0104     2.4838     0.1043
  343.5000   -26.8869     7.3483     8.0888     9.2498     8.2603   140.8931    -0.0016     2.4538     0.1131
  344.0000   -26.7331     7.2500     7.7629     9.1900     8.2463   140.6004    -0.0008     2.4771     0.1158
  344.5000   -26.7300     7.1033     7.6063     9.1940     8.2474   142.5765    -0.0001     2.4621     0.1109
  345.0000   -26.5762     7.0078     7.4528     8.8252     8.2483   140.0902     0.0014     2.4562     0.1161
  345.5000   -26.4223     6.7716     7.3531     6.8380     8.2492   138.9713     0.0029     2.4539     0.1179
  346.0000   -26.2685     6.5888     7.2541     7.5960     8.2349   139.5916     0.0059     2.4277     0.1221
  346.5000   -26.1146     6.3668     7.1577     8.0216     8.2360   139.3948     0.0067     2.4570     0.1187
  347.0000   -26.1237     6.1099     6.9650     8.0829     8.2369   133.9850     0.0052     2.4690     0.1139
  347.5000   -26.4103     5.8633     6.6383     8.1401     8.2226   133.1456     0.0022     2.4653     0.1154
  348.0000   -26.8678     5.6657     6.3270     8.5499     8.2387   135.9039    -0.0008     2.4496     0.1184
  348.5000   -27.4601     5.5510     6.1142     8.9737     8.2396   138.2749     0.0022     2.4218     0.1241
  349.0000   -27.7628     5.5140     5.9496     8.4920     8.2405   137.9520     0.0052     2.3926     0.1328
  349.5000   -28.0573     5.4776     5.8290     5.4977     8.2414   133.9186     0.0090     2.3607     0.1615
  350.0000   -28.2089     5.4331     5.7491     4.5048     8.2271   130.7808     0.0105     2.3318     0.1630
  350.5000   -28.2209     5.3830     5.7262     4.5971     8.2282   129.5364     0.0024     2.4167     0.1491
  351.0000   -28.2330     5.3247     5.7054     6.1879     8.2293   128.0989    -0.0023     2.4332     0.1322
  351.5000   -28.2450     5.5140     6.0745     8.2149     8.2303   129.0376    -0.0068     2.4415     0.1253
  352.0000   -28.2570     5.8702     6.3781     8.4473     8.2315   130.3724    -0.0097     2.4423     0.1235
  352.5000   -28.2707     6.2928     6.7901     8.4497     8.2326   131.4862    -0.0082     2.4453     0.1222
  353.0000   -28.2542     6.7457     7.1294     8.4521     8.2336   135.3062    -0.0044     2.4506     0.1201
  353.5000   -28.0868     7.1320     7.4341     8.4545     8.2346   139.7153    -0.0006     2.4582     0.1171
  354.0000   -27.9195     7.2333     7.6453     8.5155     8.2357   141.0744     0.0009     2.4687     0.1132
  354.5000   -27.7521     7.0392     7.7539     8.5769     8.2215   131.9283    -0.0014     2.4755     0.1111
  355.0000   -27.5848     6.8024     7.5981     8.6986     8.2228   128.3352    -0.0044     2.4628     0.1123
  355.5000   -27.2666     6.3943     7.3936     8.7613     8.2238   129.9972     0.0009     2.4726     0.1138
  356.0000   -27.0993     5.9693     6.9500     8.8857     8.2249   133.4611     0.0092     2.4598     0.1156
  356.5000   -26.9320     5.5725     6.1814     8.8882     8.2408   136.3244     0.0160     2.4478     0.1175
  357.0000   -27.0704     5.2382     5.5360     8.6485     8.2568   141.2898     0.0227     2.4606     0.1212
  357.5000   -27.2047     5.0271     5.3130     5.9586     8.2579   141.4478     0.0288     2.4134     0.1346
  358.0000   -27.3390     4.9257     5.3149     4.3988     8.2589   136.5059     0.0040     2.3954     0.1580
