~VERSION INFORMATION
 VERS.                2.0:   CWLS LOG ASCII STANDARD - VERSION 2.0
 WRAP.                 NO:   ONE LINE PER DEPTH STEP
~WELL INFORMATION
#MNEM.UNIT      DATA TYPE    INFORMATION
#----------   ------------   ------------------------------
 STRT.F           20.0000:   START DEPTH
 STOP.F          710.0000:   STOP DEPTH
 STEP.F            0.5000:   STEP LENGTH
 NULL.          -999.2500:   NO VALUE
 COMP. FENIX & SCISSON INC:   COMPANY
 WELL.     NPR-3 #42SX-34:   WELL
 FLD .             TEAPOT:   FIELD
 LOC .      S34 T39N R78W:   LOCATION
 CNTY.            NATRONA:   COUNTY
 STAT.            WYOMING:   STATE
 CTRY. UNITED STATES OF AMERICA:   COUNTRY
 SRVC.           BIRDWELL:   SERVICE COMPANY
 DATE.        30-AUG-1978:   LOGDATE
 API .       490251070800:   API NUMBER
~CURVE INFORMATION
#MNEM.UNIT       API CODE    CURVE DESCRIPTION
#----------   ------------   ------------------------------
 DEPT.F                  :   
 SPR .MV     05 010 01 00:   SPONTANEOUS POTENTIAL
 SN  .OHMM   05 040 16 00:   SHORT NORMAL 16'
 ILD .OHMM   05 120 46 00:   INDUCTION LOG DEEP RESISTIVITY
 GRD .GAPI   45 310 01 00:   GAMMA RAY FROM DENSITY LOG
 CALD.IN     45 280 60 00:   CALIPER
 RHOB.G/C3   45 350 01 00:   BULK DENSITY
 DPHI.DEC    45 890 12 00:   DENSITY POROSITY SANDSTONE
 CORR.G/C3   45 356 01 00:   DENSITY CORRECTION
~PARAMETER INFORMATION
#MNEM.UNIT          VALUE    DESCRIPTION
#----------   ------------   ------------------------------
 PD  .                 GL:   PERMANENT DATUM
 EPD .F              5079:   ELEVATION PERMANENT DATUM
 LMF .                 KB:   LOG MEASURED FROM
 DAPD.F                 4:   FEET ABOVE PERMANENT DATUM
 DMF .                 KB:   DRILLING MEASURED FROM
 EKB .F              5083:   KELLING BUSHING
 EGL .F              5079:   GROUND LEVEL
 DATE.            8-30-78:   RUN DATE
 RUN .                  1:   RUN NUMBER
 DD  .F               705:   DEPTH DRILLER
 DL  .F               708:   DEPTH LOGGER
 BLI .F               702:   BOTTOM LOG INTERVAL
 TLI .F                50:   TOP LOG INTERVAL
 CS  .IN            8.625:   CASING SIZE
 CBD .F                40:   CASING BOTTOM DRILLER
 CBL .F                40:   CASING BOTTOM LOGGER
 BS  .IN            7.875:   BIT SIZE
 BSD .F               705:   BIT SIZE AT DEPTH
 DFT .                KCL:   DRILLING FLUID TYPE
 DFD .                8.6:   DRILLING FLUID DENSITY
 DFV .                 34:   DRILLING FLUID VISCOSITY
 DFPH.                  9:   DRILLING FLUID PH
 DFL .                7.4:   DRILLING FLUID LOSS
 MSS .           FLOWLINE:   MUD SAMPLE SOURCE
 RMS .OHMM             .3:   RESISTIVITY MUD SAMPLE
 MST .F                80:   MUD SAMPLE TEMPERATURE
 RMF .OHMM             .4:   RESISTIVITY MUD FILTRATE SAMPLE
 MFST.F                80:   MUD FILTRATE SAMPLE TEMPERATURE
 RMC .OHMM             .5:   RESISTIVITY MUD CAKE
 MCST.F                82:   MUD CAKE SAMPLE TEMPERATURE
 MFSS.               MEAS:   MUD FILTRATE SAMPLE SOURCE
 MCSS.               MEAS:   MUD CAKE SAMPLE SOURCE
 RMB .OHMM            .32:   RESISTIVITY MUD AT BHT
 BHT .F                73:   BOTTOM HOLE TEMPERATURE
 TCS .HRS               3:   TIME CURCULATED STOPPED
 MRT .F                73:   MAXIMUM RECORDED TEMPERATURE
 LUN .               3006:   LOGGING UNIT NUMBER
 LUL .               CASP:   LOGGING UNIT LOCATION
 ENGI.            POINTER:   RECORDING ENGINEER
 WITN.              AMEND:   WITNESSED BY
 CLNT.            A2DTECH:   CLIENT CODE
 ORIG.           5" PRINT:   ORIGIN OF DATA
 UWI .       490251070800:   UNIQUE WELL ID
 DICO. A2D Technologies, Inc.:   DIGITIZING COMPANY
~OTHER INFORMATION
~A   DEPT      SPR         SN        ILD         GRD      CALD       RHOB       DPHI       CORR   
# ...
  627.5000   -46.6000    10.7521    10.7885    87.6691     8.7251     2.4890     0.0980     0.1532
  628.0000   -46.6000    10.7125    10.7876    84.3798     8.7484     2.5032     0.0858     0.1698
  628.5000   -46.6000    10.6731    10.7865    81.1871     8.7176     2.5271     0.0734     0.1841
  629.0000   -46.6000    10.6356    10.7854    78.5929     8.6891     2.5503     0.0667     0.1595
  629.5000   -46.6000    10.5946    10.7848    81.0345     8.6580     2.5691     0.0712     0.1420
  630.0000   -46.6000    10.7376    10.9854    85.3919     8.6285     2.5629     0.0758     0.1316
  630.5000   -46.6000    10.8884    11.1378    85.9392     8.5983     2.5492     0.0803     0.1281
  631.0000   -46.6000    11.0413    11.2677    86.5643     8.6006     2.5424     0.0848     0.1239
  631.5000   -46.6000    11.1963    11.3993    87.4675     8.6163     2.5432     0.0872     0.1195
  632.0000   -46.6000    11.3536    11.5320    89.3177     8.6314     2.5430     0.0888     0.1156
  632.5000   -46.6000    11.5132    11.6655    92.0395     8.6463     2.5426     0.0904     0.1109
  633.0000   -46.6000    11.6752    11.8016    96.4858     8.6622     2.5364     0.0916     0.1131
  633.5000   -46.6000    11.8394    11.9381   100.8744     8.6756     2.5306     0.0890     0.1204
  634.0000   -46.5995    12.0059    12.0761   101.7956     8.6923     2.5291     0.0860     0.1268
  634.5000   -46.6001    12.1180    12.2157   100.8781     8.7137     2.5351     0.0831     0.1542
  635.0000   -46.5978    12.2100    12.5035    95.1365     8.7565     2.5412     0.0804     0.1844
  635.5000   -46.5988    12.3026    12.5035    91.8859     8.7492     2.5475     0.0754     0.2070
  636.0000   -46.6037    12.3960    12.5035    90.7456     8.7470     2.5537     0.0707     0.2135
  636.5000   -46.5871    12.4901    12.5593    92.9526     8.6837     2.5626     0.0660     0.2119
  637.0000   -46.6056    12.5849    12.6228    95.0014     8.6326     2.5725     0.0614     0.2075
  637.5000   -46.6601    12.6805    12.6866    94.3116     8.6275     2.5822     0.0572     0.1964
  638.0000   -47.1501    12.8511    12.7507    92.5513     8.6215     2.5888     0.0565     0.1641
  638.5000   -47.3770    13.1276    12.8152    90.9642     8.6173     2.5890     0.0559     0.1347
  639.0000   -47.6630    13.4100    12.8799    89.1901     8.6125     2.5850     0.0604     0.1037
  639.5000   -47.9409    13.6985    12.9451    87.3715     8.6074     2.5822     0.0718     0.0722
  640.0000   -48.2082    13.9933    12.9727    87.7676     8.6029     2.5603     0.0833     0.0543
  640.5000   -48.4892    14.2965    13.1847    89.6075     8.5982     2.5340     0.0918     0.0501
  641.0000   -48.7585    14.6046    13.6997    91.3808     8.5924     2.5255     0.0942     0.0460
  641.5000   -48.9894    14.7837    14.2347    91.9412     8.5973     2.5232     0.0954     0.0458
  642.0000   -48.9192    14.8291    14.7907    89.4943     8.6203     2.5228     0.0966     0.0459
  642.5000   -48.8573    14.8743    15.0325    86.2061     8.6315     2.5221     0.0977     0.0458
  643.0000   -48.7851    14.9197    15.0986    83.8849     8.6304     2.5216     0.0978     0.0458
  643.5000   -48.7141    14.9654    15.1544    81.9980     8.6306     2.5210     0.0976     0.0480
  644.0000   -48.6421    15.0113    15.2103    80.1953     8.6308     2.5210     0.0974     0.0573
  644.5000   -48.5985    15.0576    15.2678    78.1639     8.6304     2.5245     0.0960     0.0664
  645.0000   -48.6670    15.1042    15.3125    79.1892     8.6306     2.5275     0.0922     0.0757
  645.5000   -48.7349    15.1510    15.3433    80.4299     8.6117     2.5361     0.0883     0.0849
  646.0000   -48.8048    15.1980    15.3819    81.8131     8.5851     2.5437     0.0844     0.0940
  646.5000   -48.8719    15.2450    15.4209    83.1258     8.5584     2.5523     0.0805     0.1034
  647.0000   -48.9460    15.2922    15.4600    84.1316     8.5323     2.5569     0.0764     0.1062
  647.5000   -49.0102    15.3122    15.4993    84.5031     8.5105     2.5547     0.0756     0.1062
  648.0000   -49.1763    15.3122    15.5386    84.0258     8.5102     2.5534     0.0747     0.1059
  648.5000   -49.3147    15.3113    15.5943    82.1431     8.5098     2.5573     0.0721     0.1056
  649.0000   -49.4621    15.2875    15.5686    80.2878     8.5099     2.5610     0.0636     0.0970
  649.5000   -49.6069    15.2594    15.5053    79.4305     8.5100     2.5660     0.0655     0.0868
  650.0000   -49.7510    15.2312    15.4424    80.2384     8.5100     2.5607     0.0693     0.0878
  650.5000   -49.8962    15.2034    15.3808    78.0718     8.5102     2.5471     0.0731     0.0886
  651.0000   -50.0409    15.1756    15.3200    76.9639     8.5101     2.5428     0.0769     0.0977
  651.5000   -50.1857    15.1476    15.2592    79.6271     8.5100     2.5471     0.0779     0.1097
  652.0000   -50.3304    15.1195    15.1984    82.5629     8.5107     2.5516     0.0761     0.1110
  652.5000   -50.4753    15.0917    15.1381    86.2459     8.5096     2.5566     0.0743     0.1119
  653.0000   -50.6202    15.0640    15.0780    87.3686     8.5073     2.5590     0.0725     0.1130
  653.5000   -50.7648    15.0325    15.0181    88.8179     8.4611     2.5580     0.0707     0.1142
  654.0000   -50.9100    14.9080    14.9585    88.8405     8.4164     2.5576     0.0689     0.1233
  654.5000   -51.0547    14.7640    14.8991    88.9406     8.3670     2.5575     0.0670     0.1336
  655.0000   -51.1987    14.6215    14.8399    90.5192     8.3541     2.5676     0.0652     0.1439
  655.5000   -51.3454    14.4803    14.7810    90.8225     8.3689     2.5743     0.0634     0.1546
  656.0000   -51.4231    14.3405    14.7385    89.3862     8.3811     2.5762     0.0609     0.1573
  656.5000   -51.4543    14.2020    14.6551    88.2084     8.3929     2.5785     0.0579     0.1556
  657.0000   -51.4874    14.0648    14.5724    87.5781     8.4057     2.5818     0.0548     0.1537
  657.5000   -51.5213    13.9289    14.4902    87.5587     8.4178     2.5866     0.0692     0.1427
  658.0000   -51.5543    13.7944    14.4082    84.9907     8.4293     2.5779     0.0836     0.1461
  658.5000   -51.5876    13.6612    14.3267    81.1909     8.4329     2.5671     0.0773     0.1678
  659.0000   -51.6210    13.5293    14.2455    81.9211     8.4361     2.5577     0.0713     0.1855
  659.5000   -51.6542    13.3987    14.1648    83.8025     8.4391     2.5639     0.0653     0.1861
  660.0000   -51.6875    13.2693    14.0846    85.1960     8.4421     2.5692     0.0606     0.1821
  660.5000   -51.7213    13.1411    14.0048    86.1172     8.4452     2.5749     0.0624     0.1733
  661.0000   -51.7538    13.0142    13.9255    86.4132     8.4483     2.5739     0.0658     0.1654
  661.5000   -51.7871    12.8886    13.8466    86.1996     8.4513     2.5718     0.0692     0.1576
  662.0000   -51.8217    12.7641    13.7682    86.0721     8.4544     2.5623     0.0726     0.1491
  662.5000   -51.9031    12.6408    13.6902    85.8837     8.4575     2.5506     0.0761     0.1463
  663.0000   -51.9838    12.5188    13.6127    85.6781     8.4606     2.5395     0.0795     0.1480
  663.5000   -52.0660    12.3979    13.5356    87.9331     8.4637     2.5391     0.0820     0.1489
  664.0000   -52.1479    12.2781    13.4595    91.6884     8.4667     2.5397     0.0817     0.1494
  664.5000   -52.2296    12.1596    13.4289    96.3073     8.4697     2.5419     0.0811     0.1409
  665.0000   -52.3115    12.0512    13.3797    94.1046     8.4698     2.5441     0.0804     0.1332
  665.5000   -52.3933    12.0071    13.3307    88.8007     8.4699     2.5437     0.0822     0.1250
  666.0000   -52.4754    11.9436    13.2818    87.9607     8.4699     2.5402     0.0844     0.1170
  666.5000   -52.5573    11.8805    13.2332    91.7547     8.4698     2.5369     0.0867     0.1100
  667.0000   -52.6389    11.8312    12.9727    93.5413     8.4699     2.5335     0.0889     0.1061
  667.5000   -52.7217    11.8312    12.8814    92.6520     8.4699     2.5302     0.0916     0.1027
