~VERSION INFORMATION
 VERS.                2.0:   CWLS LOG ASCII STANDARD - VERSION 2.0
 WRAP.                 NO:   ONE LINE PER DEPTH STEP
~WELL INFORMATION
#MNEM.UNIT      DATA TYPE    INFORMATION
#----------   ------------   ------------------------------
 STRT.F            0.0000:   START DEPTH
 STOP.F          547.0000:   STOP DEPTH
 STEP.F            0.1000:   STEP LENGTH
 NULL.          -999.2500:   NO VALUE
 COMP.     BROWN JOHN E&C:   COMPANY
 WELL.    NPR 3 #86-1-X-3:   WELL
 FLD .             TEAPOT:   FIELD
 LOC .       S3 T38N R78W:   LOCATION
 CNTY.            NATRONA:   COUNTY
 STAT.            WYOMING:   STATE
 CTRY. UNITED STATES OF AMERICA:   COUNTRY
 SRVC.     Atlas Wireline:   SERVICE COMPANY
 DATE.        09-FEB-1992:   LOGDATE
 API .       490252249800:   API NUMBER
~CURVE INFORMATION
#MNEM.UNIT       API CODE    CURVE DESCRIPTION
#----------   ------------   ------------------------------
 DEPT.F                  :   
 GRR .GAPI   07 310 01 00:   GAMMA RAY
 RFOC.OHMM   07 220 04 00:   RESISTIVITY FOCUSED LOG
 RILD.OHMM   07 120 46 00:   INDUCTION LOG DEEP RESISTIVITY
 RILM.OHMM   07 120 44 00:   INDUCTION LOG MEDIUM RESISTIVITY
 SPR .MV     07 010 01 00:   SPONTANEOUS POTENTIAL
~PARAMETER INFORMATION
#MNEM.UNIT          VALUE    DESCRIPTION
#----------   ------------   ------------------------------
 PD  .                 GL:   PERMANENT DATUM
 EPD .F              5145:   ELEVATION PERMANENT DATUM
 LMF .                 KB:   LOG MEASURED FROM
 DAPD.F                10:   FEET ABOVE PERMANENT DATUM
 DMF .                 KB:   DRILLING MEASURED FROM
 EKB .F              5155:   KELLING BUSHING
 EDF .F              5154:   DRILLING FLOOR
 EGL .F              5145:   GROUND LEVEL
 DATE.        09-FEB-1992:   RUN DATE
 RUN .                  1:   RUN NUMBER
 DD  .F               562:   DEPTH DRILLER
 DL  .F               550:   DEPTH LOGGER
 BLI .F               547:   BOTTOM LOG INTERVAL
 CS  .IN            8.625:   CASING SIZE
 CBD .F               183:   CASING BOTTOM DRILLER
 CBL .F               181:   CASING BOTTOM LOGGER
 BS  .IN            7.875:   BIT SIZE
 BSD .F               562:   BIT SIZE AT DEPTH
 DFT .            GEL BAR:   DRILLING FLUID TYPE
 DFD .               17.8:   DRILLING FLUID DENSITY
 DFV .                 52:   DRILLING FLUID VISCOSITY
 DFPH.                  9:   DRILLING FLUID PH
 DFL .                5.2:   DRILLING FLUID LOSS
 MSS .           FLOWLINE:   MUD SAMPLE SOURCE
 RMS .OHMM           1.78:   RESISTIVITY MUD SAMPLE
 MST .F                68:   MUD SAMPLE TEMPERATURE
 RMF .OHMM          1.335:   RESISTIVITY MUD FILTRATE SAMPLE
 MFST.F                68:   MUD FILTRATE SAMPLE TEMPERATURE
 RMC .OHMM          2.225:   RESISTIVITY MUD CAKE
 MCST.F                68:   MUD CAKE SAMPLE TEMPERATURE
 MFSS.               MEAS:   MUD FILTRATE SAMPLE SOURCE
 MCSS.               MEAS:   MUD CAKE SAMPLE SOURCE
 TCS .HRS               3:   TIME CURCULATED STOPPED
 LUN .            HL 6274:   LOGGING UNIT NUMBER
 LUL .             CASPER:   LOGGING UNIT LOCATION
 ENGI.       P. RASMUSSEN:   RECORDING ENGINEER
 WITN.          G. STRONG:   WITNESSED BY
 CLNT.            A2DTECH:   CLIENT CODE
 ORIG.           5" PRINT:   ORIGIN OF DATA
 UWI .       490252249800:   UNIQUE WELL ID
 DICO. A2D Technologies, Inc.:   DIGITIZING COMPANY
~OTHER INFORMATION
~A    DEPT      GRR      RFOC       RILD       RILM        SPR   
# ...
  207.4000    88.2914     8.8914     7.8583     7.8547   -14.2353
  207.5000    88.2987     8.8908     7.8901     7.9013   -14.2325
  207.6000    88.3039     8.8904     7.8964     7.9240   -14.2298
  207.7000    88.3100     8.8899     7.9469     7.9396   -14.2680
  207.8000    88.3161     8.8894     7.9475     7.9808   -14.3766
  207.9000    88.3222     8.8889     7.9819     7.9816   -14.3734
  208.0000    88.3445     8.8884     8.0045     8.0254   -14.4883
  208.1000    88.6391     8.8878     8.0206     8.0388   -14.5201
  208.2000    88.6444     8.8874     8.0620     8.0644   -14.5846
  208.3000    88.6505     8.8869     8.0627     8.0965   -14.7087
  208.4000    88.6565     8.8864     8.1074     8.0972   -14.8328
  208.5000    88.6626     8.8859     8.1206     8.0979   -14.9649
  208.6000    88.6687     8.8854     8.1213     8.1428   -14.9623
  208.7000    88.6756     8.8849     8.1381     8.1559   -15.0532
  208.8000    88.6809     8.8844     8.1796     8.1824   -15.1773
  208.9000    88.8569     8.8839     8.1803     8.2145   -15.3014
  209.0000    88.9970     8.8834     8.2261     8.2221   -15.4077
  209.1000    89.0030     8.8829     8.2390     8.2735   -15.4044
  209.2000    89.0278     8.8824     8.2661     8.2741   -15.4018
  209.3000    89.3199     8.8819     8.2982     8.3110   -15.3991
  209.4000    89.3252     8.8815     8.3062     8.3335   -15.3266
  209.5000    89.5025     8.8810     8.3578     8.3513   -15.2416
  209.6000    89.8829     8.8559     8.4051     8.3933   -15.2194
  209.7000    90.3257     8.8182     8.4178     8.3940   -15.0841
  209.8000    90.6051     8.8177     8.4459     8.3947   -14.9603
  209.9000    91.1801     8.8171     8.4783     8.3954   -14.9267
  210.0000    91.6312     8.8167     8.4790     8.3961   -14.8531
  210.1000    91.9718     8.8162     8.4797     8.3968   -14.7693
  210.2000    92.1094     8.8157     8.4804     8.3975   -14.7666
  210.3000    91.9725     8.8008     8.4811     8.3982   -14.7637
  210.4000    91.4926     8.7492     8.4818     8.3518   -14.7611
  210.5000    91.2165     8.6919     8.4825     8.3412   -14.7584
  210.6000    90.9978     8.6469     8.4833     8.3419   -14.7556
  210.7000    90.7504     8.5962     8.4840     8.3246   -14.7999
  210.8000    90.5030     8.5458     8.4847     8.2769   -14.9026
  210.9000    90.3283     8.4957     8.4473     8.2283   -14.8993
  211.0000    90.3344     8.4459     8.4270     8.1824   -15.0203
  211.1000    90.3411     8.3909     8.4277     8.0989   -15.1444
  211.2000    90.3465     8.3472     8.4284     8.0326   -15.2685
  211.3000    90.5275     8.2983     8.4291     7.9866   -15.3444
  211.4000    90.7870     8.2262     8.4298     7.9408   -15.3647
  211.5000    91.0466     8.1442     8.4305     7.8946   -15.4908
  211.6000    91.3297     8.0878     8.4312     7.8053   -15.4881
  211.7000    91.8973     7.9324     8.4320     7.7509   -15.4854
  211.8000    92.3558     7.8908     8.4327     7.7065   -15.4827
  211.9000    92.6928     7.8446     8.4334     7.6797   -15.4799
  212.0000    93.0780     7.8211     8.4341     7.6804   -15.4772
  212.1000    93.5911     7.8072     8.4348     7.6810   -15.4745
  212.2000    94.1042     7.7658     8.4355     7.6817   -15.4717
  212.3000    94.6693     7.7653     8.4362     7.6823   -15.4690
  212.4000    94.9025     7.7649     8.4369     7.6829   -15.4663
  212.5000    94.9848     7.7645     8.4376     7.6658   -15.4635
  212.6000    94.9909     7.7641     8.3797     7.6308   -15.4608
  212.7000    94.9206     7.7636     8.3803     7.6314   -15.4581
  212.8000    94.6985     7.7632     8.3810     7.6322   -15.4548
  212.9000    94.7058     7.7627     8.3817     7.6327   -15.4526
  213.0000    94.2533     7.7623     8.3824     7.6333   -15.4498
  213.1000    94.1094     7.7619     8.3831     7.6340   -15.4471
  213.2000    93.9875     7.7614     8.3839     7.6252   -15.4444
  213.3000    93.7400     7.7749     8.3449     7.5821   -15.4416
  213.4000    93.4926     7.8199     8.3268     7.5829   -15.4384
  213.5000    93.2224     7.8692     8.3275     7.5834   -15.4362
  213.6000    92.9978     7.8688     8.3282     7.5840   -15.4334
  213.7000    92.3909     7.9010     8.3289     7.5846   -15.3776
  213.8000    91.8951     7.9467     8.3297     7.5853   -15.3040
  213.9000    91.6476     8.0073     8.3303     7.5859   -15.4253
  214.0000    91.3719     8.0900     8.3310     7.5867   -15.4220
  214.1000    90.8273     8.0894     8.3317     7.6238   -15.4198
  214.2000    90.6014     8.1322     8.3324     7.6410   -15.4170
  214.3000    90.3540     8.1452     8.3331     7.6416   -15.4143
  214.4000    90.2371     8.1693     8.3339     7.6423   -15.4116
  214.5000    90.1631     8.2014     8.3345     7.6429   -15.4088
  214.6000    89.9157     8.2065     8.3352     7.6437   -15.4056
  214.7000    89.6479     8.2579     8.3359     7.6072   -15.4033
  214.8000    89.4209     8.3018     8.3366     7.5916   -15.4006
  214.9000    88.9913     8.3149     8.3373     7.5730   -15.3979
  215.0000    88.6221     8.2894     8.3381     7.5401   -15.3951
  215.1000    88.3746     8.2561     8.3387     7.5407   -15.3924
  215.2000    88.1272     8.2498     8.3394     7.5414   -15.3892
  215.3000    87.8607     8.1977     8.3401     7.5420   -15.3869
  215.4000    87.6324     8.1534     8.3408     7.5711   -15.3842
  215.5000    87.5684     8.1398     8.3415     7.5961   -15.3815
  215.6000    87.4415     8.1146     8.3423     7.5967   -15.3787
  215.7000    87.1941     8.0822     8.3429     7.5951   -15.3760
  215.8000    86.9780     8.0818     8.3436     7.5452   -15.3729
  215.9000    86.9852     8.0813     8.3664     7.5458   -15.3705
  216.0000    86.9909     8.0374     8.4035     7.5464   -15.3678
  216.1000    87.3662     8.0242     8.4070     7.5470   -15.4230
  216.2000    87.7451     7.9991     8.4639     7.5477   -15.5143
  216.3000    88.0047     7.9522     8.4645     7.5483   -15.5115
  216.4000    88.2975     7.9116     8.4980     7.5490   -15.5084
  216.5000    88.8454     7.9111     8.5253     7.5496   -15.5061
  216.6000    89.0873     7.8679     8.5393     7.5502   -15.5876
  216.7000    89.7186     7.8552     8.5866     7.5508   -15.7118
  216.8000    90.0790     7.8548     8.5874     7.5515   -15.8018
  216.9000    90.2550     7.8544     8.5880     7.5521   -15.8080
  217.0000    90.7336     7.8602     8.6225     7.5528   -15.9480
  217.1000    91.0095     7.9085     8.6497     7.5534   -15.9456
  217.2000    91.2527     7.9081     8.6504     7.5244   -16.0284
  217.3000    91.6993     7.9417     8.6511     7.5021   -16.0921
  217.4000    92.2124     7.9626     8.6519     7.5027   -16.0894
  217.5000    92.6393     7.9780     8.6084     7.5033   -16.0968
  217.6000    92.8632     8.0241     8.5930     7.5040   -16.2355
  217.7000    92.8697     8.0732     8.5938     7.5046   -16.2331
  217.8000    92.8754     8.1172     8.5803     7.5052   -16.3171
  217.9000    92.8815     8.1289     8.5353     7.5058   -16.3796
  218.0000    92.7497     8.1542     8.5361     7.5065   -16.3769
  218.1000    92.4150     8.1849     8.5368     7.5032   -16.3742
  218.2000    91.9510     8.1845     8.5032     7.4555   -16.3711
  218.3000    91.6903     8.1840     8.4788     7.4561   -16.3687
  218.4000    91.6961     8.1836     8.4650     7.4567   -16.3660
  218.5000    91.5127     8.1831     8.4164     7.4573   -16.3632
  218.6000    91.4043     8.1826     8.3633     7.4580   -16.3605
  218.7000    91.2332     8.1822     8.3639     7.4586   -16.3452
  218.8000    90.8076     8.1817     8.3306     7.4593   -16.2028
  218.9000    90.8149     8.1813     8.3070     7.4208   -16.0860
  219.0000    90.5795     8.1286     8.3077     7.4086   -15.9564
  219.1000    90.3321     7.9381     8.3033     7.4092   -15.8269
  219.2000    90.0847     7.6147     8.2513     7.4098   -15.6973
  219.3000    89.8373     7.5220     8.2519     7.4057   -15.5677
  219.4000    89.6282     7.5216     8.2526     7.3595   -15.4265
  219.5000    89.6355     7.5543     8.2288     7.3601   -15.4240
