~VERSION INFORMATION
 VERS.                2.0:   CWLS LOG ASCII STANDARD - VERSION 2.0
 WRAP.                 NO:   ONE LINE PER DEPTH STEP
~WELL INFORMATION
#MNEM.UNIT      DATA TYPE    INFORMATION
#----------   ------------   ------------------------------
 STRT.F           42.0000:   START DEPTH
 STOP.F         3140.0000:   STOP DEPTH
 STEP.F            0.5000:   STEP LENGTH
 NULL.          -999.2500:   NO VALUE
 COMP. LAWRENCE-ALLISON & AS:   COMPANY
 WELL.     88 X 33 #88-33:   WELL
 FLD .             NPR #3:   FIELD
 LOC .      S33 T39N R78W:   LOCATION
 CNTY.            NATRONA:   COUNTY
 STAT.            WYOMING:   STATE
 CTRY. UNITED STATES OF AMERICA:   COUNTRY
 SRVC.       Schlumberger:   SERVICE COMPANY
 DATE.        13-DEC-1987:   LOGDATE
 API .       490251120300:   API NUMBER
~CURVE INFORMATION
#MNEM.UNIT       API CODE    CURVE DESCRIPTION
#----------   ------------   ------------------------------
 DEPT.F                  :   
 GRR .GAPI   07 310 01 00:   GAMMA RAY FROM RES
 SPR .MV     07 010 01 00:   SPONTANEOUS POTENTIAL
 ILD .OHMM   07 120 46 00:   INDUCTION LOG DEEP RES
 ILM .OHMM   07 120 44 00:   INDUCTION LOG MEDIUM RES
 SFLU.OHMM   07 220 01 00:   SPHERICALLY FOCUSED LOG UNAVERAGED RES
 DPHI.DEC    45 890 12 00:   DENSITY POROSITY SANDSTONE
 NPHI.DEC    42 890 03 00:   NEUTRON POROSITY SANDSTONE
 CALD.IN     45 280 60 00:   CALIPER FROM DENSITY LOG
 DRHO.G/C3   45 356 01 00:   DENSITY CORRECTION
 RHOB.G/C3   45 350 01 00:   BULK DENSITY
~PARAMETER INFORMATION
#MNEM.UNIT          VALUE    DESCRIPTION
#----------   ------------   ------------------------------
 PD  .                 GL:   PERMANENT DATUM
 EPD .F              5746:   ELEVATION PERMANENT DATUM
 LMF .                 KB:   LOG MEASURED FROM
 DAPD.F                11:   FEET ABOVE PERMANENT DATUM
 DMF .                 KB:   DRILLING MEASURED FROM
 EKB .F              5157:   KELLING BUSHING
 EGL .F              5146:   GROUND LEVEL
 DATE.        13-DEC-1987:   RUN DATE
 RUN .                  1:   RUN NUMBER
 DD  .F              3155:   DEPTH DRILLER
 DL  .F              3140:   DEPTH LOGGER
 BLI .F              3132:   BOTTOM LOG INTERVAL
 TLI .F               614:   TOP LOG INTERVAL
 CS  .IN            9.625:   CASING SIZE
 CBD .F               608:   CASING BOTTOM DRILLER
 CBL .F               614:   CASING BOTTOM LOGGER
 BS  .IN            7.875:   BIT SIZE
 BSD .F              3155:   BIT SIZE AT DEPTH
 DFT .       KCL DIS. PAC:   DRILLING FLUID TYPE
 DFD .                  9:   DRILLING FLUID DENSITY
 DFV .                 41:   DRILLING FLUID VISCOSITY
 DFPH.                9.5:   DRILLING FLUID PH
 DFL .                8.4:   DRILLING FLUID LOSS
 MSS .           FLOWLINE:   MUD SAMPLE SOURCE
 RMS .OHMM          0.523:   RESISTIVITY MUD SAMPLE
 MST .F                63:   MUD SAMPLE TEMPERATURE
 RMF .OHMM          0.435:   RESISTIVITY MUD FILTRATE SAMPLE
 MFST.F                63:   MUD FILTRATE SAMPLE TEMPERATURE
 RMC .OHMM          0.489:   RESISTIVITY MUD CAKE
 MCST.F                63:   MUD CAKE SAMPLE TEMPERATURE
 MFSS.              PRESS:   MUD FILTRATE SAMPLE SOURCE
 MCSS.               CALC:   MUD CAKE SAMPLE SOURCE
 RMB .OHMM          0.288:   RESISTIVITY MUD AT BHT
 BHT .F               120:   BOTTOM HOLE TEMPERATURE
 TCS .HRS            0600:   TIME CURCULATED STOPPED
 TLAB.HRS            1430:   TIME LOGGER AT BOTTOM
 MRT .F               120:   MAXIMUM RECORDED TEMPERATURE
 LUN .               8198:   LOGGING UNIT NUMBER
 LUL .             CASPER:   LOGGING UNIT LOCATION
 ENGI.          W. BENSON:   RECORDING ENGINEER
 WITN.        GARY STRONG:   WITNESSED BY
 CLNT.            A2DTECH:   CLIENT CODE
 ORIG.           5" PRINT:   ORIGIN OF DATA
 UWI .       490251120300:   UNIQUE WELL ID
 DICO. A2D Technologies, Inc.:   DIGITIZING COMPANY
~OTHER INFORMATION
~A   DEPT      GRR        SPR        ILD        ILM       SFLU       DPHI       NPHI       CALD       DRHO       RHOB   
# ...
 2755.5000   113.1525   -82.8478     9.2351     9.2993    10.9490     0.0932     0.2022     7.8457    -0.0235     2.4919
 2756.0000   111.3430   -82.6808     9.1079     9.2993    11.3348     0.0965     0.2010     7.8609    -0.0257     2.4844
 2756.5000   107.9522   -82.5497     8.9826     9.2993    11.5727     0.0980     0.2016     7.9060    -0.0302     2.4815
 2757.0000   109.0795   -82.8734     8.9826     9.1713    11.4929     0.0971     0.2046     7.9511    -0.0339     2.4875
 2757.5000   111.7880   -83.3284     8.9826     9.1079    11.4136     0.0935     0.2079     7.9663    -0.0317     2.4927
 2758.0000   118.7888   -83.6324     8.9205     9.0450    11.3348     0.0893     0.2076     7.9664    -0.0273     2.4965
 2758.5000   123.3046   -84.2123     8.9205     8.9205    11.1017     0.0881     0.2073     7.9666    -0.0236     2.4980
 2759.0000   125.1096   -84.3645     8.8589     8.9205    10.6499     0.0887     0.2079     7.9667    -0.0214     2.4973
 2759.5000   125.3337   -84.5166     8.7370     8.8589    10.1460     0.0905     0.2079     7.9362    -0.0207     2.4950
 2760.0000   123.7496   -84.8196     8.7370     8.9205     9.9374     0.0968     0.2067     7.9050    -0.0229     2.4823
 2760.5000   122.1660   -84.8211     8.7370     8.9205    10.0199     0.1043     0.2067     7.8472    -0.0311     2.4748
 2761.0000   120.8083   -84.8226     8.6766     8.6766    10.5308     0.1100     0.2079     7.8805    -0.0363     2.4591
 2761.5000   119.6765   -84.8241     8.5572     8.5572    11.1156     0.1109     0.2106     7.9675    -0.0355     2.4576
 2762.0000   118.0935   -84.8256     8.4394     8.5572    11.2566     0.1094     0.2115     7.8605    -0.0333     2.4614
 2762.5000   120.0756   -84.8271     8.4394     8.4981    10.9240     0.1001     0.2124     7.8478    -0.0311     2.4764
 2763.0000   124.2542   -84.8286     8.3811     8.4394    10.4689     0.0962     0.2136     7.8808    -0.0296     2.4832
 2763.5000   126.2192   -85.1313     8.2658     8.3232    10.0759     0.0937     0.2193     7.9231    -0.0282     2.4869
 2764.0000   124.9185   -85.4340     8.0957     8.2087     9.9963     0.0904     0.2256     7.9233    -0.0274     2.4922
 2764.5000   119.1721   -85.2845     7.9291     8.0398     9.7237     0.0847     0.2223     7.9234    -0.0275     2.4989
 2765.0000   118.0799   -84.9848     7.7660     7.8200     9.3114     0.0787     0.1985     7.9236    -0.0290     2.5079
 2765.5000   119.2176   -84.8357     7.5536     7.7123     8.6370     0.0736     0.1773     7.9237    -0.0305     2.5162
 2766.0000   118.9561   -84.8376     7.8743     7.9842     8.0175     0.0651     0.1595     7.9389    -0.0305     2.5327
 2766.5000   112.1994   -85.1403     8.4394     8.4981     8.8078     0.0603     0.1454     7.9390    -0.0283     2.5417
 2767.0000    99.0947   -85.2924     8.8589     9.1079    10.3584     0.0570     0.1408     7.9541    -0.0268     2.5477
 2767.5000    92.7671   -85.5951     9.0450     9.6941    12.9834     0.0567     0.1490     7.8793    -0.0298     2.5493
 2768.0000    92.0877   -85.8978     9.1713    10.3180    15.5200     0.0591     0.1740     7.8795    -0.0313     2.5485
 2768.5000   103.1541   -86.0499     9.2993    10.1760    16.4748     0.0627     0.1951     7.9096    -0.0276     2.5418
 2769.0000   115.3507   -86.2020     9.1079     9.4291    15.7445     0.0660     0.2183     7.9248    -0.0246     2.5351
 2769.5000   121.6737   -86.5048     8.6766     8.5572    12.7134     0.0669     0.2361     7.9249    -0.0217     2.5328
 2770.0000   127.9967   -86.5062     8.1520     7.8200    10.9195     0.0678     0.2488     7.9400    -0.0202     2.5313
 2770.5000   136.1270   -86.5078     7.5536     7.2460     9.0637     0.0705     0.2464     7.9402    -0.0202     2.5284
 2771.0000   150.0562   -86.6599     6.8552     6.7141     8.1176     0.0732     0.2370     7.9403    -0.0203     2.5239
 2771.5000   151.7104   -86.6614     6.3962     6.2213     7.2127     0.0747     0.2264     7.9405    -0.0203     2.5186
 2772.0000   149.8734   -86.5119     6.0933     5.9679     6.5116     0.0726     0.2195     7.9556    -0.0203     2.5216
 2772.5000   144.9267   -86.3628     6.0094     6.0094     6.4685     0.0711     0.2174     7.9558    -0.0203     2.5262
 2773.0000   135.9721   -86.3647     5.9267     6.0512     6.8409     0.0705     0.2131     7.9559    -0.0203     2.5277
 2773.5000   131.3425   -86.3662     5.9267     6.0512     7.4841     0.0702     0.2059     7.9554    -0.0218     2.5277
 2774.0000   129.0996   -86.3677     5.9679     6.1783     8.0732     0.0702     0.1947     7.9549    -0.0255     2.5262
 2774.5000   127.0555   -86.2182     6.2213     6.4407     7.5321     0.0696     0.1778     7.9543    -0.0278     2.5285
 2775.0000   123.0045   -85.9189     6.5760     6.8078     7.2264     0.0657     0.1736     7.9537    -0.0278     2.5330
 2775.5000   117.1288   -85.6192     7.0479     7.5015     8.2999     0.0578     0.1739     7.9532    -0.0256     2.5428
 2776.0000   112.8343   -85.6207     7.5536     7.6591    10.0064     0.0533     0.1766     7.9526    -0.0241     2.5548
 2776.5000   108.0881   -85.9234     7.9842     7.9291    11.1789     0.0530     0.1817     7.9521    -0.0249     2.5570
 2777.0000   104.9231   -85.9249     8.2658     8.2658    11.6532     0.0567     0.1872     7.9515    -0.0294     2.5471
 2777.5000   108.9871   -85.9264     8.4981     8.4981    11.7341     0.0612     0.1938     7.9509    -0.0301     2.5412
 2778.0000   113.7289   -85.9279     8.6167     8.5572    11.3348     0.0615     0.1950     7.9504    -0.0278     2.5398
 2778.5000   118.6965   -85.9294     8.5572     8.4981    10.5034     0.0615     0.1947     7.9498    -0.0256     2.5398
 2779.0000   121.8568   -85.9309     8.4394     8.4394     9.6659     0.0618     0.1953     7.9492    -0.0242     2.5397
 2779.5000   123.8877   -86.0830     8.3811     8.3811     9.0191     0.0633     0.1965     7.9487    -0.0243     2.5382
 2780.0000   124.7892   -86.2351     8.4394     8.4394     9.1449     0.0651     0.1968     7.9481    -0.0294     2.5361
 2780.5000   122.0759   -86.3872     8.5572     8.5572     9.5992     0.0644     0.1956     7.9476    -0.0309     2.5406
 2781.0000   116.6520   -86.3887     8.6766     8.6167    10.2165     0.0617     0.1928     7.9470    -0.0287     2.5414
 2781.5000   110.7762   -86.2392     8.6766     8.7370    10.7984     0.0614     0.1877     7.9464    -0.0258     2.5422
 2782.0000   108.7408   -85.9399     8.4981     8.7977    11.1789     0.0614     0.1880     7.9459    -0.0221     2.5459
 2782.5000   112.3530   -85.6402     8.2658     8.6766    11.4929     0.0598     0.2025     7.9453    -0.0169     2.5475
 2783.0000   119.5796   -85.6417     8.0398     8.3232    11.4136     0.0587     0.2154     7.9447    -0.0139     2.5467
 2783.5000   128.8394   -85.6432     7.9842     7.9842    10.2875     0.0603     0.2076     7.9442    -0.0162     2.5430
 2784.0000   130.1931   -85.4941     7.9842     7.7660     8.9569     0.0608     0.1898     7.9436    -0.0192     2.5520
 2784.5000   118.8951   -85.3450     7.9842     7.7660     7.9278     0.0546     0.1756     7.9430    -0.0236     2.5625
 2785.0000   111.2121   -85.0453     8.0957     8.3232     9.1449     0.0497     0.1840     7.9425    -0.0288     2.5610
 2785.5000   110.3068   -85.3480     8.2087     8.4394    10.8735     0.0517     0.2061     7.9419    -0.0340     2.5535
 2786.0000   117.0811   -85.6507     8.1520     8.4981    12.6629     0.0593     0.2323     7.9414    -0.0385     2.5288
 2786.5000   120.6938   -86.1040     8.0398     8.3232    12.5755     0.0681     0.2323     7.9408    -0.0370     2.5206
 2787.0000   119.7874   -86.5573     8.0398     8.1520    11.2566     0.0720     0.2287     7.9402    -0.0341     2.5214
 2787.5000   117.7520   -86.7094     8.1520     8.3811    10.1460     0.0722     0.2229     7.9397    -0.0281     2.5244
 2788.0000   114.8130   -86.8615     8.2087     8.4394     9.7330     0.0713     0.2130     7.9391    -0.0252     2.5304
 2788.5000   113.2294   -86.7121     8.2658     8.3811     9.5329     0.0674     0.2075     7.9385    -0.0230     2.5364
