~VERSION INFORMATION
 VERS.                2.0:   CWLS LOG ASCII STANDARD - VERSION 2.0
 WRAP.                 NO:   ONE LINE PER DEPTH STEP
~WELL INFORMATION
#MNEM.UNIT      DATA TYPE    INFORMATION
#----------   ------------   ------------------------------
 STRT.F           25.0000:   START DEPTH
 STOP.F          681.0000:   STOP DEPTH
 STEP.F            0.5000:   STEP LENGTH
 NULL.          -999.2500:   NO VALUE
 COMP. FENIX & SCISSON INC:   COMPANY
 WELL.    56-SX-34 #56-34:   WELL
 FLD .             TEAPOT:   FIELD
 LOC .      S34 T39N R78W:   LOCATION
 CNTY.            NATRONA:   COUNTY
 STAT.            WYOMING:   STATE
 CTRY. UNITED STATES OF AMERICA:   COUNTRY
 SRVC.            Unknown:   SERVICE COMPANY
 DATE.        28-JAN-1979:   LOGDATE
 API .       490251077200:   API NUMBER
~CURVE INFORMATION
#MNEM.UNIT       API CODE    CURVE DESCRIPTION
#----------   ------------   ------------------------------
 DEPT.F                  :   
 SPR .MV     05 010 01 00:   SPONTANEOUS POTENTIAL FROM RES.
 DRHO.G/C3   45 356 01 00:   DENSITY CORRECTION
 RHOB.G/C3   45 350 01 00:   BULK DENSITY
 DPHI.DEC    45 890 12 00:   DENSITY POROSITY SANDSTONE
 CALD.IN     45 280 60 00:   CALIPER
 GRD .GAPI   45 310 01 00:   GAMMA RAY FROM DENSITY LOG
 SN  .OHMM   05 040 16 00:   SHORT NORMAL 16'
 ILD .OHMM   05 120 46 00:   INDUCTION LOG DEEP RESISTIVITY
~PARAMETER INFORMATION
#MNEM.UNIT          VALUE    DESCRIPTION
#----------   ------------   ------------------------------
 PD  .                 GL:   PERMANENT DATUM
 EPD .F              5088:   ELEVATION PERMANENT DATUM
 LMF .                 KB:   LOG MEASURED FROM
 DAPD.F                 4:   FEET ABOVE PERMANENT DATUM
 DMF .                 KB:   DRILLING MEASURED FROM
 EKB .F              5092:   KELLING BUSHING
 EGL .F              5088:   GROUND LEVEL
 DATE.            1-28-79:   RUN DATE
 RUN .                  1:   RUN NUMBER
 DD  .F               680:   DEPTH DRILLER
 DL  .F               681:   DEPTH LOGGER
 BLI .F               679:   BOTTOM LOG INTERVAL
 TLI .F                40:   TOP LOG INTERVAL
 CS  .IN            8.625:   CASING SIZE
 CBD .F                40:   CASING BOTTOM DRILLER
 CBL .F                40:   CASING BOTTOM LOGGER
 BS  .IN            7.875:   BIT SIZE
 BSD .F               680:   BIT SIZE AT DEPTH
 DFT .                KCL:   DRILLING FLUID TYPE
 DFD .                8.9:   DRILLING FLUID DENSITY
 DFV .                 43:   DRILLING FLUID VISCOSITY
 DFPH.                8.5:   DRILLING FLUID PH
 DFL .                9.8:   DRILLING FLUID LOSS
 MSS .           FLOWLINE:   MUD SAMPLE SOURCE
 RMS .OHMM            1.5:   RESISTIVITY MUD SAMPLE
 MST .F                66:   MUD SAMPLE TEMPERATURE
 RMF .OHMM            1.3:   RESISTIVITY MUD FILTRATE SAMPLE
 MFST.F                76:   MUD FILTRATE SAMPLE TEMPERATURE
 RMC .OHMM            1.3:   RESISTIVITY MUD CAKE
 MCST.F                78:   MUD CAKE SAMPLE TEMPERATURE
 MFSS.           MEASURED:   MUD FILTRATE SAMPLE SOURCE
 MCSS.           MEASURED:   MUD CAKE SAMPLE SOURCE
 RMB .OHMM            1.3:   RESISTIVITY MUD AT BHT
 BHT .F                76:   BOTTOM HOLE TEMPERATURE
 TCS .HRS               3:   TIME CURCULATED STOPPED
 MRT .F                76:   MAXIMUM RECORDED TEMPERATURE
 LUN .               3006:   LOGGING UNIT NUMBER
 LUL .             CASPER:   LOGGING UNIT LOCATION
 ENGI.            ROLLINS:   RECORDING ENGINEER
 WITN.              AMEND:   WITNESSED BY
 CLNT.            A2DTECH:   CLIENT CODE
 ORIG.       2", 5" PRINT:   ORIGIN OF DATA
 UWI .       490251077200:   UNIQUE WELL ID
 DICO. A2D Technologies, Inc.:   DIGITIZING COMPANY
~OTHER INFORMATION
~A   DEPT      SPR       DRHO       RHOB       DPHI       CALD         GRD        SN        ILD   
   25.0000  -999.2500  -999.2500  -999.2500  -999.2500  -999.2500    77.7228  -999.2500  -999.2500
   25.5000  -999.2500  -999.2500  -999.2500  -999.2500  -999.2500    85.0495  -999.2500  -999.2500
   26.0000  -999.2500  -999.2500  -999.2500  -999.2500  -999.2500    81.4703  -999.2500  -999.2500
   26.5000  -999.2500  -999.2500  -999.2500  -999.2500  -999.2500    78.5148  -999.2500  -999.2500
   27.0000  -999.2500  -999.2500  -999.2500  -999.2500  -999.2500    79.6010  -999.2500  -999.2500
   27.5000  -999.2500  -999.2500  -999.2500  -999.2500  -999.2500    83.4886  -999.2500  -999.2500
   28.0000  -999.2500  -999.2500  -999.2500  -999.2500  -999.2500    85.9114  -999.2500  -999.2500
   28.5000  -999.2500  -999.2500  -999.2500  -999.2500  -999.2500    78.8674  -999.2500  -999.2500
   29.0000  -999.2500  -999.2500  -999.2500  -999.2500  -999.2500    72.7372  -999.2500  -999.2500
   29.5000  -999.2500  -999.2500  -999.2500  -999.2500  -999.2500    78.1601  -999.2500  -999.2500
   30.0000  -999.2500  -999.2500  -999.2500  -999.2500  -999.2500    83.3386  -999.2500  -999.2500
   30.5000  -999.2500  -999.2500  -999.2500  -999.2500  -999.2500    77.1683  -999.2500  -999.2500
   31.0000  -999.2500  -999.2500  -999.2500  -999.2500  -999.2500    77.3758  -999.2500  -999.2500
   31.5000  -999.2500  -999.2500  -999.2500  -999.2500  -999.2500    79.3888  -999.2500  -999.2500
   32.0000  -999.2500  -999.2500  -999.2500  -999.2500  -999.2500    78.7851  -999.2500  -999.2500
   32.5000  -999.2500  -999.2500  -999.2500  -999.2500  -999.2500    82.1192  -999.2500  -999.2500
   33.0000  -999.2500  -999.2500  -999.2500  -999.2500  -999.2500    83.9051  -999.2500  -999.2500
   33.5000  -999.2500  -999.2500  -999.2500  -999.2500  -999.2500    85.1609  -999.2500  -999.2500
   34.0000  -999.2500  -999.2500  -999.2500  -999.2500  -999.2500    83.2003  -999.2500  -999.2500
   34.5000  -999.2500  -999.2500  -999.2500  -999.2500  -999.2500    80.2904  -999.2500  -999.2500
   35.0000  -999.2500  -999.2500  -999.2500  -999.2500  -999.2500    77.4013  -999.2500  -999.2500
   35.5000  -999.2500  -999.2500  -999.2500  -999.2500  -999.2500    74.2313  -999.2500  -999.2500
   36.0000  -999.2500  -999.2500  -999.2500  -999.2500  -999.2500    79.2488  -999.2500  -999.2500
   36.5000  -999.2500  -999.2500  -999.2500  -999.2500  -999.2500    77.9009  -999.2500  -999.2500
   37.0000  -999.2500  -999.2500  -999.2500  -999.2500  -999.2500    79.3609  -999.2500  -999.2500
   37.5000  -999.2500  -999.2500  -999.2500  -999.2500  -999.2500    81.4630  -999.2500  -999.2500
   38.0000  -999.2500  -999.2500  -999.2500  -999.2500  -999.2500    79.8216  -999.2500  -999.2500
   38.5000  -999.2500  -999.2500  -999.2500  -999.2500  -999.2500    73.2380  -999.2500  -999.2500
   39.0000  -999.2500  -999.2500  -999.2500  -999.2500  -999.2500    71.5616  -999.2500  -999.2500
   39.5000  -999.2500  -999.2500  -999.2500     0.2428  -999.2500    71.1858  -999.2500  -999.2500
   40.0000   -46.4356     0.0248     2.2784     0.2227     7.5930    75.0428  -999.2500     1.0914
   40.5000   -46.8317     0.0340     2.3156     0.2025     7.7495    81.5670  -999.2500     4.7482
   41.0000   -47.2277     0.0432     2.3556     0.1851     7.8376    86.7139  -999.2500     5.0658
   41.5000   -47.3806     0.0477     2.3614     0.1799     7.8866    88.7513  -999.2500     0.8118
   42.0000   -47.2074     0.0486     2.3655     0.1758     7.9362    90.0246  -999.2500     0.8351
   42.5000   -46.9894     0.0748     2.3804     0.1717     7.9926    87.3227  -999.2500     1.5466
   43.0000   -46.7776     0.0888     2.4066     0.1546     8.0635    86.8351  -999.2500     1.7776
   43.5000   -46.5694     0.0648     2.4148     0.1556     8.3018    89.0944  -999.2500     1.8360
   44.0000   -46.5574     0.0416     2.4135     0.1551     8.2317    92.1735  -999.2500     9.5885
   44.5000   -46.9979     0.0450     2.4272     0.1486     8.1748    94.6534  -999.2500     6.4002
   45.0000   -47.8737     0.0477     2.4256     0.1488     8.1898    94.0935  -999.2500     5.1128
   45.5000   -48.7648     0.0461     2.4226     0.1491     8.2035    90.8183  -999.2500     5.2668
   46.0000   -49.5191     0.0441     2.4219     0.1494     8.2170    87.4989  -999.2500     5.4108
   46.5000   -47.4162     0.0443     2.4249     0.1486     8.2304    87.0785  -999.2500     5.4869
   47.0000   -46.9164     0.0481     2.4282     0.1466     8.2430    88.4338  -999.2500     5.5332
   47.5000   -47.1235     0.0520     2.4314     0.1446     8.2366    90.6971  -999.2500     5.5566
   48.0000   -46.6015     0.0559     2.4347     0.1425     8.2283    93.0332  -999.2500     5.4296
   48.5000   -46.1054     0.0574     2.4380     0.1428     8.2245    93.5413  -999.2500     5.3230
   49.0000   -46.0420     0.0552     2.4386     0.1432     8.2206    93.1827  -999.2500     5.2186
   49.5000   -46.2816     0.0530     2.4373     0.1436     8.2166    91.4238  -999.2500     5.1162
   50.0000   -46.7787     0.0507     2.4348     0.1514     8.2127    90.1757  -999.2500     5.0215
   50.5000   -47.2059     0.0501     2.4104     0.1614     8.1957    90.7848  -999.2500     4.9342
   51.0000   -46.8401     0.0622     2.3969     0.1622     8.1761    91.9666  -999.2500     4.8367
   51.5000   -46.4698     0.0654     2.4031     0.1555     8.1526    93.1460  -999.2500     4.8586
   52.0000   -46.0937     0.0598     2.4290     0.1461     8.2806    94.3781  -999.2500     4.8918
   52.5000   -46.3303     0.0539     2.4301     0.1459     8.1332    91.6489  -999.2500     4.9252
   53.0000   -46.6803     0.0516     2.4293     0.1455     8.0957    89.8366  -999.2500     4.9589
   53.5000   -46.8891     0.0514     2.4289     0.1450     8.1066    92.7061  -999.2500     5.0963
   54.0000   -46.9919     0.0512     2.4310     0.1430     8.1143    95.6712  -999.2500     5.3144
   54.5000   -47.0943     0.0510     2.4373     0.1409     8.1226    99.6647  -999.2500     5.5419
   55.0000   -47.1997     0.0508     2.4388     0.1414     8.1317    98.4699     0.6422     5.7791
   55.5000   -47.2269     0.0506     2.4388     0.1416     8.1155    96.1473     0.6627     6.0264
   56.0000   -47.2279     0.0504     2.4388     0.1412     8.0898    93.7155     0.6813     6.2474
   56.5000   -47.2276     0.0502     2.4402     0.1408     8.0640    92.7623     0.6837     6.3832
   57.0000   -47.2279     0.0500     2.4418     0.1404     8.0670    93.8025     0.6852     6.5220
   57.5000   -47.2322     0.0498     2.4433     0.1400     8.1274    95.3327     0.6873     6.6638
   58.0000   -47.0863     0.0496     2.4449     0.1397     8.1875    96.0516     0.6785     6.8102
   58.5000   -46.9113     0.0492     2.4446     0.1402     8.2144    91.7563     0.6685     6.7989
   59.0000   -46.7346     0.0469     2.4416     0.1426     8.2198    89.8785     0.6812     6.7709
   59.5000   -46.5580     0.0447     2.4363     0.1462     8.2250    88.5758     0.6976     6.7475
   60.0000   -46.3814     0.0437     2.4304     0.1498     8.2292    87.6379     0.7144     6.8007
   60.5000   -46.2051     0.0448     2.4246     0.1530     8.2164    89.6040     0.7401     6.9569
   61.0000   -46.0433     0.0468     2.4188     0.1539     8.2044    87.9690     0.7303     7.1166
   61.5000   -46.0329     0.0489     2.4156     0.1549     8.1972    85.5327     0.7116     7.2698
   62.0000   -46.4687     0.0510     2.4127     0.1570     8.1899    82.4433     0.6934     7.2703
   62.5000   -47.1410     0.0511     2.4077     0.1605     8.1823    76.9718     0.6756     6.6563
   63.0000   -47.7997     0.0488     2.4019     0.1674     8.1747    73.1029     0.6544     5.9888
   63.5000   -47.8260     0.0464     2.3822     0.1958     8.1627    72.8434     0.6219     5.1240
   64.0000   -47.8687     0.0440     2.3368     0.2367     8.1447    78.0898     0.5909     4.3334
   64.5000   -48.1902     0.0468     2.2366     0.2507     8.1268    83.0580     0.5615     3.6035
   65.0000   -48.4708     0.0507     2.1503     0.2565     8.1109    91.7688     0.5335     2.9969
