~VERSION INFORMATION
 VERS.                2.0:   CWLS LOG ASCII STANDARD - VERSION 2.0
 WRAP.                 NO:   ONE LINE PER DEPTH STEP
~WELL INFORMATION
#MNEM.UNIT      DATA TYPE    INFORMATION
#----------   ------------   ------------------------------
 STRT.F           34.0000:   START DEPTH
 STOP.F          616.0000:   STOP DEPTH
 STEP.F            0.5000:   STEP LENGTH
 NULL.          -999.2500:   NO VALUE
 COMP. FENIX & SCISSON INC:   COMPANY
 WELL. NAVAL PETROLEUM RESERVE 3 S-10 #86-10:   WELL
 FLD .             TEAPOT:   FIELD
 LOC .      S10 T38N R78W:   LOCATION
 CNTY.            NATRONA:   COUNTY
 STAT.            WYOMING:   STATE
 CTRY. UNITED STATES OF AMERICA:   COUNTRY
 SRVC.              Welex:   SERVICE COMPANY
 DATE.        12-APR-1977:   LOGDATE
 API .       490251033800:   API NUMBER
~CURVE INFORMATION
#MNEM.UNIT       API CODE    CURVE DESCRIPTION
#----------   ------------   ------------------------------
 DEPT.F                  :   
 CALD.IN     45 280 60 00:   CALIPER FROM DENSITY LOG
 GRD .GAPI   45 310 01 00:   GAMMA RAY FROM DENSITY LOG
 CORR.G/C3   45 356 01 00:   DENSITY CORRECTION
 DPHI.DEC    45 890 12 00:   DENSITY POROSITY SANDSTONE
 RHOB.G/C3   45 350 01 00:   BULK DENSITY
 SPR .MV     07 010 01 00:   SPONTANEOUS POTENTIAL
 ILD .OHMM   07 120 46 00:   INDUCTION LOG DEEP
 ILM .OHMM   07 120 44 00:   INDUCTION LOG MEDIUM
 SGRD.OHMM   07 221 05 00:   SHALLOW SHORT GUARD RESISTIVITY
~PARAMETER INFORMATION
#MNEM.UNIT          VALUE    DESCRIPTION
#----------   ------------   ------------------------------
 PD  .                 GL:   PERMANENT DATUM
 EPD .F              5240:   ELEVATION PERMANENT DATUM
 LMF .                 KB:   LOG MEASURED FROM
 DAPD.F                 5:   FEET ABOVE PERMANENT DATUM
 DMF .                 KB:   DRILLING MEASURED FROM
 EKB .F              5245:   KELLING BUSHING
 EGL .F              5240:   GROUND LEVEL
 DATE.        12-APR-1977:   RUN DATE
 RUN .                  1:   RUN NUMBER
 DD  .F               625:   DEPTH DRILLER
 DL  .F               617:   DEPTH LOGGER
 BLI .F               615:   BOTTOM LOG INTERVAL
 TLI .F                35:   TOP LOG INTERVAL
 CS  .IN            8.625:   CASING SIZE
 BS  .IN            7.875:   BIT SIZE
 BSD .F               625:   BIT SIZE AT DEPTH
 DFT .           KCL- GEL:   DRILLING FLUID TYPE
 DFD .                8.8:   DRILLING FLUID DENSITY
 BHT .F                68:   BOTTOM HOLE TEMPERATURE
 TCS .HRS            0100:   TIME CURCULATED STOPPED
 MRT .F                68:   MAXIMUM RECORDED TEMPERATURE
 ENGI.        E. CALLAHAN:   RECORDING ENGINEER
 WITN.            R. LYON:   WITNESSED BY
 CLNT.            A2DTECH:   CLIENT CODE
 ORIG.           5" PRINT:   ORIGIN OF DATA
 UWI .       490251033800:   UNIQUE WELL ID
 DICO. A2D Technologies, Inc.:   DIGITIZING COMPANY
~OTHER INFORMATION
~A   DEPT     CALD        GRD       CORR       DPHI         RHOB      SPR        ILD        ILM       SGRD   
# ...
  508.5000     8.0280    89.6677     0.0186     0.1212     2.4428   -59.5808    10.7154    13.4481    17.2301
  509.0000     8.0447    89.6795     0.0187     0.1224     2.4473   -59.4311    10.6386    14.1107    17.2212
  509.5000     8.0313    89.5242     0.0188     0.1193     2.4526   -59.2814    10.4895    14.5030    16.9771
  510.0000     8.0176    89.1094     0.0189     0.1208     2.4414   -59.2814    10.4866    13.0675    16.7365
  510.5000     8.0195    88.5074     0.0190     0.1247     2.4354   -59.2814    10.4837    13.2451    16.7295
  511.0000     8.0209    88.2429     0.0192     0.1235     2.4504   -59.2814    10.6269    13.6122    16.8406
  511.5000     8.0224    88.2779     0.0178     0.1192     2.4550   -59.1317    10.6978    13.2360    16.9507
  512.0000     8.0091    88.9081     0.0164     0.1174     2.4557   -59.1317    10.6948    12.6934    17.0616
  512.5000     7.9809    89.7874     0.0120     0.1186     2.4543   -59.1317    10.6918    12.6890    17.0527
  513.0000     7.9672    90.3680     0.0121     0.1195     2.4528   -58.9820    10.6889    13.2224    17.0457
  513.5000     7.9690    91.0000     0.0153     0.1200     2.4551   -58.8323    10.6859    13.7782    17.0386
  514.0000     7.9705    91.6064     0.0214     0.1191     2.4596   -58.8323    10.6830    13.3051    17.0316
  514.5000     8.0017    92.0356     0.0290     0.1103     2.4737   -58.8323    10.6064    13.5795    17.0033
  515.0000     8.0180    92.3466     0.0381     0.0985     2.4929   -58.9820    10.6035    14.3475    16.8999
  515.5000     8.0195    92.5068     0.0458     0.0867     2.5122   -59.1317    10.6006    13.9446    16.8929
  516.0000     8.0058    92.8154     0.0489     0.0803     2.5264   -59.1317    10.5976    13.2868    16.6535
  516.5000     8.0076    93.2723     0.0475     0.0767     2.5272   -59.1317    10.6683    13.1906    16.5316
  517.0000     8.0239    93.7293     0.0446     0.0797     2.5213   -59.1317    10.6653    13.2777    16.1848
  517.5000     8.0254    94.3346     0.0417     0.0818     2.5138   -59.1317    10.5778    13.1364    16.1781
  518.0000     8.0269    94.6432     0.0419     0.0808     2.5183   -59.1317    10.4279    12.3815    16.0597
  518.5000     8.0136    94.5037     0.0420     0.0823     2.5160   -59.1317    10.3649    12.9008    16.1648
  519.0000     8.0151    94.6669     0.0436     0.0862     2.5085   -59.1317    10.2197    13.1681    16.2704
  519.5000     8.0013    94.9755     0.0437     0.0874     2.5079   -59.2814    10.0764    12.4536    16.2636
  520.0000     7.9735    95.2841     0.0453     0.0852     2.5133   -59.2814    10.0042    12.5368    16.1446
  520.5000     7.9750    96.6312     0.0455     0.0831     2.5140   -59.2814     9.9325    12.6195    15.9139
  521.0000     7.9613    98.1268     0.0456     0.0834     2.5102   -59.2814     9.8613    12.6141    15.6902
  521.5000     7.9331    98.7321     0.0457     0.0864     2.5056   -59.4311     9.7906    12.4365    15.5753
  522.0000     7.9350    98.7439     0.0458     0.0908     2.5006   -59.5808     9.7879    12.0094    15.6772
  522.5000     7.9364    98.7558     0.0459     0.0932     2.5006   -59.7305     9.7852    12.6887    15.6706
  523.0000     7.9379    98.7676     0.0416     0.0929     2.5006   -59.7305     9.7825    13.0414    15.4485
  523.5000     7.9394    98.6282     0.0372     0.0932     2.5007   -59.8802     9.7798    12.3338    15.4420
  524.0000     7.9409    98.7913     0.0328     0.0944     2.4976   -59.8802     9.7771    12.0762    15.5432
  524.5000     7.9424    98.9515     0.0329     0.0961     2.4925   -59.7305     9.7744    12.4971    15.5365
  525.0000     7.9439    99.5569     0.0365     0.0976     2.4966   -59.7305     9.7717    13.1128    15.8019
  525.5000     7.9454    99.8655     0.0407     0.0946     2.4985   -59.7305     9.7690    12.3169    16.7746
  526.0000     7.9468   100.0257     0.0408     0.0952     2.4945   -59.5808     9.7663    12.5709    16.2871
  526.5000     7.9483   100.3343     0.0364     0.1017     2.4878   -59.4311     9.7636    12.9204    15.5094
  527.0000     7.9498   100.4945     0.0335     0.1011     2.4859   -59.4311     9.6937    12.4757    15.5030
  527.5000     7.9513   100.5063     0.0306     0.0993     2.4934   -59.4311     9.6910    12.1171    15.4966
  528.0000     7.9528   100.5182     0.0277     0.0993     2.4994   -59.4311     9.6215    12.2111    15.4902
  528.5000     7.9543   100.5300     0.0249     0.1016     2.5002   -59.2814     9.5525    11.8735    15.4838
  529.0000     7.9558   100.5419     0.0220     0.1076     2.4875   -59.2814     9.5499    11.4658    15.0542
  529.5000     7.9572   100.5537     0.0176     0.1112     2.4688   -59.2814     9.4814    11.3018    14.8408
  530.0000     7.9587   100.7139     0.0162     0.1118     2.4643   -59.1317     9.4135    11.8613    14.9394
  530.5000     7.9602   101.1709     0.0163     0.1105     2.4704   -59.1317     9.3460    11.6136    14.6244
  531.0000     7.9617   101.9246     0.0195     0.1090     2.4756   -58.8323     9.2150    11.6956    14.6189
  531.5000     7.9632   102.8266     0.0241     0.1072     2.4817   -58.8323     9.1489    11.8572    14.5119
  532.0000     7.9647   105.0640     0.0287     0.1051     2.4884   -58.6826     9.0207    11.8232    14.2074
  532.5000     7.9662   105.6693     0.0303     0.1023     2.4952   -58.5329     8.8943    11.0878    14.0061
  533.0000     7.9676   105.0877     0.0305     0.0999     2.5012   -58.3832     8.7696    10.5223    13.8075
  533.5000     7.9691   105.3963     0.0291     0.0978     2.5065   -58.0838     8.7067    10.4462    13.6118
  534.0000     7.9706   106.2984     0.0292     0.0966     2.5080   -58.0838     8.5255    10.2281    13.4189
  534.5000     7.9721   106.6040     0.0293     0.0962     2.5096   -57.6347     8.4644     9.9454    13.3207
  535.0000     7.9733   105.4318     0.0294     0.0980     2.5066   -57.4850     8.2882    10.0110    13.2233
  535.5000     7.9748   106.1855     0.0295     0.1025     2.4954   -57.1856     8.1720    10.2885    12.9458
  536.0000     7.9763   107.5327     0.0297     0.1076     2.4759   -56.8862     7.9453     9.2070    12.6742
  536.5000     7.9777   109.0282     0.0298     0.1102     2.4640   -56.7365     7.7238     8.8908    12.3226
  537.0000     7.9792   110.3754     0.0299     0.1156     2.4565   -56.4371     7.4566     8.8878    11.9807
  537.5000     7.9807   111.5742     0.0300     0.1195     2.4490   -56.2874     7.1531     8.7022    11.8109
  538.0000     7.9822   113.0697     0.0286     0.1219     2.4468   -56.2874     6.9019     8.1740    11.8882
  538.5000     7.9837   114.7136     0.0288     0.1239     2.4431   -56.1377     6.6631     7.6778    11.5583
  539.0000     7.9852   116.9510     0.0259     0.1281     2.4371   -55.8383     6.3951     7.3122    10.9304
  539.5000     7.9866   118.7432     0.0230     0.1353     2.4304   -55.8383     6.0407     6.9161    10.6271
  540.0000     7.9881   120.0874     0.0171     0.1401     2.4237   -55.8383     5.5710     6.0619     9.7076
  540.5000     7.9896   122.4160     0.0127     0.1403     2.4215   -55.8383     5.1257     5.2766     7.6613
  541.0000     7.9911   122.1318     0.0114     0.1370     2.4387   -56.1377     4.7160     5.0954     6.1294
  541.5000     7.9926   115.4677     0.0160     0.1144     2.4702   -56.2874     4.5863     5.0590     4.8657
  542.0000     7.9941   113.5514     0.0236     0.0917     2.5064   -56.2874     4.8456     5.9704     4.6168
  542.5000     7.9956   111.0416     0.0252     0.0803     2.5206   -56.1377     5.1556     6.9018    12.0372
  543.0000     7.9970   109.5704     0.0193     0.0800     2.5195   -55.8383     5.5235     7.6541    12.8745
  543.5000     7.9985   108.9893     0.0225     0.0811     2.5176   -55.6886     5.8768     7.8662    12.5854
  544.0000     8.0000   108.8503     0.0271     0.0793     2.5236   -55.5389     6.2527     8.6635    12.3313
  544.5000     8.0015   109.7561     0.0302     0.0772     2.5267   -55.2395     6.7454     9.1534    12.5112
