~VERSION INFORMATION
 VERS.                2.0:   CWLS LOG ASCII STANDARD - VERSION 2.0
 WRAP.                 NO:   ONE LINE PER DEPTH STEP
~WELL INFORMATION
#MNEM.UNIT      DATA TYPE    INFORMATION
#----------   ------------   ------------------------------
 STRT.F           34.0000:   START DEPTH
 STOP.F          555.0000:   STOP DEPTH
 STEP.F            0.5000:   STEP LENGTH
 NULL.          -999.2500:   NO VALUE
 COMP. FENIX & SCISSON-U.S. NAVY:   COMPANY
 WELL.    NPR #3 #17-S-11:   WELL
 FLD .             TEAPOT:   FIELD
 LOC .      S11 T38N R78W:   LOCATION
 CNTY.            NATRONA:   COUNTY
 STAT.            WYOMING:   STATE
 CTRY. UNITED STATES OF AMERICA:   COUNTRY
 SRVC.       Schlumberger:   SERVICE COMPANY
 DATE.        20-FEB-1977:   LOGDATE
 API .       490251028100:   API NUMBER
~CURVE INFORMATION
#MNEM.UNIT       API CODE    CURVE DESCRIPTION
#----------   ------------   ------------------------------
 DEPT.F                  :   
 SPR .MV     07 010 01 00:   SPONTANEOUS POTENTIAL
 ILD .OHMM   07 120 46 00:   INDUCTION LOG DEEP
 ILM .OHMM   07 120 44 00:   INDUCTION LOG MEDIUM
 LL8 .OHMM   07 220 08 00:   LATEROLOG-8 RES.
 CALD.IN     45 280 60 00:   CALIPER FROM DENSITY LOG
 GRD .GAPI   45 310 01 00:   GAMMA RAY FROM DENSITY LOG
 CORR.G/C3   45 356 01 00:   DENSITY CORRECTION
 RHOB.G/C3   45 350 01 00:   BULK DENSITY
 DPHI.DEC    45 890 12 00:   DENSITY POROSITY SANDSTONE
~PARAMETER INFORMATION
#MNEM.UNIT          VALUE    DESCRIPTION
#----------   ------------   ------------------------------
 PD  .                 GL:   PERMANENT DATUM
 EPD .F              5204:   ELEVATION PERMANENT DATUM
 LMF .                 GL:   LOG MEASURED FROM
 DMF .                 GL:   DRILLING MEASURED FROM
 EKB .F              5209:   KELLING BUSHING
 EGL .F              5204:   GROUND LEVEL
 DATE.        20-FEB-1977:   RUN DATE
 RUN .                  1:   RUN NUMBER
 DD  .F               556:   DEPTH DRILLER
 DL  .F               556:   DEPTH LOGGER
 BLI .F               555:   BOTTOM LOG INTERVAL
 TLI .F                42:   TOP LOG INTERVAL
 CS  .IN            8.625:   CASING SIZE
 CBD .F                42:   CASING BOTTOM DRILLER
 CBL .F                42:   CASING BOTTOM LOGGER
 BS  .IN            7.875:   BIT SIZE
 BSD .F               556:   BIT SIZE AT DEPTH
 DFT .            KCL MUD:   DRILLING FLUID TYPE
 DFD .                8.8:   DRILLING FLUID DENSITY
 DFV .                 33:   DRILLING FLUID VISCOSITY
 DFPH.                8.0:   DRILLING FLUID PH
 DFL .                7.6:   DRILLING FLUID LOSS
 MSS .           FLOWLINE:   MUD SAMPLE SOURCE
 RMS .OHMM            .44:   RESISTIVITY MUD SAMPLE
 MST .F                66:   MUD SAMPLE TEMPERATURE
 RMF .OHMM            .41:   RESISTIVITY MUD FILTRATE SAMPLE
 MFST.F                66:   MUD FILTRATE SAMPLE TEMPERATURE
 MFSS.               MEAS:   MUD FILTRATE SAMPLE SOURCE
 TCS .HRS               3:   TIME CURCULATED STOPPED
 LUN .               7680:   LOGGING UNIT NUMBER
 LUL .               CSPR:   LOGGING UNIT LOCATION
 ENGI.             TAYLOR:   RECORDING ENGINEER
 WITN.               JAPP:   WITNESSED BY
 CLNT.            A2DTECH:   CLIENT CODE
 ORIG.           5" PRINT:   ORIGIN OF DATA
 UWI .       490251028100:   UNIQUE WELL ID
 DICO. A2D Technologies, Inc.:   DIGITIZING COMPANY
~OTHER INFORMATION
~A   DEPT      SPR        ILD        ILM        LL8       CALD        GRD       CORR       RHOB       DPHI   
# ...
  253.0000   -55.2330    10.2077     9.7883    11.5678     8.2524    85.1087     0.0173     2.4362     0.1364
  253.5000   -55.2434    10.2063     9.7188    11.8079     8.2521    84.4216     0.0136     2.4204     0.1545
  254.0000   -55.2538    10.1345     9.6498    11.8049     8.2518    82.8595     0.0195     2.4219     0.1530
  254.5000   -55.1122    10.0632     9.5151    11.4015     8.2515    84.9040     0.0232     2.4303     0.1262
  255.0000   -55.1226     9.9924     9.4475    11.1651     8.2511    85.5893     0.0315     2.4446     0.1195
  255.5000   -55.1330     9.9221     9.3800    11.0860     8.2508    85.8222     0.0405     2.4546     0.1135
  256.0000   -55.1434     9.9208     9.3134    10.9315     8.2505    86.0551     0.0313     2.4568     0.1117
  256.5000   -55.1538     9.8510     9.3115    10.7792     8.2502    86.7404     0.0200     2.4471     0.1322
  257.0000   -55.1642     9.6471     9.2453    10.7770     8.2499    87.6520     0.0170     2.4380     0.1261
  257.5000   -55.1748     9.5792     9.2435    10.7748     8.2496    87.8849     0.0312     2.4336     0.1156
  258.0000   -55.1854     9.5777     9.1778    10.6984     8.2502    88.1178     0.0251     2.4366     0.1219
  258.5000   -55.1980     9.5764     9.0498    10.6220     8.2511    88.1244     0.0199     2.4442     0.1189
  259.0000   -55.2084     9.5751     8.9855    10.5467     8.2521    88.1312     0.0310     2.4518     0.1143
  259.5000   -54.9122     9.5738     8.9836    10.4719     8.2530    88.3655     0.0213     2.4579     0.1177
  260.0000   -54.7706     9.5064     9.0443    10.3977     8.2540    88.5984     0.0190     2.4609     0.1161
  260.5000   -54.7836     9.4396     8.9796    10.3239     8.2549    88.6050     0.0312     2.4571     0.1170
  261.0000   -54.6395     9.4383     8.9778    10.3218     8.2558    88.6116     0.0196     2.4479     0.1229
  261.5000   -54.6525     9.3719     8.9760    10.5361     8.2568    88.3920     0.0181     2.4392     0.1237
  262.0000   -54.6629     9.3059     8.9122    10.3177     8.2577    87.9461     0.0368     2.4423     0.1152
  262.5000   -54.6733     9.2404     8.9104     9.9650     8.2586    86.8215     0.0472     2.4536     0.1071
  263.0000   -54.6839     9.1752     8.7861    10.2419     8.2596    85.4707     0.0532     2.4703     0.1007
  263.5000   -54.8486     9.1739     8.7201    10.5270     8.2605    83.8786     0.0494     2.4816     0.1071
  264.0000   -54.8590     9.0465     8.6617    10.7461     8.2615    83.4477     0.0396     2.4824     0.1161
  264.5000   -55.1734     8.9829     8.5998    10.7433     8.2624    83.4560     0.0553     2.4787     0.1019
  265.0000   -55.3357     8.8581     8.5387    10.5937     8.2633    83.0102     0.0597     2.4855     0.0971
  265.5000   -55.6501     8.7958     8.3615    10.3741     8.2643    81.2068     0.0530     2.4984     0.1005
  266.0000   -56.1164     8.7339     8.1879     9.9505     8.2652    80.7593     0.0559     2.4958     0.1155
  266.5000   -56.5827     8.6126     8.0179     9.6771     8.2662    85.0662     0.0289     2.4691     0.1218
  267.0000   -56.7451     8.3762     7.7435     9.3416     8.2671    87.1090     0.0236     2.4510     0.1251
  267.5000   -56.9075     8.1934     7.4268     9.1521     8.2680    87.7944     0.0273     2.4465     0.1317
  268.0000   -56.9179     7.8677     7.0700     9.2142     8.2690    88.4797     0.0085     2.4443     0.1257
  268.5000   -56.9286     7.7584     6.8790     9.2119     8.2699    89.6327     0.0182     2.4444     0.1163
  269.0000   -56.7893     7.8113     6.8776     9.3383     8.2708    90.5294     0.0212     2.4467     0.1172
  269.5000   -56.6477     7.8645     6.9240     9.4017     8.2718    90.3096     0.0249     2.4490     0.1221
  270.0000   -56.5061     7.9183     6.9710     9.3993     8.2725    89.8637     0.0323     2.4520     0.1192
  270.5000   -56.3619     7.9723     7.0668     9.4627     8.2729    89.8720     0.0488     2.4559     0.1112
  271.0000   -56.2204     8.1383     7.2635     9.5264     8.2734    90.3311     0.0375     2.4620     0.1037
  271.5000   -56.0788     8.4239     7.4660     9.5905     8.2738    91.4689     0.0427     2.4783     0.1015
  272.0000   -55.7852     8.5402     7.6741     9.7221     8.2742    93.0593     0.0516     2.4884     0.0973
  272.5000   -55.6462     8.5984     7.8391     9.8555     8.2746    91.4442     0.0576     2.4885     0.0949
  273.0000   -55.2016     8.5969     8.0517     9.7177     8.2750    90.5849     0.0470     2.4787     0.1048
  273.5000   -55.0591     8.5958     8.1627     9.5163     8.2754    90.3636     0.0297     2.4554     0.1151
  274.0000   -54.9176     8.6546     8.2745     9.4488     8.2758    90.5982     0.0177     2.4403     0.1292
  274.5000   -54.9305     8.6531     8.3307     9.5784     8.2762    91.2835     0.0071     2.4283     0.1372
  275.0000   -54.9409     8.6520     8.2711     9.7099     8.2766    91.2901     0.0040     2.4216     0.1437
  275.5000   -54.9513     8.6508     8.2694     9.8431     8.2770    90.1656     0.0078     2.4208     0.1404
  276.0000   -54.9617     8.5899     8.2678    10.0511     8.2774    89.2670     0.0138     2.4293     0.1268
  276.5000   -54.9721     8.5888     8.2661    10.1967     8.2778    89.5001     0.0175     2.4379     0.1157
  277.0000   -54.9825     8.5876     8.2575    10.3966     8.2782    89.9593     0.0489     2.4572     0.1015
  277.5000   -55.2969     8.5272     8.2053    10.4666     8.2786    89.9661     0.0549     2.4814     0.0945
  278.0000   -55.6112     8.5258     8.0908    10.3919     8.2790    90.4266     0.0391     2.4859     0.1129
  278.5000   -55.9256     8.5246     8.0334    10.3182     8.2794    90.8857     0.0343     2.4830     0.1111
  279.0000   -56.2401     8.5235     7.9763    10.1744     8.2798    91.5710     0.0398     2.4725     0.1078
  279.5000   -56.2508     8.5223     7.9747     9.9635     8.2802    92.0301     0.0198     2.4589     0.1162
  280.0000   -56.1087     8.5807     7.9731     9.7570     8.2806    92.4892     0.0232     2.4537     0.1135
  280.5000   -55.9671     8.5792     7.9715     9.6210     8.2811    92.4959     0.0216     2.4560     0.1123
  281.0000   -55.8256     8.5781     7.9699     9.5528     8.2801    93.1812     0.0193     2.4583     0.1176
  281.5000   -55.5346     8.5177     7.9682     9.5504     8.2791    93.8666     0.0050     2.4575     0.1303
  282.0000   -55.3904     8.5165     7.9663     9.6152     8.2781    94.5671     0.0028     2.4463     0.1330
  282.5000   -55.4034     8.5056     7.9646     9.8143     8.2770    95.0113     0.0177     2.4411     0.1285
  283.0000   -55.4138     8.4552     7.9630     9.9490     8.2760    94.3406     0.0214     2.4479     0.1222
  283.5000   -55.2720     8.4541     7.9614    10.0860     8.2750    93.4422     0.0176     2.4555     0.1189
  284.0000   -55.2827     8.4529     8.0151    10.0834     8.2739    93.6751     0.0267     2.4654     0.1143
  284.5000   -55.2933     8.3935     8.0135     9.9429     8.2729    93.9063     0.0402     2.4775     0.0996
  285.0000   -55.3060     8.3923     8.0676     9.8701     8.2719    91.6521     0.0474     2.4919     0.0954
  285.5000   -55.1645     8.3912     8.0659     9.6677     8.2709    90.3013     0.0482     2.4957     0.1005
  286.0000   -55.0229     8.3901     8.0087     9.5326     8.2698    89.6290     0.0399     2.4806     0.1170
  286.5000   -54.8787     8.3889     8.0066     9.3350     8.2688    89.4095     0.0331     2.4573     0.1222
  287.0000   -54.8917     8.3878     7.9498     9.2688     8.2678    90.5626     0.0300     2.4534     0.1129
  287.5000   -54.9021     8.3866     7.9482     9.2669     8.2668    92.4397     0.0277     2.4506     0.1095
  288.0000   -54.9125     8.3852     7.9466     9.2012     8.2657    94.4085     0.0262     2.4559     0.1185
  288.5000   -55.0748     8.3841     7.9450     9.2632     8.2647    95.3201     0.0254     2.4552     0.1218
  289.0000   -55.0852     8.3830     7.9434     9.2613     8.2637    95.5529     0.0353     2.4560     0.1197
