~VERSION INFORMATION
 VERS.                2.0:   CWLS LOG ASCII STANDARD - VERSION 2.0
 WRAP.                 NO:   ONE LINE PER DEPTH STEP
~WELL INFORMATION
#MNEM.UNIT      DATA TYPE    INFORMATION
#----------   ------------   ------------------------------
 STRT.F           31.0000:   START DEPTH
 STOP.F          600.0000:   STOP DEPTH
 STEP.F            0.5000:   STEP LENGTH
 NULL.          -999.2500:   NO VALUE
 COMP. FENIX & SCISSON INC:   COMPANY
 WELL.      NPR 3 #84 S-3:   WELL
 FLD .             TEAPOT:   FIELD
 LOC .       S3 T38N R78W:   LOCATION
 CNTY.            NATRONA:   COUNTY
 STAT.            WYOMING:   STATE
 CTRY. UNITED STATES OF AMERICA:   COUNTRY
 SRVC.              Welex:   SERVICE COMPANY
 DATE.        29-MAR-1977:   LOGDATE
 API .       490251032000:   API NUMBER
~CURVE INFORMATION
#MNEM.UNIT       API CODE    CURVE DESCRIPTION
#----------   ------------   ------------------------------
 DEPT.F                  :   
 CALD.IN     45 280 60 00:   CALIPER FROM DENSITY LOG
 GRD .GAPI   45 310 01 00:   GAMMA RAY FROM DENSITY LOG
 CORR.G/C3   45 356 01 00:   DENSITY CORRECTION
 DPHI.DEC    45 890 12 00:   DENSITY POROSITY SANDSTONE
 RHOB.G/C3   45 350 01 00:   BULK DENSITY
 SPR .MV     07 010 01 00:   SPONTANEOUS POTENTIAL
 ILD .OHMM   07 120 46 00:   INDUCTION LOG DEEP
 ILM .OHMM   07 120 44 00:   INDUCTION LOG MEDIUM
 SGRD.OHMM   07 221 05 00:   SHALLOW SHORT GUARD RESISTIVITY
~PARAMETER INFORMATION
#MNEM.UNIT          VALUE    DESCRIPTION
#----------   ------------   ------------------------------
 PD  .                 GL:   PERMANENT DATUM
 EPD .F              5146:   ELEVATION PERMANENT DATUM
 LMF .                 GL:   LOG MEASURED FROM
 DMF .                 GL:   DRILLING MEASURED FROM
 EGL .F              5146:   GROUND LEVEL
 DATE.        29-MAR-1977:   RUN DATE
 RUN .                  1:   RUN NUMBER
 DD  .F               610:   DEPTH DRILLER
 DL  .F               602:   DEPTH LOGGER
 BLI .F               600:   BOTTOM LOG INTERVAL
 TLI .F                30:   TOP LOG INTERVAL
 CS  .IN            8.625:   CASING SIZE
 BSD .F               610:   BIT SIZE AT DEPTH
 DFT .                KCL:   DRILLING FLUID TYPE
 DFD .                8.8:   DRILLING FLUID DENSITY
 BHT .F                63:   BOTTOM HOLE TEMPERATURE
 TCS .HRS            0500:   TIME CURCULATED STOPPED
 MRT .F                63:   MAXIMUM RECORDED TEMPERATURE
 ENGI.            C. DOAK:   RECORDING ENGINEER
 WITN.            R. LYON:   WITNESSED BY
 CLNT.            A2DTECH:   CLIENT CODE
 ORIG.           5" PRINT:   ORIGIN OF DATA
 UWI .       490251032000:   UNIQUE WELL ID
 DICO. A2D Technologies, Inc.:   DIGITIZING COMPANY
~OTHER INFORMATION
~A   DEPT     CALD        GRD       CORR       DPHI       RHOB        SPR        ILD        ILM       SGRD   
# ...
  432.5000     7.5673    79.9230     0.0367     0.1281     2.4255   -33.9698    15.9293    17.6228    23.8587
  433.0000     7.5839    76.1225     0.0309     0.1191     2.4630   -32.9480    16.0475    18.3800    22.5932
  433.5000     7.6153    72.2639     0.0189     0.1035     2.5028   -34.4829    15.9428    19.7078    22.9290
  434.0000     7.6766    69.7467     0.0160     0.0837     2.5305   -37.2504    15.6252    20.6945    23.2697
  434.5000     7.7229    68.2727     0.0192     0.0510     2.5538   -40.9232    15.5232    19.5936    22.9704
  435.0000     7.7543    67.9869     0.0254     0.0489     2.5651   -39.6582    15.8784    20.0157    21.9607
  435.5000     7.7858    68.7524     0.0315     0.0495     2.5667   -36.6721    16.5577    18.5589    19.4403
  436.0000     7.8172    71.1532     0.0362     0.0528     2.5608   -34.2803    17.3859    19.0904    19.9006
  436.5000     7.8188    74.0011     0.0363     0.0597     2.5504   -31.9287    18.1524    22.7084    27.0825
  437.0000     7.8205    76.9980     0.0334     0.0685     2.5347   -32.5975    19.0595    25.3811    33.6534
  437.5000     7.8370    79.3988     0.0306     0.0795     2.5168   -36.0946    19.9886    27.9785    35.9725
  438.0000     7.8386    80.7564     0.0262     0.0963     2.4930   -36.2377    20.4162    31.7074    44.6658
  438.5000     7.8403    81.2198     0.0233     0.1165     2.4653   -36.4832    20.5445    34.9522    53.8795
  439.0000     7.8420    80.4909     0.0189     0.1280     2.4385   -34.8324    20.2723    37.9995    69.1011
  439.5000     7.8584    78.7188     0.0145     0.1302     2.4281   -36.9272    20.1234    39.0876    69.6918
  440.0000     7.8601    77.9859     0.0101     0.1316     2.4229   -39.5939    19.4504    37.7793    61.7836
  440.5000     7.8766    81.1359     0.0057     0.1331     2.4200   -41.7856    18.3982    32.2384    58.2135
  441.0000     7.8782    82.3445     0.0013     0.1349     2.4171   -42.7994    17.4188    27.1320    46.8048
  441.5000     7.8797    83.5530    -0.0016     0.1390     2.4074   -41.5434    16.3529    20.4412    21.9567
  442.0000     7.8816    84.4635    -0.0030     0.1426     2.3993   -37.3372    15.1881    18.5615    19.4143
  442.5000     7.8980    85.5230    -0.0043     0.1447     2.3911   -34.9926    14.3796    18.0673    18.9156
  443.0000     7.8997    85.9864    -0.0027     0.1410     2.3904   -33.0599    13.6142    17.4625    18.6847
  443.5000     7.9162    84.0653    -0.0010     0.1365     2.4055   -32.6048    12.8971    17.7157    18.7132
  444.0000     7.9209    81.3991     0.0021     0.1341     2.4145   -31.9942    12.5590    16.8873    18.8489
  444.5000     7.9345    79.9250     0.0053     0.1329     2.4191   -31.3725    12.3926    16.6622    18.9970
  445.0000     7.9510    78.8981     0.0100     0.1287     2.4239   -31.6643    12.4905    17.0211    19.0138
  445.5000     7.9676    78.7613     0.0132     0.1257     2.4337   -30.0000    12.5826    16.1156    18.8920
  446.0000     7.9691    79.3778     0.0178     0.1286     2.4350   -28.3627    12.5834    16.2365    18.6565
  446.5000     7.9708    80.2883     0.0194     0.1253     2.4299   -29.8322    12.4128    16.5862    18.5386
  447.0000     7.9723    80.4739     0.0195     0.1163     2.4597   -29.5126    12.1646    16.4810    18.3010
  447.5000     7.9740    78.3835     0.0179     0.1157     2.4532   -27.8579    11.9213    15.9293    18.0663
  448.0000     7.9756    78.2226     0.0138     0.1231     2.4413   -28.7489    11.6850    15.9381    17.8347
  448.5000     7.9772    80.2045     0.0109     0.1285     2.4287   -28.7251    11.6907    15.8348    17.3639
  449.0000     7.9789    82.4562     0.0065     0.1237     2.4415   -28.1149    11.7775    15.0965    16.9070
  449.5000     7.9656    85.6022     0.0051     0.1249     2.4348   -27.5047    11.7832    15.1049    16.8047
  450.0000     7.9523    88.0030     0.0023     0.1328     2.4197   -26.5973    11.7889    15.4893    16.7045
  450.5000     7.9404    89.5045     0.0069     0.1359     2.4080   -24.8054    11.7136    16.2233    16.5950
  451.0000     7.9285    88.1800     0.0115     0.1326     2.4223   -23.8917    11.4797    16.7769    17.1857
  451.5000     7.9165    87.1503     0.0131     0.1263     2.4305   -23.4310    11.2520    16.5520    17.7973
  452.0000     7.9046    88.2069     0.0102     0.1260     2.4366   -22.8217    11.1791    15.6661    17.6806
  452.5000     7.8927    89.7107     0.0027     0.1358     2.4172   -22.5097    11.1083    14.5229    16.6181
  453.0000     7.8884    89.1280    -0.0047     0.1460     2.4000   -22.9405    11.0379    14.7304    16.1696
  453.5000     7.9056    87.3531    -0.0077     0.1526     2.4016   -23.3751    11.1221    14.5318    16.0636
  454.0000     7.9074    85.5781    -0.0076     0.1579     2.3866   -23.2079    11.2054    14.7407    16.0692
  454.5000     7.9091    85.2902    -0.0044     0.1537     2.3904   -22.7472    11.3676    15.3709    15.7442
  455.0000     7.9106    83.6676     0.0002     0.1483     2.3995   -22.1379    11.3739    15.9176    15.8592
  455.5000     7.9124    80.5514     0.0033     0.1435     2.4070   -21.3801    11.5386    15.5960    16.4237
  456.0000     7.9142    78.7765     0.0019     0.1369     2.4131   -20.3288    11.7056    15.2796    17.2454
  456.5000     7.9159    78.1904    -0.0041     0.1321     2.4213   -21.4989    11.7933    15.0761    16.6643
  457.0000     7.9177    77.7602    -0.0100     0.1309     2.4214   -22.2269    11.9640    14.5685    16.6378
  457.5000     7.9195    76.8794    -0.0160     0.1333     2.4147   -23.2521    12.0536    13.7887    17.2634
  458.0000     7.9213    77.4890    -0.0174     0.1377     2.4050   -23.8353    12.0603    14.1806    17.8778
  458.5000     7.9380    81.0792    -0.0158     0.1425     2.3961   -23.9652    11.8194    14.7869    17.8840
  459.0000     7.9412    83.6262    -0.0097     0.1437     2.3931   -24.2475    11.7429    14.7921    17.1621
  459.5000     7.9565    84.5338    -0.0066     0.1374     2.4044   -24.6783    11.7510    15.0034    16.6988
  460.0000     7.9583    84.8453    -0.0050     0.1302     2.4180   -25.4064    11.6766    15.2379    18.5334
  460.5000     7.9601    86.0510    -0.0049     0.1230     2.4330   -26.1381    11.6010    15.5413    17.9089
  461.0000     7.9618    87.4057    -0.0063     0.1220     2.4473   -25.6737    11.4481    15.5467    17.0674
  461.5000     7.9636    88.6114    -0.0047     0.1256     2.4398   -26.1046    11.1437    15.5521    16.4922
  462.0000     7.9654    89.6681    -0.0013     0.1283     2.4324   -26.3906    10.7713    15.5460    16.0472
  462.5000     7.9523    90.7248     0.0018     0.1265     2.4347   -25.7776    10.5547    15.3401    15.8306
  463.0000     7.9541    91.3343     0.0076     0.1277     2.4325   -24.7226    10.5620    15.0387    15.4035
  463.5000     7.9410    91.6425     0.0110     0.1301     2.4257   -24.2619    10.5678    14.2231    14.9892
  464.0000     7.9279    89.4238     0.0154     0.1270     2.4386   -23.0583    10.3568    14.2387    14.6861
  464.5000     7.9297    89.1392     0.0187     0.1273     2.4274   -21.5575    10.2203    13.9510    14.5885
  465.0000     7.9165    88.2585     0.0248     0.1280     2.4335   -20.6511    10.0856    14.4472    14.6963
  465.5000     7.8886    85.4403     0.0294     0.1264     2.4320   -22.1220    10.0203    14.6536    14.8035
  466.0000     7.8754    80.8338     0.0370     0.1309     2.4268   -21.0670    10.0272    14.2586    14.9116
  466.5000     7.8474    77.2309     0.0399     0.1419     2.4112   -20.6063    10.1024    14.4623    15.0204
  467.0000     7.8196    73.2713     0.0385     0.1581     2.3768   -20.5914    10.2486    14.9767    15.2352
  467.5000     7.8063    69.3965     0.0341     0.1697     2.3476   -21.2036    10.5416    14.8784    15.4530
  468.0000     7.7782    63.4487     0.0265     0.2062     2.2788   -21.9297    10.8430    14.6790    15.8926
  468.5000     7.7354    60.6305     0.0189     0.2215     2.2707   -22.5072    11.3867    14.9923    16.1198
