~VERSION INFORMATION
 VERS.                2.0:   CWLS LOG ASCII STANDARD - VERSION 2.0
 WRAP.                 NO:   ONE LINE PER DEPTH STEP
~WELL INFORMATION
#MNEM.UNIT      DATA TYPE    INFORMATION
#----------   ------------   ------------------------------
 STRT.F            0.0000:   START DEPTH
 STOP.F          666.0000:   STOP DEPTH
 STEP.F            0.1000:   STEP LENGTH
 NULL.          -999.2500:   NO VALUE
 COMP.   FLUOR DANIEL INC:   COMPANY
 WELL.   77-2 X 34 #77-34:   WELL
 FLD .             TEAPOT:   FIELD
 LOC .      S34 T39N R78W:   LOCATION
 CNTY.            NATRONA:   COUNTY
 STAT.            WYOMING:   STATE
 CTRY. UNITED STATES OF AMERICA:   COUNTRY
 SRVC.      Western Atlas:   SERVICE COMPANY
 DATE.        01-APR-1995:   LOGDATE
 API .       490252270000:   API NUMBER
~CURVE INFORMATION
#MNEM.UNIT       API CODE    CURVE DESCRIPTION
#----------   ------------   ------------------------------
 DEPT.F                  :   
 GRR .GAPI   07 310 01 00:   GAMMA RAY
 RILD.OHMM   07 120 46 00:   INDUCTION LOG DEEP RESISTIVITY
 RILM.OHMM   07 120 44 00:   INDUCTION LOG MEDIUM RESISTIVITY
~PARAMETER INFORMATION
#MNEM.UNIT          VALUE    DESCRIPTION
#----------   ------------   ------------------------------
 PD  .                 GL:   PERMANENT DATUM
 EPD .F              5106:   ELEVATION PERMANENT DATUM
 LMF .                 KB:   LOG MEASURED FROM
 DAPD.F                10:   FEET ABOVE PERMANENT DATUM
 DMF .                 KB:   DRILLING MEASURED FROM
 EKB .F              5116:   KELLING BUSHING
 EDF .F              5115:   DRILLING FLOOR
 EGL .F              5106:   GROUND LEVEL
 DATE.        01-APR-1995:   RUN DATE
 RUN .                  1:   RUN NUMBER
 DD  .F               674:   DEPTH DRILLER
 DL  .F               674:   DEPTH LOGGER
 BLI .F               666:   BOTTOM LOG INTERVAL
 TLI .F                52:   TOP LOG INTERVAL
 CS  .IN            9.625:   CASING SIZE
 CBD .F                52:   CASING BOTTOM DRILLER
 CBL .F                52:   CASING BOTTOM LOGGER
 BS  .IN             8.75:   BIT SIZE
 BSD .F               674:   BIT SIZE AT DEPTH
 DFT .                AIR:   DRILLING FLUID TYPE
 MRT .F                89:   MAXIMUM RECORDED TEMPERATURE
 LUN .            HL 6530:   LOGGING UNIT NUMBER
 LUL .             CASPER:   LOGGING UNIT LOCATION
 ENGI.      PAT RASMUSSEN:   RECORDING ENGINEER
 WITN.        GARY STRONG:   WITNESSED BY
 CLNT.            A2DTECH:   CLIENT CODE
 ORIG.           5" PRINT:   ORIGIN OF DATA
 UWI .       490252270000:   UNIQUE WELL ID
 DICO. A2D Technologies, Inc.:   DIGITIZING COMPANY
~OTHER INFORMATION
~A    DEPT      GRR      RILD       RILM   
# ...
  618.8000    95.5314    11.4423    11.6081
  618.9000    95.3226    11.4653    11.6403
  619.0000    95.3273    11.4897    11.6889
  619.1000    95.0300    11.4903    11.6889
  619.2000    95.0332    11.4909    11.6889
  619.3000    94.8784    11.4916    11.6889
  619.4000    94.7392    11.4922    11.6889
  619.5000    94.7432    11.4929    11.6889
  619.6000    94.7472    11.4935    11.6889
  619.7000    94.7517    11.4941    11.7041
  619.8000    94.9829    11.4948    11.7701
  619.9000    95.0614    11.5176    11.7701
  620.0000    95.1997    11.5520    11.7701
  620.1000    95.5466    11.5766    11.7701
  620.2000    96.0207    11.5773    11.7878
  620.3000    96.2861    11.5780    11.8225
  620.4000    96.5399    11.5786    11.8520
  620.5000    96.7993    11.5792    11.8520
  620.6000    97.0587    11.5798    11.9200
  620.7000    97.2085    11.5933    11.9344
  620.8000    97.2125    11.6279    11.9344
  620.9000    97.2165    11.6623    11.9652
  621.0000    97.2210    11.6631    12.0174
  621.1000    97.2246    11.7203    12.0174
  621.2000    97.2286    11.7454    12.0174
  621.3000    97.2326    11.7460    12.0494
  621.4000    97.2367    11.7467    12.0849
  621.5000    97.3180    11.7506    12.1010
  621.6000    97.8491    11.7858    12.1010
  621.7000    98.8424    11.8210    12.1145
  621.8000    99.8685    11.8310    12.1851
  621.9000   100.7403    11.8316    12.1851
  622.0000   101.4031    11.8323    12.1851
  622.1000   101.8573    11.8330    12.1851
  622.2000   102.1167    11.8336    12.1851
  622.3000   102.4094    11.8344    12.1851
  622.4000   102.6358    11.8632    12.1851
  622.5000   102.7190    11.8987    12.1851
  622.6000   102.7231    11.9185    12.1851
  622.7000   102.7271    11.9192    12.1851
  622.8000   102.7311    11.9199    12.1851
  622.9000   102.7353    11.9205    12.1851
  623.0000   102.4941    11.9212    12.1851
  623.1000   102.2427    11.9219    12.1851
  623.2000   102.1430    11.9225    12.1851
  623.3000   102.0420    11.9232    12.1851
  623.4000   101.7905    11.9238    12.1851
  623.5000   101.5507    11.9245    12.1851
  623.6000   101.5554    11.9253    12.1851
  623.7000   101.5589    11.9258    12.1851
  623.8000   101.9106    11.9265    12.1851
  623.9000   102.4256    11.9271    12.1851
  624.0000   102.9407    11.9278    12.1279
  624.1000   103.4216    11.9285    12.1010
  624.2000   103.6941    11.9292    12.1010
  624.3000   103.9405    11.9298    12.1010
  624.4000   104.0040    11.9304    12.1010
  624.5000   104.1576    11.9311    12.1010
  624.6000   104.3142    11.9318    12.1010
  624.7000   104.3182    11.9324    12.0491
  624.8000   104.3223    11.9331    12.0174
  624.9000   104.3269    11.9338    12.0174
  625.0000   104.3303    11.9344    12.0174
  625.1000   104.1628    11.9351    12.0174
  625.2000   104.0363    11.9284    12.0174
  625.3000   103.9622    11.9116    11.9583
  625.4000   103.7107    11.8948    11.9344
  625.5000   103.4443    11.8781    11.9344
  625.6000   103.2077    11.8613    11.9238
  625.7000   102.9563    11.8327    11.8888
  625.8000   102.8520    11.7987    11.8520
  625.9000   102.7557    11.7760    11.8520
  626.0000   102.6116    11.7767    11.8520
  626.1000   102.8711    11.7773    11.8109
  626.2000   103.1708    11.7120    11.7701
  626.3000   103.3900    11.6796    11.7647
  626.4000   103.4804    11.6575    11.7418
  626.5000   103.4844    11.6354    11.7188
  626.6000   103.4884    11.6184    11.6958
  626.7000   103.4924    11.6191    11.6889
  626.8000   103.4967    11.6198    11.6889
  626.9000   103.2625    11.5619    11.6889
  627.0000   103.0111    11.5407    11.6889
  627.1000   102.6150    11.5414    11.6889
  627.2000   102.3041    11.5210    11.6663
  627.3000   102.2568    11.4629    11.6435
  627.4000   102.0055    11.4636    11.6206
  627.5000   101.7126    11.4642    11.6081
  627.6000   101.7160    11.4137    11.6081
  627.7000   101.8870    11.3863    11.6017
  627.8000   102.2666    11.3869    11.5280
  627.9000   102.7815    11.3733    11.5280
  628.0000   103.2964    11.3095    11.5113
  628.1000   103.8513    11.3103    11.4888
  628.2000   104.3263    11.2828    11.4663
  628.3000   104.6522    11.2504    11.4483
  628.4000   104.9116    11.2339    11.4483
  628.5000   105.1711    11.2346    11.4483
  628.6000   105.3817    11.2275    11.3915
  628.7000   105.3882    11.1582    11.3693
  628.8000   105.6925    11.1588    11.3584
  628.9000   105.6959    11.1594    11.3362
  629.0000   105.6999    11.1601    11.3140
  629.1000   105.4683    11.1607    11.2908
  629.2000   105.0325    11.1613    11.2276
  629.3000   104.7321    11.1619    11.2128
  629.4000   103.9037    11.1626    11.2128
  629.5000   103.4409    11.1632    11.2128
  629.6000   102.9339    11.1638    11.1969
  629.7000   102.4269    11.1644    11.1353
  629.8000   101.9199    11.1650    11.1353
  629.9000   101.5058    11.1656    11.1353
  630.0000   101.5106    11.1663    11.1353
  630.1000   101.5700    11.1669    11.1353
  630.2000   101.6294    11.1675    11.1353
  630.3000   101.6888    11.1681    11.1353
  630.4000   101.7482    11.1687    11.1353
  630.5000   101.8179    11.1693    11.1680
  630.6000   103.2849    11.1700    11.2009
  630.7000   105.0577    11.1707    11.2128
  630.8000   106.4962    11.1712    11.2128
  630.9000   107.4473    11.1718    11.2128
  631.0000   108.1940    11.1724    11.2128
  631.1000   108.7726    11.1731    11.2128
  631.2000   109.2083    11.1737    11.2739
  631.3000   109.5471    11.1744    11.2908
  631.4000   109.6818    11.1749    11.2908
  631.5000   109.6828    11.1755    11.2908
  631.6000   109.6623    11.1762    11.2908
  631.7000   109.3828    11.1768    11.2908
  631.8000   108.9324    11.1774    11.2908
  631.9000   108.6038    11.1780    11.2908
  632.0000   108.2242    11.1786    11.2908
  632.1000   107.7191    11.1793    11.2908
  632.2000   107.2139    11.1799    11.3120
  632.3000   106.6698    11.1805    11.3693
  632.4000   105.9698    11.1811    11.3693
  632.5000   105.3962    11.1817    11.3693
  632.6000   104.8910    11.1824    11.3693
  632.7000   104.4723    11.1830    11.3693
  632.8000   104.2201    11.1836    11.3693
  632.9000   103.9567    11.1842    11.3693
  633.0000   103.4743    11.1848    11.3646
  633.1000   102.9691    11.1855    11.2908
  633.2000   102.6076    11.1861    11.2908
  633.3000   102.3555    11.1867    11.2908
  633.4000   102.1034    11.1873    11.2908
  633.5000   101.8480    11.1478    11.2908
  633.6000   101.5993    11.1113    11.2908
  633.7000   101.5478    11.0957    11.2907
  633.8000   101.5488    11.0357    11.2128
  633.9000   101.5499    11.0365    11.2128
  634.0000   101.5509    11.0370    11.2128
  634.1000   101.5566    11.0376    11.2128
  634.2000   101.8552    11.0382    11.2128
  634.3000   102.0648    11.0388    11.2128
  634.4000   102.4787    11.0394    11.2128
  634.5000   102.8751    11.0401    11.1822
  634.6000   103.1908    11.0407    11.1493
  634.7000   103.6980    11.0413    11.1353
  634.8000   104.2781    11.0225    11.1353
  634.9000   104.7129    10.9908    11.1353
  635.0000   105.3879    10.9669    11.1353
  635.1000   106.0292    10.9675    11.1353
  635.2000   106.4666    10.9681    11.1353
  635.3000   106.7621    10.9687    11.1353
  635.4000   107.6074    10.9693    11.1353
  635.5000   108.0580    10.9699    11.1141
  635.6000   108.5652    10.9705    11.0584
  635.7000   109.0724    10.9711    11.0584
  635.8000   109.5019    10.9717    11.0584
  635.9000   109.7271    10.9723    11.0584
  636.0000   109.7282    10.9729    11.0584
  636.1000   109.7291    10.9735    11.0584
  636.2000   109.7301    10.9741    11.0584
  636.3000   109.7311    10.9748    11.0534
  636.4000   109.7321    10.9740    10.9821
  636.5000   109.8070    10.9426    10.9821
  636.6000   110.3384    10.9112    10.9821
  636.7000   111.0621    10.9014    10.9821
  636.8000   112.2070    10.9020    10.9821
  636.9000   113.3308    10.9026    10.9821
