~VERSION INFORMATION
 VERS.                2.0:   CWLS LOG ASCII STANDARD - VERSION 2.0
 WRAP.                 NO:   ONE LINE PER DEPTH STEP
~WELL INFORMATION
#MNEM.UNIT      DATA TYPE    INFORMATION
#----------   ------------   ------------------------------
 STRT.F         1378.5000:   START DEPTH
 STOP.F         2344.0000:   STOP DEPTH
 STEP.F            0.5000:   STEP LENGTH
 NULL.          -999.2500:   NO VALUE
 COMP. BROWN JOHN E&C INC:   COMPANY
 WELL. NAVAL PETROLEUM RESERVE 3 STX- #26-10:   WELL
 FLD .             TEAPOT:   FIELD
 LOC .      S10 T38N R78W:   LOCATION
 CNTY.            NATRONA:   COUNTY
 STAT.            WYOMING:   STATE
 CTRY. UNITED STATES OF AMERICA:   COUNTRY
 SRVC.            Unknown:   SERVICE COMPANY
 DATE.        22-MAY-1991:   LOGDATE
 API .       490251107400:   API NUMBER
~CURVE INFORMATION
#MNEM.UNIT       API CODE    CURVE DESCRIPTION
#----------   ------------   ------------------------------
 DEPT.F                  :   
 ROP .MIN/FT 91 810 01 00:   RATE OF DRILLING PENETRATION
 TGAS.UNITS  91 830 01 00:   TOTAL GAS FROM HOTWIRE
~PARAMETER INFORMATION
#MNEM.UNIT          VALUE    DESCRIPTION
#----------   ------------   ------------------------------
 EKB .F              5231:   KELLING BUSHING
 EGL .F              5221:   GROUND LEVEL
 DATE.            5-22-91:   RUN DATE
 DD  .F              2343:   DEPTH DRILLER
 BLI .F              2343:   BOTTOM LOG INTERVAL
 TLI .F              1378:   TOP LOG INTERVAL
 CS  .IN            8.625:   CASING SIZE
 CBD .F               709:   CASING BOTTOM DRILLER
 TCS .HRS            0030:   TIME CURCULATED STOPPED
 TLAB.HRS            0415:   TIME LOGGER AT BOTTOM
 ENGI.              TOWER:   RECORDING ENGINEER
 WITN.               HUSK:   WITNESSED BY
 CLNT.            A2DTECH:   CLIENT CODE
 ORIG.           5" PRINT:   ORIGIN OF DATA
 UWI .       490251107400:   UNIQUE WELL ID
 DICO. A2D Technologies, Inc.:   DIGITIZING COMPANY
~OTHER INFORMATION
~A  DEPT         ROP       TGAS 
# ...
 1500.0000     0.4870     2.1438
 1500.5000     0.4908     2.1468
 1501.0000     0.4970     2.1511
 1501.5000     0.4972     2.1554
 1502.0000     0.4974     2.1598
 1502.5000     0.5046     2.1641
 1503.0000     0.5158     2.1685
 1503.5000     0.5404     2.1728
 1504.0000     0.6052     2.1772
 1504.5000     0.6051     2.1815
 1505.0000     0.6050     2.1859
 1505.5000     0.5616     2.1902
 1506.0000     0.5287     2.1945
 1506.5000     0.4964     2.1989
 1507.0000     0.4838     2.2032
 1507.5000     0.4746     2.2076
 1508.0000     0.4681     2.2119
 1508.5000     0.4590     2.2163
 1509.0000     0.4526     2.2206
 1509.5000     0.4417     2.2250
 1510.0000     0.4416     2.2293
 1510.5000     0.4415     2.2336
 1511.0000     0.4522     2.2380
 1511.5000     0.4521     2.2423
 1512.0000     0.4519     2.2467
 1512.5000     0.4518     2.2510
 1513.0000     0.4215     2.2554
 1513.5000     0.3650     2.2597
 1514.0000     0.3649     2.2641
 1514.5000     0.3648     2.2684
 1515.0000     0.3647     2.2728
 1515.5000     0.3756     2.2771
 1516.0000     0.3826     2.2814
 1516.5000     0.4077     2.2858
 1517.0000     0.4261     2.2901
 1517.5000     0.4508     2.2945
 1518.0000     0.4952     2.2988
 1518.5000     0.5267     2.3032
 1519.0000     0.5695     2.3075
 1519.5000     0.5920     2.3119
 1520.0000     0.6234     2.3162
 1520.5000     0.6105     2.3205
 1521.0000     0.5954     2.3249
 1521.5000     0.5798     2.3292
 1522.0000     0.5625     2.3336
 1522.5000     0.5425     2.3379
 1523.0000     0.5145     2.3423
 1523.5000     0.4925     2.3466
 1524.0000     0.4755     2.3510
 1524.5000     0.4492     2.3553
 1525.0000     0.4491     2.3596
 1525.5000     0.4490     2.3640
 1526.0000     0.4489     2.3683
 1526.5000     0.4391     2.3727
 1527.0000     0.4278     2.3770
 1527.5000     0.4161     2.3814
 1528.0000     0.3916     2.3857
 1528.5000     0.3834     2.3901
 1529.0000     0.3989     2.3944
 1529.5000     0.4049     2.3987
 1530.0000     0.4048     2.4031
 1530.5000     0.4168     2.4074
 1531.0000     0.4370     2.4118
 1531.5000     0.4587     2.4161
 1532.0000     0.4754     2.4205
 1532.5000     0.4880     2.4248
 1533.0000     0.5215     2.4292
 1533.5000     0.5496     2.4335
 1534.0000     0.5781     2.4378
 1534.5000     0.6419     2.4422
 1535.0000     0.6396     2.4465
 1535.5000     0.6368     2.4509
 1536.0000     0.6340     2.4552
 1536.5000     0.6312     2.4596
 1537.0000     0.6639     2.4639
 1537.5000     0.7061     2.4683
 1538.0000     0.7493     2.4726
 1538.5000     0.7925     2.4769
 1539.0000     0.7976     2.4813
 1539.5000     0.8031     2.4856
 1540.0000     0.8086     2.4900
 1540.5000     0.8138     2.4943
 1541.0000     0.7741     2.4987
 1541.5000     0.7304     2.5030
 1542.0000     0.6835     2.5074
 1542.5000     0.6834     2.5117
 1543.0000     0.6833     2.5160
 1543.5000     0.6832     2.5204
 1544.0000     0.6831     2.5247
 1544.5000     0.7001     2.5291
 1545.0000     0.7207     2.5334
 1545.5000     0.7565     2.5378
 1546.0000     0.7675     2.5421
 1546.5000     0.7649     2.5465
 1547.0000     0.7622     2.5508
 1547.5000     0.7596     2.5551
 1548.0000     0.7490     2.5595
 1548.5000     0.7254     2.5638
 1549.0000     0.7176     2.5682
 1549.5000     0.7036     2.5725
 1550.0000     0.7022     2.5772
 1550.5000     0.7007     2.5890
 1551.0000     0.6993     2.6019
 1551.5000     0.6979     2.6148
 1552.0000     0.6964     2.6276
 1552.5000     0.6950     2.6405
 1553.0000     0.6935     2.6533
 1553.5000     0.6919     2.6662
 1554.0000     0.6909     2.6791
 1554.5000     0.6907     2.6919
 1555.0000     0.7039     2.7048
 1555.5000     0.7128     2.7176
 1556.0000     0.7226     2.7305
 1556.5000     0.7295     2.7434
 1557.0000     0.7329     2.7562
 1557.5000     0.7327     2.7691
 1558.0000     0.7216     2.7819
 1558.5000     0.6781     2.7948
 1559.0000     0.6454     2.8077
 1559.5000     0.6019     2.8205
 1560.0000     0.5584     2.8334
 1560.5000     0.5799     2.8462
 1561.0000     0.6094     2.8591
 1561.5000     0.6566     2.8720
 1562.0000     0.7091     2.8848
 1562.5000     0.6613     2.8977
 1563.0000     0.6307     2.9105
 1563.5000     0.5937     2.9234
 1564.0000     0.5567     2.9363
 1564.5000     0.5132     2.9491
 1565.0000     0.4588     2.9620
 1565.5000     0.4262     2.9748
 1566.0000     0.4260     2.9877
 1566.5000     0.4258     3.0006
 1567.0000     0.4147     3.0134
 1567.5000     0.4136     3.0263
 1568.0000     0.4101     3.0391
 1568.5000     0.4066     3.0520
 1569.0000     0.3922     3.0649
 1569.5000     0.3703     3.0777
 1570.0000     0.3376     3.0906
 1570.5000     0.3374     3.1034
 1571.0000     0.3372     3.1163
 1571.5000     0.3370     3.1292
 1572.0000     0.3477     3.1420
 1572.5000     0.3555     3.1549
 1573.0000     0.3688     3.1677
 1573.5000     0.3815     3.1806
 1574.0000     0.4095     3.1935
 1574.5000     0.4223     3.2063
 1575.0000     0.4221     3.2192
 1575.5000     0.4219     3.2320
 1576.0000     0.4216     3.2449
 1576.5000     0.4214     3.2578
 1577.0000     0.4212     3.2706
 1577.5000     0.4210     3.2835
 1578.0000     0.3968     3.2963
 1578.5000     0.3832     3.3092
 1579.0000     0.3554     3.3221
 1579.5000     0.3402     3.3349
 1580.0000     0.3225     3.3478
 1580.5000     0.3534     3.3606
 1581.0000     0.3795     3.3735
 1581.5000     0.3914     3.3864
 1582.0000     0.3974     3.3992
 1582.5000     0.3972     3.4121
 1583.0000     0.3970     3.4249
 1583.5000     0.3968     3.4378
 1584.0000     0.3965     3.4507
 1584.5000     0.3963     3.4635
 1585.0000     0.3961     3.4764
 1585.5000     0.3637     3.4892
 1586.0000     0.3291     3.5021
 1586.5000     0.2981     3.5150
 1587.0000     0.3195     3.5278
 1587.5000     0.3192     3.5407
 1588.0000     0.3298     3.5535
 1588.5000     0.3674     3.5664
 1589.0000     0.3944     3.5793
 1589.5000     0.3942     3.5921
 1590.0000     0.3939     3.6050
 1590.5000     0.3937     3.6178
 1591.0000     0.3935     3.6307
 1591.5000     0.3933     3.6436
 1592.0000     0.4336     3.6564
 1592.5000     0.4613     3.6693
 1593.0000     0.4684     3.6821
 1593.5000     0.4749     3.6950
 1594.0000     0.4788     3.7079
 1594.5000     0.4786     3.7207
 1595.0000     0.4675     3.7336
 1595.5000     0.4565     3.7464
 1596.0000     0.4306     3.7593
 1596.5000     0.4019     3.7722
 1597.0000     0.4022     3.7850
 1597.5000     0.4031     3.7979
 1598.0000     0.4039     3.8107
 1598.5000     0.4048     3.8236
 1599.0000     0.4057     3.8365
 1599.5000     0.4065     3.8493
 1600.0000     0.4074     3.8622
 1600.5000     0.4082     3.8382
 1601.0000     0.4091     3.8024
 1601.5000     0.4099     3.7665
 1602.0000     0.4104     3.7307
 1602.5000     0.4232     3.6949
 1603.0000     0.4449     3.6591
 1603.5000     0.4746     3.6232
 1604.0000     0.4911     3.5874
 1604.5000     0.5283     3.5516
 1605.0000     0.5606     3.5158
 1605.5000     0.5739     3.4799
 1606.0000     0.5818     3.4441
 1606.5000     0.5816     3.4083
 1607.0000     0.5813     3.3725
 1607.5000     0.5613     3.3366
 1608.0000     0.5376     3.3008
 1608.5000     0.5113     3.2650
 1609.0000     0.4939     3.2291
 1609.5000     0.4937     3.1933
 1610.0000     0.4930     3.1575
 1610.5000     0.4913     3.1217
 1611.0000     0.4896     3.0858
 1611.5000     0.4879     3.0500
 1612.0000     0.4862     3.0072
 1612.5000     0.4845     4.4129
 1613.0000     0.4828     6.0616
 1613.5000     0.4794     6.8735
 1614.0000     0.4490     7.1596
 1614.5000     0.4186     7.7327
 1615.0000     0.4048     7.9859
 1615.5000     0.4045     8.2672
 1616.0000     0.4043     8.5919
 1616.5000     0.4041     8.6194
 1617.0000     0.4039     8.7553
 1617.5000     0.4037     8.8912
 1618.0000     0.4035     9.0270
 1618.5000     0.4032     9.1629
 1619.0000     0.4030     9.2988
 1619.5000     0.4028     9.4346
 1620.0000     0.4026     9.5705
 1620.5000     0.3935     9.7064
 1621.0000     0.3788     9.8422
