~VERSION INFORMATION
 VERS.                2.0:   CWLS LOG ASCII STANDARD - VERSION 2.0
 WRAP.                 NO:   ONE LINE PER DEPTH STEP
~WELL INFORMATION
#MNEM.UNIT      DATA TYPE    INFORMATION
#----------   ------------   ------------------------------
 STRT.F           31.0000:   START DEPTH
 STOP.F          600.0000:   STOP DEPTH
 STEP.F            0.5000:   STEP LENGTH
 NULL.          -999.2500:   NO VALUE
 COMP. FENIX & SCISSON INC:   COMPANY
 WELL.      NPR 3 #84 S-3:   WELL
 FLD .             TEAPOT:   FIELD
 LOC .       S3 T38N R78W:   LOCATION
 CNTY.            NATRONA:   COUNTY
 STAT.            WYOMING:   STATE
 CTRY. UNITED STATES OF AMERICA:   COUNTRY
 SRVC.              Welex:   SERVICE COMPANY
 DATE.        29-MAR-1977:   LOGDATE
 API .       490251032000:   API NUMBER
~CURVE INFORMATION
#MNEM.UNIT       API CODE    CURVE DESCRIPTION
#----------   ------------   ------------------------------
 DEPT.F                  :   
 CALD.IN     45 280 60 00:   CALIPER FROM DENSITY LOG
 GRD .GAPI   45 310 01 00:   GAMMA RAY FROM DENSITY LOG
 CORR.G/C3   45 356 01 00:   DENSITY CORRECTION
 DPHI.DEC    45 890 12 00:   DENSITY POROSITY SANDSTONE
 RHOB.G/C3   45 350 01 00:   BULK DENSITY
 SPR .MV     07 010 01 00:   SPONTANEOUS POTENTIAL
 ILD .OHMM   07 120 46 00:   INDUCTION LOG DEEP
 ILM .OHMM   07 120 44 00:   INDUCTION LOG MEDIUM
 SGRD.OHMM   07 221 05 00:   SHALLOW SHORT GUARD RESISTIVITY
~PARAMETER INFORMATION
#MNEM.UNIT          VALUE    DESCRIPTION
#----------   ------------   ------------------------------
 PD  .                 GL:   PERMANENT DATUM
 EPD .F              5146:   ELEVATION PERMANENT DATUM
 LMF .                 GL:   LOG MEASURED FROM
 DMF .                 GL:   DRILLING MEASURED FROM
 EGL .F              5146:   GROUND LEVEL
 DATE.        29-MAR-1977:   RUN DATE
 RUN .                  1:   RUN NUMBER
 DD  .F               610:   DEPTH DRILLER
 DL  .F               602:   DEPTH LOGGER
 BLI .F               600:   BOTTOM LOG INTERVAL
 TLI .F                30:   TOP LOG INTERVAL
 CS  .IN            8.625:   CASING SIZE
 BSD .F               610:   BIT SIZE AT DEPTH
 DFT .                KCL:   DRILLING FLUID TYPE
 DFD .                8.8:   DRILLING FLUID DENSITY
 BHT .F                63:   BOTTOM HOLE TEMPERATURE
 TCS .HRS            0500:   TIME CURCULATED STOPPED
 MRT .F                63:   MAXIMUM RECORDED TEMPERATURE
 ENGI.            C. DOAK:   RECORDING ENGINEER
 WITN.            R. LYON:   WITNESSED BY
 CLNT.            A2DTECH:   CLIENT CODE
 ORIG.           5" PRINT:   ORIGIN OF DATA
 UWI .       490251032000:   UNIQUE WELL ID
 DICO. A2D Technologies, Inc.:   DIGITIZING COMPANY
~OTHER INFORMATION
~A   DEPT     CALD        GRD       CORR       DPHI       RHOB        SPR        ILD        ILM       SGRD   
# ...
  469.0000     7.7074    59.6008     0.0101     0.2209     2.2737   -22.9129    12.1239    15.5255    16.4639
  469.5000     7.7092    58.7200     0.0026     0.2149     2.2835   -22.7053    12.9984    16.5289    17.4078
  470.0000     7.6960    58.5743    -0.0048     0.2056     2.2963   -21.6741    14.3468    20.2091    19.7256
  470.5000     7.6979    59.9392    -0.0091     0.1966     2.3150   -20.9183    16.5476    23.5405    28.4826
  471.0000     7.7146    61.2939    -0.0090     0.1885     2.3285   -20.6241    17.9619    24.7174    43.1699
  471.5000     7.7164    62.2015    -0.0089     0.1890     2.3331   -20.9067    22.0153    26.4976    42.5909
  472.0000     7.7181    62.6621    -0.0043     0.1884     2.3316   -21.9435    26.8774    39.8720    40.8681
  472.5000     7.7348    62.6925     0.0019     0.1713     2.3459   -22.0656    29.9943    40.7190    56.6144
  473.0000     7.7366    62.0928     0.0095     0.1447     2.3819   -22.0507    32.6030    39.3514    60.2709
  473.5000     7.7533    61.3607     0.0201     0.1249     2.4179   -23.3848    33.4092    34.9962    53.9729
  474.0000     7.7700    61.9707     0.0308     0.0851     2.5018   -23.6554    33.1967    36.2409    44.7802
  474.5000     7.7718    63.0274     0.0323     0.0678     2.5348   -23.7910    32.2725    37.7904    50.3967
  475.0000     7.7885    64.2330     0.0294     0.0817     2.5168   -24.2199    31.1237    38.0628    45.1266
  475.5000     7.8052    65.5878     0.0235     0.1024     2.4885   -23.7592    28.8318    35.7801    37.1854
  476.0000     7.8070    67.0915     0.0175     0.1218     2.4399   -23.0014    24.7186    34.5754    33.7612
  476.5000     7.8237    68.1482     0.0116     0.1595     2.3666   -23.2837    26.7734    31.8313    51.5261
  477.0000     7.8404    69.2049     0.0071     0.1781     2.3479   -23.7147    28.2782    30.7568    60.4385
  477.5000     7.8422    70.4106     0.0027     0.1870     2.3352   -23.1052    28.6260    32.2974    68.9675
  478.0000     7.8589    71.1692     0.0013     0.1846     2.3308   -22.9183    27.4239    31.6448    81.4588
  478.5000     7.8607    69.8413     0.0014     0.1829     2.3368   -23.5215    25.9902    29.3357    46.5069
  479.0000     7.8625    68.3645     0.0030     0.1852     2.3369   -23.6553    24.5831    28.7405    36.0073
  479.5000     7.8643    67.7784     0.0046     0.1816     2.3392   -23.6400    23.9497    28.7530    34.3153
  480.0000     7.8810    67.9443     0.0077     0.1765     2.3460   -24.0708    23.2680    27.5932    30.7242
  480.5000     7.8828    68.5538     0.0078     0.1705     2.3542   -24.5017    21.7472    25.2281    33.4010
  481.0000     7.8846    74.6776     0.0049     0.1665     2.3648   -24.4868    20.7508    24.3765    30.3253
  481.5000     7.8864    77.0755     0.0004     0.1659     2.3693   -24.1747    20.4778    24.3854    28.8979
  482.0000     7.8882    77.9831    -0.0040     0.1749     2.3589   -23.5654    20.2084    24.7936    32.5224
  482.5000     7.8900    76.5063    -0.0069     0.1821     2.3432   -22.8076    19.9583    25.4365    31.4264
  483.0000     7.8918    75.1784    -0.0053     0.1844     2.3380   -21.9011    19.8318    24.4105    32.0973
  483.5000     7.8782    74.4467     0.0008     0.1748     2.3516   -21.2919    19.8428    25.4544    31.4483
  484.0000     7.8804    73.8641     0.0069     0.1572     2.3816   -21.8713    19.5813    25.2737    30.3885
  484.5000     7.8822    73.4270     0.0100     0.1467     2.3958   -22.1573    19.5924    24.7765    29.1619
  485.0000     7.8687    72.6987     0.0101     0.1431     2.4011   -22.1387    19.4680    26.2082    30.6210
  485.5000     7.8709    71.5199     0.0102     0.1394     2.4117   -22.4209    19.4788    26.0225    33.2859
  486.0000     7.8727    69.8940     0.0103     0.1325     2.4237   -23.0041    19.3553    25.1481    33.9935
  486.5000     7.8745    69.1623     0.0134     0.1241     2.4402   -23.5798    19.3663    25.8629    29.8154
  487.0000     7.8763    68.7286     0.0195     0.1088     2.4792   -23.8658    19.3770    26.7827    25.7890
  487.5000     7.8781    70.3814     0.0256     0.0930     2.4905   -24.1481    19.3877    27.5440    24.9178
  488.0000     7.8948    72.3323     0.0288     0.1031     2.4928   -25.3182    19.3984    26.8013    26.9017
  488.5000     7.8966    74.7302     0.0273     0.1178     2.4838   -26.6406    19.4092    27.1843    27.0981
  489.0000     7.8981    76.6811     0.0229     0.1288     2.4502   -28.1115    19.1532    28.1511    27.6766
  489.5000     7.8999    78.7810     0.0200     0.1351     2.4076   -29.4339    18.9008    28.9513    29.4666
  490.0000     7.9169    80.5828     0.0186     0.1405     2.4031   -28.9732    18.6517    29.3650    34.9202
  490.5000     7.9336    81.3414     0.0156     0.1429     2.4017   -27.7696    18.5256    28.7717    49.1379
  491.0000     7.9354    80.3116     0.0112     0.1464     2.3988   -27.9033    18.2819    27.6111    48.9373
  491.5000     7.9521    78.5367     0.0067     0.1488     2.3951   -28.7799    18.0414    24.7259    29.5114
  492.0000     7.9539    74.3773     0.0015     0.1506     2.3899   -29.6566    17.6878    22.2958    24.4917
  492.5000     7.9553    73.7912    -0.0040     0.1569     2.3825   -29.4931    17.3287    23.0888    22.2274
  493.0000     7.9571    78.5770    -0.0095     0.1636     2.3720   -29.1847    16.8606    23.2552    23.6884
  493.5000     7.9589    79.6337    -0.0140     0.1734     2.3541   -30.2062    16.1904    19.9799    24.1702
  494.0000     7.9607    82.7768    -0.0169     0.1830     2.3407   -30.0427    15.5376    19.8473    22.7177
  494.5000     7.9475    85.3238    -0.0168     0.1803     2.3370   -29.5820    15.0265    20.4132    23.3820
  495.0000     7.9344    85.0392    -0.0152     0.1758     2.3513   -31.3502    15.0348    20.4203    23.3560
  495.5000     7.9213    84.3074    -0.0121     0.1694     2.3663   -33.2669    15.1475    20.2848    22.4285
  496.0000     7.9231    83.8704    -0.0075     0.1622     2.3783   -32.5091    15.1558    20.1519    24.0857
  496.5000     7.9099    83.1421    -0.0044     0.1598     2.3731   -31.3054    15.1642    20.3007    25.9574
  497.0000     7.9118    80.9201     0.0002     0.1556     2.3777   -30.2504    15.1726    20.3077    24.0323
  497.5000     7.8986    79.5922     0.0048     0.1457     2.3972   -28.7496    15.0764    20.3148    21.8238
  498.0000     7.9004    79.1552     0.0079     0.1313     2.4175   -27.6946    15.0848    19.7654    22.6236
  498.5000     7.9022    78.5759     0.0080     0.1337     2.4153   -27.9769    14.8850    19.7740    21.4030
  499.0000     7.9040    78.1423     0.0096     0.1388     2.4026   -28.5600    14.4869    19.7809    20.6903
  499.5000     7.9058    77.8577     0.0127     0.1361     2.4071   -28.6937    14.1004    19.3812    21.5801
  500.0000     7.9076    77.5334     0.0151     0.1289     2.4241   -28.4669    13.7444    18.2173    21.6190
  500.5000     7.9094    77.7318     0.0205     0.1229     2.4356   -27.6219    13.4524    16.2031    17.4203
  501.0000     7.8663    79.3831     0.0206     0.1204     2.4492   -26.8656    12.9937    16.4369    18.0403
  501.5000     7.8233    79.2460     0.0222     0.1249     2.4410   -26.1092    12.8180    15.6672    19.4749
  502.0000     7.7802    76.7244     0.0208     0.1303     2.4164   -25.3563    12.6465    14.9337    19.6153
  502.5000     7.7818    76.8853     0.0209     0.1336     2.4074   -25.7887    12.5620    16.0114    18.9560
  503.0000     7.7682    80.4740     0.0180     0.1305     2.4202   -24.2861    12.3939    15.6881    18.8300
  503.5000     7.7851    83.0195     0.0166     0.1260     2.4315   -23.6784    12.3120    16.1382    18.5775
  504.0000     7.8166    80.3489     0.0122     0.1239     2.4405   -23.9622    12.2297    16.2582    18.0762
  504.5000     7.8331    78.2744     0.0077     0.1236     2.4428   -25.4347    12.0661    15.8220    17.7122
  505.0000     7.8497    79.4786     0.0018     0.1236     2.4420   -26.0191    11.9863    15.3956    17.5945
