~VERSION INFORMATION
 VERS.                2.0:   CWLS LOG ASCII STANDARD - VERSION 2.0
 WRAP.                 NO:   ONE LINE PER DEPTH STEP
~WELL INFORMATION
#MNEM.UNIT      DATA TYPE    INFORMATION
#----------   ------------   ------------------------------
 STRT.F           28.5000:   START DEPTH
 STOP.F          516.0000:   STOP DEPTH
 STEP.F            0.5000:   STEP LENGTH
 NULL.          -999.2500:   NO VALUE
 COMP. FENIX & SCISSON INC:   COMPANY
 WELL.         SX 3 #54-3:   WELL
 FLD .            WILDCAT:   FIELD
 LOC .       S3 T38N R78W:   LOCATION
 CNTY.            NATRONA:   COUNTY
 STAT.            WYOMING:   STATE
 CTRY. UNITED STATES OF AMERICA:   COUNTRY
 SRVC.            Unknown:   SERVICE COMPANY
 DATE.        22-SEP-1978:   LOGDATE
 API .       490251069000:   API NUMBER
~CURVE INFORMATION
#MNEM.UNIT       API CODE    CURVE DESCRIPTION
#----------   ------------   ------------------------------
 DEPT.F                  :   
 SPR .MV     05 010 01 00:   SPONTANEOUS POTENTIAL FROM RES.
 ILD .OHMM   05 120 46 00:   INDUCTION LOG DEEP
 SN  .OHMM   05 040 16 00:   SHORT NORMAL 16"
 CALD.IN     45 280 60 00:   CALIPER
 GRD .GAPI   45 310 01 00:   GAMMA RAY FROM DENSITY LOG
 CORR.G/C3   45 356 01 00:   DENSITY CORRECTION
 DEN .G/C3   45 350 01 00:   COMPENSATED BULK DENSTIY
 DPHI.DEC    45 890 12 00:   DENSITY POROSITY SANDSTONE
~PARAMETER INFORMATION
#MNEM.UNIT          VALUE    DESCRIPTION
#----------   ------------   ------------------------------
 PD  .                 GL:   PERMANENT DATUM
 EPD .F              5168:   ELEVATION PERMANENT DATUM
 LMF .                 KB:   LOG MEASURED FROM
 DAPD.F                 4:   FEET ABOVE PERMANENT DATUM
 DMF .                 KB:   DRILLING MEASURED FROM
 EKB .F              5172:   KELLING BUSHING
 EGL .F              5168:   GROUND LEVEL
 DATE.            9-22-78:   RUN DATE
 RUN .                  1:   RUN NUMBER
 DD  .F               510:   DEPTH DRILLER
 DL  .F               517:   DEPTH LOGGER
 BLI .F               510:   BOTTOM LOG INTERVAL
 TLI .F                40:   TOP LOG INTERVAL
 CS  .IN            8.625:   CASING SIZE
 CBD .F                40:   CASING BOTTOM DRILLER
 CBL .F                48:   CASING BOTTOM LOGGER
 BS  .IN            7.875:   BIT SIZE
 BSD .F               510:   BIT SIZE AT DEPTH
 DFT .            KCL MUD:   DRILLING FLUID TYPE
 DFD .                8.7:   DRILLING FLUID DENSITY
 DFV .                 39:   DRILLING FLUID VISCOSITY
 DFPH.                  9:   DRILLING FLUID PH
 DFL .                8.9:   DRILLING FLUID LOSS
 MSS .          FLOW LINE:   MUD SAMPLE SOURCE
 RMS .OHMM            .32:   RESISTIVITY MUD SAMPLE
 MST .F                68:   MUD SAMPLE TEMPERATURE
 RMF .OHMM            .26:   RESISTIVITY MUD FILTRATE SAMPLE
 MFST.F                72:   MUD FILTRATE SAMPLE TEMPERATURE
 RMC .OHMM            .28:   RESISTIVITY MUD CAKE
 MCST.F                75:   MUD CAKE SAMPLE TEMPERATURE
 MFSS.               MEAS:   MUD FILTRATE SAMPLE SOURCE
 MCSS.               MEAS:   MUD CAKE SAMPLE SOURCE
 RMB .OHMM            .32:   RESISTIVITY MUD AT BHT
 BHT .F                69:   BOTTOM HOLE TEMPERATURE
 TCS .HRS               3:   TIME CURCULATED STOPPED
 MRT .F                69:   MAXIMUM RECORDED TEMPERATURE
 LUN .               2958:   LOGGING UNIT NUMBER
 LUL .               CASP:   LOGGING UNIT LOCATION
 ENGI.           REYNOLDS:   RECORDING ENGINEER
 WITN.              AMEND:   WITNESSED BY
 CLNT.            A2DTECH:   CLIENT CODE
 ORIG.           5" PRINT:   ORIGIN OF DATA
 UWI .       490251069000:   UNIQUE WELL ID
 DICO. A2D Technologies, Inc.:   DIGITIZING COMPANY
~OTHER INFORMATION
~A   DEPT      SPR        ILD         SN       CALD         GRD      CORR        DEN       DPHI   
# ...
  474.0000   -43.2658    11.6052    12.3146     8.1103   108.4973     0.0404     2.5204     0.0950
  474.5000   -43.1813    11.5283    12.2273     8.1153   107.0088     0.0440     2.5207     0.0961
  475.0000   -43.2842    11.4518    12.1406     8.1163   106.3718     0.0475     2.5216     0.0972
  475.5000   -43.3897    11.3557    12.0546     8.1163   106.5915     0.0511     2.5165     0.0978
  476.0000   -43.4956    11.0944    11.9691     8.1153   110.9125     0.0527     2.5144     0.0949
  476.5000   -43.7667    10.8391    11.8843     8.1112   111.2114     0.0520     2.5274     0.0911
  477.0000   -44.0965    10.5897    11.8000     8.1072   113.0735     0.0513     2.5411     0.0894
  477.5000   -44.3676    10.3460    11.7164     8.1032   113.9423     0.0506     2.5357     0.0959
  478.0000   -44.6724    10.0958    11.6334     8.0992   113.4966     0.0499     2.5278     0.0965
  478.5000   -44.9846    10.0029    11.5189     8.0952   119.4163     0.0492     2.5206     0.0952
  479.0000   -45.1409     9.9960    11.3024     8.0912   121.2277     0.0485     2.5208     0.0942
  479.5000   -45.1850     9.9538    11.0901     8.0872   120.7681     0.0479     2.5216     0.0970
  480.0000   -45.2266     9.9109    10.8814     8.0832   119.8709     0.0472     2.5165     0.1001
  480.5000   -45.2689     9.7529    10.6764     8.0792   120.3743     0.0473     2.5098     0.1026
  481.0000   -45.3108     9.5937    10.4747     8.0761   121.4171     0.0561     2.5032     0.0998
  481.5000   -45.5565     9.4373    10.5466     8.0761   118.5947     0.0595     2.5076     0.0884
  482.0000   -45.8504     9.3765    10.6704     8.0744   114.0772     0.0565     2.5205     0.0806
  482.5000   -44.4975     9.2049    10.5963     8.0685   114.7564     0.0534     2.5333     0.0833
  483.0000   -44.4922     9.2049    10.4724     8.0627   115.0306     0.0509     2.5415     0.0897
  483.5000   -44.4696     9.2034    10.3512     8.0570   114.0098     0.0506     2.5354     0.0958
  484.0000   -44.4468     9.2048    10.2314     8.0512   113.6194     0.0502     2.5255     0.0981
  484.5000   -44.4234     9.1966    10.1616     8.0454   113.9728     0.0498     2.5186     0.0987
  485.0000   -44.4001     9.1604    10.1187     8.0397   116.5060     0.0495     2.5221     0.0931
  485.5000   -44.3766     9.1248    10.0759     8.0360   119.6503     0.0491     2.5268     0.0941
  486.0000   -44.3536     9.0896    10.0334     8.0361   120.6140     0.0522     2.5295     0.0970
  486.5000   -44.3279     9.0543     9.9910     8.0377   117.1115     0.0548     2.5241     0.0986
  487.0000   -44.4279     8.9785     9.9488     8.0450   113.7714     0.0542     2.5194     0.0968
  487.5000   -44.5762     8.7817     9.9068     8.0520   113.8409     0.0537     2.5192     0.0949
  488.0000   -44.7269     8.5890     9.8649     8.0591   119.2078     0.0532     2.5244     0.0929
  488.5000   -44.8847     8.4035     9.8198     8.0661   121.6486     0.0527     2.5288     0.0909
  489.0000   -44.9847     8.2346     9.7455     8.0732   121.4426     0.0521     2.5297     0.0914
  489.5000   -45.1971     8.1632     9.6429     8.0802   123.0394     0.0516     2.5286     0.0963
  490.0000   -45.4063     8.0138     9.5414     8.0873   124.7098     0.0511     2.5284     0.0990
  490.5000   -45.6175     8.0138     9.4410     8.0943   123.6368     0.0506     2.5200     0.0988
  491.0000   -45.8256     8.0330     9.3765     8.1014   124.0412     0.0500     2.5144     0.0984
  491.5000   -45.7289     8.0691     9.3375     8.1085   125.3140     0.0495     2.5168     0.0981
  492.0000   -44.5466     8.1051     9.2968     8.1156   122.4957     0.0490     2.5204     0.0978
  492.5000   -45.4140     8.1410     9.2563     8.1096   120.7688     0.0485     2.5236     0.0985
  493.0000   -45.1378     8.1632     9.2160     8.1002   122.8259     0.0479     2.5223     0.1016
  493.5000   -43.1989     8.0737     9.1759     8.0907   123.1995     0.0474     2.5152     0.1091
  494.0000   -43.0477     7.9618     9.1359     8.0812   125.7503     0.0473     2.4985     0.1165
  494.5000   -43.1361     7.8512     9.0961     8.0718   127.0128     0.0488     2.4820     0.1239
  495.0000   -42.7155     7.7220     9.0565     8.0623   127.5654     0.0503     2.4670     0.1261
  495.5000   -42.5051     7.7231     9.0170     8.0528   128.6432     0.0518     2.4677     0.1210
  496.0000   -42.4556     7.7849     8.9778     8.0434   129.0665     0.0533     2.4797     0.1142
  496.5000   -42.4109     7.8456     8.9387     8.0351   118.8758     0.0548     2.5041     0.1049
  497.0000   -42.3639     7.9065     8.8997     8.0310   116.3457     0.0537     2.5187     0.0955
  497.5000   -42.2189     7.9668     8.8710     8.0269   115.7912     0.0485     2.5214     0.0862
  498.0000   -41.9314     8.0156     8.8710     8.0227   115.0339     0.0394     2.5332     0.0782
  498.5000   -41.9324     8.3067     8.9533     8.0186   114.6030     0.0303     2.5481     0.0764
  499.0000   -41.9319     8.5942     9.0814     8.0145   114.8962     0.0254     2.5620     0.0773
  499.5000   -41.9323     8.8902     9.2736     8.0103   115.6115     0.0366     2.5558     0.0809
  500.0000   -41.9323     9.1953     9.4698     8.0062   116.3445     0.0468     2.5489     0.0846
  500.5000   -41.9323     9.3494     9.6702     8.0021   118.3865     0.0490     2.5422     0.0880
  501.0000   -41.9323     9.4633     9.8748     7.9979   123.2546     0.0483     2.5346     0.0900
  501.5000   -41.9323     9.5514    10.0822     7.9938   128.0566     0.0473     2.5306     0.0919
  502.0000   -41.9323     9.6668    10.2874     7.9896   131.4937     0.0464     2.5269     0.0938
  502.5000   -41.9327     9.7246    10.5430     7.9855   130.7930     0.0454     2.5261     0.0927
  503.0000   -41.9090     9.7828    10.6494     7.9814   127.7383     0.0444     2.5289     0.0916
  503.5000   -41.8759     9.8413    10.7552     7.9771   124.7458     0.0435     2.5315     0.0906
  504.0000   -41.8427     9.9109    10.8623     7.9705   123.0328     0.0452     2.5296     0.1073
  504.5000   -41.8096     9.8493    10.9705     7.9519   124.8384     0.0499     2.5138     0.1107
  505.0000   -41.7765     9.7746    11.0797     7.9336   126.4221     0.0545     2.5033     0.1055
  505.5000   -41.7467     9.7295    11.1900     7.9151   126.8172     0.0591     2.5109     0.1002
  506.0000   -41.5170     9.6979    11.3014     7.8976   129.4149     0.0605     2.5239     0.0950
  506.5000   -41.2109     9.6162    11.4139     7.8481   124.8476     0.0598     2.5362     0.0897
  507.0000   -40.9524     9.5351    11.5276     7.7849   121.4260     0.0590     2.5377     0.0874
  507.5000   -41.0907     9.4547    11.6424     7.7178   121.5230     0.0582     2.5359     0.0885
  508.0000   -41.2352     9.3746    11.7583     7.5988  -999.2500     0.0575     2.5342     0.0906
  508.5000   -41.3817     9.2884    11.8126     7.4885  -999.2500     0.0567     2.5322     0.0942
  509.0000   -41.5013     9.2009    11.3211     7.4403  -999.2500     0.0559     2.5192     0.0945
  509.5000   -41.3413     9.2030    10.8151     7.4152  -999.2500     0.0551     2.5206     0.0971
  510.0000   -41.3350     9.2048    10.9710     7.4148  -999.2500     0.0560     2.5238     0.1029
  510.5000  -999.2500  -999.2500  -999.2500     7.4138  -999.2500     0.0576     2.5133     0.1075
  511.0000  -999.2500  -999.2500  -999.2500     7.4088  -999.2500     0.0592     2.5053     0.1077
  511.5000  -999.2500  -999.2500  -999.2500     7.4037  -999.2500     0.0609     2.5035     0.1091
  512.0000  -999.2500  -999.2500  -999.2500     7.3987  -999.2500     0.0624     2.5004     0.1140
  512.5000  -999.2500  -999.2500  -999.2500     7.3957  -999.2500     0.0708     2.4918     0.1174
  513.0000  -999.2500  -999.2500  -999.2500     7.4009  -999.2500     0.0818     2.4832     0.1164
  513.5000  -999.2500  -999.2500  -999.2500     7.4060  -999.2500     0.0917     2.4814     0.1117
  514.0000  -999.2500  -999.2500  -999.2500     7.4110  -999.2500     0.0923     2.4912     0.1071
