~VERSION INFORMATION
 VERS.                2.0:   CWLS LOG ASCII STANDARD - VERSION 2.0
 WRAP.                 NO:   ONE LINE PER DEPTH STEP
~WELL INFORMATION
#MNEM.UNIT      DATA TYPE    INFORMATION
#----------   ------------   ------------------------------
 STRT.F            3.0000:   START DEPTH
 STOP.F          523.0000:   STOP DEPTH
 STEP.F            0.1000:   STEP LENGTH
 NULL.          -999.2500:   NO VALUE
 COMP.     BROWN JOHN E&C:   COMPANY
 WELL.   NPR 3 #52-2-SX-3:   WELL
 FLD .             TEAPOT:   FIELD
 LOC .       S3 T38N R78W:   LOCATION
 CNTY.            NATRONA:   COUNTY
 STAT.            WYOMING:   STATE
 CTRY. UNITED STATES OF AMERICA:   COUNTRY
 SRVC.     Atlas Wireline:   SERVICE COMPANY
 DATE.        18-APR-1992:   LOGDATE
 API .       490252251500:   API NUMBER
~CURVE INFORMATION
#MNEM.UNIT       API CODE    CURVE DESCRIPTION
#----------   ------------   ------------------------------
 DEPT.F                  :   
 GRR .GAPI   07 310 01 00:   GAMMA RAY
 RILD.OHMM   07 120 46 00:   INDUCTION LOG DEEP RESISTIVITY
 RILM.OHMM   07 120 44 00:   INDUCTION LOG MEDIUM RESISTIVITY
~PARAMETER INFORMATION
#MNEM.UNIT          VALUE    DESCRIPTION
#----------   ------------   ------------------------------
 PD  .                 GL:   PERMANENT DATUM
 EPD .F              5128:   ELEVATION PERMANENT DATUM
 LMF .                 KB:   LOG MEASURED FROM
 DAPD.F                 5:   FEET ABOVE PERMANENT DATUM
 DMF .                 KB:   DRILLING MEASURED FROM
 EKB .F              5133:   KELLING BUSHING
 EDF .F              5132:   DRILLING FLOOR
 EGL .F              5128:   GROUND LEVEL
 DATE.        18-APR-1992:   RUN DATE
 RUN .                  1:   RUN NUMBER
 DD  .F               525:   DEPTH DRILLER
 DL  .F               526:   DEPTH LOGGER
 BLI .F               524:   BOTTOM LOG INTERVAL
 CS  .IN            8.625:   CASING SIZE
 CBD .F                48:   CASING BOTTOM DRILLER
 CBL .F                49:   CASING BOTTOM LOGGER
 BS  .IN            7.875:   BIT SIZE
 BSD .F               525:   BIT SIZE AT DEPTH
 DFT .                AIR:   DRILLING FLUID TYPE
 TCS .HRS               2:   TIME CURCULATED STOPPED
 MRT .F                87:   MAXIMUM RECORDED TEMPERATURE
 LUN .            HL 6274:   LOGGING UNIT NUMBER
 LUL .             CASPER:   LOGGING UNIT LOCATION
 ENGI.            LEBSOCK:   RECORDING ENGINEER
 WITN.             STRONG:   WITNESSED BY
 CLNT.            A2DTECH:   CLIENT CODE
 ORIG.       2", 5" PRINT:   ORIGIN OF DATA
 UWI .       490252251500:   UNIQUE WELL ID
 DICO. A2D Technologies, Inc.:   DIGITIZING COMPANY
~OTHER INFORMATION
~A    DEPT     GRR       RILD       RILM   
# ...
   94.0000   129.2848     9.4047     9.1514
   94.1000   128.7867     9.4417     9.1512
   94.2000   128.5830     9.4411     9.1511
   94.3000   128.8321     9.4403     9.1510
   94.4000   129.0909     9.4397     9.1508
   94.5000   129.3303     9.4391     9.1507
   94.6000   129.7649     9.4384     9.1506
   94.7000   130.3945     9.4378     9.1505
   94.8000   131.1418     9.4371     9.1503
   94.9000   131.8891     9.4364     9.1502
   95.0000   132.7273     9.4358     9.1501
   95.1000   133.6024     9.4351     9.1499
   95.2000   134.4340     9.4345     9.1498
   95.3000   135.1812     9.4338     9.1497
   95.4000   135.8715     9.4331     9.1496
   95.5000   136.3667     9.4325     9.1494
   95.6000   136.6158     9.4318     9.1493
   95.7000   136.6667     9.4312     9.1233
   95.8000   136.8109     9.4175     9.0853
   95.9000   137.4212     9.3642     9.0852
   96.0000   138.5940     9.3634     9.0851
   96.1000   139.3939     9.3629     9.0850
   96.2000   139.8569     9.3622     9.0528
   96.3000   140.3551     9.3419     9.0214
   96.4000   140.7297     9.2957     9.0213
   96.5000   141.0485     9.2950     9.0212
   96.6000   141.5467     9.2944     9.0211
   96.7000   142.1212     9.2559     8.9828
   96.8000   142.5430     9.2284     8.9580
   96.9000   142.8842     9.2132     8.9579
   97.0000   143.1333     9.1629     8.9577
   97.1000   143.3824     9.1621     8.9576
   97.2000   143.6364     9.1616     8.9575
   97.3000   143.3921     9.1285     8.9574
   97.4000   143.3333     9.0965     8.9356
   97.5000   143.1970     9.0864     8.8947
   97.6000   142.8655     9.0319     8.8946
   97.7000   142.3388     9.0313     8.8945
   97.8000   141.5152     8.9922     8.8944
   97.9000   140.8442     8.9671     8.8666
   98.0000   140.2667     8.9665     8.8322
   98.1000   140.0000     8.9613     8.8267
   98.2000   140.0000     8.9027     8.7704
   98.3000   139.9921     8.9022     8.7703
   98.4000   139.6970     8.8684     8.7702
   98.5000   139.6970     8.8390     8.7477
   98.6000   139.3988     8.8274     8.7089
   98.7000   138.8054     8.7762     8.7083
   98.8000   138.0582     8.7756     8.6585
   98.9000   137.2727     8.7359     8.6479
   99.0000   136.8000     8.7133     8.6196
   99.1000   136.3018     8.6956     8.5874
   99.2000   135.8036     8.6514     8.5746
   99.3000   135.3800     8.6507     8.4680
   99.4000   135.1103     8.6054     8.4238
   99.5000   134.5455     8.5893     8.4088
   99.6000   134.3297     8.5658     8.3635
   99.7000   133.9188     8.5162     8.2799
   99.8000   133.6364     8.4668     8.2324
   99.9000   133.7982     8.4087     8.1765
  100.0000   134.5455     8.4380     8.1762
  100.1000   136.0309     8.4742     8.1759
  100.2000   137.5164     8.5104     8.1755
  100.3000   138.8958     8.4997     8.1618
  100.4000   139.6994     8.4355     8.0611
  100.5000   141.2908     8.3396     8.0186
  100.6000   142.6804     8.2337     7.9725
  100.7000   143.6861     8.1924     7.9479
  100.8000   144.4291     8.1764     7.9364
  100.9000   145.1671     8.1764     7.8908
  101.0000   145.6626     8.1764     7.8454
  101.1000   146.1582     8.1764     7.8359
  101.2000   146.3709     8.1764     7.8354
  101.3000   146.1998     8.1764     7.8350
  101.4000   145.7054     8.1764     7.8345
  101.5000   145.1607     8.1764     7.8341
  101.6000   144.4945     8.1764     7.8739
  101.7000   143.7527     8.1764     7.8882
  101.8000   142.8998     8.1764     7.8877
  101.9000   141.9661     8.1764     7.8974
  102.0000   141.2242     8.1764     7.9421
  102.1000   140.4824     8.1764     7.9417
  102.2000   140.1244     8.1764     7.9412
  102.3000   140.0139     8.1764     7.9408
  102.4000   140.0145     8.1764     7.9552
  102.5000   140.0152     8.1764     7.9956
  102.6000   140.0158     8.1764     7.9951
  102.7000   140.0164     8.1803     7.9947
  102.8000   140.0170     8.2337     8.0111
  102.9000   139.9115     8.2337     8.0499
  103.0000   139.6142     8.2337     8.0494
  103.1000   139.1097     8.2532     8.0490
  103.2000   138.1406     8.2915     8.0937
  103.3000   137.1513     8.2915     8.1045
  103.4000   136.2933     8.2915     8.1041
  103.5000   135.6273     8.3268     8.1036
  103.6000   135.1329     8.3496     8.1069
  103.7000   134.5680     8.3496     8.1594
  103.8000   134.3564     8.3531     8.1591
  103.9000   134.4226     8.4082     8.1586
  104.0000   134.5697     8.4082     8.1772
  104.1000   134.6612     8.4082     8.2150
  104.2000   135.1770     8.4275     8.2144
  104.3000   135.6523     8.4671     8.2591
  104.4000   136.3297     8.4671     8.3059
  104.5000   137.1990     8.4671     8.3287
  104.6000   138.1188     8.5026     8.3418
  104.7000   138.8466     8.5513     8.3861
  104.8000   139.4231     8.5863     8.3856
  104.9000   140.0448     8.5893     8.3852
  105.0000   140.4848     8.6465     8.4141
  105.1000   140.8289     8.6465     8.4430
  105.2000   141.2840     8.6465     8.4426
  105.3000   141.5473     8.6658     8.4421
  105.4000   141.5479     8.7072     8.4416
  105.5000   141.3717     8.7072     8.4757
  105.6000   141.1248     8.7542     8.4999
  105.7000   140.8123     8.7953     8.5123
  105.8000   140.3079     8.8297     8.5585
  105.9000   139.4298     8.8297     8.5580
  106.0000   138.6222     8.8322     8.5576
  106.1000   137.1935     8.8916     8.5571
  106.2000   135.5527     8.8916     8.5746
  106.3000   134.2099     8.8916     8.6162
  106.4000   133.6752     8.9109     8.6156
  106.5000   133.2212     8.9540     8.6152
  106.6000   133.0703     8.9540     8.6147
  106.7000   132.9547     8.9540     8.6142
  106.8000   132.7685     8.9540     8.6137
  106.9000   132.7691     8.9540     8.6132
  107.0000   132.7697     8.9540     8.6128
  107.1000   132.7703     8.9540     8.6123
  107.2000   132.7709     8.9540     8.6400
  107.3000   132.5998     8.9958     8.6717
  107.4000   132.1055     9.0168     8.6712
  107.5000   131.5607     9.0168     8.6707
  107.6000   131.3390     9.0168     8.6702
  107.7000   131.2588     9.0168     8.6698
  107.8000   131.2594     9.0643     8.6916
  107.9000   131.4823     9.0800     8.7296
  108.0000   132.4727     9.0800     8.7291
  108.1000   132.9683     9.0800     8.7286
  108.2000   133.4638     9.0814     8.7669
  108.3000   134.0957     9.1437     8.7888
  108.4000   135.4044     9.1437     8.8048
  108.5000   137.7787     9.1437     8.8495
  108.6000   139.4461     9.1437     8.8489
  108.7000   140.3153     9.1437     8.8485
  108.8000   141.1443     9.1437     8.8811
  108.9000   141.9934     9.1437     8.9095
  109.0000   142.9333     9.1796     8.9090
  109.1000   143.6915     9.2078     8.9085
  109.2000   143.9346     9.2078     8.9580
  109.3000   143.8089     9.2078     8.9700
  109.4000   143.4307     9.2078     8.9695
  109.5000   142.8606     9.2496     8.9690
  109.6000   142.1188     9.2724     8.9727
  109.7000   141.2710     9.2724     9.0308
  109.8000   140.6352     9.2724     9.0304
  109.9000   140.2065     9.2724     9.0299
  110.0000   140.2626     9.2724     9.0084
  110.1000   140.7582     9.2724     8.9660
  110.2000   141.2740     9.2724     8.9655
  110.3000   141.7493     9.2724     8.9650
  110.4000   142.2448     9.2724     8.9645
  110.5000   142.6141     9.2724     8.9640
  110.6000   142.9329     9.2724     8.9635
  110.7000   143.4133     9.2724     8.9630
  110.8000   143.7019     9.2724     8.9624
  110.9000   144.1166     9.2724     8.9620
  111.0000   144.4606     9.2724     8.9615
  111.1000   144.7087     9.2724     8.9610
  111.2000   144.9164     9.2724     8.9605
  111.3000   144.9170     9.2724     8.9600
  111.4000   144.9176     9.2724     8.9595
  111.5000   144.7414     9.2724     8.9590
  111.6000   144.3734     9.2724     8.9585
  111.7000   143.8133     9.2724     8.9580
  111.8000   143.0614     9.2724     8.9575
  111.9000   141.8904     9.2724     8.9569
  112.0000   141.0828     9.2724     8.9565
  112.1000   139.6541     9.2724     8.9560
