~VERSION INFORMATION
 VERS.                2.0:   CWLS LOG ASCII STANDARD - VERSION 2.0
 WRAP.                 NO:   ONE LINE PER DEPTH STEP
~WELL INFORMATION
#MNEM.UNIT      DATA TYPE    INFORMATION
#----------   ------------   ------------------------------
 STRT.F            0.0000:   START DEPTH
 STOP.F          546.0000:   STOP DEPTH
 STEP.F            0.5000:   STEP LENGTH
 NULL.          -999.2500:   NO VALUE
 COMP. LAWRENCE/ALLISON INC:   COMPANY
 WELL.   NPR 3 #76-21SX10:   WELL
 FLD .             TEAPOT:   FIELD
 LOC .      S10 T38N R78W:   LOCATION
 CNTY.            NATRONA:   COUNTY
 STAT.            WYOMING:   STATE
 CTRY. UNITED STATES OF AMERICA:   COUNTRY
 SRVC.      Dresser Atlas:   SERVICE COMPANY
 DATE.        22-JUL-1984:   LOGDATE
 API .       490251097000:   API NUMBER
~CURVE INFORMATION
#MNEM.UNIT       API CODE    CURVE DESCRIPTION
#----------   ------------   ------------------------------
 DEPT.F                  :   
 CALD.IN     45 280 60 00:   CALIPER FROM DENSITY LOG
 DEN .G/C3   45 350 01 00:   COMPENSATED BULK DENSTIY
 CORR.G/C3   45 356 01 00:   DENSITY CORRECTION
 DPHI.DEC    45 890 12 00:   POROSITY DENSITY SANDSTONE
 CNC .DEC    42 890 03 00:   NEUTRON POROSITY SANDSTONE
 GRR .GAPI   07 310 01 00:   GAMMA RAY
 SPR .MV     07 010 01 00:   SPONTANEOUS POTENTIAL
 RILD.OHMM   07 120 46 00:   INDUCTION LOG DEEP RESISTIVITY
 RILM.OHMM   07 120 44 00:   INDUCTION LOG MEDIUM RESISTIVITY
 RFOC.OHMM   07 220 04 00:   RESISTIVITY FOCUSED LOG
 AC  .US/F   60 520 00 00:   ACCOUSTIC
~PARAMETER INFORMATION
#MNEM.UNIT          VALUE    DESCRIPTION
#----------   ------------   ------------------------------
 PD  .                 GL:   PERMANENT DATUM
 EPD .F              5167:   ELEVATION PERMANENT DATUM
 LMF .                 GL:   LOG MEASURED FROM
 DMF .                 GL:   DRILLING MEASURED FROM
 EGL .F              5167:   GROUND LEVEL
 DATE.        22-JUL-1984:   RUN DATE
 RUN .                  1:   RUN NUMBER
 DD  .F               551:   DEPTH DRILLER
 DL  .F               547:   DEPTH LOGGER
 BLI .F               544:   BOTTOM LOG INTERVAL
 CS  .IN            9.625:   CASING SIZE
 CBD .F                40:   CASING BOTTOM DRILLER
 CBL .F                42:   CASING BOTTOM LOGGER
 BS  .IN            7.875:   BIT SIZE
 BSD .F               551:   BIT SIZE AT DEPTH
 DFT .        KCL POLYMER:   DRILLING FLUID TYPE
 MSS .           FLOWLINE:   MUD SAMPLE SOURCE
 RMS .OHMM           .193:   RESISTIVITY MUD SAMPLE
 MST .F                75:   MUD SAMPLE TEMPERATURE
 RMF .OHMM           .144:   RESISTIVITY MUD FILTRATE SAMPLE
 MFST.F                75:   MUD FILTRATE SAMPLE TEMPERATURE
 RMC .OHMM            .24:   RESISTIVITY MUD CAKE
 MCST.F                74:   MUD CAKE SAMPLE TEMPERATURE
 MFSS.               CALC:   MUD FILTRATE SAMPLE SOURCE
 MCSS.               CALC:   MUD CAKE SAMPLE SOURCE
 TCS .HRS               5:   TIME CURCULATED STOPPED
 MRT .F                90:   MAXIMUM RECORDED TEMPERATURE
 LUN .               6274:   LOGGING UNIT NUMBER
 LUL .               GLTE:   LOGGING UNIT LOCATION
 ENGI.             RAUTIO:   RECORDING ENGINEER
 WITN.              FIVAS:   WITNESSED BY
 CLNT.            A2DTECH:   CLIENT CODE
 ORIG.       2", 5" PRINT:   ORIGIN OF DATA
 UWI .       490251097000:   UNIQUE WELL ID
 DICO. A2D Technologies, Inc.:   DIGITIZING COMPANY
~OTHER INFORMATION
~A    DEPT    CALD        DEN       CORR       DPHI        CNC         GRR       SPR       RILD       RILM       RFOC         AC   
# ...
   30.5000  -999.2500  -999.2500  -999.2500  -999.2500     0.3497    64.1160  -999.2500  -999.2500  -999.2500  -999.2500  -999.2500
   31.0000  -999.2500  -999.2500  -999.2500  -999.2500     0.3610    62.4850  -999.2500  -999.2500  -999.2500  -999.2500  -999.2500
   31.5000  -999.2500  -999.2500  -999.2500  -999.2500     0.4020    61.1470  -999.2500  -999.2500  -999.2500  -999.2500  -999.2500
   32.0000  -999.2500  -999.2500  -999.2500  -999.2500     0.4432    61.1520  -999.2500  -999.2500  -999.2500  -999.2500  -999.2500
   32.5000  -999.2500  -999.2500  -999.2500  -999.2500     0.4624    62.3080  -999.2500  -999.2500  -999.2500  -999.2500  -999.2500
   33.0000  -999.2500  -999.2500  -999.2500  -999.2500     0.4229    63.4440  -999.2500  -999.2500  -999.2500  -999.2500  -999.2500
   33.5000  -999.2500  -999.2500  -999.2500  -999.2500     0.3870    61.3610  -999.2500  -999.2500  -999.2500  -999.2500  -999.2500
   34.0000  -999.2500  -999.2500  -999.2500  -999.2500     0.3765    59.1860  -999.2500  -999.2500  -999.2500  -999.2500  -999.2500
   34.5000  -999.2500  -999.2500  -999.2500  -999.2500     0.3808    58.7880  -999.2500  -999.2500  -999.2500  -999.2500  -999.2500
   35.0000  -999.2500  -999.2500  -999.2500  -999.2500     0.4116    59.6070  -999.2500  -999.2500  -999.2500  -999.2500  -999.2500
   35.5000  -999.2500  -999.2500  -999.2500  -999.2500     0.4458    60.5220  -999.2500  -999.2500  -999.2500  -999.2500  -999.2500
   36.0000  -999.2500  -999.2500  -999.2500  -999.2500     0.4726    63.9830  -999.2500  -999.2500  -999.2500  -999.2500  -999.2500
   36.5000  -999.2500  -999.2500  -999.2500  -999.2500     0.4201    67.0830  -999.2500  -999.2500  -999.2500  -999.2500  -999.2500
   37.0000  -999.2500  -999.2500  -999.2500  -999.2500     0.3901    69.3160  -999.2500  -999.2500  -999.2500  -999.2500  -999.2500
   37.5000  -999.2500  -999.2500  -999.2500  -999.2500     0.3715    70.0050  -999.2500  -999.2500  -999.2500  -999.2500  -999.2500
   38.0000  -999.2500  -999.2500  -999.2500  -999.2500     0.3675    70.6520  -999.2500  -999.2500  -999.2500  -999.2500  -999.2500
   38.5000  -999.2500  -999.2500  -999.2500  -999.2500     0.3301    71.2630  -999.2500  -999.2500  -999.2500  -999.2500  -999.2500
   39.0000  -999.2500  -999.2500  -999.2500  -999.2500     0.3211    71.9370  -999.2500  -999.2500  -999.2500  -999.2500  -999.2500
   39.5000  -999.2500  -999.2500  -999.2500  -999.2500     0.3195    73.2890  -999.2500  -999.2500  -999.2500  -999.2500  -999.2500
   40.0000  -999.2500  -999.2500  -999.2500  -999.2500     0.3454    73.2240  -999.2500  1972.6949  1972.6949  -999.2500  -999.2500
   40.5000  -999.2500  -999.2500  -999.2500  -999.2500     0.3675    73.9810  -999.2500  1972.6949  1972.6949  -999.2500  -999.2500
   41.0000  -999.2500  -999.2500  -999.2500  -999.2500     0.3513    76.0210    10.1980  1972.6949  1972.6949  -999.2500  -999.2500
   41.5000  -999.2500  -999.2500  -999.2500  -999.2500     0.3338    82.4020    15.3470  9797.4277  9740.6299  -999.2500  -999.2500
   42.0000     8.7050     2.0730    -0.4390     0.2820     0.3334    91.5750    28.8970  9729.3604  9754.2422  -999.2500  -999.2500
   42.5000     8.5910     2.2770    -0.1320     0.2090     0.3241   102.3500    50.2160  9679.3760  9695.2637  -999.2500  -999.2500
   43.0000     8.5390     2.3840    -0.0040     0.1650     0.3093   111.2450    60.2700  9620.8838  9712.2021  -999.2500  -999.2500
   43.5000     8.4590     2.4020     0.0110     0.1510     0.2935   119.2870    50.2780    19.9350    19.5636  -999.2500  -999.2500
   44.0000     8.3870     2.3990     0.0230     0.1440     0.2718   124.8630    33.1820     4.1149     4.0975  -999.2500  -999.2500
   44.5000     8.3890     2.4400     0.0370     0.1290     0.2696   127.0390    18.2550     4.0319     3.7131  -999.2500  -999.2500
   45.0000     8.4660     2.4610     0.0540     0.1140     0.2684   129.0250    14.9970     9.6445     4.0222  -999.2500  -999.2500
   45.5000     8.5420     2.4860     0.0710     0.1000     0.2683   130.2120    13.8620    37.7069     4.7101  -999.2500  -999.2500
   46.0000     8.5420     2.4800     0.0850     0.1000     0.2701   128.8790    12.5460    13.7489     5.4455  -999.2500  -999.2500
   46.5000     8.5390     2.4680     0.0700     0.1140     0.2833   127.3270    12.6760     6.6629     6.8857  -999.2500  -999.2500
   47.0000     8.5360     2.4590     0.0480     0.1160     0.2879   126.4540    13.2910     5.4656     5.6121  -999.2500  -999.2500
   47.5000     8.5330     2.4560     0.0400     0.1170     0.2795   125.5270    12.9600     5.1673     5.1602  -999.2500  -999.2500
   48.0000     8.5310     2.4580     0.0340     0.1140     0.2681   127.0470    10.7420     5.2483     5.2415  -999.2500  -999.2500
   48.5000     8.5280     2.4660     0.0360     0.1090     0.2668   129.2040     8.2140     5.1429     4.9939  -999.2500  -999.2500
   49.0000     8.5250     2.4740     0.0390     0.1050     0.2757   129.5630     9.0150     5.0362     4.9637  -999.2500  -999.2500
   49.5000     8.5230     2.4810     0.0440     0.1010     0.2781   130.2350    10.7030     4.9384     5.0079  -999.2500  -999.2500
   50.0000     8.5220     2.4830     0.0590     0.1010     0.2824   133.4020    11.0020     6.2087     6.0335  -999.2500  -999.2500
   50.5000     8.5200     2.4780     0.0720     0.1030     0.2879   136.3590    10.5870     6.9149     6.8674  -999.2500  -999.2500
   51.0000     8.5190     2.4770     0.0750     0.1050     0.2975   134.9740     8.5970     6.8731     6.7315  -999.2500  -999.2500
   51.5000     8.5170     2.4800     0.0690     0.1030     0.3023   132.5850     6.4430     6.4080     6.6931  -999.2500  -999.2500
   52.0000     8.5150     2.4890     0.0620     0.0970     0.2887   132.4520     5.0410     6.1906     6.7527  -999.2500  -999.2500
   52.5000     8.5140     2.4960     0.0560     0.0940     0.2831   133.1230     6.8230     6.3760     6.7621  -999.2500  -999.2500
   53.0000     8.5120     2.4920     0.0460     0.0960     0.2806   134.5370    11.1940     6.6154     6.7716  -999.2500  -999.2500
   53.5000     8.5110     2.4870     0.0360     0.0980     0.2815   135.5620    26.8630     6.8193     7.0730  -999.2500  -999.2500
   54.0000     8.5090     2.4830     0.0320     0.1000     0.2827   134.1770    60.7340     7.0175     7.1340  -999.2500  -999.2500
   54.5000     8.5080     2.4840     0.0520     0.1000     0.2786   132.9750    57.7320     7.3860     7.2010  -999.2500  -999.2500
   55.0000     8.5060     2.4880     0.0710     0.0990     0.2764   132.2630    48.5790     7.5280     7.3620  -999.2500  -999.2500
   55.5000     8.5070     2.4920     0.0850     0.0960     0.2807   130.8010    25.9270     7.6700     7.5230  -999.2500  -999.2500
   56.0000     8.5110     2.4930     0.0690     0.0950     0.2970   126.4620    12.4810     7.8120     7.6830  -999.2500  -999.2500
   56.5000     8.5150     2.4870     0.0540     0.0980     0.2982   123.5290     9.7830     7.9540     7.8440  -999.2500  -999.2500
   57.0000     8.5200     2.4800     0.0380     0.1010     0.2965   124.6170    10.4500     8.0150     7.9340  -999.2500  -999.2500
   57.5000     8.5240     2.4810     0.0300     0.1030     0.2836   126.6740    10.4160     8.0380     7.9500  -999.2500  -999.2500
   58.0000     8.5200     2.4880     0.0400     0.1000     0.2872   127.7140    10.1110     8.0720     7.9660  -999.2500  -999.2500
   58.5000     8.5140     2.4880     0.0520     0.0980     0.2943   127.7140     9.7990     8.0650     7.9820  -999.2500  -999.2500
   59.0000     8.5080     2.4780     0.0650     0.1010     0.2955   127.7140     8.6640     8.0520     7.9990  -999.2500  -999.2500
   59.5000     8.5050     2.4690     0.0650     0.1090     0.2899   127.2280     7.4140     8.0390     7.9520  -999.2500  -999.2500
   60.0000     8.5050     2.4680     0.0640     0.1110     0.2772   126.6670     6.3080     8.0250     7.9030  -999.2500  -999.2500
   60.5000     8.5050     2.4740     0.0640     0.1080     0.2836   127.4600     5.4120     8.0120     7.8530  -999.2500  -999.2500
