~VERSION INFORMATION
 VERS.                2.0:   CWLS LOG ASCII STANDARD - VERSION 2.0
 WRAP.                 NO:   ONE LINE PER DEPTH STEP
~WELL INFORMATION
#MNEM.UNIT      DATA TYPE    INFORMATION
#----------   ------------   ------------------------------
 STRT.F           14.0000:   START DEPTH
 STOP.F          513.0000:   STOP DEPTH
 STEP.F            0.1000:   STEP LENGTH
 NULL.          -999.2500:   NO VALUE
 COMP.       F D SERV INC:   COMPANY
 WELL.    52-1 SX-3 #52-3:   WELL
 FLD .             TEAPOT:   FIELD
 LOC .       S3 T38N R78W:   LOCATION
 CNTY.            NATRONA:   COUNTY
 STAT.            WYOMING:   STATE
 CTRY. UNITED STATES OF AMERICA:   COUNTRY
 SRVC.     Atlas Wireline:   SERVICE COMPANY
 DATE.        21-APR-1992:   LOGDATE
 API .       490252251400:   API NUMBER
~CURVE INFORMATION
#MNEM.UNIT       API CODE    CURVE DESCRIPTION
#----------   ------------   ------------------------------
 DEPT.F                  :   
 GRR .GAPI   07 310 01 00:   GAMMA RAY
 RILD.OHMM   07 120 46 00:   INDUCTION LOG DEEP RESISTIVITY
 RILM.OHMM   07 120 44 00:   INDUCTION LOG MEDIUM RESISTIVITY
~PARAMETER INFORMATION
#MNEM.UNIT          VALUE    DESCRIPTION
#----------   ------------   ------------------------------
 PD  .                 GL:   PERMANENT DATUM
 EPD .F              5115:   ELEVATION PERMANENT DATUM
 LMF .                 KB:   LOG MEASURED FROM
 DAPD.F                 5:   FEET ABOVE PERMANENT DATUM
 DMF .                 KB:   DRILLING MEASURED FROM
 EKB .F              5120:   KELLING BUSHING
 EDF .F              5119:   DRILLING FLOOR
 EGL .F              5115:   GROUND LEVEL
 DATE.        21-APR-1992:   RUN DATE
 RUN .                  1:   RUN NUMBER
 DD  .F               515:   DEPTH DRILLER
 DL  .F               520:   DEPTH LOGGER
 BLI .F               517:   BOTTOM LOG INTERVAL
 TLI .F                50:   TOP LOG INTERVAL
 CS  .IN            9.625:   CASING SIZE
 CBD .F                45:   CASING BOTTOM DRILLER
 CBL .F                50:   CASING BOTTOM LOGGER
 BS  .IN            7.875:   BIT SIZE
 BSD .F               515:   BIT SIZE AT DEPTH
 DFT .                AIR:   DRILLING FLUID TYPE
 LUN .            HL-6272:   LOGGING UNIT NUMBER
 LUL .             CASPER:   LOGGING UNIT LOCATION
 ENGI.       P. RASMUSSEN:   RECORDING ENGINEER
 WITN.          G. STRONG:   WITNESSED BY
 CLNT.            A2DTECH:   CLIENT CODE
 ORIG.           5" PRINT:   ORIGIN OF DATA
 UWI .       490252251400:   UNIQUE WELL ID
 DICO. A2D Technologies, Inc.:   DIGITIZING COMPANY
~OTHER INFORMATION
~A   DEPT      GRR       RILD       RILM   
# ...
  450.8000   114.7221    11.3787    11.2284
  450.9000   115.7095    11.3792    11.1932
  451.0000   116.9403    11.3796    11.1932
  451.1000   117.5889    11.3801    11.1932
  451.2000   118.0802    11.3806    11.1932
  451.3000   118.6545    11.3811    11.1932
  451.4000   119.3648    11.3815    11.1932
  451.5000   119.9122    11.3820    11.1715
  451.6000   120.1289    11.3825    11.1157
  451.7000   120.3736    11.3830    11.1157
  451.8000   120.5112    11.3834    11.1157
  451.9000   120.3032    11.3839    11.1157
  452.0000   119.2991    11.3845    11.1157
  452.1000   117.6002    11.3849    11.1009
  452.2000   115.8725    11.3853    11.0387
  452.3000   114.2760    11.3858    11.0387
  452.4000   112.9465    11.3863    11.0387
  452.5000   111.9586    11.3868    11.0387
  452.6000   110.8287    11.3872    11.0169
  452.7000   110.1938    11.3877    10.9622
  452.8000   110.0746    11.3882    10.9622
  452.9000   110.5191    11.3732    10.9622
  453.0000   111.3011    11.3101    10.9622
  453.1000   112.3304    11.3106    10.9622
  453.2000   113.0343    11.3110    10.9472
  453.3000   113.5925    11.3115    10.8863
  453.4000   114.0838    11.3120    10.8863
  453.5000   114.5065    11.3124    10.8863
  453.6000   114.7641    11.3130    10.8863
  453.7000   115.3405    11.3134    10.8863
  453.8000   115.9506    11.3139    10.8863
  453.9000   116.6884    11.2901    10.8863
  454.0000   117.4261    11.2362    10.8863
  454.1000   118.1267    11.2368    10.8863
  454.2000   118.6548    11.1793    10.8863
  454.3000   119.3371    11.1596    10.8710
  454.4000   119.9025    11.1601    10.8109
  454.5000   120.2770    11.1606    10.8109
  454.6000   120.3992    11.1610    10.8109
  454.7000   120.1509    11.1615    10.8109
  454.8000   119.9026    11.1620    10.8109
  454.9000   119.6542    11.1297    10.8109
  455.0000   119.5468    11.0854    10.8109
  455.1000   119.4596    11.0859    10.8109
  455.2000   119.1516    11.0864    10.8109
  455.3000   118.3327    11.0868    10.7817
  455.4000   117.6689    11.0873    10.7360
  455.5000   116.7623    11.0877    10.7360
  455.6000   115.6647    11.0804    10.7360
  455.7000   114.4304    11.0117    10.6866
  455.8000   113.1879    11.0121    10.6616
  455.9000   111.4719    11.0126    10.6616
  456.0000   109.7446    11.0130    10.6527
  456.1000   107.7496    11.0014    10.5877
  456.2000   105.6068    10.9375    10.5877
  456.3000   103.7229    10.9380    10.8109
  456.4000   102.6028    10.8935    10.8109
  456.5000   101.9607    10.8629    10.8109
  456.6000   101.5351    10.8634    10.8109
  456.7000   101.4915    10.8638    10.8109
  456.8000   101.7362    10.8643    10.8109
  456.9000   101.9897    10.8647    10.8109
  457.0000   102.4632    10.8305    10.8109
  457.1000   102.7724    10.7902    10.8109
  457.2000   103.3965    10.7907    10.7901
  457.3000   104.4518    10.7912    10.7360
  457.4000   105.6825    10.7916    10.7360
  457.5000   107.1145    10.7533    10.6814
  457.6000   107.9379    10.7175    10.6616
  457.7000   109.2238    10.7076    10.6616
  457.8000   110.6061    10.6440    10.6476
  457.9000   111.8368    10.5881    10.5877
  458.0000   113.1479    10.5710    10.5877
  458.1000   114.0679    10.5714    10.5877
  458.2000   115.0521    10.5575    10.5877
  458.3000   115.9172    10.4989    10.5877
  458.4000   116.5277    10.4994    10.5877
  458.5000   116.7724    10.4998    10.5877
  458.6000   117.0643    10.5002    10.5336
  458.7000   117.0628    10.5007    10.5144
  458.8000   117.0610    10.5011    10.5144
  458.9000   117.0592    10.5016    10.5144
  459.0000   117.0574    10.5020    10.5134
  459.1000   117.0554    10.4661    10.4538
  459.2000   117.0538    10.4300    10.4416
  459.3000   117.3871    10.4304    10.4076
  459.4000   117.8783    10.4309    10.3692
  459.5000   118.3132    10.3774    10.3616
  459.6000   118.5595    10.3194    10.2974
  459.7000   119.2972    10.2878    10.2974
  459.8000   120.2267    10.2882    10.2974
  459.9000   121.0748    10.2887    10.2702
  460.0000   121.8125    10.2891    10.2261
  460.1000   122.5504    10.2458    10.2261
  460.2000   123.3798    10.2185    10.2261
  460.3000   123.5942    10.2189    10.1796
  460.4000   123.8389    10.2161    10.1552
  460.5000   123.9789    10.1489    10.1346
  460.6000   123.8787    10.1493    10.0771
  460.7000   123.3709    10.1497    10.0150
  460.8000   122.8890    10.1296    10.0150
  460.9000   122.2097    10.0729    10.0150
  461.0000   121.5973    10.0105    10.0150
  461.1000   121.2489    10.0109    10.0008
  461.2000   121.2471     9.9741     9.9440
  461.3000   121.2450     9.9422     9.8768
  461.4000   121.4522     9.9426     9.8315
  461.5000   121.8500     9.9431     9.8084
  461.6000   122.3412     9.8895     9.7881
  461.7000   122.9164     9.7939     9.7404
  461.8000   123.9552     9.7113     9.7404
  461.9000   124.8848     9.6714     9.6895
  462.0000   125.3374     9.6682     9.6345
  462.1000   125.5821     9.5385     9.5798
  462.2000   125.8268     9.4958     9.5394
  462.3000   126.0611     9.4427     9.5375
  462.4000   125.7568     9.3721     9.4733
  462.5000   125.1511     9.2724     9.4733
  462.6000   123.9725     9.2138     9.4415
  462.7000   122.6719     9.1690     9.3682
  462.8000   121.7877     9.1177     9.2699
  462.9000   121.5183     9.0461     9.2135
  463.0000   121.0654     8.9533     9.2135
  463.1000   120.9106     8.9002     9.1766
  463.2000   121.0231     8.9006     9.0995
  463.3000   121.3855     8.8302     9.0099
  463.4000   122.1299     8.7313     8.9587
  463.5000   123.3606     8.6570     8.8988
  463.6000   124.5913     8.6564     8.8163
  463.7000   125.8220     8.5596     8.7165
  463.8000   127.2186     8.4638     8.6178
  463.9000   129.2431     8.3690     8.5202
  464.0000   134.1871     8.2752     8.4175
  464.1000   137.0243     8.1788     8.2845
  464.2000   139.0878     8.0208     8.2104
  464.3000   140.3507     7.9070     8.1186
  464.4000   141.1803     7.7744     8.0054
  464.5000   141.4290     7.6440     7.9556
  464.6000   141.4272     7.5156     7.7978
  464.7000   141.2385     7.3790     7.6888
  464.8000   140.9901     7.2657     7.5587
  464.9000   140.6661     7.1439     7.4307
  465.0000   140.1914     7.0241     7.2981
  465.1000   139.9073     6.8977     7.1241
  465.2000   139.0615     6.7414     6.9735
  465.3000   138.2290     6.5934     6.8167
  465.4000   137.3876     6.4194     6.6820
  465.5000   136.3997     6.2228     6.5687
  465.6000   135.3667     6.0247     6.4594
  465.7000   134.6591     5.8584     6.3742
  465.8000   133.9178     5.7049     6.2844
  465.9000   133.1764     5.6002     6.2210
  466.0000   132.5720     5.4753     6.1585
  466.1000   132.3109     5.3530     6.0599
  466.2000   131.7302     5.2370     5.9876
  466.3000   131.5249     5.1398     5.9235
  466.4000   131.2766     5.0629     5.8565
  466.5000   131.1208     4.9780     5.7902
  466.6000   131.1561     4.8945     5.7431
  466.7000   131.4192     4.8282     5.7410
  466.8000   131.8736     4.8285     5.7033
  466.9000   132.3648     4.7764     5.6491
  467.0000   133.0897     4.7424     5.6048
  467.1000   134.1351     4.7292     5.5856
  467.2000   135.3715     4.7365     5.5856
  467.3000   136.8490     4.7645     5.5856
  467.4000   138.1298     4.8297     5.5553
  467.5000   140.0654     4.8518     5.5469
  467.6000   142.2725     4.8795     5.5469
  467.7000   143.9070     4.9168     5.5469
  467.8000   144.9944     4.9699     5.5469
  467.9000   145.8758     5.0019     5.5469
  468.0000   146.6950     5.0768     5.5469
  468.1000   147.1039     5.1265     5.5469
  468.2000   147.1021     5.1797     5.5469
  468.3000   147.1003     5.2737     5.5527
  468.4000   146.3637     5.4015     5.5856
  468.5000   145.2436     5.4595     5.5856
  468.6000   143.4743     5.5442     5.5856
  468.7000   141.1758     5.6702     5.6021
  468.8000   138.6413     5.8327     5.6341
  468.9000   135.0046     5.9992     5.6686
