~VERSION INFORMATION
 VERS.                2.0:   CWLS LOG ASCII STANDARD - VERSION 2.0
 WRAP.                 NO:   ONE LINE PER DEPTH STEP
~WELL INFORMATION
#MNEM.UNIT      DATA TYPE    INFORMATION
#----------   ------------   ------------------------------
 STRT.F            0.0000:   START DEPTH
 STOP.F          596.0000:   STOP DEPTH
 STEP.F            0.1000:   STEP LENGTH
 NULL.          -999.2500:   NO VALUE
 COMP. BROWN JOHN E&C INC:   COMPANY
 WELL.    72-5 SX-3 #72-3:   WELL
 FLD .             TEAPOT:   FIELD
 LOC .       S3 T38N R78W:   LOCATION
 CNTY.            NATRONA:   COUNTY
 STAT.            WYOMING:   STATE
 CTRY. UNITED STATES OF AMERICA:   COUNTRY
 SRVC.      Western Atlas:   SERVICE COMPANY
 DATE.        15-APR-1992:   LOGDATE
 API .       490252250900:   API NUMBER
~CURVE INFORMATION
#MNEM.UNIT       API CODE    CURVE DESCRIPTION
#----------   ------------   ------------------------------
 DEPT.F                  :   
 GRR .GAPI   07 310 01 00:   GAMMA RAY
 RILD.OHMM   07 120 46 00:   INDUCTION LOG DEEP RESISTIVITY
 RILM.OHMM   07 120 44 00:   INDUCTION LOG MEDIUM RESISTIVITY
~PARAMETER INFORMATION
#MNEM.UNIT          VALUE    DESCRIPTION
#----------   ------------   ------------------------------
 PD  .                 GL:   PERMANENT DATUM
 EPD .F              5132:   ELEVATION PERMANENT DATUM
 LMF .                 KB:   LOG MEASURED FROM
 DAPD.F                 5:   FEET ABOVE PERMANENT DATUM
 DMF .                 KB:   DRILLING MEASURED FROM
 EKB .F              5137:   KELLING BUSHING
 EDF .F              5136:   DRILLING FLOOR
 EGL .F              5132:   GROUND LEVEL
 DATE.        15-APR-1992:   RUN DATE
 RUN .                  1:   RUN NUMBER
 DD  .F               605:   DEPTH DRILLER
 DL  .F               599:   DEPTH LOGGER
 BLI .F               596:   BOTTOM LOG INTERVAL
 TLI .F                46:   TOP LOG INTERVAL
 CS  .IN            8.625:   CASING SIZE
 CBD .F                48:   CASING BOTTOM DRILLER
 CBL .F                46:   CASING BOTTOM LOGGER
 BS  .IN            7.875:   BIT SIZE
 BSD .F               605:   BIT SIZE AT DEPTH
 DFT .                AIR:   DRILLING FLUID TYPE
 LUN .            HL-6321:   LOGGING UNIT NUMBER
 LUL .        RK. SPRINGS:   LOGGING UNIT LOCATION
 ENGI.            TRIBBLE:   RECORDING ENGINEER
 WITN.             STRONG:   WITNESSED BY
 CLNT.            A2DTECH:   CLIENT CODE
 ORIG.           5" PRINT:   ORIGIN OF DATA
 UWI .       490252250900:   UNIQUE WELL ID
 DICO. A2D Technologies, Inc.:   DIGITIZING COMPANY
~OTHER INFORMATION
~A    DEPT     GRR       RILD       RILM   
# ...
  364.0000   131.4222     5.8057     5.9356
  364.1000   131.6669     5.8372     5.9839
  364.2000   131.9116     5.8948     6.0454
  364.3000   132.1642     5.9622     6.0810
  364.4000   132.4008     6.0212     6.1145
  364.5000   132.6455     6.0555     6.1493
  364.6000   132.7648     6.0967     6.2023
  364.7000   132.8317     6.1532     6.2532
  364.8000   133.0764     6.1825     6.2549
  364.9000   133.3651     6.2074     6.2970
  365.0000   133.3636     6.2739     6.3264
  365.1000   133.2164     6.3135     6.3625
  365.2000   132.9681     6.3457     6.3987
  365.3000   132.7521     6.3578     6.4303
  365.4000   132.7501     6.3737     6.4303
  365.5000   132.5262     6.4024     6.4303
  365.6000   132.1124     6.4024     6.4550
  365.7000   131.6176     6.4024     6.4754
  365.8000   131.1754     6.3751     6.4676
  365.9000   130.9230     6.3578     6.4303
  366.0000   130.1938     6.3472     6.4303
  366.1000   129.8244     6.3111     6.4303
  366.2000   129.3177     6.2695     6.3923
  366.3000   128.7218     6.2102     6.3305
  366.4000   128.4735     6.1400     6.2923
  366.5000   128.1846     6.0705     6.2097
  366.6000   127.7709     6.0018     6.1511
  366.7000   127.4257     5.9287     6.0817
  366.8000   127.0845     5.8668     6.0002
  366.9000   126.6261     5.8004     5.9036
  367.0000   126.3574     5.7348     5.8314
  367.1000   126.1295     5.6623     5.7412
  367.2000   125.8812     5.5667     5.6225
  367.3000   125.7461     5.5038     5.4962
  367.4000   125.7442     5.4176     5.3726
  367.5000   125.7424     5.3259     5.2515
  367.6000   125.9871     5.2549     5.1339
  367.7000   126.6115     5.2251     5.0187
  367.8000   127.6158     5.1915     4.9209
  367.9000   128.8464     5.1660     4.8377
  368.0000   130.0967     5.1367     4.7581
  368.1000   131.7919     5.1076     4.6964
  368.2000   133.0510     5.0838     4.6512
  368.3000   134.2208     5.0838     4.6149
  368.4000   135.4957     5.0838     4.5888
  368.5000   137.2191     5.0629     4.5628
  368.6000   139.0556     5.0484     4.5353
  368.7000   140.4359     5.0484     4.5113
  368.8000   141.7392     5.0484     4.5037
  368.9000   142.7351     5.0484     4.5037
  369.0000   143.5332     5.0484     4.5037
  369.1000   144.5174     5.0317     4.5041
  369.2000   145.5014     5.0133     4.5298
  369.3000   145.9037     5.0133     4.5556
  369.4000   146.1483     5.0133     4.5670
  369.5000   146.2314     5.0133     4.5756
  369.6000   145.9831     5.0133     4.6016
  369.7000   145.7022     5.0133     4.6313
  369.8000   145.4865     5.0133     4.6313
  369.9000   145.2382     5.0133     4.6651
  370.0000   144.9899     5.0414     4.7074
  370.1000   144.7416     5.0484     4.7293
  370.2000   144.4811     5.0636     4.7293
  370.3000   144.2450     5.0838     4.7807
  370.4000   143.9968     5.0858     4.8354
  370.5000   143.6273     5.1195     4.8633
  370.6000   143.1972     5.1440     4.8779
  370.7000   142.9570     5.1915     4.9335
  370.8000   142.9548     5.2394     5.0010
  370.9000   142.7554     5.2739     5.0239
  371.0000   142.5071     5.3387     5.0691
  371.1000   142.2588     5.3669     5.1270
  371.2000   142.0388     5.4408     5.1855
  371.3000   142.0368     5.5195     5.2515
  371.4000   141.8170     5.5904     5.3047
  371.5000   141.7303     5.6860     5.3855
  371.6000   141.5184     5.7512     5.4780
  371.7000   141.0237     5.8170     5.5784
  371.8000   140.5127     5.8836     5.7106
  371.9000   139.7958     5.9509     5.8057
  372.0000   138.8728     6.0223     5.9055
  372.1000   137.6346     6.1395     6.0070
  372.2000   135.8791     6.2007     6.1101
  372.3000   133.4495     6.2716     6.2132
  372.4000   131.4106     6.3434     6.2970
  372.5000   130.1970     6.4227     6.3859
  372.6000   128.4252     6.5380     6.4737
  372.7000   126.2738     6.5737     6.5476
  372.8000   123.9694     6.6387     6.6224
  372.9000   122.6138     6.6955     6.7055
  373.0000   122.1677     6.7337     6.7399
  373.1000   121.8386     6.7737     6.7783
  373.2000   121.8085     6.8658     6.8342
  373.3000   122.1057     6.8977     6.9122
  373.4000   122.6048     6.9370     6.9924
  373.5000   122.8454     6.9908     7.0316
  373.6000   123.2760     7.0656     7.0716
  373.7000   123.8964     7.1099     7.1119
  373.8000   124.8520     7.1832     7.1524
  373.9000   126.2969     7.2376     7.1931
  374.0000   127.4421     7.2789     7.2408
  374.1000   128.0588     7.3115     7.2753
  374.2000   128.6469     7.3115     7.2915
  374.3000   128.9521     7.3526     7.3072
  374.4000   128.9139     7.3945     7.3488
  374.5000   128.6453     7.4144     7.3941
  374.6000   127.9647     7.4144     7.3941
  374.7000   127.3934     7.4174     7.3941
  374.8000   127.0117     7.4664     7.4134
  374.9000   126.7069     7.4664     7.4459
  375.0000   126.2121     7.4664     7.4459
  375.1000   126.2103     7.4828     7.4883
  375.2000   126.2085     7.5187     7.4981
  375.3000   126.0734     7.5187     7.4981
  375.4000   125.9018     7.5187     7.4981
  375.5000   125.8596     7.5187     7.5016
  375.6000   125.2919     7.5187     7.5506
  375.7000   125.0802     7.5187     7.5506
  375.8000   124.6784     7.5194     7.5506
  375.9000   124.1837     7.5623     7.5675
  376.0000   123.7293     7.5714     7.6035
  376.1000   123.4647     7.5714     7.6035
  376.2000   123.2328     7.5857     7.6035
  376.3000   123.1582     7.6245     7.6035
  376.4000   123.1564     7.6245     7.6241
  376.5000   123.1545     7.6625     7.6568
  376.6000   123.1608     7.6780     7.6575
  376.7000   123.6519     7.6780     7.7012
  376.8000   124.5309     7.6780     7.7105
  376.9000   125.3776     7.6780     7.7105
  377.0000   126.1961     7.6780     7.7105
  377.1000   127.1557     7.6780     7.7105
  377.2000   127.9901     7.6780     7.7105
  377.3000   128.8451     7.6900     7.7105
  377.4000   129.6715     7.7318     7.7105
  377.5000   130.4091     7.6780     7.7105
  377.6000   131.0137     7.6780     7.7105
  377.7000   131.0114     7.6780     7.7105
  377.8000   131.2441     7.6780     7.7105
  377.9000   131.3109     7.6780     7.7105
  378.0000   131.1879     7.6780     7.7105
  378.1000   130.9396     7.6780     7.7105
  378.2000   130.6913     7.6780     7.7105
  378.3000   130.3942     7.6780     7.7105
  378.4000   130.1947     7.6780     7.6754
  378.5000   129.9464     7.6780     7.6568
  378.6000   129.7830     7.6780     7.6568
  378.7000   129.7529     7.6780     7.6518
  378.8000   129.4762     7.6780     7.6035
  378.9000   129.2564     7.6780     7.6035
  379.0000   129.1697     7.6780     7.6035
  379.1000   129.0628     7.6780     7.6035
  379.2000   128.8630     7.6780     7.6035
  379.3000   128.8611     7.6512     7.6035
  379.4000   128.6210     7.6245     7.5619
  379.5000   128.7363     7.6245     7.5506
  379.6000   128.9810     7.6245     7.5506
  379.7000   129.2944     7.5843     7.5506
  379.8000   129.7855     7.5714     7.5485
  379.9000   130.3651     7.5511     7.4981
  380.0000   130.7676     7.5187     7.4981
  380.1000   131.1133     7.5187     7.4981
  380.2000   131.5358     7.5187     7.4981
  380.3000   132.2087     7.5187     7.4981
  380.4000   132.4774     7.5187     7.4981
  380.5000   132.9202     7.5187     7.4981
  380.6000   133.2457     7.5187     7.4696
  380.7000   133.3812     7.5187     7.4459
  380.8000   133.3794     7.5187     7.4459
  380.9000   133.3775     7.5187     7.4459
  381.0000   133.3757     7.5366     7.4876
  381.1000   133.1881     7.5714     7.4981
  381.2000   132.9398     7.5714     7.4981
  381.3000   132.6915     7.6130     7.5107
  381.4000   132.4594     7.6564     7.5534
  381.5000   132.4573     7.6780     7.6035
  381.6000   132.6618     7.6901     7.6035
  381.7000   132.9065     7.7318     7.6298
  381.8000   133.1512     7.7318     7.6733
  381.9000   133.3597     7.7680     7.7105
  382.0000   133.3574     7.7861     7.7105
  382.1000   133.3558     7.8021     7.7508
