~VERSION INFORMATION
 VERS.                2.0:   CWLS LOG ASCII STANDARD - VERSION 2.0
 WRAP.                 NO:   ONE LINE PER DEPTH STEP
~WELL INFORMATION
#MNEM.UNIT      DATA TYPE    INFORMATION
#----------   ------------   ------------------------------
 STRT.F            0.0000:   START DEPTH
 STOP.F          790.0000:   STOP DEPTH
 STEP.F            0.1000:   STEP LENGTH
 NULL.          -999.2500:   NO VALUE
 COMP.   FLUOR DANIEL INC:   COMPANY
 WELL.   72-2 X-34 #72-34:   WELL
 FLD .          N.P.R. #3:   FIELD
 LOC .      S34 T39N R78W:   LOCATION
 CNTY.            NATRONA:   COUNTY
 STAT.            WYOMING:   STATE
 CTRY. UNITED STATES OF AMERICA:   COUNTRY
 SRVC.      Western Atlas:   SERVICE COMPANY
 DATE.        25-MAR-1995:   LOGDATE
 API .       490252269300:   API NUMBER
~CURVE INFORMATION
#MNEM.UNIT       API CODE    CURVE DESCRIPTION
#----------   ------------   ------------------------------
 DEPT.F                  :   
 GRR .GAPI   07 310 01 00:   GAMMA RAY
 RILD.OHMM   07 120 46 00:   INDUCTION LOG DEEP RESISTIVITY
 RILM.OHMM   07 120 44 00:   INDUCTION LOG MEDIUM RESISTIVITY
~PARAMETER INFORMATION
#MNEM.UNIT          VALUE    DESCRIPTION
#----------   ------------   ------------------------------
 PD  .                 GL:   PERMANENT DATUM
 EPD .F              5058:   ELEVATION PERMANENT DATUM
 LMF .                 KB:   LOG MEASURED FROM
 DAPD.F                10:   FEET ABOVE PERMANENT DATUM
 DMF .                 KB:   DRILLING MEASURED FROM
 EKB .F              5068:   KELLING BUSHING
 EDF .F              5067:   DRILLING FLOOR
 EGL .F              5058:   GROUND LEVEL
 DATE.        25-MAR-1995:   RUN DATE
 RUN .                  1:   RUN NUMBER
 DD  .F               796:   DEPTH DRILLER
 DL  .F               798:   DEPTH LOGGER
 BLI .F               790:   BOTTOM LOG INTERVAL
 TLI .F                96:   TOP LOG INTERVAL
 CS  .IN            9.625:   CASING SIZE
 CBD .F                95:   CASING BOTTOM DRILLER
 CBL .F                96:   CASING BOTTOM LOGGER
 BS  .IN             8.75:   BIT SIZE
 BSD .F               796:   BIT SIZE AT DEPTH
 DFT .                AIR:   DRILLING FLUID TYPE
 MRT .F                97:   MAXIMUM RECORDED TEMPERATURE
 LUN .            HL 6530:   LOGGING UNIT NUMBER
 LUL .             CASPER:   LOGGING UNIT LOCATION
 ENGI.             RAUTIO:   RECORDING ENGINEER
 WITN.             STRONG:   WITNESSED BY
 CLNT.            A2DTECH:   CLIENT CODE
 ORIG.       2", 5" PRINT:   ORIGIN OF DATA
 UWI .       490252269300:   UNIQUE WELL ID
 DICO. A2D Technologies, Inc.:   DIGITIZING COMPANY
~OTHER INFORMATION
~A    DEPT      GRR      RILD       RILM   
# ...
  273.0000   119.8799     6.9372     6.7859
  273.1000   119.3603     6.9368     6.7425
  273.2000   118.7958     6.9247     6.7426
  273.3000   118.5588     6.8866     6.7427
  273.4000   118.4871     6.8861     6.7427
  273.5000   118.4884     6.8487     6.7428
  273.6000   118.6620     6.8362     6.7429
  273.7000   119.1485     6.8358     6.7430
  273.8000   119.4253     6.8355     6.7796
  273.9000   119.9177     6.8350     6.7902
  274.0000   120.4397     6.8346     6.7903
  274.1000   120.9618     6.8343     6.8042
  274.2000   121.4840     6.8339     6.8378
  274.3000   122.0494     6.8335     6.8379
  274.4000   122.8542     6.8331     6.8764
  274.5000   123.1083     6.8327     6.8858
  274.6000   123.3701     6.8323     6.8858
  274.7000   123.4799     6.8319     6.8859
  274.8000   123.4812     6.8315     6.8860
  274.9000   123.4319     6.8312     6.8862
  275.0000   123.1726     6.8307     6.9343
  275.1000   123.1741     6.8303     6.9344
  275.2000   123.1751     6.8300     6.9345
  275.3000   123.1764     6.8295     6.9345
  275.4000   123.0690     6.8292     6.9346
  275.5000   122.8097     6.8288     6.9336
  275.6000   122.5580     6.8284     6.8868
  275.7000   122.5595     6.8280     6.8869
  275.8000   122.5605     6.8276     6.8871
  275.9000   122.5617     6.8272     6.8871
  276.0000   122.5630     6.8268     6.8872
  276.1000   122.5642     6.8264     6.8873
  276.2000   122.5504     6.8260     6.8874
  276.3000   122.2558     6.8257     6.8875
  276.4000   122.2569     6.8253     6.8876
  276.5000   122.2581     6.8248     6.8877
  276.6000   122.2594     6.8245     6.8878
  276.7000   122.2607     6.8531     6.8879
  276.8000   122.2619     6.8727     6.8880
  276.9000   122.2633     6.8724     6.8881
  277.0000   122.2644     6.8719     6.8882
  277.1000   122.2656     6.8715     6.8882
  277.2000   122.3979     6.8712     6.9013
  277.3000   122.5792     6.8708     6.9365
  277.4000   122.5804     6.8932     6.9366
  277.5000   122.5817     6.9194     6.9367
  277.6000   122.5829     6.9189     6.9668
  277.7000   122.5841     6.9186     6.9852
  277.8000   122.5854     6.9182     6.9853
  277.9000   122.5866     6.9503     6.9920
  278.0000   122.6252     6.9671     7.0342
  278.1000   122.9002     6.9667     7.0740
  278.2000   122.9014     6.9663     7.0834
  278.3000   122.9026     6.9659     7.0835
  278.4000   122.9039     7.0155     7.0836
  278.5000   123.0005     7.0152     7.0837
  278.6000   123.2174     7.0147     7.0838
  278.7000   123.2187     6.9961     7.0839
  278.8000   122.9653     6.9639     7.0508
  278.9000   122.9101     6.9635     7.0099
  279.0000   122.9113     6.9630     6.9864
  279.1000   123.0155     6.9627     6.9773
  279.2000   123.2249     6.9623     6.9383
  279.3000   123.2280     6.9422     6.9384
  279.4000   123.5387     6.9118     6.9046
  279.5000   123.7512     6.9115     6.8906
  279.6000   124.0128     6.9110     6.8906
  279.7000   124.2744     6.9106     6.8803
  279.8000   124.5361     6.8812     6.8431
  279.9000   124.8070     6.8605     6.8433
  280.0000   125.4123     6.8471     6.8086
  280.1000   125.6325     6.8108     6.7961
  280.2000   125.7257     6.8104     6.7961
  280.3000   125.6091     6.7720     6.7846
  280.4000   125.2157     6.7310     6.7493
  280.5000   124.3869     6.7124     6.7494
  280.6000   122.6204     6.6977     6.7139
  280.7000   121.2633     6.6637     6.7029
  280.8000   119.3498     6.6633     6.7029
  280.9000   117.7682     6.6242     6.6903
  281.0000   116.7277     6.6150     6.6515
  281.1000   115.7355     6.5914     6.6108
  281.2000   115.1628     6.5516     6.6109
  281.3000   114.6960     6.5198     6.5822
  281.4000   114.1763     6.5191     6.5652
  281.5000   113.9222     6.4725     6.5516
  281.6000   114.0876     6.4406     6.5200
  281.7000   114.5784     6.4256     6.5201
  281.8000   114.8592     6.4086     6.5202
  281.9000   115.5843     6.3699     6.4907
  282.0000   116.5575     6.3332     6.4752
  282.1000   117.7409     6.3328     6.4605
  282.2000   118.8654     6.3000     6.4306
  282.3000   119.6873     6.2869     6.4304
  282.4000   120.7764     6.2688     6.3863
  282.5000   121.5241     6.2413     6.3562
  282.6000   122.5049     6.2410     6.3423
  282.7000   123.2526     6.2406     6.3266
  282.8000   123.7746     6.2069     6.2985
  282.9000   124.2040     6.1694     6.2971
  283.0000   124.2053     6.1508     6.2551
  283.1000   123.9502     6.1388     6.2552
  283.2000   123.6909     6.1016     6.2553
  283.3000   123.4318     6.0622     6.2386
  283.4000   123.1727     6.0619     6.2121
  283.5000   122.9674     6.0616     6.2122
  283.6000   122.9720     6.0413     6.2123
  283.7000   123.2811     6.0176     6.1806
  283.8000   123.2821     6.0114     6.1695
  283.9000   123.4459     5.9740     6.1695
  284.0000   123.5956     5.9737     6.1696
  284.1000   123.6584     5.9733     6.1697
  284.2000   123.9306     5.9941     6.1698
  284.3000   124.5327     6.0156     6.1699
  284.4000   124.7544     6.0225     6.1700
  284.5000   125.1862     6.0581     6.1700
  284.6000   125.5888     6.0577     6.1581
  284.7000   125.9191     6.0872     6.1275
  284.8000   126.4415     6.1006     6.1276
  284.9000   127.0285     6.1003     6.1277
  285.0000   127.0295     6.0999     6.1278
  285.1000   127.2082     6.0996     6.1278
  285.2000   127.4700     6.0991     6.1279
  285.3000   127.8081     6.0677     6.1343
  285.4000   128.2787     6.0550     6.1709
  285.5000   128.2801     6.0377     6.1710
  285.6000   128.2812     6.0012     6.1711
  285.7000   128.2824     5.9679     6.1711
  285.8000   128.2836     5.9675     6.1568
  285.9000   128.2849     5.9354     6.1285
  286.0000   128.2529     5.9243     6.1280
  286.1000   127.9764     5.9059     6.0863
  286.2000   127.7346     5.8813     6.0573
  286.3000   127.6678     5.8810     6.0223
  286.4000   127.5272     5.8806     6.0026
  286.5000   127.3592     5.8803     5.9943
  286.6000   127.3605     5.8800     5.9612
  286.7000   127.3618     5.8796     5.9613
  286.8000   127.1124     5.8793     5.9614
  286.9000   127.0532     5.8789     5.9615
  287.0000   127.0544     5.8786     5.9615
  287.1000   126.8582     5.8783     5.9616
  287.2000   126.3867     5.8779     5.9617
  287.3000   126.1251     5.8982     5.9618
  287.4000   125.8684     5.9195     5.9929
  287.5000   125.4018     5.9191     6.0036
  287.6000   124.8820     5.9188     6.0036
  287.7000   124.4686     5.9184     6.0037
  287.8000   124.2095     5.9181     6.0038
  287.9000   123.9552     5.9400     6.0039
  288.0000   123.9567     5.9600     6.0040
  288.1000   123.9577     5.9681     6.0296
  288.2000   123.9589     6.0037     6.0459
  288.3000   123.9602     6.0449     6.0581
  288.4000   123.9614     6.0446     6.0935
  288.5000   123.9502     6.0683     6.1308
  288.6000   123.6531     6.1045     6.1309
  288.7000   123.6541     6.1409     6.1583
  288.8000   123.4837     6.1776     6.1737
  288.9000   123.3456     6.2184     6.1874
  289.0000   123.2762     6.2181     6.2237
  289.1000   123.0169     6.2178     6.2604
  289.2000   122.7274     6.2174     6.2605
  289.3000   122.4987     6.2171     6.2897
  289.4000   122.2394     6.2167     6.3265
  289.5000   121.8516     6.2163     6.3483
  289.6000   121.2543     6.2160     6.3484
  289.7000   120.5015     6.2157     6.3485
  289.8000   119.9354     6.2153     6.3486
  289.9000   119.6993     6.2149     6.3487
  290.0000   119.6267     6.2145     6.3724
  290.1000   119.6280     6.2142     6.3931
  290.2000   119.6292     6.2139     6.3932
  290.3000   119.6654     6.2135     6.3954
  290.4000   119.9428     6.2569     6.4379
  290.5000   119.9440     6.3172     6.4380
  290.6000   119.9452     6.3549     6.4382
  290.7000   119.8030     6.3928     6.4382
  290.8000   119.6367     6.4381     6.4490
  290.9000   119.5535     6.4378     6.4866
  291.0000   119.0171     6.4615     6.5285
  291.1000   118.7662     6.4833     6.5287
