~VERSION INFORMATION
 VERS.                2.0:   CWLS LOG ASCII STANDARD - VERSION 2.0
 WRAP.                 NO:   ONE LINE PER DEPTH STEP
~WELL INFORMATION
#MNEM.UNIT      DATA TYPE    INFORMATION
#----------   ------------   ------------------------------
 STRT.F           28.0000:   START DEPTH
 STOP.F          856.0000:   STOP DEPTH
 STEP.F            0.5000:   STEP LENGTH
 NULL.          -999.2500:   NO VALUE
 COMP. FENIX & SCISSON INC:   COMPANY
 WELL. NPR 3  76 SX #76-27:   WELL
 FLD .             TEAPOT:   FIELD
 LOC .      S27 T39N R78W:   LOCATION
 CNTY.            NATRONA:   COUNTY
 STAT.            WYOMING:   STATE
 CTRY. UNITED STATES OF AMERICA:   COUNTRY
 SRVC.            Unknown:   SERVICE COMPANY
 DATE.        06-SEP-1978:   LOGDATE
 API .       490251069600:   API NUMBER
~CURVE INFORMATION
#MNEM.UNIT       API CODE    CURVE DESCRIPTION
#----------   ------------   ------------------------------
 DEPT.F                  :   
 SPR .MV     05 010 01 00:   SPONTANEOUS POTENTIAL FROM RES.
 SN  .OHMM   05 040 16 00:   SHORT NORMAL 16"
 ILD .OHMM   05 120 46 00:   INDUCTION LOG DEEP
 NPHI.DEC    42 890 03 00:   NEUTRON POROSITY SANDSTONE
 GRD .GAPI   45 310 01 00:   GAMMA RAY FROM DENSITY LOG
 CALD.IN     45 280 60 00:   CALIPER
 RHOB.G/C3   45 350 01 00:   BULK DENSITY
 DPHI.DEC    45 890 12 00:   DENSITY POROSITY SANDSTONE
 CORR.G/C3   45 356 01 00:   DENSITY CORRECTION
~PARAMETER INFORMATION
#MNEM.UNIT          VALUE    DESCRIPTION
#----------   ------------   ------------------------------
 PD  .                 GL:   PERMANENT DATUM
 EPD .F              5062:   ELEVATION PERMANENT DATUM
 LMF .                 KB:   LOG MEASURED FROM
 DAPD.F                 4:   FEET ABOVE PERMANENT DATUM
 DMF .                 KB:   DRILLING MEASURED FROM
 EKB .F              5066:   KELLING BUSHING
 EGL .F              5062:   GROUND LEVEL
 DATE.             9-6-78:   RUN DATE
 RUN .                  1:   RUN NUMBER
 DD  .F               865:   DEPTH DRILLER
 DL  .F               857:   DEPTH LOGGER
 BLI .F               851:   BOTTOM LOG INTERVAL
 TLI .F                40:   TOP LOG INTERVAL
 CS  .IN            8.625:   CASING SIZE
 CBD .F                43:   CASING BOTTOM DRILLER
 CBL .F                43:   CASING BOTTOM LOGGER
 BS  .IN            7.875:   BIT SIZE
 BSD .F               865:   BIT SIZE AT DEPTH
 DFT .                KCL:   DRILLING FLUID TYPE
 DFD .                8.4:   DRILLING FLUID DENSITY
 DFV .                 40:   DRILLING FLUID VISCOSITY
 DFPH.                  9:   DRILLING FLUID PH
 DFL .                  6:   DRILLING FLUID LOSS
 MSS .           FLOWLINE:   MUD SAMPLE SOURCE
 RMS .OHMM            .14:   RESISTIVITY MUD SAMPLE
 MST .F                84:   MUD SAMPLE TEMPERATURE
 RMF .OHMM             .1:   RESISTIVITY MUD FILTRATE SAMPLE
 MFST.F                94:   MUD FILTRATE SAMPLE TEMPERATURE
 RMC .OHMM            .18:   RESISTIVITY MUD CAKE
 MCST.F                92:   MUD CAKE SAMPLE TEMPERATURE
 MFSS.               MEAS:   MUD FILTRATE SAMPLE SOURCE
 MCSS.               MEAS:   MUD CAKE SAMPLE SOURCE
 RMB .OHMM           .145:   RESISTIVITY MUD AT BHT
 BHT .F                82:   BOTTOM HOLE TEMPERATURE
 TCS .HRS               3:   TIME CURCULATED STOPPED
 MRT .F                82:   MAXIMUM RECORDED TEMPERATURE
 LUN .               2958:   LOGGING UNIT NUMBER
 LUL .               CASP:   LOGGING UNIT LOCATION
 ENGI.           REYNOLDS:   RECORDING ENGINEER
 WITN.           MCGINLEY:   WITNESSED BY
 CLNT.            A2DTECH:   CLIENT CODE
 ORIG.           5" PRINT:   ORIGIN OF DATA
 UWI .       490251069600:   UNIQUE WELL ID
 DICO. A2D Technologies, Inc.:   DIGITIZING COMPANY
~OTHER INFORMATION
~A   DEPT      SPR         SN        ILD       NPHI         GRD      CALD       RHOB       DPHI       CORR   
# ...
  794.5000   -41.7620    11.7218    14.7675     0.3676    73.3736     7.6962     2.5023     0.1035     0.0329
  795.0000   -42.3140    11.6954    14.6737     0.3651    73.4613     7.7019     2.5112     0.0986     0.0350
  795.5000   -42.5608    11.6691    14.5805     0.3673    72.1733     7.7077     2.5201     0.0979     0.0370
  796.0000   -42.7370    11.6428    14.4878     0.3707    69.7288     7.7152     2.5291     0.0976     0.0345
  796.5000   -43.6477    11.6166    14.3957     0.3712    68.6259     7.7253     2.5284     0.0972     0.0324
  797.0000   -44.3136    11.5912    14.3042     0.3714    70.8289     7.7355     2.5255     0.0966     0.0293
  797.5000   -44.6202    11.5537    14.2133     0.3712    70.8107     7.7456     2.5261     0.0975     0.0256
  798.0000   -44.9257    11.5159    14.1229     0.3644    73.1613     7.7557     2.5277     0.1022     0.0228
  798.5000   -45.2307    11.4781    14.0331     0.3603    74.0323     7.7659     2.5279     0.1082     0.0234
  799.0000   -45.5351    11.4404    13.9440     0.3603    74.9280     7.7760     2.5185     0.1112     0.0269
  799.5000   -45.7773    11.4028    13.8553     0.3603    76.8678     7.7861     2.5092     0.1117     0.0311
  800.0000   -45.8647    11.3654    13.7935     0.3599    77.0094     7.7963     2.5079     0.1035     0.0330
  800.5000   -45.9523    11.3280    13.7023     0.3342    74.6336     7.8064     2.5149     0.0966     0.0355
  801.0000   -46.0399    11.2908    13.6017     0.3279    73.5207     7.8165     2.5218     0.0966     0.0369
  801.5000   -46.1274    11.2538    13.5019     0.3352    72.8615     7.8267     2.5287     0.0969     0.0369
  802.0000   -46.2152    11.2168    13.4028     0.3425    72.1938     7.8369     2.5321     0.0970     0.0335
  802.5000   -46.3020    11.1800    13.3044     0.3480    72.2607     7.8477     2.5301     0.0962     0.0307
  803.0000   -46.5668    11.1433    13.2067     0.3487    72.1008     7.8306     2.5280     0.0937     0.0289
  803.5000   -46.9853    11.1067    13.1097     0.3487    71.0626     7.8058     2.5265     0.0934     0.0270
  804.0000   -47.4043    11.0702    13.0135     0.3450    71.1136     7.7807     2.5303     0.0954     0.0251
  804.5000   -47.8339    11.0338    12.9174     0.3379    72.8367     7.7557     2.5287     0.0945     0.0228
  805.0000   -48.0037    10.9976    12.8175     0.3309    75.4825     7.7308     2.5279     0.0938     0.0176
  805.5000   -48.1090    10.9615    12.7690     0.3238    77.4330     7.7121     2.5302     0.0970     0.0120
  806.0000   -48.2109    10.9255    12.7038     0.3218    76.2229     7.7214     2.5286     0.1003     0.0077
  806.5000   -48.3295    10.8896    12.6390     0.3278    75.0761     7.7302     2.5264     0.1035     0.0070
  807.0000   -48.8492    10.8517    12.5745     0.3343    74.3365     7.7389     2.5212     0.1066     0.0090
  807.5000   -49.4021    10.8102    12.5103     0.3383    74.1367     7.7475     2.5162     0.1078     0.0125
  808.0000   -49.5967    10.7688    12.4464     0.3341    74.1132     7.7562     2.5111     0.1041     0.0168
  808.5000   -49.7125    10.7275    12.3829     0.3289    76.8015     7.7649     2.5118     0.0979     0.0247
  809.0000   -49.8264    10.6864    12.3197     0.3252    79.2133     7.7736     2.5181     0.0962     0.0327
  809.5000   -49.9406    10.6455    12.2568     0.3336    80.0381     7.7824     2.5245     0.0976     0.0370
  810.0000   -50.0577    10.6047    12.1597     0.3456    80.6849     7.7900     2.5260     0.0982     0.0369
  810.5000   -50.0088    10.5641    12.0535     0.3576    79.3419     7.7822     2.5255     0.0950     0.0344
  811.0000   -49.8680    10.5236    11.9482     0.3578    78.0191     7.7732     2.5268     0.0964     0.0304
  811.5000   -49.7228    10.4833    11.8439     0.3496    77.5982     7.7643     2.5281     0.0983     0.0250
  812.0000   -49.5870    10.4432    11.7404     0.3462    78.9836     7.7554     2.5267     0.1001     0.0169
  812.5000   -49.8002    10.4032    11.6379     0.3515    81.2663     7.7465     2.5245     0.1004     0.0148
  813.0000   -51.2254    10.3633    11.5364     0.3582    81.6168     7.7376     2.5222     0.0999     0.0148
  813.5000   -51.5803    10.3236    11.4369     0.3649    80.7374     7.7287     2.5219     0.0994     0.0141
  814.0000   -51.5677    10.2845    11.2523     0.3701    80.9649     7.7198     2.5215     0.1003     0.0135
  814.5000   -51.9585    10.1765    10.9573     0.3725    81.8673     7.7109     2.5208     0.1010     0.0131
  815.0000   -52.1063    10.0703    10.6694     0.3711    80.3124     7.7020     2.5198     0.1010     0.0174
  815.5000   -52.1547     9.9654    10.3891     0.3696    78.6214     7.6931     2.5189     0.0988     0.0220
  816.0000   -52.2018     9.8616    10.1161     0.3716    77.9680     7.6842     2.5211     0.0966     0.0253
  816.5000   -52.2489     9.7590     9.8504     0.3810    79.6136     7.6753     2.5277     0.0954     0.0261
  817.0000   -52.4855     9.6574     9.5916     0.3904    81.8507     7.6664     2.5325     0.0963     0.0225
  817.5000   -52.9122     9.5570     9.3396     0.3968    82.5277     7.6575     2.5311     0.0978     0.0190
  818.0000   -53.3380     9.4566     9.0942     0.3953    81.1152     7.6486     2.5265     0.1040     0.0155
  818.5000   -53.7645     9.3241     8.8553     0.3954    79.6891     7.6397     2.5243     0.1158     0.0129
  819.0000   -54.1928     9.0798     8.6228     0.3981    81.5622     7.6308     2.5222     0.1276     0.0145
  819.5000   -54.6275     8.8444     8.3969     0.4007    83.8592     7.6218     2.5038     0.1364     0.0163
  820.0000   -54.8388     8.6145     8.1735     0.4200    86.1707     7.6126     2.4836     0.1396     0.0225
  820.5000   -55.0425     8.3909     7.8665     0.4410    88.5808     7.6151     2.4625     0.1288     0.0275
  821.0000   -55.2476     8.1729     7.3336     0.4600    92.0882     7.6213     2.4576     0.1134     0.0246
  821.5000   -55.4523     7.9902     6.6770     0.4599    95.9339     7.6275     2.4743     0.0970     0.0209
  822.0000   -55.6588     7.7577     6.0737     0.4581    96.9144     7.6336     2.4971     0.0946     0.0189
  822.5000   -55.9502     7.5309     5.5259     0.4592    86.5864     7.6398     2.5204     0.0920     0.0188
  823.0000   -56.7044     7.3109     5.2733     0.4753    78.9593     7.6459     2.5283     0.0894     0.0209
  823.5000   -57.0099     7.0978     5.1666     0.4834    81.6309     7.6521     2.5318     0.0887     0.0209
  824.0000   -57.0212     6.8908     5.2517     0.4584    83.0965     7.6582     2.5352     0.0898     0.0209
  824.5000   -56.5633     6.8062     5.3288     0.4090    83.1447     7.6644     2.5387     0.0914     0.0209
  825.0000   -55.8063     6.8847     5.4079     0.3937    83.4945     7.6705     2.5394     0.0923     0.0210
  825.5000   -55.0471     6.9805     5.4877     0.3947    83.2918     7.6767     2.5377     0.0925     0.0231
  826.0000   -54.3743     7.4641     5.8739     0.4005    82.1881     7.6828     2.5357     0.0926     0.0230
  826.5000   -54.0752     8.0281     6.6619     0.4013    81.2212     7.6890     2.5336     0.0926     0.0251
  827.0000   -53.7703     8.2267     7.5555     0.3959    82.3418     7.6911     2.5335     0.0926     0.0278
  827.5000   -53.4652     8.5060     8.1469     0.3913    83.5276     7.6883     2.5378     0.0926     0.0304
  828.0000   -53.1619     8.8012     8.3810     0.3867    83.6949     7.6854     2.5420     0.0926     0.0269
  828.5000   -52.8433     8.9800     8.6395     0.3877    82.6538     7.6825     2.5461     0.0926     0.0157
  829.0000   -52.1222     9.1189     8.6965     0.3910    82.3472     7.6797     2.5462     0.0930     0.0043
  829.5000   -51.8816     9.2599     8.7583     0.3916    82.6763     7.6767     2.5370     0.0971     0.0044
  830.0000   -51.8793     9.4032     8.8585     0.3934    84.1706     7.6735     2.5280     0.0988     0.0109
  830.5000   -51.8603     9.5486     9.0351     0.3946    84.3605     7.6761     2.5189     0.0946     0.0182
