~VERSION INFORMATION
 VERS.                2.0:   CWLS LOG ASCII STANDARD - VERSION 2.0
 WRAP.                 NO:   ONE LINE PER DEPTH STEP
~WELL INFORMATION
#MNEM.UNIT      DATA TYPE    INFORMATION
#----------   ------------   ------------------------------
 STRT.F           14.0000:   START DEPTH
 STOP.F          449.0000:   STOP DEPTH
 STEP.F            0.5000:   STEP LENGTH
 NULL.          -999.2500:   NO VALUE
 COMP.   LAWRENCE-ALLISON:   COMPANY
 WELL. NPR 3 #51-65SX10OB2:   WELL
 FLD .             TEAPOT:   FIELD
 LOC .      S10 T38N R78W:   LOCATION
 CNTY.            NATRONA:   COUNTY
 STAT.            WYOMING:   STATE
 CTRY. UNITED STATES OF AMERICA:   COUNTRY
 SRVC.      Dresser Atlas:   SERVICE COMPANY
 DATE.        18-DEC-1984:   LOGDATE
 API .       490251100900:   API NUMBER
~CURVE INFORMATION
#MNEM.UNIT       API CODE    CURVE DESCRIPTION
#----------   ------------   ------------------------------
 DEPT.F                  :   
 PORD.DEC    45 890 12 00:   POROSITY DENSITY SANDSTONE
 CNC .DEC    42 890 03 00:   NEUTRON POROSITY SANDSTONE
 CALD.IN     45 280 60 00:   CALIPER FROM DENSITY
 CORR.G/C3   45 356 01 00:   DENSITY CORRECTION
 DEN .G/C3   45 350 01 00:   COMPENSATED BULK DENSTIY
 GRD .GAPI   45 310 01 00:   GAMMA RAY FROM DENSITY LOG
 AC  .US/F   60 520 00 00:   ACCOUSTIC
~PARAMETER INFORMATION
#MNEM.UNIT          VALUE    DESCRIPTION
#----------   ------------   ------------------------------
 PD  .                 GL:   PERMANENT DATUM
 EPD .F              5156:   ELEVATION PERMANENT DATUM
 LMF .                 GL:   LOG MEASURED FROM
 DMF .                 GL:   DRILLING MEASURED FROM
 EGL .F              5156:   GROUND LEVEL
 DATE.        18-DEC-1984:   RUN DATE
 RUN .                  1:   RUN NUMBER
 DD  .F               448:   DEPTH DRILLER
 DL  .F               451:   DEPTH LOGGER
 BLI .F               449:   BOTTOM LOG INTERVAL
 TLI .F                20:   TOP LOG INTERVAL
 CS  .IN            8.625:   CASING SIZE
 CBD .F                20:   CASING BOTTOM DRILLER
 CBL .F                20:   CASING BOTTOM LOGGER
 BS  .IN             6.25:   BIT SIZE
 BSD .F               448:   BIT SIZE AT DEPTH
 DFT .          KCL WATER:   DRILLING FLUID TYPE
 MSS .             MUDPIT:   MUD SAMPLE SOURCE
 RMS .OHMM          0.132:   RESISTIVITY MUD SAMPLE
 MST .F                95:   MUD SAMPLE TEMPERATURE
 RMF .OHMM          0.099:   RESISTIVITY MUD FILTRATE SAMPLE
 MFST.F                95:   MUD FILTRATE SAMPLE TEMPERATURE
 RMC .OHMM          0.165:   RESISTIVITY MUD CAKE
 MCST.F                95:   MUD CAKE SAMPLE TEMPERATURE
 MFSS.               CALC:   MUD FILTRATE SAMPLE SOURCE
 MCSS.               CALC:   MUD CAKE SAMPLE SOURCE
 TCS .HRS               5:   TIME CURCULATED STOPPED
 MRT .F               100:   MAXIMUM RECORDED TEMPERATURE
 LUN .               6270:   LOGGING UNIT NUMBER
 ENGI.        TOM GAUGHAN:   RECORDING ENGINEER
 WITN.             GROOMS:   WITNESSED BY
 CLNT.            A2DTECH:   CLIENT CODE
 ORIG.           5" PRINT:   ORIGIN OF DATA
 UWI .       490251100900:   UNIQUE WELL ID
 DICO. A2D Technologies, Inc.:   DIGITIZING COMPANY
~OTHER INFORMATION
~A   DEPT     PORD        CNC       CALD       CORR        DEN        GRD         AC   
   14.0000  -999.2500  -999.2500  -999.2500  -999.2500  -999.2500  -999.2500  -999.2500
   14.5000  -999.2500     0.0287  -999.2500  -999.2500  -999.2500    87.9073  -999.2500
   15.0000  -999.2500     0.0476  -999.2500  -999.2500  -999.2500    85.7715  -999.2500
   15.5000  -999.2500     0.1023  -999.2500  -999.2500  -999.2500    82.8412  -999.2500
   16.0000  -999.2500     0.1931  -999.2500  -999.2500  -999.2500    79.7918  -999.2500
   16.5000  -999.2500     0.3003  -999.2500  -999.2500  -999.2500    80.1212  -999.2500
   17.0000  -999.2500     0.3423  -999.2500  -999.2500  -999.2500    80.2671    42.5722
   17.5000  -999.2500     0.3434  -999.2500  -999.2500  -999.2500    80.2819     0.0000
   18.0000  -999.2500     0.3364  -999.2500  -999.2500  -999.2500    81.2067     0.0000
   18.5000  -999.2500     0.3346  -999.2500  -999.2500  -999.2500    82.1068     4.4539
   19.0000  -999.2500     0.3319  -999.2500  -999.2500  -999.2500    83.1553     6.2686
   19.5000  -999.2500     0.3306  -999.2500  -999.2500  -999.2500    84.8071     7.3308
   20.0000  -999.2500     0.3619     6.8684  -999.2500  -999.2500    88.9614    48.1974
   20.5000     0.2982     0.3727     6.4569    -0.1554     2.2166    98.4719    80.7118
   21.0000     0.2133     0.3675     6.3064    -0.0314     2.2784   102.6957   130.9401
   21.5000     0.1913     0.3537     6.3226     0.0144     2.3536   108.7403   132.7233
   22.0000     0.1796     0.3398     6.3536    -0.0021     2.3808   112.1677   115.6772
   22.5000     0.1660     0.3398     6.3549     0.0107     2.4064   111.8821   111.8981
   23.0000     0.1590     0.3295     6.3711     0.0328     2.4170   110.6092   118.8251
   23.5000     0.1557     0.3228     6.3724     0.0680     2.4231   108.8011   123.0726
   24.0000     0.1529     0.3198     6.3738     0.0709     2.4307   106.2908   124.1893
   24.5000     0.1473     0.3171     6.3751     0.0510     2.4390   105.7115   122.9211
   25.0000     0.1386     0.3110     6.3764     0.0304     2.4474   107.9278   121.7260
   25.5000     0.1343     0.3119     6.3777     0.0158     2.4572   111.0015   118.4240
   26.0000     0.1278     0.3203     6.3789     0.0209     2.4701   113.5114   116.4764
   26.5000     0.1251     0.3184     6.3802     0.0345     2.4747   114.0797   115.7306
   27.0000     0.1284     0.3178     6.3815     0.0468     2.4680   112.0772   121.5354
   27.5000     0.1386     0.3302     6.3828     0.0590     2.4523   107.2230   123.8767
   28.0000     0.1470     0.3481     6.3841     0.0607     2.4328   106.1125   117.1135
   28.5000     0.1490     0.3454     6.3854     0.0428     2.4298   108.8501   106.5128
   29.0000     0.1442     0.3357     6.3867     0.0386     2.4382   112.0870   103.5096
   29.5000     0.1378     0.3315     6.3880     0.0448     2.4518   112.3887   108.7877
   30.0000     0.1375     0.3311     6.3894     0.0616     2.4504   112.5519   117.2991
   30.5000     0.1426     0.3401     6.3907     0.0678     2.4392   113.0119   121.3711
   31.0000     0.1486     0.3422     6.3920     0.0590     2.4317   112.2850   121.9818
   31.5000     0.1404     0.3412     6.3933     0.0442     2.4423   109.7776   122.7430
   32.0000     0.1286     0.3238     6.3794     0.0354     2.4567   107.4186   123.4290
   32.5000     0.1187     0.3057     6.3811     0.0372     2.4808   107.8787   125.5446
   33.0000     0.1183     0.2985     6.3824     0.0389     2.4824   109.8223   131.1215
   33.5000     0.1219     0.2888     6.3689     0.0391     2.4787   114.8817   139.7849
   34.0000     0.1267     0.2866     6.3702     0.0393     2.4713   115.2127   139.7936
   34.5000     0.1285     0.2923     6.3715     0.0516     2.4638   113.4279   139.8024
   35.0000     0.1287     0.3008     6.3576     0.0683     2.4639   111.0689   139.8112
   35.5000     0.1290     0.3067     6.3593     0.1016     2.4647   109.8961   139.8200
   36.0000     0.1293     0.3109     6.3604     0.0928     2.4640   109.9117   139.8288
   36.5000     0.1307     0.3114     6.3653     0.0570     2.4626   108.7397   139.8375
   37.0000     0.1343     0.3102     6.3667     0.0257     2.4492   106.9742   139.8463
   37.5000     0.1394     0.3090     6.3681     0.0079     2.4455   105.5054   139.8551
   38.0000     0.1390     0.3074     6.3547     0.0051     2.4486   105.2198   139.8639
   38.5000     0.1333     0.3046     6.3561     0.0054     2.4569   105.6835   139.8726
   39.0000     0.1215     0.3016     6.3575     0.0176     2.4720   106.4403   139.8814
   39.5000     0.1119     0.2995     6.3630     0.0403     2.4947   107.1970   139.8902
   40.0000     0.1070     0.2974     6.3784     0.0421     2.5007   107.9538   113.7139
   40.5000     0.1088     0.2964     6.3938     0.0347     2.4948   109.3040   113.3464
   41.0000     0.1130     0.3256     6.4075     0.0410     2.4919   111.2477   113.4304
   41.5000     0.1117     0.3370     6.4089     0.0743     2.4950   110.6691   113.1383
   42.0000     0.1090     0.3345     6.3951     0.0880     2.5003   106.8264   112.6956
   42.5000     0.1068     0.2984     6.3669     0.0702     2.5011   103.8740   112.5534
   43.0000     0.1053     0.2899     6.3093     0.0644     2.5027   102.9949   112.9388
   43.5000     0.1040     0.2914     6.3107     0.0722     2.5066   103.3103   113.1734
   44.0000     0.1037     0.2972     6.3714     0.0724     2.5044   106.4409   113.2574
   44.5000     0.1069     0.3082     6.4174     0.0201     2.4962   110.1650   113.2662
   45.0000     0.1154     0.3127     6.3891     0.0142     2.4835   109.5864   113.1244
   45.5000     0.1205     0.3093     6.3753     0.0265     2.4768   105.1503   112.5277
   46.0000     0.1234     0.2999     6.3622     0.0343     2.4735   101.6044   111.7744
   46.5000     0.1249     0.2834     6.3484     0.0375     2.4700   101.3188   111.0371
   47.0000     0.1264     0.2816     6.3202     0.0347     2.4679   103.2662   110.8270
   47.5000     0.1278     0.2854     6.3516     0.0319     2.4657   106.6936   111.5254
   48.0000     0.1317     0.2926     6.3827     0.0306     2.4623   112.4948   111.4487
   48.5000     0.1389     0.3032     6.3989     0.0384     2.4447   113.9934   111.3800
   49.0000     0.1452     0.3076     6.3851     0.0461     2.4367   114.7501   112.1434
   49.5000     0.1461     0.3039     6.3869     0.0509     2.4368   115.0618   112.2274
   50.0000     0.1406     0.3033     6.3731     0.0447     2.4466   115.0767   111.4396
   50.5000     0.1339     0.3042     6.3749     0.0407     2.4535   112.5693   109.3824
   51.0000     0.1333     0.3059     6.3763     0.0378     2.4543   106.9462   108.0339
   51.5000     0.1327     0.3080     6.3923     0.0335     2.4566   105.9226   107.8126
   52.0000     0.1284     0.3068     6.3939     0.0276     2.4604   106.6793   108.0443
   52.5000     0.1245     0.3004     6.3953     0.0188     2.4680   106.8426   106.6221
   53.0000     0.1229     0.2953     6.3967     0.0099     2.4733   105.0770   105.7251
   53.5000     0.1181     0.2923     6.3982     0.0116     2.4794   102.4213   105.2795
   54.0000     0.1127     0.2979     6.3964     0.0312     2.4885   100.3264   104.5330
   54.5000     0.1138     0.2989     6.3832     0.0391     2.4893   101.0732   103.7865
   55.0000     0.1174     0.2784     6.3723     0.0300     2.4841   103.4520   103.1152
   55.5000     0.1156     0.2750     6.3589     0.0212     2.4842   104.5543   101.7667
   56.0000     0.1059     0.2810     6.3752     0.0273     2.4941   102.1661   100.1806
   56.5000     0.1023     0.2771     6.3617     0.0440     2.5069    98.1009    99.1948
   57.0000     0.1025     0.2680     6.3631     0.0487     2.5047    95.6970    98.3727
   57.5000     0.1070     0.2659     6.3794     0.0398     2.4995    95.2547    97.4278
   58.0000     0.1058     0.2701     6.3808     0.0294     2.5003    93.4916    96.7565
   58.5000     0.0997     0.2650     6.3822     0.0446     2.5124    94.3027    96.6105
   59.0000     0.0982     0.2628     6.3836     0.1018     2.5148    97.9970    97.0693
