~VERSION INFORMATION
 VERS.                2.0:   CWLS LOG ASCII STANDARD - VERSION 2.0
 WRAP.                 NO:   ONE LINE PER DEPTH STEP
~WELL INFORMATION
#MNEM.UNIT      DATA TYPE    INFORMATION
#----------   ------------   ------------------------------
 STRT.F           27.0000:   START DEPTH
 STOP.F          538.0000:   STOP DEPTH
 STEP.F            0.5000:   STEP LENGTH
 NULL.          -999.2500:   NO VALUE
 COMP. FENIX & SCISSON INC:   COMPANY
 WELL.        NPR 3 #24-3:   WELL
 FLD .             TEAPOT:   FIELD
 LOC .       S3 T38N R78W:   LOCATION
 CNTY.            NATRONA:   COUNTY
 STAT.            WYOMING:   STATE
 CTRY. UNITED STATES OF AMERICA:   COUNTRY
 SRVC.            Unknown:   SERVICE COMPANY
 DATE.        26-SEP-1978:   LOGDATE
 API .       490251068800:   API NUMBER
~CURVE INFORMATION
#MNEM.UNIT       API CODE    CURVE DESCRIPTION
#----------   ------------   ------------------------------
 DEPT.F                  :   
 SPR .MV     05 010 01 00:   SPONTANEOUS POTENTIAL FROM RES.
 ILD .OHMM   05 120 46 00:   INDUCTION LOG DEEP
 SN  .OHMM   05 040 16 00:   SHORT NORMAL 16"
 CALD.IN     45 280 60 00:   CALIPER
 GRD .GAPI   45 310 01 00:   GAMMA RAY FROM DENSITY LOG
 DEN .G/C3   45 350 01 00:   COMPENSATED BULK DENSTIY
 DPHI.DEC    45 890 12 00:   DENSITY POROSITY SANDSTONE
 CORR.G/C3   45 356 01 00:   DENSITY CORRECTION
~PARAMETER INFORMATION
#MNEM.UNIT          VALUE    DESCRIPTION
#----------   ------------   ------------------------------
 PD  .                 GL:   PERMANENT DATUM
 EPD .F              5200:   ELEVATION PERMANENT DATUM
 LMF .                 KB:   LOG MEASURED FROM
 DAPD.F                 4:   FEET ABOVE PERMANENT DATUM
 DMF .                 KB:   DRILLING MEASURED FROM
 EKB .F              5204:   KELLING BUSHING
 EGL .F              5200:   GROUND LEVEL
 DATE.            9-26-78:   RUN DATE
 RUN .                  1:   RUN NUMBER
 DD  .F               537:   DEPTH DRILLER
 DL  .F               538:   DEPTH LOGGER
 BLI .F               532:   BOTTOM LOG INTERVAL
 TLI .F                40:   TOP LOG INTERVAL
 CS  .IN            8.625:   CASING SIZE
 CBD .F                40:   CASING BOTTOM DRILLER
 CBL .F                46:   CASING BOTTOM LOGGER
 BS  .IN            7.875:   BIT SIZE
 BSD .F               537:   BIT SIZE AT DEPTH
 DFT .                KCL:   DRILLING FLUID TYPE
 DFD .                8.7:   DRILLING FLUID DENSITY
 DFV .                 37:   DRILLING FLUID VISCOSITY
 DFPH.                  9:   DRILLING FLUID PH
 DFL .                 10:   DRILLING FLUID LOSS
 MSS .          FLOW LINE:   MUD SAMPLE SOURCE
 RMS .OHMM            .18:   RESISTIVITY MUD SAMPLE
 MST .F                72:   MUD SAMPLE TEMPERATURE
 RMF .OHMM            .16:   RESISTIVITY MUD FILTRATE SAMPLE
 MFST.F                76:   MUD FILTRATE SAMPLE TEMPERATURE
 RMC .OHMM            .26:   RESISTIVITY MUD CAKE
 MCST.F                76:   MUD CAKE SAMPLE TEMPERATURE
 MFSS.               MEAS:   MUD FILTRATE SAMPLE SOURCE
 RMB .OHMM            .18:   RESISTIVITY MUD AT BHT
 BHT .F                71:   BOTTOM HOLE TEMPERATURE
 TCS .HRS               3:   TIME CURCULATED STOPPED
 MRT .F                71:   MAXIMUM RECORDED TEMPERATURE
 LUN .               2958:   LOGGING UNIT NUMBER
 LUL .               CASP:   LOGGING UNIT LOCATION
 ENGI.           REYNOLDS:   RECORDING ENGINEER
 WITN.              AMEND:   WITNESSED BY
 CLNT.            A2DTECH:   CLIENT CODE
 ORIG.           5" PRINT:   ORIGIN OF DATA
 UWI .       490251068800:   UNIQUE WELL ID
 DICO. A2D Technologies, Inc.:   DIGITIZING COMPANY
~OTHER INFORMATION
~A   DEPT      SPR        ILD         SN       CALD         GRD       DEN       DPHI       CORR   
# ...
   67.5000   -61.3335    11.5963     9.1635     7.3643   115.3988     2.5018     0.1050     0.0237
   68.0000   -61.4352    11.1810     9.0959     7.3354   117.6091     2.4967     0.1108     0.0230
   68.5000   -61.5422    10.8736     9.0306     7.3846   123.0262     2.4904     0.1156     0.0227
   69.0000   -61.6460    10.5746     8.9888     7.4349   126.9536     2.4842     0.1190     0.0223
   69.5000   -61.6479    10.2838     8.9462     7.4850   128.6666     2.4805     0.1190     0.0219
   70.0000   -61.1954    10.0011     8.9041     7.5362   130.3578     2.4805     0.1184     0.0214
   70.5000   -61.0162     9.7305     8.8621     7.5976   132.0441     2.4805     0.1176     0.0211
   71.0000   -61.2198     9.4636     8.8203     7.6592   133.7088     2.4805     0.1166     0.0227
   71.5000   -61.3325     9.3644     8.7788     7.7208   134.1578     2.4807     0.1146     0.0266
   72.0000   -61.3318     9.2614     8.7374     7.7826   131.4275     2.4848     0.1117     0.0363
   72.5000   -61.3325     9.1595     8.6962     7.8435   128.7936     2.4911     0.1073     0.0459
   73.0000   -61.3290     9.0587     8.6552     7.8387   128.4761     2.4973     0.1038     0.0555
   73.5000   -61.5081     8.9822     8.6144     7.8258   125.4189     2.5036     0.1010     0.0653
   74.0000   -61.7636     8.9129     8.5738     7.8128   123.3863     2.5098     0.0983     0.0657
   74.5000   -62.0224     8.8710     8.5491     7.8000   122.7663     2.5160     0.0955     0.0640
   75.0000   -62.2814     8.8710     8.5229     7.7872   122.6944     2.5167     0.0944     0.0626
   75.5000   -62.5391     8.8709     8.4705     7.7743   125.1206     2.5122     0.0977     0.0615
   76.0000   -62.7987     8.8710     8.5105     7.7615   129.9647     2.5077     0.1010     0.0605
   76.5000   -62.8684     8.8710     8.5491     7.7501   134.3795     2.5032     0.1042     0.0594
   77.0000   -62.7692     8.8709     8.5418     7.7499   135.2474     2.5004     0.1018     0.0590
   77.5000   -62.8716     8.8702     8.5088     7.7500   134.4219     2.5031     0.0989     0.0590
   78.0000   -63.1432     8.8720     8.4759     7.7500   133.1800     2.5071     0.0959     0.0590
   78.5000   -63.4163     8.7729     8.4262     7.7500   132.2751     2.5113     0.0959     0.0590
   79.0000   -63.6899     8.6945     8.3738     7.7500   132.3084     2.5136     0.1001     0.0590
   79.5000   -63.9636     8.6166     8.3216     7.7500   134.0269     2.5081     0.1042     0.0590
   80.0000   -64.2390     8.5395     8.2697     7.7501   135.9455     2.5028     0.1077     0.0600
   80.5000   -64.5011     8.4630     8.2181     7.7379   137.3627     2.4976     0.1076     0.0610
   81.0000   -64.3988     8.3926     8.1668     7.7121   137.4771     2.4945     0.1049     0.0621
   81.5000   -64.2793     8.4851     8.1159     7.6099   136.9039     2.5001     0.1022     0.0626
   82.0000   -64.1587     8.6243     8.0653     7.4982   136.0600     2.5054     0.0995     0.0522
   82.5000   -64.1939     8.7657     8.0150     7.3865   135.3131     2.5085     0.0974     0.0414
   83.0000   -64.3174     8.9094     7.9650     7.2749   135.3881     2.5086     0.1036     0.0308
   83.5000   -64.4428     8.9533     7.9291     7.1619   135.4745     2.5004     0.1096     0.0222
   84.0000   -64.5471     8.8395     7.9078     7.1303   135.4082     2.4879     0.1167     0.0210
   84.5000   -64.6236     8.7374     7.8863     7.1298   135.0844     2.4752     0.1271     0.0210
   85.0000   -64.6970     8.6365     7.8503     7.1303   134.7643     2.4625     0.1330     0.0243
   85.5000   -64.8683     8.5367     7.7113     7.1280   134.4431     2.4507     0.1337     0.0319
   86.0000   -65.0506     8.4327     7.5120     7.1107   134.1142     2.4489     0.1344     0.0324
   86.5000   -65.2330     8.3192     7.5375     7.1399   133.6958     2.4475     0.1350     0.0316
   87.0000   -65.4144     8.2072     7.5854     7.1732   133.8253     2.4475     0.1357     0.0309
   87.5000   -65.4653     8.0967     7.6336     7.2322   137.8983     2.4475     0.1362     0.0302
   88.0000   -65.3813     7.9877     7.6821     7.3166   141.8743     2.4475     0.1358     0.0294
   88.5000   -65.3161     7.9401     7.7390     7.4009   141.2947     2.4493     0.1325     0.0291
   89.0000   -65.4032     7.9915     7.8389     7.4853   138.6611     2.4520     0.1293     0.0293
   89.5000   -65.4897     8.0593     7.9400     7.5698   136.5000     2.4553     0.1255     0.0296
   90.0000   -65.5757     8.1659     8.0425     7.6542   137.3354     2.4637     0.1194     0.0298
   90.5000   -65.6616     8.3026     8.1463     7.7333   139.4856     2.4719     0.1134     0.0300
   91.0000   -65.7480     8.4415     8.2513     7.7691   144.6389     2.4801     0.1074     0.0303
   91.5000   -65.8336     8.4757     8.3155     7.8042   150.1521     2.4883     0.1018     0.0305
   92.0000   -65.8850     8.4889     8.3026     7.8399   155.6380     2.4964     0.1031     0.0307
   92.5000   -65.7453     8.5020     8.2935     7.8446   159.8012     2.4971     0.1051     0.0310
   93.0000   -65.6080     8.5152     8.2843     7.8343   160.2186     2.4952     0.1071     0.0307
   93.5000   -65.4710     8.5284     8.2751     7.8237   159.8655     2.4933     0.1086     0.0303
   94.0000   -65.3321     8.5416     8.2660     7.8130   159.7183     2.4915     0.1086     0.0299
   94.5000   -65.3084     8.5492     8.2568     7.8100   160.1669     2.4906     0.1064     0.0296
   95.0000   -65.3081     8.5491     8.2478     7.8100   160.7181     2.4936     0.1062     0.0292
   95.5000   -65.3047     8.5492     8.2388     7.8100   161.1682     2.4930     0.1080     0.0296
   96.0000   -65.1121     8.5491     8.2223     7.8100   161.3295     2.4908     0.1098     0.0308
   96.5000   -64.6556     8.5491     8.2064     7.8100   160.0058     2.4886     0.1103     0.0321
   97.0000   -64.3307     8.5491     8.1906     7.8100   151.3836     2.4877     0.1080     0.0352
   97.5000   -64.4523     8.5491     8.1747     7.7934   138.9283     2.4914     0.1057     0.0446
   98.0000   -64.5645     8.5491     8.1638     7.7600   142.8447     2.4948     0.1054     0.0549
   98.5000   -64.6760     8.5491     8.1780     7.7270   149.5259     2.4981     0.1054     0.0704
   99.0000   -64.7873     8.5491     8.1895     7.6931   156.2469     2.4985     0.1054     0.0855
   99.5000   -64.8953     8.5491     8.2010     7.6061   162.2925     2.4985     0.1054     0.1005
  100.0000   -65.0122     8.5491     8.2125     7.5125   155.7795     2.4985     0.1025     0.1156
  100.5000   -65.1260     8.5491     8.2241     7.4189   146.5125     2.5029     0.0966     0.1203
  101.0000   -65.2401     8.5486     8.2362     7.3252   137.3031     2.5117     0.0908     0.0965
  101.5000   -65.3540     8.5462     8.2390     7.2318   130.1466     2.5205     0.0849     0.0725
  102.0000   -65.4682     8.6885     8.2390     7.1445   127.2794     2.5265     0.0790     0.0483
  102.5000   -65.5838     8.8842     8.2390     7.1215   124.3877     2.5181     0.0903     0.0372
  103.0000   -65.6985     9.0842     8.2390     7.0965   123.6464     2.5089     0.1025     0.0370
  103.5000   -65.5259     9.2888     8.2390     7.0714   123.7635     2.4998     0.1105     0.0370
  104.0000   -65.3254     9.4636     8.2389     7.0529   125.8416     2.4906     0.1106     0.0370
  104.5000   -65.1165     9.4171     8.2327     7.0788   129.4110     2.4817     0.1181     0.0370
  105.0000   -64.7167     9.3773     8.2151     7.1043   132.9587     2.4728     0.1259     0.0370
  105.5000   -64.5458     9.3377     8.1978     7.1591   133.1254     2.4639     0.1344     0.0370
  106.0000   -64.5973     9.2983     8.1805     7.2455   133.1053     2.4551     0.1418     0.0348
  106.5000   -64.6535     9.1492     8.1632     7.3322   133.1001     2.4434     0.1343     0.0310
  107.0000   -64.7059     9.0571     8.1459     7.4190   133.1001     2.4553     0.1266     0.0271
  107.5000   -64.4848     8.9659     8.1287     7.5058   133.0993     2.4773     0.1189     0.0234
