~VERSION INFORMATION
 VERS.                2.0:   CWLS LOG ASCII STANDARD - VERSION 2.0
 WRAP.                 NO:   ONE LINE PER DEPTH STEP
~WELL INFORMATION
#MNEM.UNIT      DATA TYPE    INFORMATION
#----------   ------------   ------------------------------
 STRT.F           18.0000:   START DEPTH
 STOP.F          647.0000:   STOP DEPTH
 STEP.F            0.5000:   STEP LENGTH
 NULL.          -999.2500:   NO VALUE
 COMP. FENIX & SCISSON INC:   COMPANY
 WELL. NAVAL PETROLEUM RESERVE 3 SX-1 #82-15:   WELL
 FLD .        TEAPOT DOME:   FIELD
 LOC .      S15 T38N R78W:   LOCATION
 CNTY.            NATRONA:   COUNTY
 STAT.            WYOMING:   STATE
 CTRY. UNITED STATES OF AMERICA:   COUNTRY
 SRVC.            Unknown:   SERVICE COMPANY
 DATE.        15-MAR-1979:   LOGDATE
 API .       490251076500:   API NUMBER
~CURVE INFORMATION
#MNEM.UNIT       API CODE    CURVE DESCRIPTION
#----------   ------------   ------------------------------
 DEPT.F                  :   
 SPR .MV     05 010 01 00:   SPONTANEOUS POTENTIAL FROM RES.
 SN  .OHMM   05 040 16 00:   SHORT NORMAL 16"
 IL  .OHMM   05 120 00 00:   INDUCTION LOG
 CALD.IN     45 280 60 00:   CALIPER
 GRD .GAPI   45 310 01 00:   GAMMA RAY FROM DENSITY LOG
 RHOB.G/C3   45 350 01 00:   BULK DENSITY
 DPHI.DEC    45 890 12 00:   DENSITY POROSITY SANDSTONE
 CORR.G/C3   45 356 01 00:   DENSITY CORRECTION
~PARAMETER INFORMATION
#MNEM.UNIT          VALUE    DESCRIPTION
#----------   ------------   ------------------------------
 PD  .                 GL:   PERMANENT DATUM
 EPD .F              5249:   ELEVATION PERMANENT DATUM
 LMF .                 KB:   LOG MEASURED FROM
 DAPD.F                 4:   FEET ABOVE PERMANENT DATUM
 DMF .                 KB:   DRILLING MEASURED FROM
 EKB .F              5253:   KELLING BUSHING
 EGL .F              5249:   GROUND LEVEL
 DATE.            1-15-79:   RUN DATE
 RUN .                  1:   RUN NUMBER
 DD  .F               670:   DEPTH DRILLER
 DL  .F               647:   DEPTH LOGGER
 BLI .F               640:   BOTTOM LOG INTERVAL
 TLI .F                30:   TOP LOG INTERVAL
 CS  .IN            8.625:   CASING SIZE
 CBD .F                40:   CASING BOTTOM DRILLER
 CBL .F                34:   CASING BOTTOM LOGGER
 BS  .IN            7.875:   BIT SIZE
 BSD .F               670:   BIT SIZE AT DEPTH
 DFT .                KCL:   DRILLING FLUID TYPE
 DFD .                8.9:   DRILLING FLUID DENSITY
 DFV .                 44:   DRILLING FLUID VISCOSITY
 DFPH.                8.5:   DRILLING FLUID PH
 DFL .               14.8:   DRILLING FLUID LOSS
 MSS .           FLOWLINE:   MUD SAMPLE SOURCE
 RMS .OHMM            .26:   RESISTIVITY MUD SAMPLE
 MST .F                61:   MUD SAMPLE TEMPERATURE
 RMF .OHMM            .25:   RESISTIVITY MUD FILTRATE SAMPLE
 MFST.F                60:   MUD FILTRATE SAMPLE TEMPERATURE
 RMC .OHMM             .2:   RESISTIVITY MUD CAKE
 MCST.F                60:   MUD CAKE SAMPLE TEMPERATURE
 MFSS.           MEASURED:   MUD FILTRATE SAMPLE SOURCE
 MCSS.           MEASURED:   MUD CAKE SAMPLE SOURCE
 RMB .OHMM            .27:   RESISTIVITY MUD AT BHT
 BHT .F                58:   BOTTOM HOLE TEMPERATURE
 TCS .HRS               5:   TIME CURCULATED STOPPED
 MRT .F                58:   MAXIMUM RECORDED TEMPERATURE
 LUN .               3006:   LOGGING UNIT NUMBER
 LUL .             CASPER:   LOGGING UNIT LOCATION
 ENGI.            ROLLINS:   RECORDING ENGINEER
 WITN.              AMEND:   WITNESSED BY
 CLNT.            A2DTECH:   CLIENT CODE
 ORIG.         2.5" PRINT:   ORIGIN OF DATA
 UWI .       490251076500:   UNIQUE WELL ID
 DICO. A2D Technologies, Inc.:   DIGITIZING COMPANY
~OTHER INFORMATION
~A   DEPT      SPR         SN         IL       CALD         GRD      RHOB       DPHI       CORR   
   18.0000  -999.2500  -999.2500  -999.2500  -999.2500    89.0090  -999.2500  -999.2500  -999.2500
   18.5000  -999.2500  -999.2500  -999.2500  -999.2500    88.9900  -999.2500  -999.2500  -999.2500
   19.0000  -999.2500  -999.2500  -999.2500  -999.2500    89.1770  -999.2500  -999.2500  -999.2500
   19.5000  -999.2500  -999.2500  -999.2500  -999.2500    89.5290  -999.2500  -999.2500  -999.2500
   20.0000  -999.2500  -999.2500  -999.2500  -999.2500    90.0200  -999.2500  -999.2500  -999.2500
   20.5000  -999.2500  -999.2500  -999.2500  -999.2500    90.9610  -999.2500  -999.2500  -999.2500
   21.0000  -999.2500  -999.2500  -999.2500  -999.2500    91.9250  -999.2500  -999.2500  -999.2500
   21.5000  -999.2500  -999.2500  -999.2500  -999.2500    92.8680  -999.2500  -999.2500  -999.2500
   22.0000  -999.2500  -999.2500  -999.2500  -999.2500    93.8050  -999.2500  -999.2500  -999.2500
   22.5000  -999.2500  -999.2500  -999.2500  -999.2500    94.9090  -999.2500  -999.2500  -999.2500
   23.0000  -999.2500  -999.2500  -999.2500  -999.2500    94.5800  -999.2500  -999.2500  -999.2500
   23.5000  -999.2500  -999.2500  -999.2500  -999.2500    92.3410  -999.2500  -999.2500  -999.2500
   24.0000  -999.2500  -999.2500  -999.2500  -999.2500    91.8100  -999.2500  -999.2500  -999.2500
   24.5000  -999.2500  -999.2500  -999.2500  -999.2500    91.2760  -999.2500  -999.2500  -999.2500
   25.0000  -999.2500  -999.2500  -999.2500  -999.2500    89.8210  -999.2500  -999.2500  -999.2500
   25.5000  -999.2500  -999.2500  -999.2500  -999.2500    87.8690  -999.2500  -999.2500  -999.2500
   26.0000  -999.2500  -999.2500  -999.2500  -999.2500    86.7050  -999.2500  -999.2500  -999.2500
   26.5000  -999.2500  -999.2500  -999.2500  -999.2500    88.9080  -999.2500  -999.2500  -999.2500
   27.0000  -999.2500  -999.2500  -999.2500  -999.2500    92.7130  -999.2500  -999.2500  -999.2500
   27.5000  -999.2500  -999.2500  -999.2500  -999.2500    92.3760  -999.2500  -999.2500  -999.2500
   28.0000  -999.2500  -999.2500  -999.2500  -999.2500    90.6660  -999.2500  -999.2500  -999.2500
   28.5000  -999.2500  -999.2500  -999.2500  -999.2500    89.3700  -999.2500  -999.2500  -999.2500
   29.0000  -999.2500  -999.2500  -999.2500  -999.2500    89.6550  -999.2500  -999.2500  -999.2500
   29.5000  -999.2500  -999.2500  -999.2500  -999.2500    90.4970  -999.2500  -999.2500  -999.2500
   30.0000  -999.2500  -999.2500  -999.2500  -999.2500    90.8050  -999.2500  -999.2500  -999.2500
   30.5000  -999.2500  -999.2500  -999.2500  -999.2500    89.9180  -999.2500  -999.2500  -999.2500
   31.0000  -999.2500  -999.2500  -999.2500  -999.2500    90.4840  -999.2500  -999.2500  -999.2500
   31.5000  -999.2500  -999.2500  -999.2500  -999.2500    91.3370  -999.2500  -999.2500  -999.2500
   32.0000  -999.2500  -999.2500  -999.2500  -999.2500    91.9350  -999.2500  -999.2500  -999.2500
   32.5000  -999.2500  -999.2500  -999.2500  -999.2500    88.5680  -999.2500  -999.2500  -999.2500
   33.0000  -999.2500  -999.2500  -999.2500  -999.2500    82.6760  -999.2500  -999.2500  -999.2500
   33.5000  -999.2500  -999.2500  -999.2500  -999.2500    75.7660  -999.2500  -999.2500  -999.2500
   34.0000   -64.4530  -999.2500  -999.2500     8.2350    68.6900     2.0080  -999.2500     0.0230
   34.5000   -68.6140  -999.2500  -999.2500     8.2770    63.5220     2.0000  -999.2500     0.2460
   35.0000   -70.3030  -999.2500  -999.2500     8.3870    68.7890     2.0180  -999.2500     0.4590
   35.5000   -73.2270  -999.2500  -999.2500     8.4270    77.4350     2.0070     0.0950     0.5460
   36.0000   -77.0000  -999.2500  -999.2500     8.2090    85.3760     2.0070     0.0950     0.4820
   36.5000   -80.3700  -999.2500  -999.2500     7.9870    94.3330     2.7170     0.0950     0.3420
   37.0000   -81.3870  -999.2500  -999.2500     7.9500   100.4550     2.7190     0.0950     0.2140
   37.5000   -80.3650  -999.2500  -999.2500     8.0260   101.6090     2.6670     0.1160     0.0660
   38.0000   -78.4670  -999.2500  -999.2500     7.9650   103.6380     2.5870     0.1470     0.0460
   38.5000   -76.5420  -999.2500  -999.2500     7.8830   105.5700     2.5080     0.1790     0.0360
   39.0000   -73.4280  -999.2500  -999.2500     7.9020   106.6970     2.4270     0.1940     0.0400
   39.5000   -71.3630  -999.2500  -999.2500     7.9080   105.6980     2.3750     0.1910     0.0350
   40.0000   -71.3960  -999.2500  -999.2500     7.9780   102.4200     2.3750     0.1890     0.0270
   40.5000   -70.3230  -999.2500  -999.2500     8.1150    99.0540     2.3770     0.1870     0.0170
   41.0000   -69.7400  -999.2500  -999.2500     8.2440    95.8260     2.3760     0.1970     0.0120
   41.5000   -69.1620  -999.2500  -999.2500     8.3780    92.3220     2.3640     0.2060     0.0160
   42.0000   -68.7790  -999.2500  -999.2500     8.5080    93.9680     2.3280     0.2470     0.0260
   42.5000   -68.3930  -999.2500  -999.2500     8.6320    97.3990     2.2790     0.2870     0.0400
   43.0000   -68.5360  -999.2500  -999.2500     8.6530   100.9150     2.2300     0.3000     0.0560
   43.5000   -68.7600  -999.2500  -999.2500     8.6690   105.7830     2.1820     0.3000     0.1090
   44.0000   -68.9980     3.8790     1.9060     8.6800   111.5910     2.1330     0.3000     0.1700
   44.5000   -69.2200     3.4560     1.7820     8.6960   117.8890     2.0840     0.3000     0.2350
   45.0000   -69.4520     3.2470     1.8590     8.7080   121.6740     2.0530     0.3000     0.2690
   45.5000   -69.6780     3.1580     1.9390     8.7230   121.2280     2.1200     0.3000     0.2060
   46.0000   -69.9080     3.2140     2.0280     8.7390   119.4150     2.1860     0.2710     0.1470
   46.5000   -70.1330     3.4220     2.7090     8.7450   114.3690     2.2520     0.1910     0.0780
   47.0000   -70.3650     3.6300     3.4790     8.7780   108.8400     2.3180     0.1790     0.0510
   47.5000   -70.5950     3.7980     4.2490     8.5700   101.9360     2.3890     0.1640     0.0380
   48.0000   -70.8080     4.6530     5.0190     8.2210    95.4970     2.4060     0.1570     0.0330
   48.5000   -71.0870     5.3700     5.7890     8.0340    88.6410     2.4310     0.1630     0.0300
   49.0000   -70.8700     6.0870     6.5580     7.9170    86.3730     2.4300     0.1700     0.0280
   49.5000   -70.1580     6.8040     7.3280     7.8780    84.3340     2.4170     0.1780     0.0250
   50.0000   -69.5110     7.6590     8.2460     7.8780    84.4370     2.4050     0.1840     0.0220
   50.5000   -68.8470     8.2050     8.5560     7.9260    86.6860     2.3920     0.1850     0.0220
   51.0000   -68.1810     8.8800     8.7160     8.0420    89.3060     2.3830     0.1860     0.0230
   51.5000   -67.5220     9.7370     8.4350     8.1660    91.9940     2.3800     0.1900     0.0290
   52.0000   -66.8580     9.5460     7.8740     8.1520    93.5290     2.3760     0.1960     0.0480
   52.5000   -66.1960     8.9940     7.3120     8.0550    92.4940     2.3650     0.2020     0.0720
   53.0000   -65.5340     8.4430     6.7500     7.9670    91.5940     2.3550     0.2090     0.0930
   53.5000   -64.8710     7.8910     6.1890     7.9350    92.6420     2.3440     0.2260     0.1170
   54.0000   -64.2080     7.3400     5.6270     7.9060    98.8220     2.3320     0.2430     0.1300
   54.5000   -63.5460     6.7880     5.0660     7.8770   106.6300     2.3000     0.2640     0.1190
   55.0000   -62.8770     6.2370     4.7400     7.9200   114.3560     2.2670     0.2640     0.1100
   55.5000   -62.2940     5.6850     4.7400     8.0080   121.9000     2.2570     0.2470     0.0970
   56.0000   -61.9140     5.4940     5.2760     8.2910   123.8340     2.2830     0.2190     0.0760
   56.5000   -61.5710     5.7970     5.9610     8.6010   114.3410     2.3220     0.1890     0.0560
   57.0000   -61.2280     6.1380     6.6460     8.9110   105.2300     2.3640     0.1890     0.0360
   57.5000   -60.8840     6.4800     7.3310     8.7600    94.6090     2.3880     0.2040     0.0350
   58.0000   -60.5400     6.8220     8.0160     8.4890    93.0100     2.3740     0.1950     0.0430
