~VERSION INFORMATION
 VERS.                2.0:   CWLS LOG ASCII STANDARD - VERSION 2.0
 WRAP.                 NO:   ONE LINE PER DEPTH STEP
~WELL INFORMATION
#MNEM.UNIT      DATA TYPE    INFORMATION
#----------   ------------   ------------------------------
 STRT.F           29.0000:   START DEPTH
 STOP.F          435.0000:   STOP DEPTH
 STEP.F            0.5000:   STEP LENGTH
 NULL.          -999.2500:   NO VALUE
 COMP. FENIX & SCISSON INC:   COMPANY
 WELL.    525 X 10 #52-10:   WELL
 FLD .             TEAPOT:   FIELD
 LOC .      S10 T38N R78W:   LOCATION
 CNTY.            NATRONA:   COUNTY
 STAT.            WYOMING:   STATE
 CTRY. UNITED STATES OF AMERICA:   COUNTRY
 SRVC.       Schlumberger:   SERVICE COMPANY
 DATE.        18-NOV-1978:   LOGDATE
 API .       490251077700:   API NUMBER
~CURVE INFORMATION
#MNEM.UNIT       API CODE    CURVE DESCRIPTION
#----------   ------------   ------------------------------
 DEPT.F                  :   
 NEUT.NAPI   35 330 01 00:   NEUTRON
 SPR .MV     07 010 01 00:   SPONTANEOUS POTENTIAL
 SFL .OHMM   07 220 01 00:   SHALLOW FOCUSED LOG RESISTIVITY
 ILD .OHMM   07 120 46 00:   INDUCTION LOG DEEP RESISTIVITY
 ILM .OHMM   07 120 44 00:   INDUCTION LOG MEDIUM
 CORR.G/C3   45 356 01 00:   DENSITY CORRECTION
 RHOB.G/C3   45 350 01 00:   BULK DENSITY
 DPHI.DEC    45 890 12 00:   DENSITY POROSITY SANDSTONE
 CALD.IN     45 280 60 00:   CALIPER
 GRD .GAPI   45 310 01 00:   GAMMA RAY FROM DENSITY LOG
~PARAMETER INFORMATION
#MNEM.UNIT          VALUE    DESCRIPTION
#----------   ------------   ------------------------------
 PD  .                 GL:   PERMANENT DATUM
 EPD .F              5176:   ELEVATION PERMANENT DATUM
 LMF .                 KB:   LOG MEASURED FROM
 DAPD.F                 4:   FEET ABOVE PERMANENT DATUM
 DMF .                 KB:   DRILLING MEASURED FROM
 EKB .F              5180:   KELLING BUSHING
 EGL .F              5176:   GROUND LEVEL
 DATE.           11-18-78:   RUN DATE
 RUN .                  1:   RUN NUMBER
 DD  .F               433:   DEPTH DRILLER
 DL  .F               435:   DEPTH LOGGER
 BLI .F               429:   BOTTOM LOG INTERVAL
 TLI .F                48:   TOP LOG INTERVAL
 CS  .IN            8.625:   CASING SIZE
 CBD .F                40:   CASING BOTTOM DRILLER
 CBL .F                48:   CASING BOTTOM LOGGER
 BS  .IN            7.875:   BIT SIZE
 BSD .F               433:   BIT SIZE AT DEPTH
 DFT .            KCL MUD:   DRILLING FLUID TYPE
 DFD .                8.5:   DRILLING FLUID DENSITY
 DFV .                 30:   DRILLING FLUID VISCOSITY
 DFPH.                9.6:   DRILLING FLUID PH
 DFL .                 16:   DRILLING FLUID LOSS
 MSS .             MUDPIT:   MUD SAMPLE SOURCE
 RMS .OHMM            .45:   RESISTIVITY MUD SAMPLE
 MST .F                50:   MUD SAMPLE TEMPERATURE
 RMF .OHMM            .37:   RESISTIVITY MUD FILTRATE SAMPLE
 MFST.F                50:   MUD FILTRATE SAMPLE TEMPERATURE
 RMC .OHMM            .43:   RESISTIVITY MUD CAKE
 MCST.F                50:   MUD CAKE SAMPLE TEMPERATURE
 MFSS.                  M:   MUD FILTRATE SAMPLE SOURCE
 MCSS.                  C:   MUD CAKE SAMPLE SOURCE
 RMB .OHMM            .42:   RESISTIVITY MUD AT BHT
 BHT .F                63:   BOTTOM HOLE TEMPERATURE
 TCS .HRS            2400:   TIME CURCULATED STOPPED
 TLAB.HRS            1300:   TIME LOGGER AT BOTTOM
 MRT .F                63:   MAXIMUM RECORDED TEMPERATURE
 LUN .               7663:   LOGGING UNIT NUMBER
 LUL .                GLT:   LOGGING UNIT LOCATION
 ENGI.        SATTERFIELD:   RECORDING ENGINEER
 WITN.              AMEND:   WITNESSED BY
 CLNT.            A2DTECH:   CLIENT CODE
 ORIG.     1", 2.5" PRINT:   ORIGIN OF DATA
 UWI .       490251077700:   UNIQUE WELL ID
 DICO. A2D Technologies, Inc.:   DIGITIZING COMPANY
~OTHER INFORMATION
~A   DEPT     NEUT        SPR        SFL        ILD        ILM       CORR       RHOB       DPHI       CALD         GRD  
# ...
  330.5000   289.1286   -20.9530    15.7568    14.0217    14.7766     0.0245     2.4421     0.1385     8.2564    91.9110
  331.0000   308.1779   -20.2608    16.0736    14.6060    15.3680     0.0110     2.4262     0.1499     8.2523    92.5225
  331.5000   284.6436   -19.7088    16.5227    15.2147    15.9564     0.0025     2.4090     0.1613     8.2438    91.8924
  332.0000   285.3968   -19.1914    17.2801    15.9592    16.7403     0.0047     2.3962     0.1717     8.2359    88.8334
  332.5000   286.3310   -18.6149    19.1176    17.4883    17.9821     0.0161     2.3917     0.1839     8.2278    85.3419
  333.0000   286.4424   -18.4051    21.2530    19.5265    19.9968     0.0146     2.3572     0.1952     8.2197    82.9661
  333.5000   286.5645   -18.4236    24.0592    21.8022    22.2362     0.0128     2.3399     0.2080     8.2117    81.4276
  334.0000   286.6845   -18.4207    27.2359    24.3431    24.7249     0.0068     2.3359     0.2138     8.2035    80.3054
  334.5000   286.8056   -18.4189    30.8609    26.0388    27.4918     0.0082     2.3274     0.2206     8.1956    80.4304
  335.0000   286.9267   -18.4218    34.2363    29.2074    30.5707     0.0145     2.3157     0.2251     8.1876    80.4462
  335.5000   287.0477   -18.4202    38.0813    32.9601    34.1899     0.0167     2.3056     0.2283     8.1787    80.8668
  336.0000   287.1673   -18.4215    41.2040    33.7918    35.2017     0.0135     2.2921     0.2332     8.1774    81.3217
  336.5000   287.2903   -18.4212    38.9392    35.3802    36.8736     0.0116     2.2983     0.2270     8.1856    81.8240
  337.0000   287.4412   -18.4198    37.5195    36.1719    36.8519     0.0155     2.3129     0.2170     8.1929    81.7381
  337.5000   288.0361   -18.4273    37.7617    36.1719    37.1571     0.0196     2.3256     0.2113     8.2003    80.9315
  338.0000   288.6216   -18.3532    38.1127    36.1719    37.5860     0.0234     2.3392     0.2032     8.2079    79.3101
  338.5000   289.2058   -18.1955    39.1576    36.9959    38.0150     0.0258     2.3518     0.1949     8.2153    77.0829
  339.0000   289.7886   -18.0467    42.5980    37.2089    38.4540     0.0159     2.3658     0.1835     8.2228    75.7921
  339.5000   290.3726   -17.8981    47.8097    37.4232    38.9651     0.0080     2.3976     0.1722     8.2303    74.4854
  340.0000   290.9699   -17.7453    46.0813    37.5425    38.3612     0.0115     2.4140     0.1603     8.2377    74.5107
  340.5000   292.2055   -17.5975    42.4246    36.8587    37.6628     0.0166     2.4081     0.1678     8.2451    76.6947
  341.0000   294.3858   -17.4489    40.4417    36.2133    36.9771     0.0205     2.3857     0.1812     8.2530    78.6221
  341.5000   296.5051   -17.2839    40.4417    35.5791    36.1719     0.0245     2.3651     0.1927     8.2558    80.6653
  342.0000   298.2740   -17.2416    40.4417    34.9561    35.4944     0.0287     2.3630     0.1918     8.2542    80.5979
  342.5000   307.4312   -17.3707    37.8932    34.3439    34.6669     0.0318     2.3671     0.1906     8.2532    79.6020
  343.0000   317.7793   -17.4824    35.4865    33.6438    33.8588     0.0213     2.3626     0.1912     8.2520    78.6488
  343.5000   329.7101   -17.5974    33.5788    32.9303    33.0695     0.0120     2.3598     0.1940     8.2508    77.7735
  344.0000   279.4908   -17.7141    32.9601    32.2320    32.2986     0.0060     2.3506     0.1986     8.2497    76.7444
  344.5000   282.8580   -17.8289    33.3707    31.5484    31.5457     0.0025     2.3382     0.2075     8.2485    76.6036
  345.0000   282.5132   -17.9447    33.8116    30.8793    30.8103    -0.0010     2.3271     0.2164     8.2474    78.5283
  345.5000   282.6391   -18.0593    34.2091    30.2245    30.0921    -0.0021     2.3132     0.2219     8.2462    79.5030
  346.0000   282.7195   -18.1772    33.5788    29.6926    29.3906     0.0045     2.3222     0.2111     8.2451    78.8939
  346.5000   282.7999   -18.2884    32.0946    29.2147    28.7055     0.0173     2.3429     0.2018     8.2439    78.4773
  347.0000   282.8803   -18.4128    30.5132    28.7460    28.0363     0.0184     2.3626     0.1935     8.2428    78.0125
  347.5000   282.9607   -18.4416    29.0098    28.2854    27.3827     0.0138     2.3744     0.1854     8.2416    77.9659
  348.0000   283.0411   -18.4693    27.3669    27.8323    26.7444     0.0103     2.3762     0.1830     8.2404    77.8985
  348.5000   283.1216   -18.4919    27.6725    27.3860    26.1209     0.0066     2.3742     0.1835     8.2393    78.6621
  349.0000   283.2020   -18.5179    28.0381    26.8682    25.4051     0.0100     2.3693     0.1865     8.2381    80.4417
  349.5000   283.2824   -18.5426    28.4039    26.7119    24.9370     0.0164     2.3622     0.1895     8.2370    82.1818
  350.0000   283.3628   -18.5674    28.1410    26.5190    24.9498     0.0182     2.3725     0.1798     8.2358    83.0486
  350.5000   283.4432   -18.5924    27.7134    26.3323    25.2444     0.0219     2.3812     0.1850     8.2347    83.1966
  351.0000   283.5236   -18.6173    27.2924    26.1469    25.4913     0.0137     2.3600     0.1983     8.2335    83.4074
  351.5000   283.6040   -18.6422    26.8627    25.9628    25.7413     0.0054     2.3312     0.2121     8.2323    83.8317
  352.0000   283.6844   -18.6672    27.0117    25.8819    25.9949     0.0050     2.3291     0.2094     8.2312    82.0829
  352.5000   283.7648   -18.6920    27.1672    25.7516    26.3647     0.0122     2.3363     0.2041     8.2300    80.4683
  353.0000   283.8452   -18.7173    27.3237    25.6392    26.2941     0.0123     2.3391     0.2059     8.2289    81.3741
  353.5000   283.9257   -18.7416    27.0880    25.5273    26.1476     0.0099     2.3365     0.2081     8.2277    82.9118
  354.0000   284.0061   -18.7666    26.7076    25.4157    25.9983     0.0070     2.3338     0.2089     8.2266    84.3049
  354.5000   284.0865   -18.7931    26.3311    25.3058    25.8539     0.0069     2.3376     0.2062     8.2254    85.8613
  355.0000   284.1671   -18.8117    25.9602    25.1964    25.7104     0.0162     2.3480     0.1970     8.2242    87.1920
  355.5000   284.2475   -18.8769    25.5951    25.0872    25.5676     0.0270     2.3611     0.1907     8.2231    88.4437
  356.0000   284.3265   -18.9768    25.4009    24.9778    25.4257     0.0372     2.3584     0.1922     8.2219    88.1232
  356.5000   284.3133   -19.0596    25.4013    24.8035    25.2845     0.0464     2.3671     0.1898     8.2208    87.5376
  357.0000   284.1806   -19.1581    25.4016    24.5954    25.1441     0.0489     2.3663     0.1854     8.2196    86.5059
  357.5000   284.0493   -19.2572    25.4016    24.3887    25.0045     0.0314     2.3550     0.1937     8.2185    85.1220
  358.0000   283.9174   -19.6241    25.4051    24.1879    24.8657     0.0153     2.3514     0.1984     8.2173    82.9584
  358.5000   283.7857   -19.9437    25.4051    24.0265    24.7276     0.0073     2.3570     0.1946     8.2161    81.6133
  359.0000   283.6531   -20.2832    25.4051    23.5681    24.5903     0.0169     2.3651     0.1908     8.2154    82.3496
  359.5000   283.5169   -20.6102    24.8375    23.1922    24.4775     0.0244     2.3717     0.1870     8.2155    83.7614
  360.0000   283.3998   -20.9505    24.2735    22.8223    24.0414     0.0295     2.3730     0.1830     8.2155    85.2617
  360.5000   284.1312   -21.2686    23.7224    22.4584    23.6761     0.0303     2.3803     0.1788     8.2154    85.2445
  361.0000   284.9354   -21.6323    23.1493    22.1002    23.3164     0.0248     2.3923     0.1725     8.2155    85.3272
  361.5000   285.7386   -21.6570    23.0088    21.7477    22.9621     0.0119     2.3880     0.1746     8.2154    85.5997
  362.0000   286.5437   -21.6654    22.7228    21.4009    22.6141     0.0029     2.3842     0.1781     8.2155    87.1334
  362.5000   287.3163   -21.6575    22.5874    21.0939    22.3056     0.0006     2.3941     0.1724     8.2155    86.5813
  363.0000   287.3445   -21.6611    22.4397    21.1882    22.2460     0.0024     2.4057     0.1592     8.2154    85.5483
  363.5000   287.3403   -21.6603    22.3041    21.5152    22.0416     0.0056     2.4484     0.1416     8.2156    83.4937
