~VERSION INFORMATION
 VERS.                2.0:   CWLS LOG ASCII STANDARD - VERSION 2.0
 WRAP.                 NO:   ONE LINE PER DEPTH STEP
~WELL INFORMATION
#MNEM.UNIT      DATA TYPE    INFORMATION
#----------   ------------   ------------------------------
 STRT.F           41.0000:   START DEPTH
 STOP.F          433.0000:   STOP DEPTH
 STEP.F            0.5000:   STEP LENGTH
 NULL.          -999.2500:   NO VALUE
 COMP. LAWRENCE ALLISON & ASSOC.:   COMPANY
 WELL.   STX 10 #61-42-10:   WELL
 FLD .             TEAPOT:   FIELD
 LOC .      S10 T38N R78W:   LOCATION
 CNTY.            NATRONA:   COUNTY
 STAT.            WYOMING:   STATE
 CTRY. UNITED STATES OF AMERICA:   COUNTRY
 SRVC.              Welex:   SERVICE COMPANY
 DATE.        10-SEP-1987:   LOGDATE
 API .       490251116900:   API NUMBER
~CURVE INFORMATION
#MNEM.UNIT       API CODE    CURVE DESCRIPTION
#----------   ------------   ------------------------------
 DEPT.F                  :   
 GRR .GAPI   07 310 01 00:   GAMMA RAY
 GURD.OHMM   07 220 05 00:   SHALLOW SHORT GUARD RESISTIVITY
 ILD .OHMM   07 120 46 00:   INDUCTION LOG DEEP
 ILM .OHMM   07 120 44 00:   INDUCTION LOG MEDIUM
~PARAMETER INFORMATION
#MNEM.UNIT          VALUE    DESCRIPTION
#----------   ------------   ------------------------------
 PD  .                 GL:   PERMANENT DATUM
 EPD .F              5158:   ELEVATION PERMANENT DATUM
 LMF .                 KB:   LOG MEASURED FROM
 DAPD.F                 8:   FEET ABOVE PERMANENT DATUM
 DMF .                 KB:   DRILLING MEASURED FROM
 EKB .F              5166:   KELLING BUSHING
 EDF .F              5165:   DRILLING FLOOR
 EGL .F              5158:   GROUND LEVEL
 DATE.        10-SEP-1987:   RUN DATE
 RUN .                  1:   RUN NUMBER
 DD  .F               435:   DEPTH DRILLER
 DL  .F               435:   DEPTH LOGGER
 BLI .F               433:   BOTTOM LOG INTERVAL
 TLI .F                41:   TOP LOG INTERVAL
 CS  .IN            9.625:   CASING SIZE
 CBD .F                50:   CASING BOTTOM DRILLER
 CBL .F                50:   CASING BOTTOM LOGGER
 BS  .IN             8.75:   BIT SIZE
 BSD .F               435:   BIT SIZE AT DEPTH
 DFT .            KCL-GEL:   DRILLING FLUID TYPE
 RMS .OHMM            0.5:   RESISTIVITY MUD SAMPLE
 MST .F                80:   MUD SAMPLE TEMPERATURE
 RMF .OHMM           0.43:   RESISTIVITY MUD FILTRATE SAMPLE
 MFST.F                80:   MUD FILTRATE SAMPLE TEMPERATURE
 RMC .OHMM           0.68:   RESISTIVITY MUD CAKE
 MCST.F                80:   MUD CAKE SAMPLE TEMPERATURE
 MFSS.               MEAS:   MUD FILTRATE SAMPLE SOURCE
 MCSS.               MEAS:   MUD CAKE SAMPLE SOURCE
 RMB .OHMM            0.5:   RESISTIVITY MUD AT BHT
 BHT .F                80:   BOTTOM HOLE TEMPERATURE
 TCS .HRS             2.5:   TIME CURCULATED STOPPED
 TLAB.HRS            0314:   TIME LOGGER AT BOTTOM
 MRT .F                80:   MAXIMUM RECORDED TEMPERATURE
 LUN .              51165:   LOGGING UNIT NUMBER
 LUL .              GILTE:   LOGGING UNIT LOCATION
 ENGI.         JD ADDISON:   RECORDING ENGINEER
 WITN.             STRONG:   WITNESSED BY
 CLNT.            A2DTECH:   CLIENT CODE
 ORIG.           5" PRINT:   ORIGIN OF DATA
 UWI .       490251116900:   UNIQUE WELL ID
 DICO. A2D Technologies, Inc.:   DIGITIZING COMPANY
~OTHER INFORMATION
~A   DEPT       GRR      GURD        ILD        ILM   
# ...
  333.0000    70.1173    30.3282    23.0654    19.3153
  333.5000    67.4316    30.7864    24.9000    21.4350
  334.0000    63.2810    31.4190    26.1521    23.4649
  334.5000    59.6867    32.3161    27.1002    24.9959
  335.0000    59.3970    33.0096    28.0490    25.5135
  335.5000    60.9192    33.4854    28.6505    24.9999
  336.0000    63.3399    33.0408    29.2649    25.0100
  336.5000    68.1667    31.7121    29.6864    25.3686
  337.0000    71.1889    29.8114    30.1141    25.9108
  337.5000    67.2951    30.4512    30.3338    26.6483
  338.0000    62.1970    32.6577    29.9313    27.2179
  338.5000    65.2192    34.5764    29.7421    27.9925
  339.0000    66.7377    35.0207    29.5515    27.2400
  339.5000    68.2562    32.6986    29.5658    25.2414
  340.0000    73.0830    31.3836    29.5801    24.2386
  340.5000    79.4318    30.5413    29.5972    24.7592
  341.0000    80.6312    30.5557    28.4078    24.9411
  341.5000    81.2511    31.2115    27.0783    25.1244
  342.0000    82.4688    31.6614    25.9902    24.9588
  342.5000    77.9723    31.0256    25.1188    24.4588
  343.0000    68.9644    29.5725    24.4452    23.8012
  343.5000    69.2799    27.3751    23.9546    23.0017
  344.0000    70.1969    25.5365    23.4739    21.9238
  344.5000    76.2266    24.0657    23.1624    21.1873
  345.0000    79.5496    23.5824    22.6874    21.0499
  345.5000    81.6696    23.4281    22.3722    21.0355
  346.0000    78.0753    23.6047    22.0994    20.9218
  346.5000    74.7458    23.6159    22.1125    20.9324
  347.0000    76.6897    23.6270    22.2764    20.9409
  347.5000    78.1194    23.8024    22.2870    20.8029
  348.0000    77.5327    23.6494    22.2975    20.8134
  348.5000    77.8518    23.4974    22.4602    20.6763
  349.0000    74.2575    23.3464    22.3160    20.8303
  349.5000    70.9640    23.5224    22.1751    20.8388
  350.0000    73.9867    23.7773    22.1858    20.9919
  350.5000    79.5447    23.5204    22.1904    21.1463
  351.0000    83.3022    22.7418    22.1959    21.2897
  351.5000    86.0060    22.7464    22.0463    20.7124
  352.0000    85.6380    22.9090    21.5981    20.2899
  352.5000    83.8942    23.0728    21.1589    19.8760
  353.0000    82.3875    23.2365    20.8726    19.4706
  353.5000    76.0688    22.7649    20.5901    19.3390
  354.0000    70.0508    22.1479    20.5953    19.6111
  354.5000    65.2358    21.6971    20.5995    19.8874
  355.0000    64.0306    21.7016    20.6036    20.1671
  355.5000    67.9368    21.7061    20.4658    20.4507
  356.0000    72.4451    21.7115    20.3289    20.3118
  356.5000    80.1647    21.2697    20.0537    19.7610
  357.0000    89.5814    20.8370    19.7823    19.2245
  357.5000    96.4957    20.1324    19.3801    18.4458
  358.0000   101.9063    19.4517    18.8562    16.5161
  358.5000   102.2049    18.9245    18.3455    15.4147
  359.0000   103.4043    18.2846    17.8487    15.2051
  359.5000    98.8900    17.7891    17.3652    15.5264
  360.0000    93.7743    17.6700    16.8949    15.8540
  360.5000    90.4631    17.7964    16.4374    16.0769
  361.0000    91.0617    17.5561    16.3275    16.1906
  361.5000    89.5543    17.1989    16.3316    16.1928
  362.0000    88.0476    16.9651    16.4483    15.9720
  362.5000    86.5409    16.9694    16.5657    15.5389
  363.0000    84.7335    17.0907    16.7998    15.1171
  363.5000    81.7230    17.2128    16.9198    14.9115
  364.0000    75.4043    17.4563    17.1589    14.6078
  364.5000    72.9954    17.4598    17.0441    14.4091
  365.0000    71.1880    17.4633    16.5825    13.9213
  365.5000    72.4800    17.3345    16.0223    14.1171
  366.0000    80.2039    16.9935    15.6865    14.3156
  366.5000    82.3063    17.1158    15.2722    14.4169
  367.0000    83.8071    16.8840    15.0647    14.5189
  367.5000    85.0072    16.4264    14.8608    14.6216
  368.0000    81.3952    16.0921    14.7614    14.7251
  368.5000    81.0923    15.9836    14.5624    14.6255
  369.0000    80.4871    15.7671    14.3653    14.3277
  369.5000    78.6797    15.5543    14.2684    14.2304
  370.0000    79.6191    15.3436    14.0759    13.9406
  370.5000    81.7874    15.2409    13.8855    13.7505
  371.0000    84.0837    15.0353    13.6976    13.5635
  371.5000    84.3822    14.9338    13.6857    13.7545
  372.0000    82.5741    14.7323    13.6089    13.4744
  372.5000    80.7666    14.5328    13.6122    13.3829
  373.0000    81.3652    14.4347    13.6149    13.2009
  373.5000    81.4606    14.2392    13.6177    13.2031
  374.0000    82.5624    14.1445    13.6204    13.2049
  374.5000    85.6181    14.0498    13.7177    13.2983
  375.0000    89.1733    14.0528    13.8157    13.3001
  375.5000    85.2599    14.1533    14.0109    13.3942
  376.0000    81.6479    14.3541    14.1110    13.4890
  376.5000    78.3367    14.8624    14.1140    13.5043
  377.0000    73.5218    15.3888    14.0194    13.6809
  377.5000    69.8948    16.1558    13.8304    13.7777
  378.0000    71.2542    16.6126    13.7372    13.7796
  378.5000    74.4152    16.1624    13.7407    13.4055
  379.0000    74.7123    15.0848    13.6481    13.1316
  379.5000    79.8222    14.1769    13.6515    12.8642
  380.0000    85.8343    13.6975    13.5595    12.7772
  380.5000    87.3359    13.7004    13.3766    12.7790
  381.0000    86.4299    13.7989    13.1956    12.8760
  381.5000    85.8255    13.9941    13.0090    12.9605
  382.0000    83.3924    14.0941    12.8408    12.7841
  382.5000    80.2707    14.0969    12.6670    12.5238
  383.0000    79.8017    14.0019    12.6703    12.4387
  383.5000    84.3093    13.6231    12.6728    12.3547
  384.0000    87.0132    13.2538    12.6754    12.3568
  384.5000    90.6192    12.9842    12.7659    12.3584
  385.0000    93.0223    12.9868    12.8571    12.4459
  385.5000    89.4104    12.9895    12.8597    12.4476
  386.0000    89.1067    13.0829    12.9516    12.5357
  386.5000    87.6000    13.2679    13.0441    12.6247
  387.0000    87.8979    13.3628    13.0468    12.7140
  387.5000    89.3979    13.3655    13.0500    12.7157
  388.0000    94.2070    13.3682    12.8734    12.5428
  388.5000    98.1139    13.3709    12.6992    12.4580
  389.0000    97.8102    13.2807    12.6136    12.4597
  389.5000    96.6043    13.2841    12.5292    12.2903
  390.0000    95.3984    13.1951    12.4454    12.2072
  390.5000    86.9744    13.1979    12.4485    12.2089
  391.0000    84.8541    13.1095    12.4510    12.1264
  391.5000    85.8827    13.1128    12.5400    12.1284
  392.0000    89.3709    13.0243    12.4561    12.1300
  392.5000    89.9702    12.9378    12.3728    12.1317
  393.0000    88.1620    12.7625    12.2053    12.1333
  393.5000    86.6553    12.6765    11.9571    11.9683
  394.0000    86.0516    12.4192    11.7140    11.6434
  394.5000    88.4540    12.2509    11.4759    11.2492
  395.0000    91.1578    12.0850    11.2431    10.7191
  395.5000    93.5669    11.9959    11.0904    10.3513
  396.0000    95.0977    11.8633    10.9408    10.1450
  396.5000    93.8551    11.7883    10.7928    10.0765
  397.0000    91.1454    11.6833    10.7206    10.0782
  397.5000    89.3379    11.6056    10.6488    10.0097
  398.0000    90.2373    11.3695    10.5047    10.0114
  398.5000    91.7381    11.1356    10.2207     9.8072
  399.0000    92.9382    10.8363     9.8074     9.5409
  399.5000    95.3413    10.6164     9.3459     9.1544
  400.0000    96.2406    10.4003     8.8447     8.5440
  400.5000    92.2287    10.1887     8.2555     7.9025
  401.0000    90.1534     9.9809     7.6524     7.1403
  401.5000  -999.2500     9.5774     7.1426     6.5273
  402.0000  -999.2500     8.5754     6.7056     6.1769
  402.5000  -999.2500     7.1648     6.2963     5.9266
  403.0000  -999.2500     6.5497     6.0126     5.8058
  403.5000  -999.2500     6.2832     6.0138     5.8065
  404.0000  -999.2500     6.6085     6.0568     5.8882
  404.5000  -999.2500     9.3925     6.3585     6.0961
  405.0000  -999.2500    10.4943     7.0062     6.4945
  405.5000  -999.2500    10.2808     7.7199     7.2192
