~VERSION INFORMATION
 VERS.                2.0:   CWLS LOG ASCII STANDARD - VERSION 2.0
 WRAP.                 NO:   ONE LINE PER DEPTH STEP
~WELL INFORMATION
#MNEM.UNIT      DATA TYPE    INFORMATION
#----------   ------------   ------------------------------
 STRT.F          248.0000:   START DEPTH
 STOP.F         2495.0000:   STOP DEPTH
 STEP.F            0.5000:   STEP LENGTH
 NULL.          -999.2500:   NO VALUE
 COMP. FENIX & SCISSON INC:   COMPANY
 WELL.      85 SHX #28-28:   WELL
 FLD .             TEAPOT:   FIELD
 LOC .      S28 T39N R78W:   LOCATION
 CNTY.            NATRONA:   COUNTY
 STAT.            WYOMING:   STATE
 CTRY. UNITED STATES OF AMERICA:   COUNTRY
 SRVC.           BIRDWELL:   SERVICE COMPANY
 DATE.        18-AUG-1979:   LOGDATE
 API .       490251079700:   API NUMBER
~CURVE INFORMATION
#MNEM.UNIT       API CODE    CURVE DESCRIPTION
#----------   ------------   ------------------------------
 DEPT.F                  :   
 CALD.IN     45 280 60 00:   CALIPER
 CORR.G/C3   45 356 01 00:   DENSITY CORRECTION
 RHOB.G/C3   45 350 01 00:   BULK DENSITY
 DPHI.DEC    45 890 12 00:   DENSITY POROSITY SANDSTONE
 GRD .GAPI   45 310 01 00:   GAMMA RAY FROM DENSITY LOG
~PARAMETER INFORMATION
#MNEM.UNIT          VALUE    DESCRIPTION
#----------   ------------   ------------------------------
 PD  .                 GL:   PERMANENT DATUM
 EPD .F              5044:   ELEVATION PERMANENT DATUM
 LMF .                 DF:   LOG MEASURED FROM
 DMF .                 KB:   DRILLING MEASURED FROM
 EKB .F              5054:   KELLING BUSHING
 EDF .F              5052:   DRILLING FLOOR
 EGL .F              5044:   GROUND LEVEL
 DATE.            8-18-79:   RUN DATE
 RUN .                  1:   RUN NUMBER
 DD  .F              2500:   DEPTH DRILLER
 DL  .F              2495:   DEPTH LOGGER
 BLI .F              2495:   BOTTOM LOG INTERVAL
 CS  .IN            9.625:   CASING SIZE
 CBD .F               520:   CASING BOTTOM DRILLER
 CBL .F               505:   CASING BOTTOM LOGGER
 BS  .IN             8.75:   BIT SIZE
 BSD .F              2500:   BIT SIZE AT DEPTH
 DFT .                AIR:   DRILLING FLUID TYPE
 TCS .HRS               2:   TIME CURCULATED STOPPED
 ENGI.          B. MILLER:   RECORDING ENGINEER
 WITN.           DINSMORE:   WITNESSED BY
 CLNT.            A2DTECH:   CLIENT CODE
 ORIG.           5" PRINT:   ORIGIN OF DATA
 UWI .       490251079700:   UNIQUE WELL ID
 DICO. A2D Technologies, Inc.:   DIGITIZING COMPANY
~OTHER INFORMATION
~A   DEPT     CALD       CORR       RHOB       DPHI         GRD  
# ...
 1285.0000     9.8226     0.0369     2.4321     0.0638   140.5406
 1285.5000     9.8055     0.0558     2.4315     0.0655   138.4661
 1286.0000     9.7918     0.0624     2.4332     0.0652   136.8085
 1286.5000     9.8099     0.0577     2.4336     0.0588   137.5475
 1287.0000     9.8294     0.0524     2.4397     0.0634   142.1744
 1287.5000     9.8487     0.0513     2.4182     0.0750   146.8114
 1288.0000     9.8680     0.0532     2.3902     0.0900   150.9061
 1288.5000     9.8873     0.0767     2.3866     0.0916   149.7013
 1289.0000     9.9066     0.1024     2.4065     0.0792   148.4902
 1289.5000     9.9258     0.1282     2.4212     0.0696   147.2905
 1290.0000     9.9451     0.1426     2.4252     0.0696   146.0944
 1290.5000     9.9644     0.1568     2.4140     0.0759   145.0328
 1291.0000     9.9836     0.1701     2.4011     0.0828   144.8146
 1291.5000    10.0029     0.2114     2.4209     0.0647   145.3568
 1292.0000    10.0222     0.2397     2.4471     0.0544   145.7969
 1292.5000    10.0415     0.2639     2.4569     0.0459   144.0158
 1293.0000    10.0608     0.2785     2.4655     0.0457   141.4166
 1293.5000    10.0800     0.2869     2.4672     0.0455   139.9850
 1294.0000    10.0901     0.2836     2.4684     0.0359   141.1535
 1294.5000    10.0673     0.2690     2.4895     0.0267   142.2225
 1295.0000    10.0365     0.2365     2.5100     0.0174   142.4116
 1295.5000    10.0055     0.2016     2.5231     0.0135   142.9164
 1296.0000     9.9745     0.1667     2.5056     0.0194   143.6164
 1296.5000     9.9756     0.1341     2.4867     0.0405   144.5457
 1297.0000    10.0007     0.1068     2.4728     0.0444   145.3578
 1297.5000    10.0252     0.0802     2.4641     0.0487   146.1837
 1298.0000    10.0489     0.0588     2.4562     0.0516   146.9851
 1298.5000    10.0430     0.0486     2.4634     0.0452   146.4464
 1299.0000    10.0245     0.0389     2.4647     0.0527   143.4995
 1299.5000    10.0063     0.0295     2.4476     0.0611   139.4670
 1300.0000     9.9901     0.0316     2.4309     0.0671   137.9383
 1300.5000     9.9922     0.0420     2.4208     0.0696   146.1766
 1301.0000     9.9965     0.0525     2.4210     0.0687   149.7911
 1301.5000    10.0007     0.0619     2.4412     0.0551   149.4504
 1302.0000    10.0049     0.0479     2.4591     0.0525   154.0537
 1302.5000    10.0091     0.0235     2.4536     0.0546   147.1684
 1303.0000    10.0134     0.0101     2.4483     0.0575   142.9101
 1303.5000    10.0176     0.0004     2.4380     0.0609   142.5395
 1304.0000    10.0218    -0.0053     2.4259     0.0671   152.7141
 1304.5000    10.0261    -0.0016     2.4138     0.0752   161.8293
 1305.0000    10.0303     0.0107     2.4045     0.0813   158.5204
 1305.5000    10.0345     0.0419     2.4036     0.0816   155.3765
 1306.0000    10.0387     0.0767     2.4027     0.0818   152.2533
 1306.5000    10.0430     0.1115     2.4093     0.0752   149.1362
 1307.0000    10.0472     0.1464     2.4248     0.0684   145.9620
 1307.5000    10.0514     0.1756     2.4181     0.0748   145.0556
 1308.0000    10.0556     0.2012     2.4078     0.0814   151.2214
 1308.5000    10.0599     0.2206     2.3985     0.0844   157.9263
 1309.0000    10.0641     0.2269     2.4154     0.0669   158.0115
 1309.5000    10.0684     0.2484     2.4587     0.0457   152.0093
 1310.0000    10.0698     0.2651     2.4785     0.0327   147.5965
 1310.5000    10.0667     0.2697     2.4910     0.0267   143.2542
 1311.0000    10.0624     0.2470     2.4958     0.0346   140.6743
 1311.5000    10.0580     0.2248     2.4561     0.0506   145.4764
 1312.0000    10.0538     0.2029     2.4178     0.0734   149.0031
 1312.5000    10.0493     0.1973     2.4155     0.0772   150.3321
 1313.0000    10.0347     0.2062     2.4239     0.0671   153.8735
 1313.5000    10.0334     0.1961     2.4367     0.0604   154.0747
 1314.0000    10.0382     0.1861     2.4489     0.0509   147.5491
 1314.5000    10.0426     0.1761     2.4615     0.0483   143.0845
 1315.0000    10.0469     0.1667     2.4633     0.0463   143.1167
 1315.5000    10.0512     0.1648     2.4413     0.0599   146.1019
 1316.0000    10.0555     0.1779     2.4261     0.0740   145.8184
 1316.5000    10.0598     0.2144     2.4178     0.0693   144.6606
 1317.0000    10.0642     0.2630     2.4439     0.0517   143.6790
 1317.5000    10.0685     0.3115     2.4788     0.0315   146.3372
 1318.0000    10.0728     0.3196     2.5064     0.0220   152.1866
 1318.5000    10.0771     0.2591     2.5095     0.0238   153.2635
 1319.0000    10.0814     0.2099     2.4853     0.0397   148.4958
 1319.5000    10.0857     0.1621     2.4522     0.0564   144.2701
 1320.0000    10.0901     0.1677     2.4374     0.0543   140.0334
 1320.5000    10.0944     0.1803     2.4449     0.0641   135.7849
 1321.0000    10.0987     0.1863     2.4340     0.0664   135.6874
 1321.5000    10.1030     0.1774     2.4410     0.0603   138.8339
 1322.0000    10.1072     0.1428     2.4277     0.0721   139.7017
 1322.5000    10.1103     0.0920     2.4098     0.0817   140.6478
 1323.0000    10.1244     0.0960     2.3944     0.0871   145.4637
 1323.5000    10.1381     0.1137     2.4015     0.0825   151.8252
 1324.0000    10.1518     0.1304     2.3984     0.0851   140.6503
 1324.5000    10.1654     0.1412     2.4029     0.0800   131.4445
 1325.0000    10.1790     0.1517     2.3950     0.0838   129.8751
 1325.5000    10.1927     0.1949     2.3908     0.0876   131.5452
 1326.0000    10.2067     0.2447     2.4390     0.0461   132.8760
 1326.5000    10.1961     0.2909     2.4748     0.0375   133.4447
 1327.0000    10.1746     0.2921     2.4823     0.0400   134.2551
 1327.5000    10.1529     0.2834     2.4711     0.0434   142.7281
 1328.0000    10.1312     0.2795     2.4723     0.0376   147.4108
 1328.5000    10.1095     0.2918     2.4881     0.0333   141.2471
 1329.0000    10.0878     0.2736     2.4678     0.0459   141.0627
 1329.5000    10.0661     0.2549     2.4347     0.0696   141.7912
 1330.0000    10.0447     0.2650     2.4258     0.0599   141.8035
 1330.5000    10.0296     0.3054     2.4671     0.0389   142.0777
 1331.0000    10.0276     0.3454     2.5136     0.0123   143.6191
 1331.5000    10.0210     0.3512     2.5537    -0.0053   146.2451
 1332.0000    10.0145     0.3163     2.5375     0.0052   140.3452
 1332.5000    10.0080     0.2636     2.5231     0.0119   135.7044
 1333.0000    10.0014     0.2272     2.5174     0.0172   137.4917
 1333.5000     9.9949     0.1903     2.5101     0.0196   143.3986
 1334.0000     9.9884     0.1536     2.4960     0.0282   148.0829
 1334.5000     9.9819     0.1257     2.4898     0.0322   147.8480
 1335.0000     9.9754     0.1019     2.4843     0.0382   141.6487
 1335.5000     9.9689     0.0785     2.4663     0.0501   138.7300
 1336.0000     9.9623     0.0717     2.4490     0.0565   141.7512
 1336.5000     9.9558     0.0784     2.4408     0.0591   147.3065
 1337.0000     9.9493     0.0735     2.4338     0.0616   148.3735
 1337.5000     9.9428     0.0630     2.4399     0.0613   147.9733
 1338.0000     9.9363     0.0527     2.4339     0.0599   144.1946
 1338.5000     9.9298     0.0422     2.4342     0.0620   144.4201
 1339.0000     9.9233     0.0385     2.4442     0.0577   147.2148
 1339.5000     9.9167     0.0386     2.4536     0.0487   148.2249
 1340.0000     9.9102     0.0490     2.4737     0.0386   145.7787
 1340.5000     9.9037     0.0601     2.4958     0.0283   142.3054
 1341.0000     9.8972     0.0640     2.4969     0.0294   139.9566
 1341.5000     9.8907     0.0444     2.4883     0.0384   141.5136
 1342.0000     9.8842     0.0243     2.4677     0.0507   143.4096
 1342.5000     9.8777     0.0100     2.4485     0.0564   144.4605
 1343.0000     9.8711     0.0007     2.4416     0.0600   143.0643
 1343.5000     9.8646    -0.0023     2.4342     0.0654   138.6354
 1344.0000     9.8581    -0.0052     2.4268     0.0696   132.1944
 1344.5000     9.8516    -0.0018     2.4194     0.0740   135.8780
 1345.0000     9.8451     0.0094     2.4113     0.0767   141.3103
 1345.5000     9.8385     0.0312     2.4228     0.0693   146.7702
