~VERSION INFORMATION
 VERS.                2.0:   CWLS LOG ASCII STANDARD - VERSION 2.0
 WRAP.                 NO:   ONE LINE PER DEPTH STEP
~WELL INFORMATION
#MNEM.UNIT      DATA TYPE    INFORMATION
#----------   ------------   ------------------------------
 STRT.F          750.0000:   START DEPTH
 STOP.F         1490.0000:   STOP DEPTH
 STEP.F            0.5000:   STEP LENGTH
 NULL.          -999.2500:   NO VALUE
 COMP.    FENIX & SCISSON:   COMPANY
 WELL.  53 STX 15 #53 -15:   WELL
 FLD .             TEAPOT:   FIELD
 LOC .      S15 T38N R78W:   LOCATION
 CNTY.            NATRONA:   COUNTY
 STAT.            WYOMING:   STATE
 CTRY. UNITED STATES OF AMERICA:   COUNTRY
 SRVC.              Welex:   SERVICE COMPANY
 DATE.        01-JUN-1980:   LOGDATE
 API .       490251082000:   API NUMBER
~CURVE INFORMATION
#MNEM.UNIT       API CODE    CURVE DESCRIPTION
#----------   ------------   ------------------------------
 DEPT.F                  :   
 CALD.IN     45 280 60 00:   CALIPER
 GRD .GAPI   45 310 01 00:   GAMMA RAY FROM DENSITY LOG
 CORR.G/C3   45 356 01 00:   DENSITY CORRECTION
 RHOB.G/C3   45 350 01 00:   BULK DENSITY
 DPHI.DEC    45 890 12 00:   DENSITY POROSITY SANDSTONE
~PARAMETER INFORMATION
#MNEM.UNIT          VALUE    DESCRIPTION
#----------   ------------   ------------------------------
 PD  .                 GL:   PERMANENT DATUM
 EPD .F              5257:   ELEVATION PERMANENT DATUM
 LMF .                 KB:   LOG MEASURED FROM
 DAPD.F                10:   FEET ABOVE PERMANENT DATUM
 DMF .                 KB:   DRILLING MEASURED FROM
 EKB .F              5267:   KELLING BUSHING
 EGL .F              5257:   GROUND LEVEL
 DATE.             6-1-80:   RUN DATE
 RUN .                  1:   RUN NUMBER
 DD  .F              1498:   DEPTH DRILLER
 DL  .F              1492:   DEPTH LOGGER
 BLI .F              1490:   BOTTOM LOG INTERVAL
 TLI .F               750:   TOP LOG INTERVAL
 CS  .IN            9.625:   CASING SIZE
 CBD .F               772:   CASING BOTTOM DRILLER
 BS  .IN             8.75:   BIT SIZE
 BSD .F              1498:   BIT SIZE AT DEPTH
 DFT .        AIR DRILLED:   DRILLING FLUID TYPE
 TCS .HRS               4:   TIME CURCULATED STOPPED
 MRT .F                88:   MAXIMUM RECORDED TEMPERATURE
 ENGI.               REIN:   RECORDING ENGINEER
 WITN.            RHOADES:   WITNESSED BY
 CLNT.            A2DTECH:   CLIENT CODE
 ORIG.           5" PRINT:   ORIGIN OF DATA
 UWI .       490251082000:   UNIQUE WELL ID
 DICO. A2D Technologies, Inc.:   DIGITIZING COMPANY
~OTHER INFORMATION
~A   DEPT     CALD         GRD      CORR       RHOB       DPHI   
# ...
 1116.0000     9.2228    85.1121     0.0474     2.4761     0.0440
 1116.5000     9.2381    84.3265     0.0428     2.4722     0.0432
 1117.0000     9.2485    84.1936     0.0428     2.4582     0.0505
 1117.5000     9.2148    84.8631     0.0422     2.4502     0.0625
 1118.0000     9.1808    85.5212     0.0485     2.4569     0.0588
 1118.5000     9.1499    86.1786     0.0595     2.4681     0.0495
 1119.0000     9.1586    86.8360     0.0706     2.4813     0.0442
 1119.5000     9.1697    87.4909     0.0677     2.4778     0.0387
 1120.0000     9.0934    87.9855     0.0651     2.4585     0.0474
 1120.5000     9.0247    88.1894     0.0628     2.4556     0.0563
 1121.0000     9.1088    88.3025     0.0596     2.4573     0.0533
 1121.5000     9.1992    87.4337     0.0575     2.4450     0.0593
 1122.0000     9.1562    86.4546     0.0525     2.4290     0.0691
 1122.5000     9.0963    85.6002     0.0414     2.4141     0.0822
 1123.0000     9.1082    86.1570     0.0520     2.4153     0.0835
 1123.5000     9.1923    86.7253     0.0637     2.4526     0.0702
 1124.0000     9.2472    87.2798     0.0737     2.4592     0.0540
 1124.5000     9.1791    87.5669     0.0806     2.4529     0.0548
 1125.0000     9.1145    87.0728     0.0516     2.4493     0.0567
 1125.5000     9.0711    86.5781     0.0364     2.4200     0.0648
 1126.0000     9.1056    86.8315     0.0352     2.4114     0.0875
 1126.5000     9.1393    87.0612     0.0459     2.4331     0.0777
 1127.0000     9.1699    86.2834     0.0566     2.4514     0.0663
 1127.5000     9.1744    85.8759     0.0674     2.4577     0.0528
 1128.0000     9.1844    85.9802     0.0661     2.4605     0.0564
 1128.5000     9.1784    86.1123     0.0589     2.4534     0.0524
 1129.0000     9.1584    86.1865     0.0542     2.4445     0.0592
 1129.5000     9.1380    85.8072     0.0535     2.4471     0.0673
 1130.0000     9.1392    85.6741     0.0652     2.4737     0.0568
 1130.5000     9.1580    85.5448     0.0680     2.4845     0.0392
 1131.0000     9.1763    85.4190     0.0633     2.4832     0.0362
 1131.5000     9.1691    85.2930     0.0586     2.4736     0.0436
 1132.0000     9.1093    85.1669     0.0559     2.4797     0.0467
 1132.5000     9.1947    85.0391     0.0573     2.4881     0.0369
 1133.0000     9.2917    84.8001     0.0668     2.4967     0.0309
 1133.5000     9.2751    84.3481     0.0733     2.4915     0.0254
 1134.0000     9.2594    83.8993     0.0653     2.4726     0.0396
 1134.5000     9.2494    83.4513     0.0600     2.4525     0.0545
 1135.0000     9.2495    83.0040     0.0559     2.4388     0.0645
 1135.5000     9.2495    82.4852     0.0518     2.4416     0.0669
 1136.0000     9.2495    82.2495     0.0552     2.4461     0.0638
 1136.5000     9.2495    82.2405     0.0577     2.4506     0.0605
 1137.0000     9.2495    82.2403     0.0472     2.4502     0.0577
 1137.5000     9.2495    82.2486     0.0419     2.4343     0.0656
 1138.0000     9.2495    82.4889     0.0391     2.4401     0.0689
 1138.5000     9.2495    83.1650     0.0338     2.4472     0.0629
 1139.0000     9.2495    83.7796     0.0373     2.4451     0.0620
 1139.5000     9.2495    84.3942     0.0453     2.4476     0.0631
 1140.0000     9.2495    85.0100     0.0534     2.4532     0.0588
 1140.5000     9.2495    85.6249     0.0617     2.4640     0.0545
 1141.0000     9.2495    86.2459     0.0577     2.4663     0.0483
 1141.5000     9.2495    86.4676     0.0581     2.4591     0.0560
 1142.0000     9.2495    86.5212     0.0657     2.4660     0.0508
 1142.5000     9.2495    86.5718     0.0737     2.4808     0.0483
 1143.0000     9.2495    86.6219     0.0845     2.4984     0.0359
 1143.5000     9.2496    86.6725     0.0954     2.5117     0.0231
 1144.0000     9.2498    86.7206     0.0966     2.5008     0.0173
 1144.5000     9.2476    86.7865     0.0828     2.4940     0.0306
 1145.0000     9.2012    86.2771     0.0697     2.4808     0.0331
 1145.5000     9.1543    85.9185     0.0570     2.4618     0.0481
 1146.0000     9.1115    85.5383     0.0414     2.4356     0.0628
 1146.5000     9.0722    85.1585     0.0305     2.4414     0.0669
 1147.0000     9.0820    84.7771     0.0393     2.4581     0.0581
 1147.5000     9.0883    84.4023     0.0479     2.4748     0.0477
 1148.0000     9.1085    84.4781     0.0566     2.4780     0.0427
 1148.5000     9.1370    85.0078     0.0633     2.4934     0.0347
 1149.0000     9.1659    85.5054     0.0730     2.4999     0.0245
 1149.5000     9.1949    85.3268     0.0826     2.4940     0.0308
 1150.0000     9.2238    84.3354     0.0718     2.4887     0.0372
 1150.5000     9.2503    83.3833     0.0582     2.4662     0.0474
 1151.0000     9.2496    82.4361     0.0518     2.4514     0.0608
 1151.5000     9.2495    81.4807     0.0407     2.4479     0.0587
 1152.0000     9.2495    81.0220     0.0298     2.4289     0.0679
 1152.5000     9.2495    82.0487     0.0186     2.4172     0.0811
 1153.0000     9.2497    83.4206     0.0070     2.4071     0.0847
 1153.5000     9.2067    84.7971     0.0090     2.3947     0.0921
 1154.0000     9.1319    86.1783     0.0139     2.3989     0.0969
 1154.5000     9.1353    86.4973     0.0050     2.4134     0.0864
 1155.0000     9.1429    85.7684    -0.0074     2.4180     0.0801
 1155.5000     9.1489    85.0369     0.0070     2.4351     0.0725
 1156.0000     9.1419    84.3023     0.0153     2.4488     0.0648
 1156.5000     9.1237    83.5665     0.0257     2.4602     0.0568
 1157.0000     9.1056    82.8649     0.0370     2.4766     0.0466
 1157.5000     9.0875    82.7532     0.0483     2.4842     0.0385
 1158.0000     9.0690    82.5367     0.0555     2.4947     0.0332
 1158.5000     9.0492    82.3131     0.0481     2.4866     0.0278
 1159.0000     9.0969    82.2826     0.0411     2.4588     0.0401
 1159.5000     9.1422    83.2290     0.0392     2.4481     0.0549
 1160.0000     9.1878    84.1923     0.0459     2.4561     0.0629
 1160.5000     9.2269    85.1236     0.0527     2.4680     0.0552
 1161.0000     9.1865    85.5671     0.0610     2.4706     0.0496
 1161.5000     9.1490    85.1569     0.0658     2.4809     0.0455
 1162.0000     9.1681    84.7740     0.0595     2.5082     0.0323
 1162.5000     9.1942    84.3931     0.0698     2.4970     0.0192
 1163.0000     9.2320    84.0179     0.0740     2.4805     0.0293
 1163.5000     9.1957    83.7481     0.0634     2.4788     0.0399
 1164.0000     9.0972    83.7871     0.0611     2.4715     0.0431
 1164.5000     9.0055    83.8963     0.0753     2.4676     0.0499
 1165.0000     9.0186    83.9774     0.0731     2.4799     0.0508
 1165.5000     9.0274    84.4569     0.0764     2.4950     0.0281
 1166.0000     9.0241    84.8800     0.0791     2.4855     0.0338
 1166.5000     9.1403    85.3284     0.0733     2.4978     0.0386
 1167.0000     9.1866    85.7040     0.0807     2.5063     0.0221
 1167.5000     9.1238    86.1003     0.0793     2.4944     0.0233
 1168.0000     9.0667    86.3936     0.0680     2.4667     0.0395
 1168.5000     9.1052    86.6377     0.0670     2.4752     0.0490
 1169.0000     9.1671    87.5566     0.0733     2.4782     0.0387
 1169.5000     9.2294    88.2849     0.0742     2.4742     0.0455
 1170.0000     9.2882    88.7604     0.0751     2.4830     0.0416
 1170.5000     9.2808    89.3462     0.0687     2.4782     0.0378
 1171.0000     9.2335    89.9361     0.0589     2.4669     0.0432
 1171.5000     9.1913    90.5255     0.0528     2.4630     0.0510
 1172.0000     9.1697    91.1138     0.0464     2.4659     0.0473
 1172.5000     9.1773    91.7106     0.0459     2.4556     0.0604
 1173.0000     9.1850    91.7873     0.0600     2.4747     0.0508
 1173.5000     9.1929    91.6335     0.0700     2.5000     0.0425
 1174.0000     9.2007    91.9022     0.0761     2.5167     0.0239
 1174.5000     9.2080    92.3170     0.0770     2.5213     0.0132
 1175.0000     9.1881    92.5669     0.0676     2.4985     0.0128
 1175.5000     9.1457    92.7999     0.0638     2.4920     0.0338
 1176.0000     9.1142    92.3974     0.0685     2.5177     0.0220
 1176.5000     9.1706    91.5924     0.0860     2.5161     0.0153
