~VERSION INFORMATION
 VERS.                2.0:   CWLS LOG ASCII STANDARD - VERSION 2.0
 WRAP.                 NO:   ONE LINE PER DEPTH STEP
~WELL INFORMATION
#MNEM.UNIT      DATA TYPE    INFORMATION
#----------   ------------   ------------------------------
 STRT.F           30.0000:   START DEPTH
 STOP.F          770.5000:   STOP DEPTH
 STEP.F            0.5000:   STEP LENGTH
 NULL.          -999.2500:   NO VALUE
 COMP. FENIX & SCISSON INC:   COMPANY
 WELL. TEAPOT DOME 63 SX 34 #63-34:   WELL
 FLD .             TEAPOT:   FIELD
 LOC .      S34 T39N R78W:   LOCATION
 CNTY.            NATRONA:   COUNTY
 STAT.            WYOMING:   STATE
 CTRY. UNITED STATES OF AMERICA:   COUNTRY
 SRVC.           BIRDWELL:   SERVICE COMPANY
 DATE.        18-AUG-1978:   LOGDATE
 API .       490251070300:   API NUMBER
~CURVE INFORMATION
#MNEM.UNIT       API CODE    CURVE DESCRIPTION
#----------   ------------   ------------------------------
 DEPT.F                  :   
 SPR .MV     05 010 01 00:   SPONTANEOUS POTENTIAL
 SN  .OHMM   05 040 16 00:   SHORT NORMAL 16'
 ILD .OHMM   05 120 46 00:   INDUCTION LOG DEEP RESISTIVITY
 CALD.IN     45 280 60 00:   CALIPER
 GRD .GAPI   45 310 01 00:   GAMMA RAY FROM DENSITY LOG
 RHOB.G/C3   45 350 01 00:   BULK DENSITY
 DPHI.DEC    45 890 12 00:   DENSITY POROSITY SANDSTONE
 CORR.G/C3   45 356 01 00:   DENSITY CORRECTION
~PARAMETER INFORMATION
#MNEM.UNIT          VALUE    DESCRIPTION
#----------   ------------   ------------------------------
 PD  .                 GL:   PERMANENT DATUM
 EPD .F              5063:   ELEVATION PERMANENT DATUM
 LMF .                 KB:   LOG MEASURED FROM
 DAPD.F                 4:   FEET ABOVE PERMANENT DATUM
 DMF .                 KB:   DRILLING MEASURED FROM
 EKB .F              5067:   KELLING BUSHING
 EGL .F              5063:   GROUND LEVEL
 DATE.          8-18-1978:   RUN DATE
 RUN .                  1:   RUN NUMBER
 DD  .F               760:   DEPTH DRILLER
 DL  .F               770:   DEPTH LOGGER
 BLI .F               763:   BOTTOM LOG INTERVAL
 TLI .F                40:   TOP LOG INTERVAL
 CS  .IN            8.625:   CASING SIZE
 CBD .F                40:   CASING BOTTOM DRILLER
 CBL .F                40:   CASING BOTTOM LOGGER
 BS  .IN            7.875:   BIT SIZE
 BSD .F               760:   BIT SIZE AT DEPTH
 DFT .            MUD KCL:   DRILLING FLUID TYPE
 DFL .               10.6:   DRILLING FLUID LOSS
 MSS .          FLOW LINE:   MUD SAMPLE SOURCE
 RMS .OHMM             .2:   RESISTIVITY MUD SAMPLE
 MST .F                56:   MUD SAMPLE TEMPERATURE
 RMF .OHMM             .2:   RESISTIVITY MUD FILTRATE SAMPLE
 MFST.F                64:   MUD FILTRATE SAMPLE TEMPERATURE
 RMC .OHMM            .36:   RESISTIVITY MUD CAKE
 MCST.F                64:   MUD CAKE SAMPLE TEMPERATURE
 MFSS.               MEAS:   MUD FILTRATE SAMPLE SOURCE
 MCSS.               MEAS:   MUD CAKE SAMPLE SOURCE
 TCS .HRS               3:   TIME CURCULATED STOPPED
 MRT .F                72:   MAXIMUM RECORDED TEMPERATURE
 LUN .               3006:   LOGGING UNIT NUMBER
 LUL .               CASP:   LOGGING UNIT LOCATION
 ENGI.           REYNOLDS:   RECORDING ENGINEER
 WITN.              AMEND:   WITNESSED BY
 CLNT.            A2DTECH:   CLIENT CODE
 ORIG.           5" PRINT:   ORIGIN OF DATA
 UWI .       490251070300:   UNIQUE WELL ID
 DICO. A2D Technologies, Inc.:   DIGITIZING COMPANY
~OTHER INFORMATION
~A   DEPT      SPR         SN        ILD       CALD         GRD      RHOB       DPHI       CORR   
# ...
  516.0000   -73.3350     6.2454     4.5742     7.0727    94.4579     2.3834     0.1737     0.0230
  516.5000   -73.2469     6.3104     4.5742     7.0779    95.2668     2.3755     0.1781     0.0315
  517.0000   -73.2028     6.3756     4.3284     7.0831    95.6769     2.3710     0.1765     0.0394
  517.5000   -73.1495     6.4261     4.0590     7.0882    96.6177     2.3723     0.1669     0.0725
  518.0000   -73.0948     6.1431     4.0590     7.0934    98.2269     2.3989     0.1458     0.1061
  518.5000   -73.0594     5.9220     4.0590     7.0986    98.8114     2.4595     0.1272     0.0617
  519.0000   -73.3855     5.7087     4.0590     7.1038    94.2475     2.4525     0.1249     0.0215
  519.5000   -73.7210     5.5481     4.0590     7.1089    92.5553     2.4591     0.1207     0.0203
  520.0000   -74.0548     5.5893     4.0587     7.1141    92.1188     2.4677     0.1170     0.0210
  520.5000   -74.3881     5.6299     4.0800     7.1193    92.1009     2.4702     0.1169     0.0217
  521.0000   -74.7215     5.6709     4.1142     7.1246    92.6889     2.4677     0.1168     0.0224
  521.5000   -75.0551     5.8165     4.3274     7.1302    93.3439     2.4663     0.1167     0.0231
  522.0000   -75.3892     6.3753     4.8310     7.1292    93.4959     2.4658     0.1171     0.0238
  522.5000   -75.6313     6.9814     5.2330     7.0611    93.4996     2.4615     0.1213     0.0266
  523.0000   -75.8537     6.9579     5.4286     6.9941    93.1227     2.4558     0.1255     0.0316
  523.5000   -76.0763     6.9289     5.5481     6.9531    91.1206     2.4498     0.1297     0.0366
  524.0000   -76.2986     6.9001     5.3285     6.9355    88.5879     2.4415     0.1355     0.0428
  524.5000   -76.5155     6.8714     5.1189     6.8928    88.8275     2.4326     0.1429     0.0496
  525.0000   -76.3924     6.8248     4.9176     6.7920    89.9986     2.4236     0.1503     0.0636
  525.5000   -75.6586     6.6796     4.7241     6.4882    94.7787     2.4158     0.1521     0.0987
  526.0000   -74.6545     6.5375     4.5742     6.3714   100.8632     2.4501     0.1291     0.1348
  526.5000   -73.6519     6.3985     4.5742     7.0314    99.6500     2.4802     0.1094     0.1261
  527.0000   -72.6390     6.2624     4.6294     6.4959    97.6570     2.4808     0.1177     0.1085
  527.5000   -72.1225     6.1292     4.6694     6.5664    95.5927     2.4628     0.1300     0.1044
  528.0000   -71.7135     5.9714     4.7097     6.5986    93.6823     2.4452     0.1413     0.1325
  528.5000   -71.3071     6.0438     4.7504     6.5546    93.2860     2.4322     0.1226     0.1630
  529.0000   -70.8998     6.1369     4.7914     6.5303    93.0317     2.4732     0.1026     0.1846
  529.5000   -70.4958     6.3608     4.8335     6.5295    91.8720     2.4862     0.1002     0.1916
  530.0000   -70.2371     6.8132     5.2552     6.5614    90.6544     2.4903     0.0974     0.2150
  530.5000   -70.2410     7.2974     5.7225     6.6084    90.4854     2.5120     0.0836     0.2399
  531.0000   -70.2403     7.7387     6.1550     6.6559    90.7293     2.5335     0.0685     0.2659
  531.5000   -70.2405     7.8210     6.2506     6.7023    89.3136     2.5549     0.0533     0.2689
  532.0000   -70.2405     7.9402     6.3101     6.6930    85.7726     2.5760     0.0419     0.2538
  532.5000   -70.2405     7.9303     6.2115     6.6654    82.2704     2.5900     0.0495     0.2272
  533.0000   -70.2405     7.9130     6.1384     6.6420    80.9376     2.5818     0.0287     0.1984
  533.5000   -70.2405     7.8958     6.1384     6.6194    82.3297     2.6110     0.0453     0.1451
  534.0000   -70.2405     7.8785     6.1412     6.5469    84.7870     2.5390     0.0739     0.0925
  534.5000   -70.2401     7.8676     6.1490     6.4476    87.1992     2.5033     0.0963     0.0725
  535.0000   -70.2394     7.9915     6.1567     6.3479    89.1126     2.4994     0.0982     0.0648
  535.5000   -70.2467     8.0836     6.1644     6.2483    88.8161     2.4962     0.1002     0.0632
  536.0000   -70.3909     8.1769     6.1722     6.1499    88.5729     2.4932     0.1039     0.0619
  536.5000   -70.4445     8.2376     6.1799     6.1095    88.3435     2.4843     0.1100     0.0627
  537.0000   -70.4420     8.2255     6.1877     6.1873    88.1683     2.4668     0.1161     0.0635
  537.5000   -70.4409     8.2150     6.1955     6.3055    88.6512     2.4604     0.1222     0.0706
  538.0000   -70.4409     8.2046     6.2033     6.2608    89.0871     2.4545     0.1281     0.0878
  538.5000   -70.4409     8.1941     6.2111     6.2717    88.7268     2.4495     0.1277     0.1048
  539.0000   -70.4409     8.1837     6.2189     6.3061    86.6271     2.4512     0.1265     0.1218
  539.5000   -70.4409     8.1732     6.2267     6.3410    84.5207     2.4526     0.1278     0.1379
  540.0000   -70.4412     8.1623     6.2344     6.3728    83.9923     2.4471     0.1331     0.1468
  540.5000   -70.4416     8.1399     6.2422     6.3154    83.8380     2.4351     0.1385     0.1561
  541.0000   -70.4385     8.0985     6.2528     6.2449    83.6868     2.4325     0.1373     0.1654
  541.5000   -70.2564     8.0573     6.1743     6.2302    84.3000     2.4320     0.1465     0.1668
  542.0000   -69.6792     8.0163     6.0164     6.2285    85.2948     2.4131     0.1589     0.1697
  542.5000   -69.1080     7.9756     5.5394     6.2716    88.1462     2.3908     0.1713     0.1819
  543.0000   -68.3118     7.8936     5.1547     6.3256    92.6772     2.3696     0.1792     0.2145
  543.5000   -67.3067     7.5398     5.2656     6.3801    99.0484     2.4014     0.1192     0.2524
  544.0000   -66.3077     7.2017     5.3478     6.4345    96.3816     2.4928     0.0647     0.2625
  544.5000   -65.3387     6.8789     5.3692     6.4888    91.2685     2.5529     0.0688     0.2329
  545.0000   -64.8118     6.7294     5.3972     6.5431    86.1134     2.5446     0.0743     0.2101
  545.5000   -64.2625     6.7294     5.4767     6.5942    83.1525     2.5360     0.0802     0.1959
  546.0000   -63.7127     6.8461     5.7337     6.6245    78.5296     2.5275     0.0819     0.1890
  546.5000   -63.1902     7.3334     6.1554     6.6548    79.5627     2.5235     0.0834     0.1820
  547.0000   -63.0128     7.8557     6.7661     6.6851    81.1142     2.5247     0.0805     0.1751
  547.5000   -62.8242     8.4162     7.4375     6.7153    82.4744     2.5263     0.0790     0.1682
  548.0000   -62.6347     9.0149     7.9402     6.7299    83.1412     2.5237     0.0797     0.1612
  548.5000   -62.4306     9.7198     7.9311     6.7299    84.9047     2.5131     0.0821     0.1540
  549.0000   -61.7787     9.5864     7.9059     6.7301    88.4424     2.5098     0.0845     0.1521
  549.5000   -61.0645     9.5427     7.8899     6.7301    89.6949     2.5117     0.0869     0.1504
  550.0000   -60.3497     9.6040     7.8751     6.7439    89.1510     2.5134     0.0916     0.1393
  550.5000   -59.6375     9.8107     7.8676     6.7712    87.8897     2.5127     0.1014     0.1190
  551.0000   -58.9192    10.0219     8.1983     6.7985    83.7945     2.4963     0.1130     0.0985
  551.5000   -58.0926    10.2376     8.5831     6.8258    77.6088     2.4668     0.1277     0.0778
  552.0000   -56.7938    10.4580     8.9860     6.8478    67.9617     2.4241     0.1618     0.0568
  552.5000   -55.5520    10.6862     9.4294     6.8336    58.9519     2.3699     0.1992     0.0620
  553.0000   -55.4072    11.0623     9.9519     6.8208    52.6760     2.3119     0.2181     0.0777
  553.5000   -55.3935    11.5354    10.5001     6.9425    48.5599     2.2983     0.2287     0.0905
  554.0000   -54.6178    12.0246    11.0805     6.9428    46.8638     2.2894     0.2283     0.1256
  554.5000   -52.9796    12.5326    11.6935     6.9299    47.9306     2.2893     0.2187     0.1660
  555.0000   -51.6771    12.9272    12.3418     6.9192    49.3742     2.3080     0.1884     0.2065
  555.5000   -51.2534    12.9264    12.6946     6.9087    50.8962     2.3574     0.1582     0.2471
  556.0000   -50.8249    12.9244    12.3820     6.8982    53.9771     2.4059     0.1279     0.2653
