~VERSION INFORMATION
 VERS.                2.0:   CWLS LOG ASCII STANDARD - VERSION 2.0
 WRAP.                 NO:   ONE LINE PER DEPTH STEP
~WELL INFORMATION
#MNEM.UNIT      DATA TYPE    INFORMATION
#----------   ------------   ------------------------------
 STRT.F          714.0000:   START DEPTH
 STOP.F         2268.0000:   STOP DEPTH
 STEP.F            0.5000:   STEP LENGTH
 NULL.          -999.2500:   NO VALUE
 COMP. LAWRENCE/ALLISON INC:   COMPANY
 WELL. 25-1-STX 10 #25-10:   WELL
 FLD .             TEAPOT:   FIELD
 LOC .      S10 T38N R78W:   LOCATION
 CNTY.            NATRONA:   COUNTY
 STAT.            WYOMING:   STATE
 CTRY. UNITED STATES OF AMERICA:   COUNTRY
 SRVC.            Unknown:   SERVICE COMPANY
 DATE.        07-JUN-1991:   LOGDATE
 API .       490251091300:   API NUMBER
~CURVE INFORMATION
#MNEM.UNIT       API CODE    CURVE DESCRIPTION
#----------   ------------   ------------------------------
 DEPT.F                  :   
 TGAS.UNITS  91 830 01 00:   TOTAL GAS FROM HOTWIRE
 ROP .MIN/FT 91 810 01 00:   RATE OF DRILLING PENETRATION
~PARAMETER INFORMATION
#MNEM.UNIT          VALUE    DESCRIPTION
#----------   ------------   ------------------------------
 EKB .F              5243:   KELLING BUSHING
 EGL .F              5233:   GROUND LEVEL
 DATE.             6-8-91:   RUN DATE
 BLI .F              2280:   BOTTOM LOG INTERVAL
 TLI .F              1680:   TOP LOG INTERVAL
 CS  .IN            9.625:   CASING SIZE
 CBD .F               740:   CASING BOTTOM DRILLER
 ENGI.              TOWER:   RECORDING ENGINEER
 WITN.               HUSK:   WITNESSED BY
 CLNT.            A2DTECH:   CLIENT CODE
 ORIG.           5" PRINT:   ORIGIN OF DATA
 UWI .       490251091300:   UNIQUE WELL ID
 DICO. A2D Technologies, Inc.:   DIGITIZING COMPANY
~OTHER INFORMATION
~A   DEPT     TGAS          ROP 
# ...
 1686.0000  -999.2500  -999.2500
 1686.5000  -999.2500  -999.2500
 1687.0000  -999.2500  -999.2500
 1687.5000     1.2989  -999.2500
 1688.0000     1.3433     0.7235
 1688.5000     1.3797     0.7119
 1689.0000     1.3826     0.7006
 1689.5000     1.3855     0.7000
 1690.0000     1.3885     0.6995
 1690.5000     1.3914     0.6990
 1691.0000     1.3943     0.7202
 1691.5000     1.3972     0.7524
 1692.0000     1.4002     0.7733
 1692.5000     1.4031     0.7837
 1693.0000     1.4060     0.7830
 1693.5000     1.4089     0.7825
 1694.0000     1.4119     0.7711
 1694.5000     1.4148     0.7706
 1695.0000     1.4177     0.7592
 1695.5000     1.4207     0.7153
 1696.0000     1.4236     0.6822
 1696.5000     1.4265     0.6816
 1697.0000     1.4294     0.6919
 1697.5000     1.4324     0.7130
 1698.0000     1.4353     0.7559
 1698.5000     1.4382     0.8313
 1699.0000     1.4411     0.8417
 1699.5000     1.4441     0.8411
 1700.0000     1.4470     0.8406
 1700.5000     1.4499     0.8400
 1701.0000     1.4528     0.8504
 1701.5000     1.4558     0.8497
 1702.0000     1.4587     0.8492
 1702.5000     1.4616     0.8703
 1703.0000     1.4645     0.9023
 1703.5000     1.4675     0.9128
 1704.0000     1.4704     0.9230
 1704.5000     1.4733     0.8791
 1705.0000     1.4762     0.8351
 1705.5000     1.4792     0.7911
 1706.0000     1.4821     0.7689
 1706.5000     1.4850     0.7467
 1707.0000     1.4880     0.7353
 1707.5000     1.4909     0.7131
 1708.0000     1.4938     0.6583
 1708.5000     1.4967     0.6470
 1709.0000     1.4997     0.6583
 1709.5000     1.5026     0.7217
 1710.0000     1.5055     0.7537
 1710.5000     1.5084     0.7642
 1711.0000     1.5114     0.7635
 1711.5000     1.5143     0.7630
 1712.0000     1.5172     0.7624
 1712.5000     1.5201     0.7619
 1713.0000     1.5231     0.7614
 1713.5000     1.5260     0.7717
 1714.0000     1.5289     0.7711
 1714.5000     1.5318     0.7597
 1715.0000     1.5348     0.7375
 1715.5000     1.5377     0.7152
 1716.0000     1.5406     0.6930
 1716.5000     1.5436     0.6817
 1717.0000     1.5465     0.6920
 1717.5000     1.5494     0.6914
 1718.0000     1.5523     0.7018
 1718.5000     1.5553     0.6903
 1719.0000     1.5582     0.6897
 1719.5000     1.5611     0.6892
 1720.0000     1.5640     0.6887
 1720.5000     1.5670     0.6881
 1721.0000     1.5699     0.6876
 1721.5000     1.5728     0.6871
 1722.0000     1.5757     0.6974
 1722.5000     1.5787     0.7077
 1723.0000     1.5816     0.7722
 1723.5000     1.5845     0.8584
 1724.0000     1.5874     0.9338
 1724.5000     1.5904     0.9551
 1725.0000     1.5933     0.9563
 1725.5000     1.5962     0.9322
 1726.0000     1.5991     0.8341
 1726.5000     1.6021     0.8444
 1727.0000     1.6050     0.8437
 1727.5000     1.6079     0.8542
 1728.0000     1.6109     0.8535
 1728.5000     1.6138     0.8421
 1729.0000     1.6167     0.8091
 1729.5000     1.6196     0.7543
 1730.0000     1.6226     0.6887
 1730.5000     1.6255     0.6773
 1731.0000     1.6284     0.6767
 1731.5000     1.6313     0.6762
 1732.0000     1.6343     0.6756
 1732.5000     1.6372     0.6861
 1733.0000     1.6401     0.6746
 1733.5000     1.6430     0.6090
 1734.0000     1.6460     0.6085
 1734.5000     1.6489     0.6296
 1735.0000     1.6518     0.6508
 1735.5000     1.6547     0.6827
 1736.0000     1.6577     0.7148
 1736.5000     1.6606     0.7251
 1737.0000     1.6635     0.7245
 1737.5000     1.6664     0.7239
 1738.0000     1.6694     0.7234
 1738.5000     1.6723     0.7229
 1739.0000     1.6752     0.7223
 1739.5000     1.6782     0.7327
 1740.0000     1.6811     0.7320
 1740.5000     1.6840     0.7098
 1741.0000     1.6869     0.6876
 1741.5000     1.6899     0.6762
 1742.0000     1.6928     0.6757
 1742.5000     1.6957     0.6643
 1743.0000     1.6986     0.6638
 1743.5000     1.7016     0.6524
 1744.0000     1.7045     0.6626
 1744.5000     1.7074     0.6621
 1745.0000     1.7103     0.6507
 1745.5000     1.7133     0.6502
 1746.0000     1.7162     0.6496
 1746.5000     1.7191     0.6600
 1747.0000     1.7220     0.6594
 1747.5000     1.7250     0.6589
 1748.0000     1.7279     0.6799
 1748.5000     1.7308     0.7011
 1749.0000     1.7338     0.7224
 1749.5000     1.7367     0.7327
 1750.0000     1.7337     0.7430
 1750.5000     1.7001     0.7424
 1751.0000     1.6666     0.7419
 1751.5000     1.6330     0.7413
 1752.0000     1.5994     0.7285
 1752.5000     1.5658     0.6968
 1753.0000     1.5323     0.6745
 1753.5000     1.4987     0.6632
 1754.0000     1.4651     0.6301
 1754.5000     1.4316     0.6079
 1755.0000     1.3980     0.5965
 1755.5000     1.3644     0.5743
 1756.0000     1.3308     0.5622
 1756.5000     1.2973     0.5406
 1757.0000     1.2637     0.5400
 1757.5000     1.2301     0.5395
 1758.0000     1.1966     0.5390
 1758.5000     1.1630     0.5276
 1759.0000     1.1294     0.5271
 1759.5000     1.0959     0.5219
 1760.0000     1.0623     0.5325
 1760.5000     1.0287     0.5323
 1761.0000     0.9951     0.5321
 1761.5000     0.9616     0.5427
 1762.0000     0.9280     0.5534
 1762.5000     0.8944     0.5531
 1763.0000     0.8609     0.5638
 1763.5000     0.8273     0.5744
 1764.0000     0.7937     0.5742
 1764.5000     0.7601     0.5740
 1765.0000     0.7266     0.5738
 1765.5000     0.6930     0.5735
 1766.0000     0.6594     0.5733
 1766.5000     0.6259     0.5731
 1767.0000     0.5923     0.5838
 1767.5000     0.5587     0.6052
 1768.0000     0.5251     0.6158
 1768.5000     0.4916     0.6048
 1769.0000     0.4580     0.6046
 1769.5000     0.4244     0.6043
 1770.0000     0.3909     0.6041
 1770.5000     0.3573     0.6039
 1771.0000     0.3237     0.6146
 1771.5000     0.2902     0.6252
 1772.0000     0.2566     0.6466
 1772.5000     0.2230     0.6898
 1773.0000     0.1894     0.7330
 1773.5000     0.1559     0.7761
 1774.0000     0.1223     0.7759
 1774.5000     0.0887     0.7757
 1775.0000     0.0552     0.7646
 1775.5000     0.0241     0.7536
 1776.0000     0.0522     0.7317
 1776.5000     0.0783     0.6876
 1777.0000     0.1043     0.6445
 1777.5000     0.1304     0.6551
 1778.0000     0.1565     0.6657
 1778.5000     0.1826     0.6764
 1779.0000     0.2087     0.6870
 1779.5000     0.2348     0.7085
 1780.0000     0.2609     0.7408
 1780.5000     0.2870     0.8063
 1781.0000     0.3130     0.8271
 1781.5000     0.3391     0.8160
 1782.0000     0.3652     0.8158
 1782.5000     0.3913     0.8156
 1783.0000     0.4174     0.8154
 1783.5000     0.4435     0.8152
 1784.0000     0.4696     0.8258
 1784.5000     0.4957     0.8581
 1785.0000     0.5217     0.9230
 1785.5000     0.5478     0.9662
 1786.0000     0.5739     1.0961
 1786.5000     0.6000     1.1393
 1787.0000     0.6261     1.1499
 1787.5000     0.6522     1.1497
 1788.0000     0.6783     1.1495
 1788.5000     0.7044     1.1620
 1789.0000     1.0292     1.2574
 1789.5000     2.4957     1.3223
 1790.0000     2.5217     1.3655
 1790.5000     2.5478     1.3544
 1791.0000     2.5787     1.3108
 1791.5000     4.4075     1.2455
 1792.0000     5.2348     1.1694
 1792.5000     5.2609     1.0803
 1793.0000     5.2870     1.0713
 1793.5000     5.3130     1.0820
 1794.0000     5.3391     1.0926
 1794.5000     5.3652     1.0490
 1795.0000     5.3913     0.9837
 1795.5000     5.4174     0.9618
 1796.0000     5.4435     0.9291
 1796.5000     5.4696     0.9180
 1797.0000     5.4957     0.9177
 1797.5000     5.5217     0.8742
 1798.0000     5.5478     0.8739
 1798.5000     5.5739     0.8737
 1799.0000     5.6000     0.8844
 1799.5000     5.6261     0.8855
 1800.0000     5.2196     0.8839
 1800.5000     3.0696     0.8498
 1801.0000     3.0957     0.8076
 1801.5000     2.7130     0.7857
 1802.0000     1.7045     0.7616
 1802.5000     1.4206     0.7500
 1803.0000     1.4268     0.7491
 1803.5000     1.4331     0.7375
 1804.0000     1.4393     0.7042
 1804.5000     1.4455     0.6927
 1805.0000     1.4518     0.6919
 1805.5000     1.4580     0.6912
 1806.0000     1.4643     0.6786
 1806.5000     1.4705     0.6679
 1807.0000     1.4767     0.6454
