~VERSION INFORMATION
 VERS.                2.0:   CWLS LOG ASCII STANDARD - VERSION 2.0
 WRAP.                 NO:   ONE LINE PER DEPTH STEP
~WELL INFORMATION
#MNEM.UNIT      DATA TYPE    INFORMATION
#----------   ------------   ------------------------------
 STRT.F            0.0000:   START DEPTH
 STOP.F          774.0000:   STOP DEPTH
 STEP.F            0.5000:   STEP LENGTH
 NULL.          -999.2500:   NO VALUE
 COMP. LAWRENCE/ALLISON INC:   COMPANY
 WELL. SX 11 WP #37-53-11:   WELL
 FLD .             TEAPOT:   FIELD
 LOC .      S11 T38N R78W:   LOCATION
 CNTY.            NATRONA:   COUNTY
 STAT.            WYOMING:   STATE
 CTRY. UNITED STATES OF AMERICA:   COUNTRY
 SRVC.            Unknown:   SERVICE COMPANY
 DATE.        19-SEP-1984:   LOGDATE
 API .       490251098900:   API NUMBER
~CURVE INFORMATION
#MNEM.UNIT       API CODE    CURVE DESCRIPTION
#----------   ------------   ------------------------------
 DEPT.F                  :   
 GRR .GAPI   07 310 01 00:   GAMMA RAY FROM RES. LOG.
 SPR .MV     07 010 01 00:   SPONTANEOUS POTENTIAL
 RFOC.OHMM   07 220 04 00:   RESISTIVITY FOCUSED LOG
 ILD .OHMM   07 120 46 00:   INDUCTION LOG DEEP RESISTIVITY
 RILM.OHMM   07 120 44 00:   INDUCTION LOG MEDIUM RESISTIVITY
 CALD.IN     45 280 60 00:   CALIPER
 DEN .G/C3   45 350 01 00:   COMPENSATED BULK DENSTIY
 CORR.G/C3   45 356 01 00:   DENSITY CORRECTION
 PORD.DEC    45 890 12 00:   POROSITY DENSITY SANDSTONE
 AC  .US/F   60 520 00 00:   ACOUSTIC SONIC
 CNC .DEC    42 890 03 00:   NEUTRON POROSITY SANDSTONE
~PARAMETER INFORMATION
#MNEM.UNIT          VALUE    DESCRIPTION
#----------   ------------   ------------------------------
 PD  .                 GL:   PERMANENT DATUM
 EPD .F              5153:   ELEVATION PERMANENT DATUM
 LMF .                 GL:   LOG MEASURED FROM
 DMF .                 GL:   DRILLING MEASURED FROM
 EGL .F              5153:   GROUND LEVEL
 DATE.       19-SEPT-1984:   RUN DATE
 RUN .                  1:   RUN NUMBER
 DD  .F               785:   DEPTH DRILLER
 DL  .F               774:   DEPTH LOGGER
 BLI .F               772:   BOTTOM LOG INTERVAL
 CS  .IN            8.625:   CASING SIZE
 CBD .F                42:   CASING BOTTOM DRILLER
 CBL .F                41:   CASING BOTTOM LOGGER
 BS  .IN            7.875:   BIT SIZE
 BSD .F               785:   BIT SIZE AT DEPTH
 DFT .          KCL WATER:   DRILLING FLUID TYPE
 MSS .           FLOWLINE:   MUD SAMPLE SOURCE
 RMS .OHMM            .27:   RESISTIVITY MUD SAMPLE
 MST .F                82:   MUD SAMPLE TEMPERATURE
 TCS .HRS               2:   TIME CURCULATED STOPPED
 MRT .F               100:   MAXIMUM RECORDED TEMPERATURE
 LUN .               6274:   LOGGING UNIT NUMBER
 LUL .               GLTE:   LOGGING UNIT LOCATION
 ENGI.         HINDS/MACK:   RECORDING ENGINEER
 WITN.             STRONG:   WITNESSED BY
 CLNT.            A2DTECH:   CLIENT CODE
 ORIG.   1", 2", 5" PRINT:   ORIGIN OF DATA
 UWI .       490251098900:   UNIQUE WELL ID
 DICO. A2D Technologies, Inc.:   DIGITIZING COMPANY
~OTHER INFORMATION
~A    DEPT      GRR       SPR       RFOC        ILD       RILM       CALD        DEN       CORR       PORD         AC        CNC   
# ...
  274.5000   110.6503   -35.9406     9.8756     7.6917     9.8252     8.1002     2.4693     0.0122     0.1244   100.8872     0.2752
  275.0000   108.2278   -35.9406     9.7599     7.7985     9.8937     8.0996     2.4680    -0.0013     0.1254   100.7460     0.2756
  275.5000   106.3744   -35.9406     9.5682     7.9068     9.9626     8.0990     2.4668    -0.0136     0.1263   100.6152     0.2815
  276.0000   104.4630   -35.9406     9.3472     8.0165    10.0583     8.0984     2.4659    -0.0144     0.1263   100.2462     0.2887
  276.5000   101.4633   -35.9406     9.4665     8.1467    10.0444     8.0977     2.4678    -0.0045     0.1250    99.8194     0.2891
  277.0000   100.9713   -35.9408     9.6136     8.1339    10.0223     8.0971     2.4699     0.0051     0.1239    99.3961     0.2815
  277.5000   101.1336   -35.9404     9.7855     8.1185    10.0003     8.0965     2.4699     0.0147     0.1242    99.7214     0.2843
  278.0000    99.2596   -35.9417     9.7223     8.1032     9.9782     8.0959     2.4688     0.0243     0.1251   100.2881     0.2828
  278.5000    99.5631   -35.7777     9.6263     8.0879     9.9563     8.0953     2.4709     0.0338     0.1215   100.8503     0.2783
  279.0000   102.6922   -35.4844     9.5313     8.0726     9.9344     8.0947     2.4798     0.0419     0.1173   101.0835     0.2738
  279.5000   106.1318   -35.1915     9.4373     8.0574     9.9126     8.0941     2.4891     0.0475     0.1126   101.0835     0.2720
  280.0000   109.6484   -34.9491     9.3465     8.0422     9.8904     8.0935     2.4983     0.0531     0.1066   101.0828     0.2803
  280.5000   109.0877   -34.9852     9.1749     8.0270     9.8757     8.0928     2.5014     0.0546     0.1046   101.1524     0.2878
  281.0000   106.4202   -35.0163     9.1781     8.0119     9.9234     8.0922     2.4969     0.0353     0.1105   101.3314     0.2946
  281.5000   107.4334   -35.0466     9.2619     7.9987     9.9602     8.0916     2.4840     0.0161     0.1168   101.4725     0.2912
  282.0000   109.9193   -35.0768     9.3472     8.0807     9.9972     8.0910     2.4758     0.0058     0.1208   101.4229     0.2859
  282.5000   108.5064   -35.1073     9.3472     8.1540    10.0343     8.0904     2.4784     0.0120     0.1180   101.3279     0.2859
  283.0000   106.2943   -35.1363     9.4853     8.2279    10.0715     8.0898     2.4834     0.0195     0.1164   101.0123     0.2951
  283.5000   107.5993   -35.2440     9.6327     8.3026    10.1089     8.0892     2.4812     0.0184     0.1178   100.6966     0.2986
  284.0000   110.4935   -35.3927     9.7825     8.3779    10.1464     8.0886     2.4790     0.0169     0.1194   100.3810     0.2909
  284.5000   111.0950   -35.5420     9.8826     8.4539    10.1841     8.0880     2.4786     0.0177     0.1187   100.0653     0.2829
  285.0000   109.1683   -35.6955     9.9010     8.5306    10.2221     8.0873     2.4834     0.0231     0.1160   100.1283     0.2825
  285.5000   107.3504   -35.6345     9.9193     8.6072    10.2442     8.0867     2.4884     0.0283     0.1131   100.5116     0.2833
  286.0000   104.5171   -35.4775     9.9379     8.5448    10.2165     8.0861     2.4928     0.0337     0.1116   100.8949     0.2826
  286.5000   103.9233   -35.3177     9.9667     8.4835    10.1969     8.0855     2.4874     0.0236     0.1148   101.2782     0.2813
  287.0000   105.8095   -35.1576     9.8113     8.4227    10.1772     8.0849     2.4805     0.0052     0.1183   101.6799     0.2816
  287.5000   108.3548   -34.9909     9.4702     8.3623    10.1576     8.0843     2.4740    -0.0129     0.1215   101.6799     0.2835
  288.0000   108.1326   -34.9366     9.0931     8.3023    10.1381     8.0837     2.4701    -0.0108     0.1245   101.4569     0.2801
  288.5000   106.0955   -34.9071     9.1691     8.2427    10.1185     8.0831     2.4663     0.0049     0.1275   101.1592     0.2781
  289.0000   104.8364   -34.8790     9.2867     8.1836    10.0990     8.0824     2.4631     0.0203     0.1287   100.8660     0.2870
  289.5000   106.3489   -34.8506     9.4046     8.1249    10.0796     8.0818     2.4665     0.0363     0.1262   100.5742     0.2947
  290.0000   108.6206   -34.8219     9.5241     8.0723    10.0583     8.0812     2.4708     0.0348     0.1239   100.2824     0.2908
  290.5000   108.3036   -34.7934     9.6078     8.0725    10.0218     8.0806     2.4653     0.0258     0.1281   100.1183     0.2763
  291.0000   106.4358   -34.7658     9.5114     8.0724     9.9816     8.0800     2.4592     0.0177     0.1324   100.2546     0.2758
  291.5000   105.6009   -34.8190     9.4383     8.0723     9.9415     8.0794     2.4590     0.0178     0.1326   100.7532     0.2752
  292.0000   105.8042   -35.0095     9.3656     8.0723     9.9016     8.0788     2.4673     0.0115     0.1259   101.2456     0.2638
  292.5000   105.9945   -35.1982     9.2941     8.0723     9.8618     8.0782     2.4757     0.0047     0.1199   101.4861     0.2553
  293.0000   106.1838   -35.3871     9.2612     8.0724     9.8222     8.0775     2.4801     0.0012     0.1184   101.4062     0.2575
  293.5000   106.2396   -35.5759     9.2619     8.0723     9.7828     8.0769     2.4810     0.0102     0.1178   101.1769     0.2599
  294.0000   105.6741   -35.7652     9.2620     8.0725     9.7435     8.0779     2.4826     0.0232     0.1160   100.9480     0.2634
  294.5000   105.2373   -35.9555     9.2619     8.0536     9.7044     8.0794     2.4859     0.0368     0.1144   100.9103     0.2691
  295.0000   108.0767   -36.1293     9.2619     8.0222     9.6530     8.0809     2.4845     0.0351     0.1162   100.9457     0.2743
  295.5000   113.3036   -36.0031     9.2625     7.9906     9.5986     8.0824     2.4817     0.0287     0.1179   100.9841     0.2818
  296.0000   115.3145   -35.8666     9.2448     7.9592     9.5446     8.0839     2.4796     0.0224     0.1191   101.4394     0.2885
  296.5000   111.8114   -35.7313     9.2052     7.9279     9.4909     8.0854     2.4798     0.0189     0.1188   101.9354     0.2953
  297.0000   109.4368   -35.5965     9.1654     7.8967     9.4375     8.0869     2.4804     0.0225     0.1185   102.4284     0.3019
  297.5000   111.4002   -35.4615     9.1257     7.8657     9.3844     8.0884     2.4809     0.0261     0.1181   102.6793     0.3018
  298.0000   113.3230   -35.3270     9.0861     7.8348     9.3315     8.0899     2.4816     0.0177     0.1179   102.4175     0.2995
  298.5000   111.1449   -35.1877     9.0468     7.8039     9.2790     8.0914     2.4767    -0.0019     0.1197   102.0573     0.2995
  299.0000   109.1155   -35.2934     9.0108     7.7763     9.2523     8.0929     2.4698    -0.0163     0.1246   101.9358     0.3068
  299.5000   110.4741   -35.4994     8.9983     7.7558     9.2380     8.0944     2.4626    -0.0018     0.1303   102.0487     0.3085
  300.0000   113.7091   -35.7101     8.9842     7.7356     9.2237     8.0959     2.4615     0.0223     0.1311   102.1619     0.2986
  300.5000   117.1125   -35.9205     8.9700     7.7154     9.2094     8.0974     2.4679     0.0442     0.1247   102.2743     0.2788
  301.0000   117.0780   -35.8474     8.9559     7.6953     9.1952     8.0989     2.4744     0.0413     0.1205   102.3518     0.2824
  301.5000   116.6902   -35.7417     8.9419     7.6752     9.1810     8.1004     2.4811     0.0340     0.1169   102.1009     0.2882
  302.0000   116.3222   -35.6354     8.9278     7.6552     9.1668     8.1019     2.4825     0.0227     0.1165   101.8519     0.2923
  302.5000   115.1056   -35.5294     8.9138     7.6405     9.1526     8.1034     2.4770     0.0116     0.1212   101.7989     0.2743
  303.0000   113.7595   -35.4250     8.8998     7.6404     9.1385     8.1049     2.4718     0.0020     0.1231   101.8266     0.2692
  303.5000   111.0500   -35.3807     8.8858     7.6404     9.1243     8.1064     2.4731    -0.0036     0.1216   101.8543     0.2744
  304.0000   108.6750   -35.5479     8.8722     7.6395     9.1108     8.1080     2.4745    -0.0092     0.1209   101.8540     0.2846
  304.5000   108.9444   -35.7085     8.8579     7.6405     9.0937     8.1095     2.4728    -0.0120     0.1224   101.6406     0.2880
