~VERSION INFORMATION
 VERS.                2.0:   CWLS LOG ASCII STANDARD - VERSION 2.0
 WRAP.                 NO:   ONE LINE PER DEPTH STEP
~WELL INFORMATION
#MNEM.UNIT      DATA TYPE    INFORMATION
#----------   ------------   ------------------------------
 STRT.F            2.0000:   START DEPTH
 STOP.F          592.0000:   STOP DEPTH
 STEP.F            0.1000:   STEP LENGTH
 NULL.          -999.2500:   NO VALUE
 COMP. BROWN JOHN E&C INC:   COMPANY
 WELL. NAVAL PETROLEUM RESERVE 3 SX-3 #73-3:   WELL
 FLD .             TEAPOT:   FIELD
 LOC .       S3 T38N R78W:   LOCATION
 CNTY.            NATRONA:   COUNTY
 STAT.            WYOMING:   STATE
 CTRY. UNITED STATES OF AMERICA:   COUNTRY
 SRVC.     Atlas Wireline:   SERVICE COMPANY
 DATE.        22-APR-1992:   LOGDATE
 API .       490252251000:   API NUMBER
~CURVE INFORMATION
#MNEM.UNIT       API CODE    CURVE DESCRIPTION
#----------   ------------   ------------------------------
 DEPT.F                  :   
 GRR .GAPI   07 310 01 00:   GAMMA RAY
 RILD.OHMM   07 120 46 00:   INDUCTION LOG DEEP RESISTIVITY
 RILM.OHMM   07 120 44 00:   INDUCTION LOG MEDIUM RESISTIVITY
~PARAMETER INFORMATION
#MNEM.UNIT          VALUE    DESCRIPTION
#----------   ------------   ------------------------------
 PD  .                 GL:   PERMANENT DATUM
 EPD .F              5148:   ELEVATION PERMANENT DATUM
 LMF .                 KB:   LOG MEASURED FROM
 DAPD.F                 5:   FEET ABOVE PERMANENT DATUM
 DMF .                 KB:   DRILLING MEASURED FROM
 EKB .F              5153:   KELLING BUSHING
 EDF .F              5152:   DRILLING FLOOR
 EGL .F              5148:   GROUND LEVEL
 DATE.        22-APR-1992:   RUN DATE
 RUN .                  1:   RUN NUMBER
 DD  .F               600:   DEPTH DRILLER
 DL  .F               601:   DEPTH LOGGER
 BLI .F               592:   BOTTOM LOG INTERVAL
 TLI .F                51:   TOP LOG INTERVAL
 CS  .IN            8.625:   CASING SIZE
 CBD .F                48:   CASING BOTTOM DRILLER
 CBL .F                51:   CASING BOTTOM LOGGER
 BS  .IN            7.875:   BIT SIZE
 BSD .F               600:   BIT SIZE AT DEPTH
 DFT .                AIR:   DRILLING FLUID TYPE
 LUN .            HL-5272:   LOGGING UNIT NUMBER
 LUL .             CASPER:   LOGGING UNIT LOCATION
 ENGI.       P. RAGMUSSEN:   RECORDING ENGINEER
 WITN.          G. STRONG:   WITNESSED BY
 CLNT.            A2DTECH:   CLIENT CODE
 ORIG.           5" PRINT:   ORIGIN OF DATA
 UWI .       490252251000:   UNIQUE WELL ID
 DICO. A2D Technologies, Inc.:   DIGITIZING COMPANY
~OTHER INFORMATION
~A    DEPT      GRR      RILD       RILM   
# ...
  184.0000   129.6097     7.7005     7.8084
  184.1000   131.0655     7.7074     7.8090
  184.2000   132.7325     7.7554     7.8116
  184.3000   134.0681     7.7559     7.8647
  184.4000   134.9067     7.7564     7.8652
  184.5000   135.3646     7.7570     7.8657
  184.6000   135.3660     7.7575     7.8820
  184.7000   135.3670     7.7581     7.9218
  184.8000   135.2157     7.8024     7.9224
  184.9000   134.9705     7.8133     7.9628
  185.0000   134.6443     7.8139     7.9788
  185.1000   133.8591     7.8144     7.9793
  185.2000   133.1678     7.8149     7.9799
  185.3000   132.4296     7.8156     7.9805
  185.4000   131.6913     7.8161     7.9810
  185.5000   130.9529     7.8166     7.9816
  185.6000   130.2214     7.8171     7.9821
  185.7000   129.7294     7.8177     7.9827
  185.8000   129.2377     7.8183     7.9832
  185.9000   129.0276     7.8187     7.9839
  186.0000   129.1982     7.8193     7.9844
  186.1000   129.6637     7.8402     7.9849
  186.2000   129.9390     7.8750     7.9855
  186.3000   130.5972     7.8756     7.9861
  186.4000   131.6640     7.8762     7.9866
  186.5000   133.2184     7.8767     7.9871
  186.6000   134.9880     7.8772     7.9877
  186.7000   135.9964     7.8914     8.0070
  186.8000   136.2388     7.9333     8.0446
  186.9000   136.4866     7.9340     8.0452
  187.0000   136.6051     7.9725     8.0457
  187.1000   136.6064     7.9904     8.0463
  187.2000   136.6076     7.9910     8.0469
  187.3000   136.6090     7.9985     8.0592
  187.4000   136.4026     8.0480     8.1042
  187.5000   135.7035     8.0907     8.1048
  187.6000   134.7188     8.1053     8.1419
  187.7000   133.7338     8.1271     8.1886
  187.8000   132.6815     8.1630     8.2201
  187.9000   131.5347     8.1636     8.2253
  188.0000   130.4771     8.2106     8.2788
  188.1000   129.4923     8.2218     8.3201
  188.2000   128.5687     8.2476     8.3377
  188.3000   127.8308     8.2804     8.3382
  188.4000   127.0921     8.2847     8.3388
  188.5000   126.5497     8.3395     8.3395
  188.6000   126.3371     8.3400     8.3400
  188.7000   126.4218     8.3406     8.3406
  188.8000   126.6420     8.3412     8.3412
  188.9000   126.6434     8.3344     8.3417
  189.0000   127.2979     8.2845     8.3423
  189.1000   128.3623     8.2850     8.2951
  189.2000   129.5959     8.2531     8.2490
  189.3000   130.8788     8.2071     8.2287
  189.4000   132.3982     8.1613     8.2144
  189.5000   132.3994     8.1158     8.1686
  189.6000   132.5846     8.0706     8.1167
  189.7000   132.8323     8.0257     8.0779
  189.8000   133.0081     7.9810     8.0329
  189.9000   133.0094     7.9505     8.0060
  190.0000   133.0108     7.9474     7.9992
  190.1000   131.9810     7.8965     7.9517
  190.2000   130.8999     7.8970     7.9522
  190.3000   130.1032     7.8976     7.9213
  190.4000   129.6113     7.8981     7.8981
  190.5000   129.0833     7.8987     7.8986
  190.6000   128.8560     7.8992     7.8992
  190.7000   128.7831     7.8997     7.8998
  190.8000   128.9004     7.9003     7.9003
  190.9000   129.2685     7.9009     7.9009
  191.0000   130.0168     7.9014     7.9014
  191.1000   131.2510     7.9019     7.9019
  191.2000   132.2899     7.9025     7.9026
  191.3000   133.1388     7.9030     7.9411
  191.4000   133.9619     7.9036     7.9589
  191.5000   134.9226     7.9042     7.9594
  191.6000   135.7533     7.9047     7.9599
  191.7000   136.1875     7.9053     7.9605
  191.8000   136.5212     7.9058     7.9610
  191.9000   136.8734     7.9064     7.9616
  192.0000   137.2708     7.9069     7.9622
  192.1000   137.2720     7.9075     7.9525
  192.2000   137.5119     7.9080     7.9080
  192.3000   137.5770     7.9085     7.9086
  192.4000   137.5782     7.9091     7.8750
  192.5000   137.5089     7.9097     7.8548
  192.6000   137.2490     7.9102     7.8553
  192.7000   136.6743     7.9108     7.8558
  192.8000   136.2655     7.9113     7.8565
  192.9000   135.4762     7.9118     7.8570
  193.0000   134.5842     7.9124     7.8575
  193.1000   133.8456     7.9130     7.8581
  193.2000   133.0494     7.9135     7.8586
  193.3000   132.5963     7.9141     7.8592
  193.4000   132.1046     7.9146     7.8597
  193.5000   131.6128     7.9152     7.8603
  193.6000   131.1798     7.9157     7.8608
  193.7000   130.9347     7.9163     7.8613
  193.8000   130.6893     7.9169     7.8619
  193.9000   130.4441     7.9174     7.8625
  194.0000   130.3359     7.9179     7.8630
  194.1000   130.6616     7.9185     7.8869
  194.2000   131.5988     7.9190     7.9190
  194.3000   132.1551     7.9196     7.9195
  194.4000   132.5872     7.9201     7.9202
  194.5000   133.0813     7.9206     7.9207
  194.6000   133.5755     7.9212     7.9481
  194.7000   134.0225     7.9218     7.9771
  194.8000   134.2790     7.9224     7.9777
  194.9000   134.2802     7.9230     7.9783
  195.0000   134.2814     7.9622     7.9788
  195.1000   134.1571     7.9794     8.0098
  195.2000   133.9117     7.9799     8.0357
  195.3000   133.6532     7.9882     8.0362
  195.4000   133.0762     8.0368     8.0368
  195.5000   132.8734     8.0373     8.0374
  195.6000   132.4804     8.0702     8.0719
  195.7000   132.0802     8.1166     8.0946
  195.8000   131.8350     8.1632     8.1081
  195.9000   131.5692     8.2100     8.1523
  196.0000   131.3444     8.2572     8.1530
  196.1000   131.2690     8.3047     8.1913
  196.2000   131.2702     8.3261     8.2383
  196.3000   131.3291     8.3576     8.2856
  196.4000   131.5752     8.4485     8.3332
  196.5000   131.5764     8.5037     8.3861
  196.6000   131.5776     8.5880     8.4291
  196.7000   131.5788     8.6550     8.4775
  196.8000   131.5800     8.7048     8.5470
  196.9000   131.5812     8.7547     8.6448
  197.0000   131.5826     8.8079     8.7468
  197.1000   131.3694     8.8084     8.7474
  197.2000   131.2823     8.8447     8.7845
  197.3000   131.2835     8.8712     8.8603
  197.4000   131.2386     8.8719     8.9477
  197.5000   130.9834     8.8725     8.9968
  197.6000   130.9846     8.8731     8.9976
  197.7000   130.8054     8.8737     9.0394
  197.8000   130.6844     8.8743     9.0616
  197.9000   130.6174     8.8915     9.0800
  198.0000   130.3842     8.9376     9.1262
  198.1000   130.3857     8.9383     9.1269
  198.2000   130.3867     8.9388     9.1275
  198.3000   130.3879     8.9717     9.0946
  198.4000   130.3891     9.0025     9.0654
  198.5000   130.4246     9.0121     9.0660
  198.6000   130.6942     9.0667     9.0667
  198.7000   131.3694     9.0673     9.0673
  198.8000   131.9416     9.1048     9.0679
  198.9000   132.9989     9.1571     9.0685
  199.0000   134.6122     9.2096     9.0827
  199.1000   135.8459     9.2612     9.1332
  199.2000   136.8327     9.2619     9.1338
  199.3000   137.6291     9.3042     9.1758
  199.4000   138.2350     9.3577     9.1989
  199.5000   138.6505     9.3937     9.2171
  199.6000   138.8983     9.3998     9.2700
  199.7000   139.1796     9.4607     9.3299
  199.8000   138.9676     9.5081     9.3305
  199.9000   138.4085     9.5627     9.3651
  200.0000   137.1688     9.6087     9.4181
  200.1000   135.2040     9.6421     9.4702
  200.2000   133.1391     9.6755     9.5224
  200.3000   132.6756     9.7089     9.5745
  200.4000   132.3643     9.7494     9.6267
  200.5000   132.3621     9.8102     9.6788
  200.6000   132.6117     9.9386     9.7310
  200.7000   132.8611     9.9390     9.7831
  200.8000   133.1107     9.9752     9.8728
  200.9000   133.3602    10.0324     9.9636
  201.0000   133.4705    10.0801    10.0208
  201.1000   133.5565    10.0807    10.0822
  201.2000   133.7799    10.0812    10.1364
  201.3000   133.4818    10.1228    10.1540
  201.4000   133.4850    10.1528    10.1822
  201.5000   133.4886    10.1533    10.2122
  201.6000   133.4923    10.1556    10.1561
  201.7000   133.4059    10.2255    10.1568
  201.8000   132.8946    10.2260    10.1576
  201.9000   132.1953    10.2265    10.1583
  202.0000   130.5742    10.2471    10.1589
  202.1000   129.3354    10.2992    10.1597
