~VERSION INFORMATION
 VERS.                2.0:   CWLS LOG ASCII STANDARD - VERSION 2.0
 WRAP.                 NO:   ONE LINE PER DEPTH STEP
~WELL INFORMATION
#MNEM.UNIT      DATA TYPE    INFORMATION
#----------   ------------   ------------------------------
 STRT.F            0.0000:   START DEPTH
 STOP.F          633.0000:   STOP DEPTH
 STEP.F            0.5000:   STEP LENGTH
 NULL.          -999.2500:   NO VALUE
 COMP.       F D SERV INC:   COMPANY
 WELL.    82-1 SX-3 #82-3:   WELL
 FLD .          NPR NO. 3:   FIELD
 LOC .       S3 T38N R78W:   LOCATION
 CNTY.            NATRONA:   COUNTY
 STAT.            WYOMING:   STATE
 CTRY. UNITED STATES OF AMERICA:   COUNTRY
 SRVC.     Atlas Wireline:   SERVICE COMPANY
 DATE.        14-APR-1992:   LOGDATE
 API .       490252250600:   API NUMBER
~CURVE INFORMATION
#MNEM.UNIT       API CODE    CURVE DESCRIPTION
#----------   ------------   ------------------------------
 DEPT.F                  :   
 GRR .GAPI   07 310 01 00:   GAMMA RAY FROM RES
 RILD.OHMM   07 120 46 00:   INDUCTION LOG DEEP RESISTIVITY
 RILM.OHMM   07 120 44 00:   INDUCTION LOG MEDIUM RESISTIVITY
~PARAMETER INFORMATION
#MNEM.UNIT          VALUE    DESCRIPTION
#----------   ------------   ------------------------------
 PD  .                 GL:   PERMANENT DATUM
 EPD .F              5120:   ELEVATION PERMANENT DATUM
 LMF .                 KB:   LOG MEASURED FROM
 DAPD.F                 5:   FEET ABOVE PERMANENT DATUM
 DMF .                 KB:   DRILLING MEASURED FROM
 EKB .F              5125:   KELLING BUSHING
 EDF .F              5124:   DRILLING FLOOR
 EGL .F              5120:   GROUND LEVEL
 DATE.        14-APR-1992:   RUN DATE
 RUN .                  1:   RUN NUMBER
 DD  .F               640:   DEPTH DRILLER
 DL  .F               636:   DEPTH LOGGER
 BLI .F               633:   BOTTOM LOG INTERVAL
 CS  .IN            8.625:   CASING SIZE
 CBD .F                43:   CASING BOTTOM DRILLER
 CBL .F                42:   CASING BOTTOM LOGGER
 BS  .IN            7.875:   BIT SIZE
 BSD .F               640:   BIT SIZE AT DEPTH
 DFT .                AIR:   DRILLING FLUID TYPE
 LUN .           HL- 6321:   LOGGING UNIT NUMBER
 LUL .        RK. SPRINGS:   LOGGING UNIT LOCATION
 ENGI.            TRIBBLE:   RECORDING ENGINEER
 WITN.             STRONG:   WITNESSED BY
 CLNT.            A2DTECH:   CLIENT CODE
 ORIG.           5" PRINT:   ORIGIN OF DATA
 UWI .       490252250600:   UNIQUE WELL ID
 DICO. A2D Technologies, Inc.:   DIGITIZING COMPANY
~OTHER INFORMATION
~A    DEPT     GRR       RILD       RILM   
# ...
  364.0000   140.6544     6.2901     6.3467
  364.5000   141.2636     6.6986     6.6189
  365.0000   142.1919     6.8883     6.8546
  365.5000   142.7490     7.0833     7.0492
  366.0000   141.5258     7.1326     7.1486
  366.5000   136.3654     7.1822     7.1988
  367.0000   130.9019     7.2352     7.1988
  367.5000   131.4991     7.2824     7.2494
  368.0000   135.1266     7.2819     7.3003
  368.5000   136.0290     7.2814     7.3003
  369.0000   134.5028     7.2809     7.3003
  369.5000   135.4030     7.2804     7.3003
  370.0000   137.8586     7.2291     7.3003
  370.5000   136.4514     7.1770     7.2494
  371.0000   134.1620     7.1276     7.2494
  371.5000   135.3652     7.0773     7.1988
  372.0000   137.1745     7.0768     7.1988
  372.5000   136.8626     7.0764     7.1988
  373.0000   134.4295     7.0759     7.1486
  373.5000   129.8751     7.0754     7.1486
  374.0000   127.1390     7.0749     7.0988
  374.5000   127.4331     7.0744     7.0988
  375.0000   131.6667     7.0739     7.0988
  375.5000   135.6817     6.9751     7.0443
  376.0000   139.8285     6.8285     6.8546
  376.5000   141.9408     6.5390     6.5728
  377.0000   144.3562     6.1913     6.0433
  377.5000   147.6806     6.0200     5.6348
  378.0000   149.1869     5.9776     5.5955
  378.5000   148.5720     5.8941     5.6744
  379.0000   147.3510     5.8118     5.7948
  379.5000   144.9178     5.7709     5.8765
  380.0000   139.7574     5.6506     5.9593
  380.5000   134.2939     5.4559     6.0011
  381.0000   134.3213     5.2312     5.9177
  381.5000   135.1853     4.9805     5.2908
  382.0000   135.7825     4.7031     4.9332
  382.5000   137.2865     4.5469     4.8646
  383.0000   139.0959     4.5785     4.8646
  383.5000   140.6021     4.6753     4.8646
  384.0000   138.7750     4.9097     4.8988
  384.5000   134.5237     5.1559     5.0027
  385.0000   133.2626     5.4524     5.1448
  385.5000   136.0211     5.8065     5.4069
  386.0000   137.8464     6.1405     5.7948
  386.5000   138.7747     6.3587     6.2149
  387.0000   139.3278     6.5388     6.5269
  387.5000   137.4985     6.6771     6.7594
  388.0000   134.4593     6.6766     6.8546
  388.5000   130.8141     6.5373     6.8546
  389.0000   127.4719     6.1810     6.4362
  389.5000   125.6448     5.6827     5.8355
  390.0000   124.7268     5.3729     5.4031
  390.5000   126.8392     5.2609     4.8646
  391.0000   130.1636     5.1874     4.6973
  391.5000   135.4514     5.1149     4.7970
  392.0000   140.3029     5.1146     5.0051
  392.5000   142.2582     5.1502     5.3032
  393.0000   141.3380     5.1886     5.6348
  393.5000   138.9048     5.3513     5.9177
  394.0000   136.4717     5.8403     6.1715
  394.5000   134.6447     6.3072     6.4814
  395.0000   133.4237     6.8594     6.9028
  395.5000   133.0596     7.2539     7.3003
  396.0000   135.2241     7.6176     7.6134
  396.5000   136.1243     7.7246     7.7749
  397.0000   133.5939     7.7783     7.8332
  397.5000   131.5588     7.8323     7.8845
  398.0000   133.6712     7.8867     7.8845
  398.5000   134.2706     7.8862     7.8845
  399.0000   129.1079     7.9410     7.8845
  399.5000   125.4627     7.9403     7.9399
  400.0000   124.5469     7.8846     7.9704
  400.5000   125.1747     7.9399     8.0513
  401.0000   128.5838     7.8845     7.9944
  401.5000   130.2941     7.8295     7.9381
  402.0000   130.5942     7.8295     7.9376
  402.5000   130.8943     7.8845     7.9370
  403.0000   131.1943     7.8845     7.9365
  403.5000   132.0997     7.8845     7.9918
  404.0000   132.4005     7.9399     8.0474
  404.5000   131.1847     7.9399     8.1032
  405.0000   129.6666     7.9399     8.1027
  405.5000   128.1485     7.9399     8.1590
  406.0000   126.9091     7.7749     8.1583
  406.5000   120.6397     7.2494     7.8772
  407.0000   112.0782     6.5269     6.9444
  407.5000   112.6813     6.0433     6.1220
  408.0000   116.6177     5.6317     5.7882
  408.5000   120.2511     5.3280     5.6281
  409.0000   122.6724     5.3654     5.6277
  409.5000   125.3967     5.4792     5.7066
  410.0000   127.2119     5.6348     5.9509
  410.5000   127.2637     5.8355     6.3909
  411.0000   122.6605     6.0857     7.0383
  411.5000   115.3848     6.5269     7.7623
  412.0000   111.6969     7.1988     8.4418
  412.5000   113.1565     8.0518     8.9273
  413.0000   118.1025     8.7093     9.2446
  413.5000   119.0093     9.1328     9.3743
  414.0000   119.0056     9.3921     9.5058
  414.5000   119.6087     9.5245     9.5719
  415.0000   120.2126     9.6587     9.7743
  415.5000   120.5126     9.7949     9.9114
  416.0000   120.5089     9.9330    10.0505
  416.5000   120.5060    10.3589    10.3349
  417.0000   119.2909    10.9555    11.0061
  417.5000   116.5304    11.8490    12.2235
  418.0000   111.5273    13.1145    13.6710
  418.5000    99.5843    14.5966    15.1832
  419.0000    88.6722    15.7647    16.7450
  419.5000    71.6995    17.2663    18.7279
  420.0000    67.1511    18.9110    20.0842
  420.5000    67.1482    20.2819    20.9441
  421.0000    69.2664    20.5678    21.3870
  421.5000    73.2028    20.4244    20.5058
  422.0000    76.2302    20.1367    20.0783
  422.5000    75.6211    19.8605    19.7979
  423.0000    75.3111    19.7220    19.9359
  423.5000    77.4556    19.7220    20.3572
  424.0000    78.9456    19.8605    20.9337
  424.5000    79.2456    20.4244    21.8300
  425.0000    80.1510    21.1517    23.4109
  425.5000    80.7549    22.2138    25.1417
  426.0000    79.8421    23.3292    27.1133
  426.5000    70.4452    24.3297    28.4729
  427.0000    61.9573    25.9456    29.9005
  427.5000    58.0150    28.5789    30.9632
  428.0000    60.1332    30.2247    32.7441
  428.5000    61.6455    31.7423    34.4021
  429.0000    60.1192    32.4158    36.3975
  429.5000    59.5182    32.8727    38.1861
  430.0000    60.7267    33.3361    39.2676
  430.5000    59.8146    33.8060    40.0980
  431.0000    59.2056    34.7657    40.6605
  431.5000    60.4147    36.0174    40.9439
  432.0000    64.3512    36.7678    40.9405
  432.5000    67.9846    35.5034    39.8075
  433.0000    67.6786    34.2825    36.5983
  433.5000    65.2514    32.4158    32.0242
  434.0000    64.3393    30.8660    30.2642
  434.5000    67.9727    29.3848    29.2483
  435.0000    74.0506    28.7796    28.6386
  435.5000    74.3768    28.7796    28.6367
  436.0000    75.8419    28.9817    29.0383
  436.5000    76.4457    29.1853    29.2408
  437.0000    74.6238    29.3902    30.0684
  437.5000    70.3784    29.3902    31.3558
  438.0000    66.1330    28.9817    32.0189
  438.5000    64.3119    28.1816    31.1184
  439.0000    68.8544    27.4036    29.1761
  439.5000    74.9120    26.2426    26.8734
  440.0000    79.7575    24.5006    25.4083
  440.5000    83.4030    23.0049    23.5241
  441.0000    86.4827    21.6005    21.4768
  441.5000    88.8388    20.4244    20.3059
  442.0000    89.7457    19.3122    19.3338
  442.5000    87.3177    18.6481    18.6676
  443.0000    82.7693    18.1333    18.2785
  443.5000    78.2209    17.7565    17.8934
  444.0000    75.1876    17.5032    17.5082
  444.5000    74.8816    17.2663    17.1589
  445.0000    76.3938    17.0263    17.0381
  445.5000    79.4211    16.9076    16.8001
  446.0000    81.5394    16.7897    16.7989
  446.5000    81.5182    16.7897    16.6806
  447.0000    81.2303    16.6726    16.6795
  447.5000    81.2267    16.6726    16.6784
  448.0000    81.8298    16.6726    16.6772
  448.5000    82.7359    16.7897    16.6761
  449.0000    84.5511    16.7897    16.6749
  449.5000    87.8815    16.9076    16.9086
  450.0000    92.3393    16.9074    16.9195
  450.5000    94.5346    17.0253    17.0252
  451.0000    91.7926    17.2638    17.0237
  451.5000    88.4474    17.3838    17.2625
  452.0000    85.7083    17.3827    17.6279
  452.5000    84.7874    17.3815    17.8751
  453.0000    85.0786    17.2591    17.6252
  453.5000    84.4404    17.2539    17.5011
  454.0000    82.8929    17.1363    17.2566
  454.5000    84.4341    17.0154    17.2554
