~VERSION INFORMATION
 VERS.                2.0:   CWLS LOG ASCII STANDARD - VERSION 2.0
 WRAP.                 NO:   ONE LINE PER DEPTH STEP
~WELL INFORMATION
#MNEM.UNIT      DATA TYPE    INFORMATION
#----------   ------------   ------------------------------
 STRT.F           24.0000:   START DEPTH
 STOP.F          690.0000:   STOP DEPTH
 STEP.F            0.5000:   STEP LENGTH
 NULL.          -999.2500:   NO VALUE
 COMP. DEPARTMENT OF ENERGY:   COMPANY
 WELL.     STX 2 #24-15-2:   WELL
 FLD .             TEAPOT:   FIELD
 LOC .       S2 T38N R78W:   LOCATION
 CNTY.            NATRONA:   COUNTY
 STAT.            WYOMING:   STATE
 CTRY. UNITED STATES OF AMERICA:   COUNTRY
 SRVC.           Gearhart:   SERVICE COMPANY
 DATE.        23-DEC-1987:   LOGDATE
 API .       490251116800:   API NUMBER
~CURVE INFORMATION
#MNEM.UNIT       API CODE    CURVE DESCRIPTION
#----------   ------------   ------------------------------
 DEPT.F                  :   
 GRR .GAPI   07 310 01 00:   GAMMA RAY
 RILD.OHMM   07 120 46 00:   INDUCTION LOG DEEP
 RILM.OHMM   07 120 44 00:   INDUCTION LOG MEDIUM
 RLL .OHMM   07 220 01 00:   LATEROLOG-1 RES.
~PARAMETER INFORMATION
#MNEM.UNIT          VALUE    DESCRIPTION
#----------   ------------   ------------------------------
 PD  .                 GL:   PERMANENT DATUM
 LMF .                 KB:   LOG MEASURED FROM
 DMF .                 KB:   DRILLING MEASURED FROM
 DATE.        03-SEP-1987:   RUN DATE
 RUN .                  1:   RUN NUMBER
 DL  .F               692:   DEPTH LOGGER
 BLI .F               690:   BOTTOM LOG INTERVAL
 CS  .IN            8.625:   CASING SIZE
 CBD .F                48:   CASING BOTTOM DRILLER
 CBL .F                48:   CASING BOTTOM LOGGER
 BS  .IN            7.875:   BIT SIZE
 DFT .                MUD:   DRILLING FLUID TYPE
 TCS .HRS            0600:   TIME CURCULATED STOPPED
 TLAB.HRS            0751:   TIME LOGGER AT BOTTOM
 MRT .F                80:   MAXIMUM RECORDED TEMPERATURE
 LUN .               7597:   LOGGING UNIT NUMBER
 LUL .           GILLETTE:   LOGGING UNIT LOCATION
 ENGI.         WEATHERMON:   RECORDING ENGINEER
 WITN.             STRONG:   WITNESSED BY
 CLNT.            A2DTECH:   CLIENT CODE
 ORIG.           5" PRINT:   ORIGIN OF DATA
 UWI .       490251116800:   UNIQUE WELL ID
 DICO. A2D Technologies, Inc.:   DIGITIZING COMPANY
~OTHER INFORMATION
~A   DEPT       GRR      RILD       RILM        RLL   
   24.0000    82.1672  -999.2500  -999.2500  -999.2500
   24.5000    81.9420  -999.2500  -999.2500  -999.2500
   25.0000    81.7168  -999.2500  -999.2500  -999.2500
   25.5000    82.0532  -999.2500  -999.2500  -999.2500
   26.0000    81.7576  -999.2500  -999.2500  -999.2500
   26.5000    81.7652  -999.2500  -999.2500  -999.2500
   27.0000    80.7626  -999.2500  -999.2500  -999.2500
   27.5000    76.3272  -999.2500  -999.2500  -999.2500
   28.0000    73.3043  -999.2500  -999.2500  -999.2500
   28.5000    71.4935  -999.2500  -999.2500  -999.2500
   29.0000    69.3797  -999.2500  -999.2500  -999.2500
   29.5000    66.0538  -999.2500  -999.2500  -999.2500
   30.0000    63.9400  -999.2500  -999.2500  -999.2500
   30.5000    61.8262  -999.2500  -999.2500  -999.2500
   31.0000    60.0155  -999.2500  -999.2500  -999.2500
   31.5000    57.2956  -999.2500  -999.2500  -999.2500
   32.0000    53.3636  -999.2500  -999.2500  -999.2500
   32.5000    51.2247  -999.2500  -999.2500  -999.2500
   33.0000    49.7421  -999.2500  -999.2500  -999.2500
   33.5000    49.1435  -999.2500  -999.2500  -999.2500
   34.0000    49.4558  -999.2500  -999.2500  -999.2500
   34.5000    50.3723  -999.2500  -999.2500  -999.2500
   35.0000    51.8949  -999.2500  -999.2500  -999.2500
   35.5000    53.4174  -999.2500  -999.2500  -999.2500
   36.0000    54.6370  -999.2500  -999.2500  -999.2500
   36.5000    54.6444  -999.2500  -999.2500  -999.2500
   37.0000    54.9549  -999.2500  -999.2500  -999.2500
   37.5000    54.6592  -999.2500  -999.2500  -999.2500
   38.0000    53.7576  -999.2500  -999.2500  -999.2500
   38.5000    52.8056  -999.2500  -999.2500  -999.2500
   39.0000    51.6512  -999.2500  -999.2500  -999.2500
   39.5000    51.9635  -999.2500  -999.2500  -999.2500
   40.0000    52.2740  -999.2500  -999.2500  -999.2500
   40.5000    51.9765  -999.2500  -999.2500  -999.2500
   41.0000    51.0767  -999.2500  -999.2500  -999.2500
   41.5000    49.8720  -999.2500  -999.2500  -999.2500
   42.0000    51.0915  -999.2500  -999.2500  -999.2500
   42.5000    53.5232  -999.2500  -999.2500  -999.2500
   43.0000    55.9549  -999.2500  -999.2500  -999.2500
   43.5000    55.9874  -999.2500  -999.2500  -999.2500
   44.0000    54.1515  -999.2500  -999.2500  -999.2500
   44.5000    51.7347  -999.2500  -999.2500  -999.2500
   45.0000    51.7929  -999.2500  -999.2500  -999.2500
   45.5000    54.7817  -999.2500  -999.2500  -999.2500
   46.0000    59.0315  -999.2500  -999.2500  -999.2500
   46.5000    64.7965  -999.2500  -999.2500  -999.2500
   47.0000    72.6827  -999.2500  -999.2500  -999.2500
   47.5000    78.7508  -999.2500  -999.2500  -999.2500
   48.0000    84.8188     1.9089     2.8044     3.2227
   48.5000    88.7656     1.8969     1.7607     3.2683
   49.0000    93.3185     2.0755     1.6774     2.8056
   49.5000    95.7502     2.3705     1.6430     2.4761
   50.0000    97.2727     2.4211     1.6320     2.3755
   50.5000    99.0860     2.4386     1.6901     2.3595
   51.0000   100.8993     2.5255     1.9562     2.5965
   51.5000    99.1567     2.8428     2.4102     3.5822
   52.0000    89.4805     3.3828     2.9287     4.2927
   52.5000    81.0164     4.1677     3.4755     5.1800
   53.0000    76.7948     5.0638     4.3052     5.8309
   53.5000    75.5525     5.9014     5.3283     6.4730
   54.0000    77.1394     7.2203     6.0818     7.0376
   54.5000    76.2511     8.2439     7.1875     7.4935
   55.0000    75.6162     8.6064     7.7602     7.8687
   55.5000    74.4797     8.8498     8.1488     8.0922
   56.0000    73.2883     9.0280     8.4387     8.3221
   56.5000    72.0970     8.9680     8.3819     8.4403
   57.0000    70.6026     8.6042     8.0973     8.5603
   57.5000    69.4061     7.9183     7.5028     8.4851
   58.0000    73.0684     7.1369     6.2201     7.5569
   58.5000    76.4225     5.8364     5.2505     6.2217
   59.0000    79.4736     5.3340     4.5518     5.6459
   59.5000    83.1307     5.1176     4.1878     5.2313
   60.0000    82.8485     4.9784     4.1597     5.1599
   60.5000    79.8141     4.9453     4.5860     5.5327
   61.0000    77.3354     5.8040     5.4956     6.4036
   61.5000    74.7342     6.7641     6.5400     7.2083
   62.0000    73.8407     7.6139     7.2602     8.0022
   62.5000    74.4727     8.3357     7.8387     8.5799
   63.0000    75.7056     8.6928     8.3464     8.8237
   63.5000    76.9385     9.1374     8.8255     8.8255
   64.0000    78.1714     9.7400     9.2675     8.8364
   64.5000    79.1013    10.5684     9.8109     9.0156
   65.0000    78.5160    11.0980    10.3143     9.2075
   65.5000    77.3247    11.4933    10.8060     9.5351
   66.0000    76.1333    11.8203    11.1130     9.8743
   66.5000    74.9420    11.9890    11.2708    10.1548
   67.0000    74.9636    12.0758    11.4310    10.2277
   67.5000    75.5948    12.0791    11.5934    10.2298
   68.0000    76.2216    12.0824    11.7583    10.2319
   68.5000    76.5403    12.0857    11.8423    10.3054
   69.0000    75.3541    12.1733    11.9033    10.4518
   69.5000    73.5567    12.3469    11.9300    10.5268
   70.0000    72.0571    12.7042    12.0156    10.6814
   70.5000    72.3861    12.9822    12.1935    10.8390
   71.0000    74.8312    13.2467    12.4603    11.1362
   71.5000    75.7610    13.3427    12.7999    11.3732
   72.0000    75.4788    13.4394    12.8918    11.6153
   72.5000    75.8030    13.5367    12.9844    11.7803
   73.0000    75.8242    13.6348    12.9870    11.8649
   73.5000    76.4554    13.8580    12.9897    11.8673
   74.0000    77.0823    14.0266    13.0829    11.7875
   74.5000    78.0121    14.1282    13.1769    11.7899
   75.0000    80.1541    14.1321    13.3138    11.8746
   75.5000    83.2052    14.1359    13.3668    12.0433
   76.0000    85.0442    14.2383    13.4628    12.2144
   76.5000    83.5498    14.3415    13.4682    12.3021
   77.0000    79.9342    14.4455    13.5624    12.3905
   77.5000    77.8338    14.6524    13.6603    12.3936
   78.0000    76.9455    14.7441    13.7584    12.5697
   78.5000    76.6632    15.0735    13.9539    12.8372
   79.0000    76.7354    15.2885    14.3503    13.0196
   79.5000    77.9221    15.7235    14.6557    13.1131
   80.0000    78.5489    16.3971    15.2830    13.2994
   80.5000    78.2667    17.3388    16.2729    13.6772
   81.0000    76.7723    18.8511    17.2070    14.4622
   81.5000    74.9749    21.9695    19.9155    17.9436
   82.0000    72.8745    23.8856    23.7001    24.1997
   82.5000    69.8649    24.9089    28.9007    30.6577
   83.0000    66.5524    25.6178    34.6726    37.3158
   83.5000    62.0277    25.8035    38.0471    40.2597
   84.0000    59.6242    24.9310    39.4008    41.6542
   84.5000    59.9737    23.5899    39.1359    41.0875
   85.0000    60.9293    21.8605    36.7700    36.2626
   85.5000    61.8130    19.9785    30.6967    29.0365
   86.0000    62.1368    18.2586    23.9057    23.2503
   86.5000    64.5818    17.2764    17.3669    18.2330
   87.0000    70.3602    16.3470    16.2040    14.1993
   87.5000    73.4113    15.5754    15.1190    13.3409
   88.0000    73.4320    14.8403    14.4039    13.2511
   88.5000    73.4528    14.3376    14.1014    13.3464
   89.0000    72.5645    14.0458    13.9175    13.4422
   89.5000    71.0701    13.9524    14.0182    13.5388
   90.0000    72.0000    13.9563    14.1184    13.5416
   90.5000    74.1929    13.9609    14.1217    13.4505
   91.0000    77.0424    13.9647    14.1246    13.2682
   91.5000    78.4260    13.9686    14.1275    13.1783
   92.0000    76.3307    13.9724    14.1304    12.9096
   92.5000    76.0433    13.9762    14.1333    12.6458
   93.0000    76.6753    13.8823    14.0381    12.4731
   93.5000    78.2113    13.7899    13.9439    12.3893
   94.0000    80.0502    13.6043    13.8501    12.4789
   94.5000    81.2831    13.4201    13.5593    12.6562
   95.0000    80.3948    13.1471    13.1674    12.5711
   95.5000    78.2944    12.5266    12.0605    12.3141
   96.0000    77.4061    11.7578    10.0684    11.4770
   96.5000    78.3616    10.8595     8.9481    10.4709
