~VERSION INFORMATION
 VERS.                2.0:   CWLS LOG ASCII STANDARD - VERSION 2.0
 WRAP.                 NO:   ONE LINE PER DEPTH STEP
~WELL INFORMATION
#MNEM.UNIT      DATA TYPE    INFORMATION
#----------   ------------   ------------------------------
 STRT.F           22.0000:   START DEPTH
 STOP.F          533.0000:   STOP DEPTH
 STEP.F            0.5000:   STEP LENGTH
 NULL.          -999.2500:   NO VALUE
 COMP. FENIX & SCISSON INC:   COMPANY
 WELL.        NPR 3 #32-3:   WELL
 FLD .        TEAPOT DOME:   FIELD
 LOC .       S3 T38N R78W:   LOCATION
 CNTY.            NATRONA:   COUNTY
 STAT.            WYOMING:   STATE
 CTRY. UNITED STATES OF AMERICA:   COUNTRY
 SRVC.            Unknown:   SERVICE COMPANY
 DATE.        19-JUL-1978:   LOGDATE
 API .       490251067200:   API NUMBER
~CURVE INFORMATION
#MNEM.UNIT       API CODE    CURVE DESCRIPTION
#----------   ------------   ------------------------------
 DEPT.F                  :   
 SPR .MV     05 010 01 00:   SPONTANEOUS POTENTIAL FROM RES.
 SN  .OHMM   05 040 16 00:   SHORT NORMAL 16"
 IL  .OHMM   05 120 00 00:   INDUCTION LOG
 RHOB.G/C3   45 350 01 00:   BULK DENSITY
 DPHI.DEC    45 890 12 00:   DENSITY POROSITY SANDSTONE
 CORR.G/C3   45 356 01 00:   DENSITY CORRECTION
 CALD.IN     45 280 60 00:   CALIPER
 GRD .GAPI   45 310 01 00:   GAMMA RAY FROM DENSITY LOG
~PARAMETER INFORMATION
#MNEM.UNIT          VALUE    DESCRIPTION
#----------   ------------   ------------------------------
 PD  .                 GL:   PERMANENT DATUM
 EPD .F              5179:   ELEVATION PERMANENT DATUM
 LMF .                 KB:   LOG MEASURED FROM
 DAPD.F                 4:   FEET ABOVE PERMANENT DATUM
 DMF .                 KB:   DRILLING MEASURED FROM
 EKB .F              5183:   KELLING BUSHING
 EGL .F              5179:   GROUND LEVEL
 DATE.            7-19-78:   RUN DATE
 RUN .                  1:   RUN NUMBER
 DD  .F               520:   DEPTH DRILLER
 DL  .F               533:   DEPTH LOGGER
 BLI .F               527:   BOTTOM LOG INTERVAL
 TLI .F                50:   TOP LOG INTERVAL
 CS  .IN            8.625:   CASING SIZE
 CBD .F                40:   CASING BOTTOM DRILLER
 BS  .IN            7.875:   BIT SIZE
 BSD .F               520:   BIT SIZE AT DEPTH
 DFT .                KCL:   DRILLING FLUID TYPE
 DFD .                8.7:   DRILLING FLUID DENSITY
 DFV .                 33:   DRILLING FLUID VISCOSITY
 DFPH.                  9:   DRILLING FLUID PH
 DFL .               12.4:   DRILLING FLUID LOSS
 MSS .          FLOW LINE:   MUD SAMPLE SOURCE
 RMS .OHMM            .28:   RESISTIVITY MUD SAMPLE
 MST .F                70:   MUD SAMPLE TEMPERATURE
 RMF .OHMM            .24:   RESISTIVITY MUD FILTRATE SAMPLE
 MFST.F                76:   MUD FILTRATE SAMPLE TEMPERATURE
 RMC .OHMM             .5:   RESISTIVITY MUD CAKE
 MCST.F                78:   MUD CAKE SAMPLE TEMPERATURE
 MFSS.               MEAS:   MUD FILTRATE SAMPLE SOURCE
 MCSS.               MEAS:   MUD CAKE SAMPLE SOURCE
 TCS .HRS               2:   TIME CURCULATED STOPPED
 LUN .               2958:   LOGGING UNIT NUMBER
 LUL .               CASP:   LOGGING UNIT LOCATION
 ENGI.             MILLER:   RECORDING ENGINEER
 WITN.           MCGINLEY:   WITNESSED BY
 CLNT.            A2DTECH:   CLIENT CODE
 ORIG.           5" PRINT:   ORIGIN OF DATA
 UWI .       490251067200:   UNIQUE WELL ID
 DICO. A2D Technologies, Inc.:   DIGITIZING COMPANY
~OTHER INFORMATION
~A   DEPT      SPR         SN         IL       RHOB       DPHI       CORR       CALD         GRD  
# ...
  467.5000   -18.1709    10.1509    12.3051     2.4658     0.1289     0.0624     7.3671    68.0676
  468.0000   -18.2565    10.1509    12.1971     2.4713     0.1284     0.0585     7.4673    67.9384
  468.5000   -18.4193    10.1509    12.0900     2.4720     0.1300     0.0652     7.4714    68.0835
  469.0000   -18.8728    10.1511    11.9839     2.4720     0.1273     0.0766     7.4926    67.3385
  469.5000   -19.3123    10.1527    11.8598     2.4739     0.1204     0.0884     7.5474    66.6080
  470.0000   -19.7513    10.0578    11.6982     2.4815     0.1156     0.0752     7.6644    66.5271
  470.5000   -20.1903     9.9553    11.5389     2.4889     0.1195     0.0547     7.7709    66.7269
  471.0000   -20.6294     9.8535    11.3818     2.4887     0.1184     0.0238     7.7704    67.4200
  471.5000   -21.0692     9.7527    11.2268     2.4841     0.1306     0.0123     7.7770    68.1045
  472.0000   -21.5079     9.6534    11.1251     2.4675     0.1360     0.0166     7.7839    68.7922
  472.5000   -21.9199     9.6047    11.1744     2.4570     0.1296     0.0214     7.7908    69.4780
  473.0000   -22.1122     9.6012    11.2114     2.4683     0.1239     0.0125     7.7978    69.2291
  473.5000   -22.3111     9.5971    11.2485     2.4751     0.1315     0.0323     7.8052    68.7228
  474.0000   -22.4797     9.5929    11.2857     2.4702     0.1304     0.0328     7.8049    68.2265
  474.5000   -22.4758     9.5887    11.3231     2.4678     0.1292     0.0315     7.7098    68.1237
  475.0000   -22.4753     9.5845    11.3309     2.4664     0.1351     0.0371     7.6270    69.3778
  475.5000   -22.4753     9.5803    11.3168     2.4573     0.1363     0.0405     7.6287    70.6276
  476.0000   -22.4753     9.5762    11.3068     2.4560     0.1374     0.0381     7.6289    70.9168
  476.5000   -22.4753     9.5720    11.2967     2.4548     0.1434     0.0356     7.6290    70.6398
  477.0000   -22.4756     9.5678    11.2866     2.4483     0.1504     0.0331     7.6290    69.2930
  477.5000   -22.4754     9.5636    11.2766     2.4356     0.1575     0.0321     7.6290    67.9247
  478.0000   -22.4723     9.5595    11.2666     2.4231     0.1627     0.0490     7.6289    68.3178
  478.5000   -22.3048     9.5553    11.2564     2.4104     0.1647     0.0660     7.6237    69.3291
  479.0000   -21.9347     9.5511    11.2461     2.4104     0.1464     0.0812     7.6001    69.1925
  479.5000   -21.5670     9.5469    11.2316     2.4388     0.1339     0.0856     7.5773    69.0752
  480.0000   -21.1832     9.5428    11.2259     2.4667     0.1238     0.0707     7.5543    70.3004
  480.5000   -21.0352     9.5386    11.3363     2.4946     0.1060     0.0499     7.5309    71.5160
  481.0000   -20.9551     9.5344    11.1337     2.5110     0.1128     0.0301     7.5322    70.8417
  481.5000   -20.8931     9.5303    11.0464     2.4983     0.1259     0.0229     7.5353    70.4885
  482.0000   -21.2130     9.5261    11.0236     2.4740     0.1308     0.0191     7.5383    71.1808
  482.5000   -21.5621     9.5232    11.0236     2.4645     0.1268     0.0182     7.5413    72.1169
  483.0000   -21.9105     9.4506    10.7083     2.4727     0.1371     0.0174     7.5442    73.0347
  483.5000   -22.2572     9.3264    10.4204     2.4585     0.1326     0.0166     7.5472    72.5036
  484.0000   -22.5833     9.2039    10.2293     2.4648     0.1244     0.0158     7.5501    70.0925
  484.5000   -22.8683     9.0830    10.0420     2.4749     0.1237     0.0149     7.5531    69.3561
  485.0000   -23.1548     8.9637     9.9235     2.4821     0.1244     0.0141     7.5560    69.8736
  485.5000   -23.4399     8.8471     9.8538     2.4718     0.1294     0.0133     7.5590    69.5228
  486.0000   -23.6742     8.6546     9.7855     2.4671     0.1294     0.0125     7.5620    68.6509
  486.5000   -23.6978     8.4682     9.9523     2.4681     0.1284     0.0117     7.5648    68.8881
  487.0000   -23.7250     8.2858    10.1509     2.4686     0.1335     0.0109     7.5671    70.8436
  487.5000   -23.7528     8.1174     9.4302     2.4583     0.1372     0.0100     7.5482    72.9447
  488.0000   -23.7805     7.9197     8.7819     2.4580     0.1354     0.0092     7.5246    75.9263
  488.5000   -23.8084     7.6405     8.2131     2.4568     0.1458     0.0084     7.4451    78.7307
  489.0000   -23.8362     7.1962     7.7337     2.4461     0.1561     0.0075     7.3644    83.9106
  489.5000   -23.8612     6.8041     7.2795     2.4296     0.1641     0.0101     7.2925    84.2089
  490.0000   -23.8615     6.4334     6.8542     2.4130     0.1721     0.0130     7.2756    85.0947
  490.5000   -23.8615     6.1259     6.4194     2.3966     0.1823     0.0303     7.2540    87.9947
  491.0000   -23.8620     5.9112     6.2290     2.3839     0.1747     0.0171     7.2322    90.8781
  491.5000   -23.8677     5.9112     6.1319     2.4321     0.1600     0.0341     7.2099    91.2958
  492.0000   -23.5549     5.9076     6.1319     2.4800     0.1452     0.0532     7.1087    85.3700
  492.5000   -23.1438     6.0987     6.4984     2.4899     0.1304     0.0527     7.0095    80.1024
  493.0000   -22.8603     6.3580     7.1506     2.5009     0.1156     0.0610     7.2324    76.1530
  493.5000   -22.8442     7.5663     7.9545     2.5079     0.1004     0.0627     7.5424    76.0535
  494.0000   -22.8230     8.3908     8.7346     2.5150     0.1005     0.0620     7.5499    76.6972
  494.5000   -22.8028     8.6442     8.9667     2.5185     0.1034     0.0611     7.5498    77.1073
  495.0000   -22.7824     8.9052     9.2130     2.5133     0.1032     0.0602     7.5496    76.1975
  495.5000   -22.7620     9.0958     9.4648     2.5075     0.1056     0.0599     7.5496    75.7520
  496.0000   -22.7416     9.2366     9.7237     2.5028     0.1084     0.0718     7.5496    74.1819
  496.5000   -22.7213     9.3798     9.9540     2.5108     0.1022     0.0819     7.5496    71.8347
  497.0000   -22.7016     9.5201    10.1398     2.5232     0.0980     0.0642     7.5496    70.3649
  497.5000   -22.6798     9.6934    10.3291     2.5340     0.1035     0.0378     7.5496    71.8716
  498.0000   -22.6066     9.8631    10.5235     2.5189     0.1096     0.0236     7.5496    75.4346
  498.5000   -22.2963    10.0358    10.6883     2.5028     0.1013     0.0174     7.5496    78.1175
  499.0000   -21.9954    10.1695    10.9341     2.5130     0.0948     0.0161     7.5496    77.1540
  499.5000   -21.6969    10.2986    11.1814     2.5154     0.1164     0.0170     7.5496    76.6966
  500.0000   -21.4873    10.4295    11.4352     2.4987     0.1188     0.0180     7.5496    76.1976
  500.5000   -21.5173    10.5619    11.6948     2.4945     0.1130     0.0189     7.5496    74.8616
  501.0000   -21.5425    10.6812    11.9597     2.4968     0.1117     0.0213     7.5496    77.8888
  501.5000   -21.5676    10.7877    12.2343     2.4994     0.1092     0.0183     7.5496    80.5184
  502.0000   -21.5926    10.8952    12.3168     2.5019     0.1124     0.0154     7.5497    80.5913
  502.5000   -21.6173    10.9583    12.3354     2.4979     0.1183     0.0119     7.5572    79.2939
  503.0000   -21.6421    11.0059    12.3523     2.4905     0.1232     0.0075     7.5806    75.2482
  503.5000   -21.6698    11.0538    12.3697     2.4831     0.1224     0.0030     7.6037    71.2479
  504.0000   -21.8564    11.1019    12.3870     2.4775     0.1220    -0.0001     7.6268    68.8772
  504.5000   -22.3317    11.1501    12.4044     2.4735     0.1288     0.0030     7.6499    68.3328
  505.0000   -22.8041    11.1986    12.4198     2.4702     0.1290     0.0060     7.6691    68.5256
  505.5000   -23.2551    11.2275    12.2769     2.4690     0.1280     0.0091     7.6662    69.8264
  506.0000   -23.2595    11.1382    12.1038     2.4718     0.1231     0.0073     7.6635    71.0721
  506.5000   -23.2438    11.0750    11.9714     2.4760     0.1226     0.0047     7.6609    70.0669
  507.0000   -23.2298    11.0123    11.9877     2.4801     0.1247     0.0020     7.6583    68.5656
  507.5000   -23.2165    10.9499    12.0036     2.4771     0.1316    -0.0006     7.6557    67.1376
