~VERSION INFORMATION
 VERS.                2.0:   CWLS LOG ASCII STANDARD - VERSION 2.0
 WRAP.                 NO:   ONE LINE PER DEPTH STEP
~WELL INFORMATION
#MNEM.UNIT      DATA TYPE    INFORMATION
#----------   ------------   ------------------------------
 STRT.F           20.0000:   START DEPTH
 STOP.F          565.0000:   STOP DEPTH
 STEP.F            0.5000:   STEP LENGTH
 NULL.          -999.2500:   NO VALUE
 COMP. FENIX & SCISSON INC:   COMPANY
 WELL.     NPR-3 #12-SX-3:   WELL
 FLD .        TEAPOT DOME:   FIELD
 LOC .       S3 T38N R78W:   LOCATION
 CNTY.            NATRONA:   COUNTY
 STAT.            WYOMING:   STATE
 CTRY. UNITED STATES OF AMERICA:   COUNTRY
 SRVC.           BIRDWELL:   SERVICE COMPANY
 DATE.        29-JUL-1978:   LOGDATE
 API .       490251067000:   API NUMBER
~CURVE INFORMATION
#MNEM.UNIT       API CODE    CURVE DESCRIPTION
#----------   ------------   ------------------------------
 DEPT.F                  :   
 SPR .MV     05 010 01 00:   SPONTANEOUS POTENTIAL FROM RES.
 SN  .OHMM   05 040 16 00:   SHORT NORMAL 16"
 IL  .OHMM   05 120 00 00:   INDUCTION LOG
 GRD .GAPI   45 310 01 00:   GAMMA RAY FROM DENSITY LOG
 CALD.IN     45 280 60 00:   CALIPER
 CORR.G/C3   45 356 01 00:   DENSITY CORRECTION
 RHOB.G/C3   45 350 01 00:   BULK DENSITY
 DPHI.DEC    45 890 12 00:   DENSITY POROSITY SANDSTONE
~PARAMETER INFORMATION
#MNEM.UNIT          VALUE    DESCRIPTION
#----------   ------------   ------------------------------
 PD  .                 GL:   PERMANENT DATUM
 EPD .F              5191:   ELEVATION PERMANENT DATUM
 LMF .                 KB:   LOG MEASURED FROM
 DAPD.F                 4:   FEET ABOVE PERMANENT DATUM
 DMF .                 KB:   DRILLING MEASURED FROM
 EKB .F              5195:   KELLING BUSHING
 EGL .F              5191:   GROUND LEVEL
 DATE.            7-29-78:   RUN DATE
 RUN .                  1:   RUN NUMBER
 DD  .F               565:   DEPTH DRILLER
 DL  .F               571:   DEPTH LOGGER
 BLI .F               565:   BOTTOM LOG INTERVAL
 TLI .F                40:   TOP LOG INTERVAL
 CS  .IN            8.625:   CASING SIZE
 CBD .F                40:   CASING BOTTOM DRILLER
 CBL .F                40:   CASING BOTTOM LOGGER
 BS  .IN            7.875:   BIT SIZE
 BSD .F               565:   BIT SIZE AT DEPTH
 DFT .                KCL:   DRILLING FLUID TYPE
 DFD .                8.6:   DRILLING FLUID DENSITY
 DFV .                 31:   DRILLING FLUID VISCOSITY
 DFPH.                  9:   DRILLING FLUID PH
 RMS .OHMM            .32:   RESISTIVITY MUD SAMPLE
 MST .F                70:   MUD SAMPLE TEMPERATURE
 TCS .HRS               1:   TIME CURCULATED STOPPED
 LUN .               2958:   LOGGING UNIT NUMBER
 LUL .               CASP:   LOGGING UNIT LOCATION
 ENGI.              HONEA:   RECORDING ENGINEER
 WITN.              AMEND:   WITNESSED BY
 CLNT.            A2DTECH:   CLIENT CODE
 ORIG.           5" PRINT:   ORIGIN OF DATA
 UWI .       490251067000:   UNIQUE WELL ID
 DICO. A2D Technologies, Inc.:   DIGITIZING COMPANY
~OTHER INFORMATION
~A   DEPT      SPR         SN         IL         GRD      CALD       CORR       RHOB       DPHI   
# ...
  384.5000   -30.8638     8.1918     6.4597    93.6502     7.7472    -0.0001     2.4671     0.1336
  385.0000   -30.6299     8.5316     6.9029    92.6544     7.7480     0.0030     2.4577     0.1326
  385.5000   -30.3960     8.6902     6.9029    94.3918     7.7488     0.0088     2.4560     0.1312
  386.0000   -30.1622     8.6931     6.9029    95.9067     7.7496     0.0082     2.4623     0.1311
  386.5000   -29.8975     8.6964     6.9029    93.8243     7.7504     0.0059     2.4698     0.1317
  387.0000   -29.4743     8.6997     6.9029    91.2889     7.7512     0.0108     2.4672     0.1320
  387.5000   -29.0462     8.7030     6.9208    88.7295     7.7520     0.0170     2.4607     0.1305
  388.0000   -28.6183     8.7063     6.9373    85.3705     7.7529     0.0242     2.4592     0.1291
  388.5000   -28.1905     8.7096     6.9539    82.8825     7.7537     0.0340     2.4654     0.1291
  389.0000   -27.7640     8.7129     6.9704    83.2469     7.7545     0.0337     2.4715     0.1301
  389.5000   -27.3313     8.7163     6.9871    84.9219     7.7553     0.0343     2.4732     0.1330
  390.0000   -27.1508     8.7196     7.0037    86.8627     7.7561     0.0474     2.4683     0.1384
  390.5000   -26.9414     8.7229     7.0204    88.8385     7.7569     0.0542     2.4526     0.1391
  391.0000   -26.9848     8.7262     7.0371    89.9438     7.7577     0.0567     2.4485     0.1466
  391.5000   -27.0248     8.7295     7.0539    91.0309     7.7585     0.0584     2.4567     0.1527
  392.0000   -27.0601     8.7329     7.0707    90.4526     7.7593     0.0890     2.4320     0.1507
  392.5000   -27.0957     8.7362     7.0876    87.8278     7.7601     0.1076     2.4175     0.1433
  393.0000   -27.1313     8.7395     7.1045    85.6507     7.7610     0.1087     2.4332     0.1400
  393.5000   -27.1669     8.7428     7.1214    85.6988     7.7618     0.1211     2.4562     0.1393
  394.0000   -27.2024     8.7462     7.1384    85.7051     7.7626     0.1290     2.4469     0.1389
  394.5000   -27.2380     8.7495     7.1554    85.7058     7.7634     0.1244     2.4513     0.1380
  395.0000   -27.2736     8.7528     7.3595    85.7058     7.7642     0.1194     2.4503     0.1305
  395.5000   -27.3092     8.7562     7.5164    85.7058     7.7650     0.1143     2.4639     0.1292
  396.0000   -27.3448     8.7595     7.6389    85.7063     7.7658     0.1093     2.4713     0.1294
  396.5000   -27.3803     8.7627     7.6389    85.7150     7.7666     0.1041     2.4725     0.1338
  397.0000   -27.4159     8.7664     7.4317    85.7722     7.7674     0.1081     2.4721     0.1400
  397.5000   -27.4515     8.7748     6.9871    83.3388     7.7683     0.1104     2.4557     0.1432
  398.0000   -27.4872     8.6951     6.5882    80.5635     7.7691     0.1055     2.4498     0.1465
  398.5000   -27.5220     8.1816     6.2133    78.8016     7.7699     0.1008     2.4462     0.1635
  399.0000   -27.5619     7.7144     5.9570    80.7787     7.7707     0.0979     2.4217     0.1751
  399.5000   -27.2625     7.2282     6.1175    83.1724     7.7715     0.1094     2.3945     0.1817
  400.0000   -26.9443     7.4250     6.2742    86.6649     7.7724     0.1172     2.3667     0.1694
  400.5000   -26.6270     7.6941     6.3555    91.3923     7.7744     0.1118     2.3697     0.1460
  401.0000   -26.3082     7.9989     6.3543    95.5892     7.7926     0.1068     2.4206     0.1239
  401.5000   -26.1558     8.7732     6.3518    94.2445     7.8825     0.1033     2.4966     0.1076
  402.0000   -26.1250     9.7126     6.4587    88.4057     7.9349     0.1039     2.5315     0.1034
  402.5000   -25.8911    10.8400     7.4426    82.6798     7.5887     0.1048     2.5238     0.1034
  403.0000   -25.6559    11.1537     8.5763    81.6312     7.5960     0.1056     2.5107     0.1014
  403.5000   -25.4209    11.2854     9.8862    80.5908     7.5979     0.0974     2.5156     0.1037
  404.0000   -25.1856    11.4079     9.7319    77.5297     7.5992     0.0874     2.5223     0.1116
  404.5000   -24.9511    11.5336     9.5242    75.5331     7.6005     0.0815     2.5139     0.1195
  405.0000   -24.7440    11.6689     9.3209    76.3620     7.6017     0.0813     2.4989     0.1264
  405.5000   -24.7502    11.8191     9.2689    77.2001     7.6030     0.0802     2.4837     0.1303
  406.0000   -24.6779    11.9958     9.3500    79.9579     7.6042     0.0798     2.4686     0.1329
  406.5000   -24.5830    12.2961     9.9191    83.6864     7.6055     0.0684     2.4652     0.1352
  407.0000   -24.4863    12.8185    10.5227    85.4153     7.6068     0.0554     2.4635     0.1421
  407.5000   -24.3962    13.3632    11.1631    83.4123     7.6080     0.0517     2.4501     0.1543
  408.0000   -23.6642    13.9310    11.8297    80.1901     7.6093     0.0553     2.4315     0.1672
  408.5000   -22.3140    14.5229    12.8638    75.9151     7.6105     0.0624     2.4075     0.1809
  409.0000   -21.7672    15.1400    13.9883    69.6977     7.6118     0.0695     2.3822     0.1877
  409.5000   -21.4807    15.7464    15.2416    63.5152     7.6130     0.0767     2.3640     0.1883
  410.0000   -21.1902    16.1977    16.5284    57.7835     7.6146     0.0838     2.3723     0.1883
  410.5000   -20.8882    16.6618    18.1564    53.8351     7.5940     0.0863     2.3575     0.1881
  411.0000   -20.5849    17.1394    18.1564    50.1729     7.5621     0.0664     2.3653     0.1920
  411.5000   -20.1863    17.5849    18.1564    50.1739     7.5299     0.0469     2.3641     0.1928
  412.0000   -19.3233    18.0096    18.1564    53.7581     7.4980     0.0300     2.3522     0.1942
  412.5000   -18.4651    18.4446    18.1567    57.4439     7.4738     0.0317     2.3503     0.2001
  413.0000   -17.6119    18.8900    18.1581    56.0000     7.4568     0.0377     2.3420     0.2112
  413.5000   -16.9166    19.3462    18.1624    54.3264     7.4391     0.0438     2.3210     0.2139
  414.0000   -16.9458    19.8171    18.1472    52.6223     7.4254     0.0500     2.3021     0.2094
  414.5000   -16.9650    20.0908    18.6582    50.6802     7.3946     0.0510     2.3141     0.1912
  415.0000   -16.9826    19.8565    18.8623    47.2470     7.3644     0.0447     2.3364     0.1803
  415.5000   -16.9999    19.7256    19.0686    47.2314     7.3343     0.0383     2.3610     0.1735
  416.0000   -17.0173    19.7256    19.2772    51.3424     7.3158     0.0319     2.3861     0.1728
  416.5000   -17.0346    19.7188    19.4881    54.8862     7.3197     0.0258     2.3849     0.1743
  417.0000   -17.0520    19.7106    19.7012    58.4700     7.3240     0.0235     2.3889     0.1758
  417.5000   -17.0693    19.7024    19.9167    58.9833     7.3285     0.0230     2.3853     0.1761
  418.0000   -17.0867    19.6942    20.1346    57.9840     7.3329     0.0223     2.3843     0.1792
  418.5000   -17.1040    19.6859    20.3548    57.5253     7.3373     0.0216     2.3833     0.1924
  419.0000   -17.1263    19.6778    20.5775    57.4829     7.3416     0.0209     2.3592     0.2051
  419.5000   -17.1469    19.6696    20.8463    58.5103     7.3460     0.0202     2.3344     0.2179
  420.0000   -16.8274    19.6614    21.3529    59.4440     7.3504     0.0199     2.3095     0.2306
  420.5000   -16.3031    19.6532    21.8186    56.4417     7.3548     0.0231     2.2851     0.2433
  421.0000   -15.7968    19.6450    22.2945    53.1935     7.3592     0.0302     2.2645     0.2482
  421.5000   -15.2946    19.6368    22.7808    49.9427     7.3636     0.0374     2.2393     0.2501
  422.0000   -14.7926    19.6286    23.2777    46.8875     7.3680     0.0362     2.2380     0.2497
  422.5000   -14.5576    19.6205    23.7854    43.5522     7.3724     0.0339     2.2421     0.2438
  423.0000   -14.6209    19.6123    24.1563    45.3643     7.3763     0.0339     2.2575     0.2406
  423.5000   -14.6822    19.6041    24.3798    47.6136     7.3570     0.0420     2.2672     0.2362
  424.0000   -14.7444    19.5960    24.3798    47.9365     7.3345     0.0428     2.2525     0.2282
  424.5000   -14.8063    19.5878    24.2536    47.9254     7.3120     0.0415     2.2809     0.2182
