~VERSION INFORMATION
 VERS.                2.0:   CWLS LOG ASCII STANDARD - VERSION 2.0
 WRAP.                 NO:   ONE LINE PER DEPTH STEP
~WELL INFORMATION
#MNEM.UNIT      DATA TYPE    INFORMATION
#----------   ------------   ------------------------------
 STRT.F           43.0000:   START DEPTH
 STOP.F          620.0000:   STOP DEPTH
 STEP.F            0.5000:   STEP LENGTH
 NULL.          -999.2500:   NO VALUE
 COMP. FENIX & SCISSON INC:   COMPANY
 WELL.      16 SX 2 #16-2:   WELL
 FLD .             TEAPOT:   FIELD
 LOC .       S2 T38N R78W:   LOCATION
 CNTY.            NATRONA:   COUNTY
 STAT.            WYOMING:   STATE
 CTRY. UNITED STATES OF AMERICA:   COUNTRY
 SRVC.            Unknown:   SERVICE COMPANY
 DATE.        11-OCT-1978:   LOGDATE
 API .       490251071400:   API NUMBER
~CURVE INFORMATION
#MNEM.UNIT       API CODE    CURVE DESCRIPTION
#----------   ------------   ------------------------------
 DEPT.F                  :   
 SPR .MV     05 010 01 00:   SPONTANEOUS POTENTIAL FROM RES.
 SN  .OHMM   05 040 16 00:   SHORT NORMAL 16"
 ILD .OHMM   05 120 46 00:   INDUCTION LOG DEEP
 CALD.IN     45 280 60 00:   CALIPER
 GRD .GAPI   45 310 01 00:   GAMMA RAY FROM DENSITY LOG
 DPHI.DEC    45 890 12 00:   DENSITY POROSITY SANDSTONE
 RHOB.G/C3   45 350 01 00:   BULK DENSITY
 DRHO.G/C3   45 356 01 00:   DENSITY CORRECTION
~PARAMETER INFORMATION
#MNEM.UNIT          VALUE    DESCRIPTION
#----------   ------------   ------------------------------
 PD  .                 GL:   PERMANENT DATUM
 EPD .F              5135:   ELEVATION PERMANENT DATUM
 LMF .                 KB:   LOG MEASURED FROM
 DAPD.F                 4:   FEET ABOVE PERMANENT DATUM
 DMF .                 KB:   DRILLING MEASURED FROM
 EKB .F              5139:   KELLING BUSHING
 EGL .F              5135:   GROUND LEVEL
 DATE.           10-11-78:   RUN DATE
 RUN .                  1:   RUN NUMBER
 DD  .F               620:   DEPTH DRILLER
 DL  .F               620:   DEPTH LOGGER
 BLI .F               614:   BOTTOM LOG INTERVAL
 TLI .F                40:   TOP LOG INTERVAL
 CS  .IN            8.625:   CASING SIZE
 CBD .F                40:   CASING BOTTOM DRILLER
 CBL .F                40:   CASING BOTTOM LOGGER
 BS  .IN            7.875:   BIT SIZE
 BSD .F               620:   BIT SIZE AT DEPTH
 DFT .                KCL:   DRILLING FLUID TYPE
 RMS .OHMM            .16:   RESISTIVITY MUD SAMPLE
 MST .F                66:   MUD SAMPLE TEMPERATURE
 RMF .OHMM            .16:   RESISTIVITY MUD FILTRATE SAMPLE
 MFST.F                70:   MUD FILTRATE SAMPLE TEMPERATURE
 RMC .OHMM             .2:   RESISTIVITY MUD CAKE
 MCST.F                71:   MUD CAKE SAMPLE TEMPERATURE
 TCS .HRS               1:   TIME CURCULATED STOPPED
 MRT .F                70:   MAXIMUM RECORDED TEMPERATURE
 LUN .               2958:   LOGGING UNIT NUMBER
 LUL .               CASP:   LOGGING UNIT LOCATION
 ENGI.             MILLER:   RECORDING ENGINEER
 WITN.              AMEND:   WITNESSED BY
 CLNT.            A2DTECH:   CLIENT CODE
 ORIG.           5" PRINT:   ORIGIN OF DATA
 UWI .       490251071400:   UNIQUE WELL ID
 DICO. A2D Technologies, Inc.:   DIGITIZING COMPANY
~OTHER INFORMATION
~A   DEPT      SPR         SN        ILD       CALD         GRD      DPHI       RHOB       DRHO   
# ...
  569.5000   -42.0392     8.3859     9.9252     7.7930   122.8046     0.0916     2.5267     0.0229
  570.0000   -42.0135     8.3546     9.7896     7.7872   119.9315     0.0930     2.5241     0.0244
  570.5000   -41.9878     8.3236     9.6559     7.7815   115.4232     0.0935     2.5239     0.0259
  571.0000   -41.9630     8.2927     9.5622     7.7759   113.2043     0.0887     2.5311     0.0274
  571.5000   -41.9426     8.2619     9.5516     7.7702   117.6318     0.0839     2.5382     0.0284
  572.0000   -41.6447     8.2311     9.5410     7.7646   119.7984     0.0791     2.5452     0.0284
  572.5000   -41.3631     8.2006     9.5304     7.7589   117.4183     0.0759     2.5464     0.0284
  573.0000   -41.8623     8.1701     9.5199     7.7532   114.4321     0.0804     2.5366     0.0284
  573.5000   -42.3244     8.1397     9.5093     7.7476   113.8254     0.0849     2.5267     0.0300
  574.0000   -42.3391     8.1098     9.4987     7.7420   118.3777     0.0832     2.5301     0.0326
  574.5000   -42.6423     8.0262     9.4883     7.7412   121.9572     0.0799     2.5388     0.0352
  575.0000   -43.2950     7.9293     9.4778     7.7456   120.3493     0.0766     2.5474     0.0380
  575.5000   -43.3975     7.8336     9.3207     7.7499   119.3296     0.0748     2.5521     0.0344
  576.0000   -43.4673     7.7390     9.1662     7.7543   121.6978     0.0793     2.5287     0.0294
  576.5000   -43.5398     7.6456     9.0143     7.7589   124.4917     0.0838     2.5265     0.0264
  577.0000   -43.6133     7.5533     8.8649     7.7505   124.9291     0.0876     2.5272     0.0264
  577.5000   -43.6867     7.4621     8.7179     7.7388   125.4420     0.0910     2.5280     0.0264
  578.0000   -43.7602     7.3720     8.5734     7.7273   125.4743     0.0920     2.5259     0.0264
  578.5000   -43.8336     7.2831     8.4313     7.7274   125.2292     0.0930     2.5236     0.0264
  579.0000   -43.9071     7.2542     8.3301     7.7545   124.0173     0.0939     2.5212     0.0264
  579.5000   -43.9806     7.2542     8.3100     7.7809   118.3799     0.0949     2.5187     0.0264
  580.0000   -44.0540     7.2542     8.2873     7.7991   110.5767     0.0952     2.5180     0.0264
  580.5000   -44.1275     7.2542     8.2646     7.7988   113.6160     0.0945     2.5188     0.0264
  581.0000   -44.2010     7.2542     8.2420     7.7988   116.5148     0.0938     2.5225     0.0264
  581.5000   -44.2744     7.2542     8.2195     7.7988   117.6654     0.0930     2.5261     0.0255
  582.0000   -44.3479     7.2542     8.1970     7.7988   117.5254     0.0925     2.5267     0.0216
  582.5000   -44.4214     7.2542     8.1746     7.7988   118.0086     0.0984     2.5195     0.0179
  583.0000   -44.4948     7.2542     8.1522     7.7988   122.2241     0.1059     2.5055     0.0144
  583.5000   -44.5674     7.2542     8.1299     7.7989   126.5243     0.1155     2.4915     0.0174
  584.0000   -44.6389     7.2541     8.1075     7.7951   129.0557     0.1116     2.4895     0.0215
  584.5000   -44.7106     7.2533     8.1010     7.7904   126.9856     0.1055     2.5038     0.0255
  585.0000   -44.7826     7.2513     8.0985     7.7856   124.4803     0.0967     2.5160     0.0277
  585.5000   -44.8562     7.3387     8.1779     7.7809   121.9914     0.0932     2.5282     0.0253
  586.0000   -44.9135     7.4807     8.3451     7.7761   120.4001     0.0882     2.5341     0.0229
  586.5000   -44.7826     7.6255     8.6250     7.7713   119.5414     0.0880     2.5352     0.0205
  587.0000   -44.2909     7.7731     8.9141     7.7666   118.7868     0.0877     2.5361     0.0184
  587.5000   -42.0710     7.9236     9.2130     7.7619   117.8818     0.0874     2.5368     0.0188
  588.0000   -42.4565     8.0770     9.5655     7.7656   116.2518     0.0872     2.5364     0.0191
  588.5000   -41.9977     8.2333     9.5563     7.7826   114.6272     0.0872     2.5360     0.0194
  589.0000   -41.1109     8.3301     9.5424     7.7978   113.9801     0.0876     2.5356     0.0198
  589.5000   -41.2739     8.3301     9.5286     7.7806   116.5975     0.0879     2.5352     0.0201
  590.0000   -40.4103     8.3265     9.5147     7.7623   120.7484     0.0883     2.5348     0.0204
  590.5000   -44.2292     8.4110     9.5009     7.7440   124.9452     0.0887     2.5344     0.0207
  591.0000   -41.3374     8.4051     9.4871     7.7257   129.1391     0.0891     2.5340     0.0210
  591.5000   -38.7557     8.3985     9.4733     7.7160   132.2596     0.0894     2.5316     0.0213
  592.0000   -41.0026     8.3894     9.4595     7.7108   128.2954     0.0898     2.5287     0.0217
  592.5000   -42.2025     8.3801     9.4457     7.7057   124.3198     0.0902     2.5261     0.0220
  593.0000   -38.8629     8.3708     9.4320     7.7007   120.3767     0.0898     2.5303     0.0223
  593.5000   -42.2438     8.3615     9.4183     7.6956   118.0363     0.0892     2.5347     0.0226
  594.0000   -39.7701     8.3523     9.4044     7.6905   118.7793     0.0885     2.5387     0.0229
  594.5000   -36.1221     8.3429     9.3922     7.6854   120.5701     0.0878     2.5379     0.0232
  595.0000   -41.1721     8.3336     9.3311     7.6803   119.6097     0.0870     2.5365     0.0236
  595.5000   -38.2002     8.2930     9.2567     7.6752   118.2415     0.0878     2.5348     0.0239
  596.0000   -41.1335     8.2312     9.1827     7.6702   116.8572     0.0888     2.5331     0.0242
  596.5000   -37.8203     8.1701     9.1092     7.6650   115.5823     0.0897     2.5315     0.0250
  597.0000   -33.7085     8.1094     9.0364     7.6596   116.9741     0.0899     2.5299     0.0278
  597.5000   -36.9624     8.0492     8.9677     7.6723   118.2129     0.0900     2.5301     0.0305
  598.0000   -40.3750     8.0285     8.8253     7.6871   115.1008     0.0900     2.5303     0.0331
  598.5000   -39.4982     7.9548     8.6116     7.7020   112.0083     0.0901     2.5305     0.0358
  599.0000   -36.4906     7.8095     8.4032     7.7168   109.6023     0.0902     2.5306     0.0385
  599.5000   -40.8874     7.6694     8.1997     7.7319   109.4225     0.0906     2.5308     0.0399
  600.0000   -41.9064     7.3498     8.0436     7.7569   109.6663     0.0926     2.5298     0.0375
  600.5000   -42.1290     7.0711     7.8955     7.7929   110.3329     0.0944     2.5278     0.0353
  601.0000   -42.1337     6.8024     7.7502     7.8126   114.1410     0.0984     2.5208     0.0330
  601.5000   -42.1321     6.4944     7.6075     7.8292   116.9915     0.1050     2.5075     0.0308
  602.0000   -42.1189     6.0327     7.4576     7.8457   117.9461     0.1116     2.4943     0.0315
  602.5000   -42.1012     5.7531     6.4011     7.8567   118.9132     0.1181     2.4809     0.0328
  603.0000   -42.0831     5.4509     5.4306     7.8451   119.5107     0.1254     2.4677     0.0342
  603.5000   -42.0651     5.0316     4.6072     7.8340   118.8762     0.1427     2.4479     0.0355
  604.0000   -42.0471     4.6224     3.9086     7.8226   119.2658     0.1727     2.3857     0.0369
  604.5000   -42.0290     4.2462     3.3953     7.8046   120.5433     0.2025     2.3232     0.0381
  605.0000   -42.0110     3.9004     3.3296     7.7718   121.5225     0.2324     2.2861     0.0430
  605.5000   -41.9930     3.5835     3.2647     7.7396   119.1609     0.2544     2.2556     0.0484
  606.0000   -41.9751     3.3439     3.2005     7.7168   117.1451     0.2493     2.2864     0.0538
  606.5000   -41.9565     3.3439     3.1932     7.7115   117.1746     0.2137     2.3771     0.0593
  607.0000   -41.9428     3.4803     3.1906     7.7060   116.6323     0.1576     2.4718     0.0586
  607.5000   -41.7785     3.8977     3.7156     7.7004   115.4221     0.1152     2.5140     0.0563
  608.0000   -41.1303     4.3617     4.2837     7.6949   114.9425     0.0857     2.5338     0.0540
  608.5000   -40.4544     4.8816     4.9386     7.6894   114.5520     0.0833     2.5315     0.0523
  609.0000   -39.7767     5.4625     5.6943     7.6839   116.0595     0.0836     2.5282     0.0544
  609.5000   -39.1007     6.0885     6.5658     7.6783   119.9864     0.0826     2.5333     0.0590
