~VERSION INFORMATION
 VERS.                2.0:   CWLS LOG ASCII STANDARD - VERSION 2.0
 WRAP.                 NO:   ONE LINE PER DEPTH STEP
~WELL INFORMATION
#MNEM.UNIT      DATA TYPE    INFORMATION
#----------   ------------   ------------------------------
 STRT.F           40.0000:   START DEPTH
 STOP.F          821.0000:   STOP DEPTH
 STEP.F            0.5000:   STEP LENGTH
 NULL.          -999.2500:   NO VALUE
 COMP. FENIX & SCISSON INC:   COMPANY
 WELL. NPR 3 -68 SX #68-27:   WELL
 FLD .             TEAPOT:   FIELD
 LOC .      S27 T39N R78W:   LOCATION
 CNTY.            NATRONA:   COUNTY
 STAT.            WYOMING:   STATE
 CTRY. UNITED STATES OF AMERICA:   COUNTRY
 SRVC.           BIRDWELL:   SERVICE COMPANY
 DATE.        11-SEP-1978:   LOGDATE
 API .       490251069500:   API NUMBER
~CURVE INFORMATION
#MNEM.UNIT       API CODE    CURVE DESCRIPTION
#----------   ------------   ------------------------------
 DEPT.F                  :   
 SPR .MV     05 010 01 00:   SPONTANEOUS POTENTIAL FROM RES.
 SN  .OHMM   05 040 16 00:   SHORT NORMAL 16"
 ILD .OHMM   05 120 46 00:   INDUCTION LOG DEEP
 GRD .GAPI   45 310 01 00:   GAMMA RAY FROM DENSITY LOG
 CALD.IN     45 280 60 00:   CALIPER
 RHOB.G/C3   45 350 01 00:   BULK DENSITY
 CORR.G/C3   45 356 01 00:   DENSITY CORRECTION
 DPHI.DEC    45 890 12 00:   DENSITY POROSITY SANDSTONE
~PARAMETER INFORMATION
#MNEM.UNIT          VALUE    DESCRIPTION
#----------   ------------   ------------------------------
 PD  .                 GL:   PERMANENT DATUM
 EPD .F              5032:   ELEVATION PERMANENT DATUM
 LMF .                 GL:   LOG MEASURED FROM
 DAPD.F                 4:   FEET ABOVE PERMANENT DATUM
 DMF .                 GL:   DRILLING MEASURED FROM
 EKB .F              5036:   KELLING BUSHING
 EGL .F              5032:   GROUND LEVEL
 DATE.            9-11-78:   RUN DATE
 RUN .                  1:   RUN NUMBER
 DD  .F               820:   DEPTH DRILLER
 DL  .F               822:   DEPTH LOGGER
 BLI .F               818:   BOTTOM LOG INTERVAL
 TLI .F                40:   TOP LOG INTERVAL
 CS  .IN            8.625:   CASING SIZE
 CBD .F                40:   CASING BOTTOM DRILLER
 CBL .F                40:   CASING BOTTOM LOGGER
 BS  .IN            7.875:   BIT SIZE
 BSD .F               820:   BIT SIZE AT DEPTH
 DFT .                KCL:   DRILLING FLUID TYPE
 DFD .                8.6:   DRILLING FLUID DENSITY
 DFV .                 34:   DRILLING FLUID VISCOSITY
 DFPH.                  9:   DRILLING FLUID PH
 DFL .                  8:   DRILLING FLUID LOSS
 MSS .           FLOWLINE:   MUD SAMPLE SOURCE
 RMS .OHMM            .24:   RESISTIVITY MUD SAMPLE
 MST .F                62:   MUD SAMPLE TEMPERATURE
 RMF .OHMM            .18:   RESISTIVITY MUD FILTRATE SAMPLE
 MFST.F                64:   MUD FILTRATE SAMPLE TEMPERATURE
 RMC .OHMM             .3:   RESISTIVITY MUD CAKE
 MCST.F                66:   MUD CAKE SAMPLE TEMPERATURE
 MFSS.               MEAS:   MUD FILTRATE SAMPLE SOURCE
 MCSS.               MEAS:   MUD CAKE SAMPLE SOURCE
 RMB .OHMM            .22:   RESISTIVITY MUD AT BHT
 BHT .F                68:   BOTTOM HOLE TEMPERATURE
 TCS .HRS               1:   TIME CURCULATED STOPPED
 MRT .F                68:   MAXIMUM RECORDED TEMPERATURE
 LUN .               3006:   LOGGING UNIT NUMBER
 LUL .               CASP:   LOGGING UNIT LOCATION
 ENGI.            POINTER:   RECORDING ENGINEER
 WITN.              AMEND:   WITNESSED BY
 CLNT.            A2DTECH:   CLIENT CODE
 ORIG.           5" PRINT:   ORIGIN OF DATA
 UWI .       490251069500:   UNIQUE WELL ID
 DICO. A2D Technologies, Inc.:   DIGITIZING COMPANY
~OTHER INFORMATION
~A   DEPT       SPR        SN        ILD         GRD        CALD     RHOB       CORR       DPHI   
# ...
  283.0000   -40.5118     9.0308     8.7219    97.7420     8.1487     2.5041     0.0065     0.1149
  283.5000   -40.5813     9.0649     8.7375    97.7890     8.1565     2.5015     0.0085     0.1134
  284.0000   -40.6508     9.0208     8.5605    99.3922     8.1642     2.4986     0.0105     0.1120
  284.5000   -40.7189     8.9635     8.2584   100.9725     8.1699     2.4998     0.0110     0.1120
  285.0000   -40.7969     8.9066     8.1121   100.2849     8.1646     2.5039     0.0101     0.1125
  285.5000   -40.5671     8.8500     8.1211    99.8660     8.1594     2.5096     0.0097     0.1130
  286.0000   -40.4758     8.7938     8.1226   105.8139     8.1542     2.5152     0.0104     0.1132
  286.5000   -40.1341     8.7380     8.1253   105.9732     8.1491     2.5144     0.0112     0.1111
  287.0000   -39.8016     8.6825     8.1278   105.5293     8.1439     2.5135     0.0119     0.1088
  287.5000   -39.5757     8.6274     8.1303   110.8874     8.1387     2.5119     0.0126     0.1064
  288.0000   -39.5796     8.5726     8.1327   109.0190     8.1333     2.5120     0.0133     0.1067
  288.5000   -39.5790     8.5181     8.1352   106.9750     8.1286     2.5120     0.0127     0.1072
  289.0000   -39.5792     8.4643     8.1377   108.9024     8.1551     2.5120     0.0114     0.1077
  289.5000   -39.5792     8.4224     8.1402   108.1628     8.1665     2.5108     0.0100     0.1083
  290.0000   -39.5792     8.5810     8.1426   103.8098     8.1776     2.5036     0.0087     0.1088
  290.5000   -39.5792     8.7140     8.1451    95.2036     8.1886     2.4964     0.0073     0.1094
  291.0000   -39.5792     8.7375     8.1476    93.4892     8.1995     2.4912     0.0059     0.1099
  291.5000   -39.5792     8.7375     8.1501    95.4299     8.2105     2.4913     0.0046     0.1109
  292.0000   -39.5792     8.7375     8.1525    97.9405     8.2214     2.4919     0.0035     0.1120
  292.5000   -39.5792     8.7375     8.1550    98.4815     8.2325     2.4926     0.0044     0.1131
  293.0000   -39.5792     8.7375     8.1575    96.4042     8.2433     2.4932     0.0052     0.1138
  293.5000   -39.5792     8.7375     8.1600    97.7837     8.2463     2.4938     0.0061     0.1127
  294.0000   -39.5792     8.7375     8.1624   100.2344     8.2240     2.4950     0.0069     0.1117
  294.5000   -39.5792     8.7375     8.1649    98.8826     8.2022     2.4978     0.0078     0.1106
  295.0000   -39.5792     8.7375     8.1674    96.7727     8.1804     2.5011     0.0087     0.1096
  295.5000   -39.5792     8.7375     8.1699    95.4472     8.1586     2.5044     0.0095     0.1091
  296.0000   -39.5792     8.7375     8.1724    96.6825     8.1368     2.5081     0.0085     0.1089
  296.5000   -39.5792     8.7375     8.1749    99.7395     8.1149     2.5119     0.0070     0.1086
  297.0000   -39.5790     8.7375     8.1774   100.2841     8.0930     2.5156     0.0055     0.1084
  297.5000   -39.5791     8.7375     8.1798   100.4686     8.0851     2.5193     0.0041     0.1082
  298.0000   -39.5806     8.7375     8.1823   103.7051     8.0743     2.5219     0.0026     0.1080
  298.5000   -39.6592     8.7375     8.1848   105.3670     8.0637     2.5212     0.0009     0.1075
  299.0000   -39.8274     8.7375     8.1874   106.7495     8.0529     2.5206    -0.0015     0.1073
  299.5000   -39.9945     8.7375     8.1902   113.0624     8.0422     2.5202    -0.0039     0.1072
  300.0000   -40.1627     8.7374     8.1929   118.0247     8.0315     2.5153    -0.0064     0.1084
  300.5000   -40.3297     8.7754     8.1189   120.3655     8.0208     2.5099    -0.0080     0.1107
  301.0000   -40.4912     8.8300     8.0380   121.7503     8.0102     2.5046    -0.0085     0.1131
  301.5000   -40.3992     8.9015     7.9578   123.2047     7.9995     2.4999    -0.0050     0.1155
  302.0000   -40.2380     8.6666     7.8785   124.6955     7.9801     2.5000    -0.0012     0.1176
  302.5000   -39.9627     8.1962     7.7999   122.5577     7.9047     2.5000     0.0027     0.1169
  303.0000   -39.6835     8.1919     7.7222   117.0471     7.8287     2.5000     0.0066     0.1162
  303.5000   -39.4082     8.1861     7.6451   111.6784     7.7530     2.5000     0.0106     0.1154
  304.0000   -39.4548     8.1803     7.5691   111.1003     7.6890     2.5000     0.0148     0.1147
  304.5000   -39.5412     8.1745     7.4715   109.4944     7.7241     2.5004     0.0175     0.1144
  305.0000   -39.6278     8.1687     7.4727   106.9410     7.7603     2.5009     0.0175     0.1148
  305.5000   -39.7137     8.1629     7.4724   104.4308     7.7962     2.5013     0.0175     0.1157
  306.0000   -39.7999     8.1571     7.5000   103.6256     7.8321     2.5017     0.0175     0.1167
  306.5000   -39.8875     8.1513     7.5301   104.4061     7.8679     2.5024     0.0175     0.1176
  307.0000   -39.9693     8.1455     7.5604   105.5035     7.9038     2.5035     0.0175     0.1184
  307.5000   -39.6583     8.1397     7.5908   106.5412     7.9397     2.5046     0.0175     0.1175
  308.0000   -39.2989     8.1340     7.6111   106.5431     7.9756     2.5059     0.0175     0.1155
  308.5000   -39.0023     8.1282     7.6112   104.9601     8.0092     2.5083     0.0170     0.1134
  309.0000   -39.2150     8.1225     7.6112   102.7415     8.0121     2.5145     0.0145     0.1110
  309.5000   -39.4351     8.1173     7.6108   101.6730     8.0149     2.5207     0.0120     0.1088
  310.0000   -39.6532     8.0925     7.6947   101.1846     8.0178     2.5259     0.0095     0.1095
  310.5000   -39.8711     8.0659     7.7690   100.7057     8.0208     2.5217     0.0071     0.1107
  311.0000   -39.9800     8.0431     7.8442   100.2161     8.0238     2.5166     0.0046     0.1118
  311.5000   -39.9785     8.3016     7.9197    99.9686     8.0267     2.5116     0.0022     0.1124
  312.0000   -40.0555     8.5014     8.0431   102.3495     8.0297     2.5091    -0.0003     0.1119
  312.5000   -40.1623     8.5762     8.0453   104.5496     8.0326     2.5094    -0.0024     0.1100
  313.0000   -40.2698     8.6075     8.0516   104.7372     8.0356     2.5098    -0.0005     0.1081
  313.5000   -40.3775     8.6332     8.0579   104.9057     8.0386     2.5096     0.0014     0.1078
  314.0000   -40.4851     8.6590     8.0642   110.5590     8.0415     2.5090     0.0033     0.1085
  314.5000   -40.5849     8.6848     8.0705   117.0543     8.0445     2.5083     0.0051     0.1093
  315.0000   -40.3648     8.7109     8.0768   112.6849     8.0475     2.5067     0.0070     0.1103
  315.5000   -40.0603     8.7374     8.0831   108.1145     8.0478     2.5038     0.0088     0.1129
  316.0000   -39.7637     8.6949     8.0895   103.1689     8.0314     2.5008     0.0107     0.1154
  316.5000   -39.5425     8.6503     8.0958   102.5561     8.0151     2.4977     0.0111     0.1179
  317.0000   -39.4795     8.6060     8.1021   102.7162     7.9988     2.4973     0.0104     0.1200
  317.5000   -39.4192     8.5620     8.1084   102.8744     7.9825     2.4985     0.0097     0.1200
  318.0000   -39.3785     8.5183     8.1168   102.8090     7.9661     2.4999     0.0090     0.1187
  318.5000   -38.8777     8.4748     8.0675   102.3615     7.9509     2.5012     0.0083     0.1174
  319.0000   -38.3605     8.4315     7.9801   101.9245     7.9659     2.5025     0.0076     0.1161
  319.5000   -38.3304     8.3884     7.8932   101.6782     7.9822     2.5041     0.0069     0.1147
  320.0000   -38.2979     8.3447     7.8210   102.2868     7.9983     2.5059     0.0062     0.1139
  320.5000   -38.2672     8.4481     7.7555   102.8817     8.0145     2.5065     0.0056     0.1136
  321.0000   -38.2354     8.5550     7.8778   102.9820     8.0306     2.5054     0.0071     0.1132
  321.5000   -38.2019     8.6628     7.9581   102.5265     8.0467     2.5043     0.0088     0.1129
  322.0000   -38.1791     8.7758     8.0392   101.3268     8.0628     2.5031     0.0104     0.1133
  322.5000   -38.6907     8.8972     8.1212    99.4149     8.0790     2.5030     0.0120     0.1144
  323.0000   -39.2649     8.9048     8.2039    99.6236     8.0951     2.5056     0.0135     0.1144
