~VERSION INFORMATION
 VERS.                2.0:   CWLS LOG ASCII STANDARD - VERSION 2.0
 WRAP.                 NO:   ONE LINE PER DEPTH STEP
~WELL INFORMATION
#MNEM.UNIT      DATA TYPE    INFORMATION
#----------   ------------   ------------------------------
 STRT.F            0.0000:   START DEPTH
 STOP.F          562.0000:   STOP DEPTH
 STEP.F            0.1000:   STEP LENGTH
 NULL.          -999.2500:   NO VALUE
 COMP. BROWN JOHN E&C INC:   COMPANY
 WELL.    73-1 SX-3 #73-3:   WELL
 FLD .             TEAPOT:   FIELD
 LOC .       S3 T38N R78W:   LOCATION
 CNTY.            NATRONA:   COUNTY
 STAT.            WYOMING:   STATE
 CTRY. UNITED STATES OF AMERICA:   COUNTRY
 SRVC.      Western Atlas:   SERVICE COMPANY
 DATE.        23-APR-1992:   LOGDATE
 API .       490252251200:   API NUMBER
~CURVE INFORMATION
#MNEM.UNIT       API CODE    CURVE DESCRIPTION
#----------   ------------   ------------------------------
 DEPT.F                  :   
 GRR .GAPI   07 310 01 00:   GAMMA RAY
 RILD.OHMM   07 120 46 00:   INDUCTION LOG DEEP RESISTIVITY
 RILM.OHMM   07 120 44 00:   INDUCTION LOG MEDIUM RESISTIVITY
 CILD.MMHO   07 110 46 00:   CONDUCTIVITY INDUCTION LOG DEEP
~PARAMETER INFORMATION
#MNEM.UNIT          VALUE    DESCRIPTION
#----------   ------------   ------------------------------
 PD  .                 GL:   PERMANENT DATUM
 EPD .F              5164:   ELEVATION PERMANENT DATUM
 LMF .                 KB:   LOG MEASURED FROM
 DAPD.F                 5:   FEET ABOVE PERMANENT DATUM
 DMF .                 KB:   DRILLING MEASURED FROM
 EKB .F              5169:   KELLING BUSHING
 EDF .F              5168:   DRILLING FLOOR
 EGL .F              5164:   GROUND LEVEL
 DATE.        23-APR-1992:   RUN DATE
 RUN .                  1:   RUN NUMBER
 DD  .F               561:   DEPTH DRILLER
 DL  .F               564:   DEPTH LOGGER
 BLI .F               562:   BOTTOM LOG INTERVAL
 CS  .IN            8.625:   CASING SIZE
 CBD .F                48:   CASING BOTTOM DRILLER
 CBL .F                49:   CASING BOTTOM LOGGER
 BS  .IN            7.875:   BIT SIZE
 BSD .F               561:   BIT SIZE AT DEPTH
 DFT .                AIR:   DRILLING FLUID TYPE
 TCS .HRS               2:   TIME CURCULATED STOPPED
 LUN .           HL- 6272:   LOGGING UNIT NUMBER
 LUL .             CASPER:   LOGGING UNIT LOCATION
 ENGI.            LEBSOCK:   RECORDING ENGINEER
 WITN.        GARY STRONG:   WITNESSED BY
 CLNT.            A2DTECH:   CLIENT CODE
 ORIG.       2", 5" PRINT:   ORIGIN OF DATA
 UWI .       490252251200:   UNIQUE WELL ID
 DICO. A2D Technologies, Inc.:   DIGITIZING COMPANY
~OTHER INFORMATION
~A    DEPT      GRR      RILD       RILM       CILD   
# ...
  219.0000   125.5221    10.3750    11.3248    95.5756
  219.1000   125.2571    10.3074    11.2631    95.8219
  219.2000   125.2554    10.2768    11.2018    96.0683
  219.3000   125.0944    10.2211    11.1297    96.3147
  219.4000   124.8515    10.1646    11.0802    96.4913
  219.5000   124.6085    10.1104    11.0523    96.4979
  219.6000   124.3444    10.0939    11.0523    96.5045
  219.7000   124.3428    10.0939    11.0523    96.4764
  219.8000   124.1809    10.0939    11.0523    96.2432
  219.9000   123.8378    10.0939    11.0100    96.0100
  220.0000   123.3536    10.0939    10.9755    95.7768
  220.1000   122.8294    10.0939    10.9667    95.7834
  220.2000   122.1635    10.1099    10.8992    95.7900
  220.3000   120.9542    10.1646    10.8992    95.7975
  220.4000   118.8978    10.1646    10.8992    95.8032
  220.5000   116.4557    10.1646    10.8807    95.8098
  220.6000   116.1938    10.1646    10.8234    95.8164
  220.7000   116.6369    10.1736    10.8234    95.8230
  220.8000   117.1173    10.2358    10.8234    95.8295
  220.9000   117.7001    10.2358    10.8234    95.8361
  221.0000   118.4218    10.2026    10.8234    95.8427
  221.1000   119.1969    10.1646    10.8234    95.8493
  221.2000   119.6418    10.1646    10.8234    95.8560
  221.3000   120.2856    10.1646    10.8234    95.8626
  221.4000   120.6976    10.1646    10.8234    95.8692
  221.5000   120.6958    10.1646    10.8234    95.8758
  221.6000   120.6938    10.1646    10.8234    95.8824
  221.7000   118.0008    10.1646    10.8713    95.8890
  221.8000   116.0905    10.1646    10.8992    95.8956
  221.9000   115.0585    10.1302    10.9141    95.9021
  222.0000   114.6627    10.0752    10.9755    95.9088
  222.1000   114.6607    10.0237    10.9755    95.9154
  222.2000   114.6591    10.0237    11.0171    95.9221
  222.3000   114.6572     9.9814    11.0523    96.1640
  222.4000   114.6554     9.9540    11.0523    96.4103
  222.5000   114.6988     9.9540    11.0523    96.6970
  222.6000   114.9529     9.9540    11.1043    96.7025
  222.7000   115.4039    10.0047    11.1297    96.7091
  222.8000   115.8843    10.1312    11.1297    96.7157
  222.9000   116.5769    10.2358    11.1311    96.7223
  223.0000   117.5858    10.2405    11.1921    96.7289
  223.1000   118.8595    10.3074    11.1623    96.7355
  223.2000   119.7672    10.3074    11.1015    96.8728
  223.3000   120.3955    10.2783    11.0523    97.1192
  223.4000   120.8761    10.2358    11.0523    97.3656
  223.5000   121.2624    10.2358    11.0523    97.5160
  223.6000   121.2601    10.2892    11.0523    97.5226
  223.7000   121.0301    10.3074    11.0523    97.5292
  223.8000   120.7871    10.3074    11.0523    97.5358
  223.9000   120.5441    10.3074    11.0523    97.5424
  224.0000   120.1565    10.3074    11.0523    97.5490
  224.1000   119.1427    10.3074    11.0523    97.5556
  224.2000   118.4529    10.3074    11.0523    97.5622
  224.3000   117.7277    10.3074    11.0523    97.5688
  224.4000   116.8932    10.3074    11.0523    97.5757
  224.5000   116.0251    10.3074    11.0523    97.8130
  224.6000   115.5192    10.3074    11.0523    98.0594
  224.7000   114.8266    10.3074    11.0523    98.3506
  224.8000   114.1013    10.3074    11.0523    98.5521
  224.9000   113.2658    10.3074    11.0014    98.7984
  225.0000   112.2994    10.3074    10.9079    99.0447
  225.1000   111.2933    10.3074    10.8234    99.2911
  225.2000   110.1352    10.3074    10.8228    99.5375
  225.3000   109.0988    10.3074    10.7638    99.7838
  225.4000   108.1324    10.3074    10.7481   100.0302
  225.5000   107.3194    10.2669    10.7215   100.2765
  225.6000   107.0674    10.2358    10.6632   100.5228
  225.7000   107.0656    10.2268    10.5992   100.6778
  225.8000   107.0638    10.1646    10.5475   100.6844
  225.9000   107.1743    10.1161    10.5255   100.6910
  226.0000   107.4137    10.0612    10.5255   100.8107
  226.1000   107.6608    10.0065    10.5219   101.2968
  226.2000   108.3591     9.9540    10.4647   101.7828
  226.3000   109.0810     9.9540    10.4523   102.2473
  226.4000   110.1427     9.9540    10.4235   102.4937
  226.5000   111.6411     9.9540    10.3668   102.7401
  226.6000   113.3746     9.9540    10.3074   103.0000
  226.7000   115.0136     9.9540    10.2543   103.2328
  226.8000   116.3513     9.9540    10.2358   103.4791
  226.9000   117.5553     9.9540    10.2358   103.7254
  227.0000   118.8136     9.9540    10.2358   103.7802
  227.1000   120.2933     9.9540    10.2358   103.7867
  227.2000   121.7038     9.9540    10.1893   103.7933
  227.3000   122.9736     9.9540    10.1646   103.9567
  227.4000   123.9470     9.9540    10.1646   104.2031
  227.5000   124.6687     9.9425    10.1646   104.4495
  227.6000   125.4048     9.8848    10.1646   104.8179
  227.7000   125.4030     9.8848    10.1646   105.3040
  227.8000   125.2249     9.8500    10.1401   105.7900
  227.9000   124.8658     9.7965    10.0939   106.1890
  228.0000   124.3816     9.7433    10.0939   106.4353
  228.1000   123.8897     9.6801    10.0452   106.6816
  228.2000   123.1761     9.6801     9.9905   106.8759
  228.3000   122.4508     9.6527     9.9540   106.8825
  228.4000   121.8427     9.5879     9.9540   106.8892
  228.5000   121.3014     9.4795     9.9540   106.9130
  228.6000   120.5674     9.4795     9.9540   107.1594
  228.7000   119.8509     9.4448     9.9540   107.4058
  228.8000   119.1256     9.3935     9.9540   107.6702
  228.9000   118.4000     9.3482     9.9540   107.8985
  229.0000   117.8494     9.3482     9.9540   108.1448
  229.1000   117.8476     9.3062     9.9540   108.3912
  229.2000   117.8458     9.2832     9.9540   108.6375
  229.3000   118.0234     9.2698     9.9540   108.8839
  229.4000   118.1434     9.2186     9.9540   109.1303
  229.5000   118.2602     9.2186     9.9540   109.2242
  229.6000   118.7422     9.2186     9.9540   109.2308
  229.7000   118.9808     9.1976     9.9540   109.2373
  229.8000   119.2202     9.1545     9.9540   109.3614
  229.9000   119.3392     9.1545     9.9540   109.6078
  230.0000   119.2771     9.1545     9.9540   109.8542
  230.1000   119.0338     9.1545     9.9540   110.0179
  230.2000   118.5497     9.1691     9.9540   110.0245
  230.3000   117.5216     9.2186     9.9540   110.0311
  230.4000   116.4353     9.2186     9.9540   110.0377
  230.5000   115.6526     9.2186     9.9217   110.0443
  230.6000   115.4097     9.1964     9.8848   110.0509
  230.7000   115.1667     9.1545     9.8848   110.0576
  230.8000   115.1060     9.1545     9.8848   110.0641
  230.9000   115.1042     9.1545     9.8848   110.0707
  231.0000   115.1646     9.1545     9.8848   110.0779
  231.1000   115.4018     9.1388     9.8738   110.0839
  231.2000   115.4000     9.0909     9.8161   110.0905
  231.3000   115.5815     9.0909     9.7666   110.0971
  231.4000   115.6976     9.0909     9.7135   110.1037
  231.5000   115.7590     9.0909     9.6801   110.1103
  231.6000   115.9983     9.0909     9.6801   110.1169
  231.7000   116.2377     9.0909     9.6801   110.1235
  231.8000   116.4772     9.1358     9.6373   110.1301
  231.9000   116.7165     9.1545     9.6128   110.1367
  232.0000   116.9557     9.1545     9.6128   110.1433
  232.1000   117.1951     9.1545     9.6128   110.1499
  232.2000   117.4346     9.1545     9.5617   110.1565
  232.3000   117.8592     9.1159     9.5096   110.1631
  232.4000   118.2144     9.0665     9.4578   110.1697
  232.5000   118.5846     9.0172     9.4063   110.1763
  232.6000   119.3063     8.9649     9.3482   110.1829
  232.7000   120.0280     8.9649     9.3482   110.1895
  232.8000   121.1225     8.9333     9.3184   110.1961
  232.9000   122.3264     8.9026     9.2523   110.2026
  233.0000   123.5304     8.9026     9.1545   110.2092
  233.1000   124.7282     8.9026     9.1545   110.2159
  233.2000   125.6909     8.9026     9.1172   110.2232
  233.3000   126.4664     8.9026     9.0909   110.2291
  233.4000   127.1880     8.9026     9.0909   110.2357
  233.5000   127.7751     8.9026     9.0909   110.2423
