~VERSION INFORMATION
 VERS.                2.0:   CWLS LOG ASCII STANDARD - VERSION 2.0
 WRAP.                 NO:   ONE LINE PER DEPTH STEP
~WELL INFORMATION
#MNEM.UNIT      DATA TYPE    INFORMATION
#----------   ------------   ------------------------------
 STRT.F           31.0000:   START DEPTH
 STOP.F          600.0000:   STOP DEPTH
 STEP.F            0.5000:   STEP LENGTH
 NULL.          -999.2500:   NO VALUE
 COMP. FENIX & SCISSON INC:   COMPANY
 WELL.      NPR 3 #84 S-3:   WELL
 FLD .             TEAPOT:   FIELD
 LOC .       S3 T38N R78W:   LOCATION
 CNTY.            NATRONA:   COUNTY
 STAT.            WYOMING:   STATE
 CTRY. UNITED STATES OF AMERICA:   COUNTRY
 SRVC.              Welex:   SERVICE COMPANY
 DATE.        29-MAR-1977:   LOGDATE
 API .       490251032000:   API NUMBER
~CURVE INFORMATION
#MNEM.UNIT       API CODE    CURVE DESCRIPTION
#----------   ------------   ------------------------------
 DEPT.F                  :   
 CALD.IN     45 280 60 00:   CALIPER FROM DENSITY LOG
 GRD .GAPI   45 310 01 00:   GAMMA RAY FROM DENSITY LOG
 CORR.G/C3   45 356 01 00:   DENSITY CORRECTION
 DPHI.DEC    45 890 12 00:   DENSITY POROSITY SANDSTONE
 RHOB.G/C3   45 350 01 00:   BULK DENSITY
 SPR .MV     07 010 01 00:   SPONTANEOUS POTENTIAL
 ILD .OHMM   07 120 46 00:   INDUCTION LOG DEEP
 ILM .OHMM   07 120 44 00:   INDUCTION LOG MEDIUM
 SGRD.OHMM   07 221 05 00:   SHALLOW SHORT GUARD RESISTIVITY
~PARAMETER INFORMATION
#MNEM.UNIT          VALUE    DESCRIPTION
#----------   ------------   ------------------------------
 PD  .                 GL:   PERMANENT DATUM
 EPD .F              5146:   ELEVATION PERMANENT DATUM
 LMF .                 GL:   LOG MEASURED FROM
 DMF .                 GL:   DRILLING MEASURED FROM
 EGL .F              5146:   GROUND LEVEL
 DATE.        29-MAR-1977:   RUN DATE
 RUN .                  1:   RUN NUMBER
 DD  .F               610:   DEPTH DRILLER
 DL  .F               602:   DEPTH LOGGER
 BLI .F               600:   BOTTOM LOG INTERVAL
 TLI .F                30:   TOP LOG INTERVAL
 CS  .IN            8.625:   CASING SIZE
 BSD .F               610:   BIT SIZE AT DEPTH
 DFT .                KCL:   DRILLING FLUID TYPE
 DFD .                8.8:   DRILLING FLUID DENSITY
 BHT .F                63:   BOTTOM HOLE TEMPERATURE
 TCS .HRS            0500:   TIME CURCULATED STOPPED
 MRT .F                63:   MAXIMUM RECORDED TEMPERATURE
 ENGI.            C. DOAK:   RECORDING ENGINEER
 WITN.            R. LYON:   WITNESSED BY
 CLNT.            A2DTECH:   CLIENT CODE
 ORIG.           5" PRINT:   ORIGIN OF DATA
 UWI .       490251032000:   UNIQUE WELL ID
 DICO. A2D Technologies, Inc.:   DIGITIZING COMPANY
~OTHER INFORMATION
~A   DEPT     CALD        GRD       CORR       DPHI       RHOB        SPR        ILD        ILM       SGRD   
# ...
  104.0000     7.4701   117.8053     0.0367     0.1205     2.4475   -15.9921     7.9777     9.2123    11.6187
  104.5000     7.5160   117.0780     0.0217     0.1247     2.4405   -15.9013     8.0364     9.2810    11.2288
  105.0000     7.5917   115.4566     0.0089     0.1216     2.4402   -15.6107     8.0397     9.2849    11.3909
  105.5000     7.6823   113.8352     0.0054     0.1162     2.4615   -16.6523     8.0430     9.4836    11.7979
  106.0000     7.7580   113.5506     0.0101     0.0968     2.4870   -17.6885     8.1021     9.6197    11.5610
  106.5000     7.8188   114.1692     0.0118     0.0868     2.4975   -18.5590     8.1616     9.6237    11.3274
  107.0000     7.8647   116.2736     0.0119     0.0855     2.5028   -19.5704     8.2216     9.6277    12.2314
  107.5000     7.8957   117.6328     0.0136     0.0858     2.5080   -20.4439     8.2821     9.8338    12.5795
  108.0000     7.8969   115.8624     0.0137     0.0899     2.4991   -21.1686     8.4008    10.4700    12.3269
  108.5000     7.8981   112.8997     0.0139     0.0919     2.4894   -21.7455     8.5212    10.9931    12.7689
  109.0000     7.9142   110.5286     0.0140     0.0917     2.4902   -22.3243     8.6433    10.3336    13.3171
  109.5000     7.9004   111.8923     0.0157     0.0868     2.4992   -23.4983     8.7672    10.7773    13.6978
  110.0000     7.9017   113.1025     0.0189     0.0824     2.5105   -25.1188     8.9545    11.3955    13.4775
  110.5000     7.9029   113.5676     0.0220     0.0794     2.5195   -26.2932     9.1459    11.2435    12.8811
  111.0000     7.9041   114.1816     0.0252     0.0765     2.5225   -25.6811     9.2770    10.8657    13.4344
  111.5000     7.8901   116.5841     0.0268     0.0802     2.5083   -25.5158     9.4132    11.1753    13.4409
  112.0000     7.8916   119.2846     0.0285     0.0845     2.5009   -26.3923     9.6110    11.9809    13.4313
  112.5000     7.8776   120.3458     0.0332     0.0820     2.5122   -25.3341     9.6817    11.7396    13.2686
  113.0000     7.8639   119.7676     0.0394     0.0791     2.5159   -25.6153     9.6857    11.4227    14.4074
  113.5000     7.8654   119.4830     0.0410     0.0797     2.5130   -26.1941     9.7568    12.0792    16.4619
  114.0000     7.8513   119.5054     0.0367     0.0833     2.5011   -25.7312     9.6936    12.1668    15.4284
  114.5000     7.8528   119.5233     0.0293     0.0887     2.4936   -25.2683     9.6308    11.3593    14.5190
  115.0000     7.8388   119.5413     0.0189     0.0941     2.4877   -25.4048     9.5685    11.6829    13.7570
  115.5000     7.8403   119.8573     0.0100     0.0999     2.4705   -24.4914     9.5726    12.1833    13.7762
  116.0000     7.8415   120.3223     0.0011     0.1053     2.4668   -23.8838     9.5104    11.6120    13.5822
  116.5000     7.8276   120.9364    -0.0048     0.1059     2.4683   -24.9049     9.4488    11.2206    13.3100
  117.0000     7.8290   121.2524    -0.0092     0.1059     2.4691   -24.8885     9.4537    11.6216    13.0433
  117.5000     7.8302   121.2370    -0.0090     0.1103     2.4654   -24.2768     9.3925    11.7060    12.9689
  118.0000     7.8314   120.7819    -0.0044     0.1112     2.4587   -23.6651     9.4615    11.0049    13.5257
  118.5000     7.8475   119.5340    -0.0012     0.1046     2.4625   -23.3510     9.4654    11.2404    12.9815
  119.0000     7.8636   115.6631     0.0035     0.0956     2.4850   -23.7810     9.4032    11.4006    13.3602
  119.5000     7.8797   112.4580     0.0097     0.0902     2.4940   -25.2526     9.3423    10.7922    13.6397
  120.0000     7.8958   110.7744     0.0098     0.0929     2.4903   -26.2778     9.2818    10.2153    13.4402
  120.5000     7.8970   111.4605     0.0100     0.0943     2.4851   -27.0054     9.2217    10.5063    13.2798
  121.0000     7.9131   113.7059     0.0101     0.0913     2.4941   -26.9890     9.0989     9.9446    13.6594
  121.5000     7.9292   116.1004     0.0103     0.0901     2.4986   -27.5678     9.0400     9.8110    13.2885
  122.0000     7.9304   118.1848     0.0104     0.0922     2.4927   -28.1507     8.9814    10.3748    13.0222
  122.5000     7.9316   119.8261     0.0121     0.0952     2.4852   -27.6837     8.9233    10.8180    12.8528
  123.0000     7.9328   121.1654     0.0152     0.0981     2.4793   -26.9232     8.8655    10.3835    12.7703
  123.5000     7.9340   119.6751     0.0169     0.1008     2.4748   -26.0139     8.8081    10.1733    12.7783
  124.0000     7.9350   118.6637     0.0201     0.0996     2.4879   -25.6998     8.7510    10.6837    13.2368
  124.5000     7.9215   118.5365     0.0232     0.0954     2.4899   -27.4691     8.7556    10.2535    13.1464
  125.0000     7.9227   118.5544     0.0249     0.0924     2.4908   -27.4526     8.6989    10.1860    12.2744
  125.5000     7.9086   119.3175     0.0281     0.0896     2.4945   -26.9897     8.7024    10.5500    12.1114
  126.0000     7.8949   121.2729     0.0297     0.0869     2.4992   -25.6340     8.6461    11.0771    12.6314
  126.5000     7.8815   122.9301     0.0329     0.0836     2.5052   -26.6592     8.6497    10.5588    13.5437
  127.0000     7.8529   123.3952     0.0361     0.0809     2.5080   -27.5397     8.6532    10.2029    13.0891
  127.5000     7.8389   123.1151     0.0347     0.0824     2.5079   -25.5846     8.5963    11.0156    12.6498
  128.0000     7.8106   122.8346     0.0303     0.0877     2.5012   -26.4611     8.6007    10.4267    13.2846
  128.5000     7.7966   123.1509     0.0245     0.0916     2.4923   -28.3832     8.5442    10.0068    13.2953
  129.0000     7.7981   125.1063     0.0186     0.0958     2.4842   -27.3442     8.5486     9.8052    12.7563
  129.5000     7.7993   129.4461     0.0127     0.1006     2.4775   -27.0110     8.5521    10.3666    12.2431
  130.0000     7.8005   132.8918     0.0098     0.1056     2.4708   -29.6925     8.3793     9.7457    12.0804
  130.5000     7.8166   133.2078     0.0069     0.1128     2.4596   -29.8055     8.2116     9.4826    12.0864
  131.0000     7.8327   132.6296     0.0056     0.1185     2.4492   -29.6399     8.1576    10.1673    12.1763
  131.5000     7.8488   131.6044     0.0073     0.1220     2.4447   -29.6235     8.1048    10.4559    12.3521
  132.0000     7.8649   129.9830     0.0119     0.1223     2.4433   -29.9127     7.9977     9.3003    12.6175
  132.5000     7.8810   127.4674     0.0151     0.1190     2.4455   -30.3398     7.8368     9.1130    12.5366
  133.0000     7.8971   124.9518     0.0183     0.1136     2.4553   -31.6736     7.6263     8.8679    12.2000
  133.5000     7.9132   122.5852     0.0214     0.1091     2.4636   -38.1890     7.4722     8.3359    11.7091
  134.0000     7.9144   119.3245     0.0246     0.1067     2.4659   -38.4742     7.3227     8.1109    10.9760
  134.5000     7.9305   117.2560     0.0293     0.1090     2.4637   -36.9656     7.2252     8.4008    10.0642
  135.0000     7.9168   116.9714     0.0340     0.1135     2.4592   -34.5682     7.0799     8.1749     9.8529
  135.5000     7.9030   119.2293     0.0386     0.1171     2.4533   -34.7005     6.9856     8.1210    10.3570
  136.0000     7.8595   118.9492     0.0463     0.1177     2.4488   -36.3210     6.9885     8.6473    10.4340
  136.5000     7.8011   116.2845     0.0435     0.1134     2.4571   -35.3745     7.0886     8.2991    10.2244
  137.0000     7.7278   113.0238     0.0346     0.1083     2.4661   -36.5863     7.1902     8.4183    10.0078
  137.5000     7.6098   109.1669     0.0312     0.1053     2.4684   -36.1228     7.3948     8.7788    11.1985
  138.0000     7.5659   107.5455     0.0281     0.1044     2.4692   -35.9576     7.6052     9.4117    12.4303
  138.5000     7.5972   108.7557     0.0249     0.1038     2.4700   -35.4947     7.7676     9.4800    12.4517
  139.0000     7.7177   110.4130     0.0231     0.1017     2.4752   -35.3335     7.8247     9.4185    12.2713
  139.5000     7.8232   110.5800     0.0263     0.0962     2.4835   -36.3588     7.8280     9.2939    11.7776
  140.0000     7.8897   112.0882     0.0309     0.0899     2.4925   -33.6596     7.8312     9.1067    12.0306
