~VERSION INFORMATION
 VERS.                2.0:   CWLS LOG ASCII STANDARD - VERSION 2.0
 WRAP.                 NO:   ONE LINE PER DEPTH STEP
~WELL INFORMATION
#MNEM.UNIT      DATA TYPE    INFORMATION
#----------   ------------   ------------------------------
 STRT.F            1.0000:   START DEPTH
 STOP.F          755.5000:   STOP DEPTH
 STEP.F            0.5000:   STEP LENGTH
 NULL.          -999.2500:   NO VALUE
 COMP. FENIX & SCISSON INC:   COMPANY
 WELL.       25-SX #25-14:   WELL
 FLD .        TEAPOT DOME:   FIELD
 LOC .      S14 T38N R78W:   LOCATION
 CNTY.            NATRONA:   COUNTY
 STAT.            WYOMING:   STATE
 CTRY. UNITED STATES OF AMERICA:   COUNTRY
 SRVC.           BIRDWELL:   SERVICE COMPANY
 DATE.        29-DEC-1978:   LOGDATE
 API .       490251076000:   API NUMBER
~CURVE INFORMATION
#MNEM.UNIT       API CODE    CURVE DESCRIPTION
#----------   ------------   ------------------------------
 DEPT.F                  :   
 SPR .MV     05 010 01 00:   SPONTANEOUS POTENTIAL FROM RES.
 SN  .OHMM   05 040 16 00:   SHORT NORMAL 16"
 IL  .OHMM   05 120 00 00:   INDUCTION LOG
 CALD.IN     45 280 60 00:   CALIPER
 GRD .GAPI   45 310 01 00:   GAMMA RAY FROM DENSITY LOG
 CORR.G/C3   45 356 01 00:   DENSITY CORRECTION
 DPHI.DEC    45 890 12 00:   DENSITY POROSITY SANDSTONE
 RHOB.G/C3   45 350 01 00:   BULK DENSITY
~PARAMETER INFORMATION
#MNEM.UNIT          VALUE    DESCRIPTION
#----------   ------------   ------------------------------
 PD  .                 GL:   PERMANENT DATUM
 EPD .F              5214:   ELEVATION PERMANENT DATUM
 LMF .                 KB:   LOG MEASURED FROM
 DAPD.F                 4:   FEET ABOVE PERMANENT DATUM
 DMF .                 KB:   DRILLING MEASURED FROM
 EKB .F              5218:   KELLING BUSHING
 EGL .F              5214:   GROUND LEVEL
 DATE.           12-29-79:   RUN DATE
 RUN .                  1:   RUN NUMBER
 DD  .F               765:   DEPTH DRILLER
 DL  .F               747:   DEPTH LOGGER
 BLI .F               740:   BOTTOM LOG INTERVAL
 TLI .F                40:   TOP LOG INTERVAL
 CS  .IN            8.625:   CASING SIZE
 CBD .F                40:   CASING BOTTOM DRILLER
 CBL .F                40:   CASING BOTTOM LOGGER
 BS  .IN            7.875:   BIT SIZE
 BSD .F               765:   BIT SIZE AT DEPTH
 DFT .                KCL:   DRILLING FLUID TYPE
 DFD .                8.8:   DRILLING FLUID DENSITY
 DFV .                 48:   DRILLING FLUID VISCOSITY
 DFPH.                9.2:   DRILLING FLUID PH
 MSS .           FLOWLINE:   MUD SAMPLE SOURCE
 RMS .OHMM            .17:   RESISTIVITY MUD SAMPLE
 MST .F                56:   MUD SAMPLE TEMPERATURE
 RMF .OHMM            .15:   RESISTIVITY MUD FILTRATE SAMPLE
 MFST.F                56:   MUD FILTRATE SAMPLE TEMPERATURE
 RMC .OHMM            .23:   RESISTIVITY MUD CAKE
 MCST.F                64:   MUD CAKE SAMPLE TEMPERATURE
 MFSS.           MEASURED:   MUD FILTRATE SAMPLE SOURCE
 MCSS.           MEASURED:   MUD CAKE SAMPLE SOURCE
 RMB .OHMM            .16:   RESISTIVITY MUD AT BHT
 BHT .F                59:   BOTTOM HOLE TEMPERATURE
 TCS .HRS              12:   TIME CURCULATED STOPPED
 MRT .F                59:   MAXIMUM RECORDED TEMPERATURE
 LUN .               2958:   LOGGING UNIT NUMBER
 LUL .             CASPER:   LOGGING UNIT LOCATION
 ENGI.            ROLLINS:   RECORDING ENGINEER
 WITN.         RICHARDSON:   WITNESSED BY
 CLNT.            A2DTECH:   CLIENT CODE
 ORIG.           5" PRINT:   ORIGIN OF DATA
 UWI .       490251076000:   UNIQUE WELL ID
 DICO. A2D Technologies, Inc.:   DIGITIZING COMPANY
~OTHER INFORMATION
~A    DEPT     SPR         SN         IL       CALD         GRD      CORR       DPHI       RHOB   
# ...
   82.0000   -66.4980     3.0000     2.4940     7.5560    89.9760     0.0040     0.1640     2.4210
   82.5000   -65.7370     3.4540     2.8740     7.5490    86.0040     0.0030     0.1530     2.4510
   83.0000   -65.3960     3.7350     3.2540     7.5380    87.8200     0.0040     0.1470     2.4420
   83.5000   -65.0420     3.8490     3.4440     7.5260    91.3100     0.0040     0.1460     2.4350
   84.0000   -64.6860     3.8490     3.3740     7.5150    95.0940     0.0050     0.1450     2.4340
   84.5000   -64.6310     3.8490     3.3110     7.5040    99.6960     0.0050     0.1450     2.4350
   85.0000   -64.6300     3.8490     3.2470     7.4930   104.4110     0.0070     0.1450     2.4360
   85.5000   -64.6290     3.8240     3.2090     7.4820   106.5810     0.0100     0.1470     2.4370
   86.0000   -64.6290     3.7780     3.1930     7.4710   105.8680     0.0120     0.1490     2.4370
   86.5000   -64.6290     3.7310     3.1760     7.4600   104.3720     0.0160     0.1520     2.4350
   87.0000   -64.6290     3.7190     3.1370     7.4480   101.7080     0.0140     0.1570     2.4310
   87.5000   -64.6290     3.6350     2.9560     7.4370    99.7610     0.0120     0.1630     2.4230
   88.0000   -64.6330     3.5350     2.7750     7.4390    99.5100     0.0090     0.1670     2.4170
   88.5000   -64.8580     3.3470     2.5940     7.5320   101.0860     0.0100     0.1680     2.4180
   89.0000   -65.1100     3.1590     2.4070     7.5780   106.6820     0.0100     0.1700     2.4180
   89.5000   -65.2040     2.9710     2.4030     7.5810   108.3270     0.0110     0.1730     2.4160
   90.0000   -65.1590     2.8580     2.3990     7.5840   108.8280     0.0120     0.1780     2.4140
   90.5000   -65.1130     2.7830     2.3950     7.5870   115.9960     0.0120     0.1830     2.4080
   91.0000   -65.0670     2.8090     2.3900     7.5890   117.0510     0.0130     0.1920     2.3950
   91.5000   -64.9930     2.8750     2.3860     7.5920   114.7630     0.0140     0.2050     2.3740
   92.0000   -64.6930     2.9620     2.4950     7.5940   106.3130     0.0140     0.2180     2.3520
   92.5000   -63.9130     3.1280     2.6040     7.5970    99.2140     0.0150     0.2050     2.3300
   93.0000   -63.2300     3.2940     2.7180     7.5960    96.5380     0.0150     0.1880     2.3110
   93.5000   -62.7240     3.3950     2.8500     7.5940    96.7230     0.0160     0.1720     2.3380
   94.0000   -62.6300     3.4560     2.9820     7.5920    97.8420     0.0170     0.1610     2.3660
   94.5000   -62.6260     3.5180     3.1360     7.5900   100.6860     0.0170     0.1590     2.3860
   95.0000   -62.6260     3.5790     3.1200     7.5880   101.2780     0.0180     0.1590     2.4040
   95.5000   -62.6250     3.6250     3.1010     7.5860   103.1040     0.0190     0.1580     2.4070
   96.0000   -62.6260     3.6130     3.0820     7.5840   104.5670     0.0180     0.1580     2.4090
   96.5000   -62.6250     3.6040     3.0640     7.5820   104.7490     0.0180     0.1570     2.4100
   97.0000   -62.6240     3.5950     3.0450     7.5800   104.9480     0.0170     0.1570     2.4100
   97.5000   -62.6460     3.5510     3.0260     7.5780   105.1480     0.0160     0.1590     2.4100
   98.0000   -63.0960     3.5110     3.0070     7.5700   105.3030     0.0150     0.1630     2.4090
   98.5000   -63.4800     3.4740     2.9250     7.5560   105.9660     0.0160     0.1680     2.4080
   99.0000   -63.6640     3.4210     2.8350     7.5420   106.4340     0.0170     0.1710     2.4050
   99.5000   -63.8510     3.3240     2.6860     7.5270   106.1450     0.0180     0.1710     2.4020
  100.0000   -64.0410     3.2210     2.5600     7.5210   105.8430     0.0190     0.1720     2.3970
  100.5000   -64.2280     3.1180     2.4900     7.5360   104.7970     0.0200     0.1790     2.3910
  101.0000   -64.3670     3.0160     2.4900     7.5500   103.7620     0.0200     0.1850     2.3820
  101.5000   -64.7470     2.9040     2.4740     7.5640   103.3440     0.0210     0.1930     2.3730
  102.0000   -65.4540     2.8300     2.4410     7.5790   103.1170     0.0220     0.2020     2.3640
  102.5000   -66.1930     2.8120     2.4080     7.5940   102.9160     0.0230     0.2100     2.3540
  103.0000   -66.2490     2.7920     2.3750     7.5970   104.1240     0.0240     0.2140     2.3420
  103.5000   -66.2630     2.7720     2.3420     7.5980   105.5140     0.0250     0.2120     2.3270
  104.0000   -66.2780     2.7480     2.3060     7.5980   106.2660     0.0230     0.1980     2.3150
  104.5000   -66.2940     2.7120     2.2310     7.5980   100.9550     0.0200     0.1810     2.3420
  105.0000   -66.3100     2.6170     2.1510     7.5980    99.7710     0.0140     0.1800     2.3660
  105.5000   -66.3260     2.5140     2.0670     7.5980   100.7570     0.0130     0.1910     2.3650
  106.0000   -66.3420     2.4070     1.9600     7.5980   100.9520     0.0180     0.2070     2.3540
  106.5000   -66.3580     2.2860     1.8540     7.5980   101.0050     0.0180     0.2220     2.3430
  107.0000   -66.3740     2.2070     1.7850     7.5920   102.8930     0.0170     0.2340     2.3280
  107.5000   -66.3900     2.1670     1.8340     7.5850   104.4940     0.0160     0.2420     2.3140
  108.0000   -66.4050     2.1180     1.8970     7.5780   106.7560     0.0160     0.2570     2.2900
  108.5000   -66.4190     2.1680     1.9610     7.5710   111.1930     0.0150     0.2720     2.2670
  109.0000   -66.3780     2.2600     2.0250     7.5640   115.3550     0.0140     0.2870     2.2430
  109.5000   -66.1710     2.3970     2.0890     7.5550   117.0000     0.0130     0.2860     2.2200
  110.0000   -65.9420     2.6580     2.1540     7.5050   110.0300     0.0160     0.2510     2.1960
  110.5000   -65.5940     2.9540     2.3670     7.4790   101.5400     0.0220     0.2190     2.2140
  111.0000   -64.8350     3.1360     2.5840     7.4820    98.4120     0.0200     0.1930     2.2720
  111.5000   -64.6400     3.1360     2.7590     7.4850    98.1610     0.0170     0.1750     2.3630
  112.0000   -64.6500     3.1360     2.7140     7.4890    98.0860     0.0140     0.1580     2.4000
  112.5000   -64.6730     3.1360     2.6580     7.4920   100.2050     0.0110     0.1600     2.4130
  113.0000   -64.6950     3.1360     2.6020     7.4960   103.7970     0.0070     0.1630     2.4130
  113.5000   -64.7180     3.0990     2.5450     7.4990   103.8970     0.0090     0.1680     2.4100
  114.0000   -64.7410     3.0070     2.4890     7.5030   103.9050     0.0120     0.1730     2.4030
  114.5000   -64.7640     2.9160     2.4330     7.5060   104.4340     0.0150     0.1780     2.3970
  115.0000   -64.7860     2.8240     2.3760     7.5100   106.9140     0.0180     0.1830     2.3880
  115.5000   -64.8090     2.7330     2.2500     7.5130   107.3120     0.0210     0.1880     2.3780
  116.0000   -64.8260     2.6440     2.1090     7.5160   107.6830     0.0240     0.1950     2.3690
  116.5000   -64.7570     2.5360     1.9680     7.5340   109.4260     0.0270     0.2060     2.3630
  117.0000   -64.6890     2.4310     1.8320     7.5540   111.4870     0.0290     0.2170     2.3510
  117.5000   -64.6220     2.3260     1.8700     7.5500   114.7420     0.0320     0.2310     2.3380
  118.0000   -64.5560     2.2580     1.9070     7.5420   117.0060     0.0350     0.2450     2.3220
  118.5000   -64.4890     2.2290     1.9660     7.5340   119.1930     0.0380     0.2590     2.3050
  119.0000   -64.4150     2.2600     2.0510     7.5260   119.6150     0.0410     0.2740     2.2750
  119.5000   -64.1220     2.4080     2.2680     7.5180   119.6960     0.0480     0.2880     2.2300
  120.0000   -63.5710     2.5720     2.5060     7.5100   118.9200     0.0550     0.2990     2.1840
  120.5000   -62.3760     2.7370     2.7450     7.5010   115.0530     0.0620     0.2990     2.1430
  121.0000   -61.2290     3.1040     2.9840     7.4930   108.4870     0.0710     0.2930     2.1540
  121.5000   -60.2860     3.4740     3.2220     7.4850   101.7870     0.0800     0.2830     2.2170
  122.0000   -59.8450     3.6680     3.4320     7.4770   102.4640     0.0890     0.1990     2.2880
