~VERSION INFORMATION
 VERS.                2.0:   CWLS LOG ASCII STANDARD - VERSION 2.0
 WRAP.                 NO:   ONE LINE PER DEPTH STEP
~WELL INFORMATION
#MNEM.UNIT      DATA TYPE    INFORMATION
#----------   ------------   ------------------------------
 STRT.F           31.0000:   START DEPTH
 STOP.F          521.0000:   STOP DEPTH
 STEP.F            0.5000:   STEP LENGTH
 NULL.          -999.2500:   NO VALUE
 COMP. FENIX & SCISSON INC:   COMPANY
 WELL.      NPR-3 #52SX-3:   WELL
 FLD .             TEAPOT:   FIELD
 LOC .       S3 T38N R78W:   LOCATION
 CNTY.            NATRONA:   COUNTY
 STAT.            WYOMING:   STATE
 CTRY. UNITED STATES OF AMERICA:   COUNTRY
 SRVC.            Unknown:   SERVICE COMPANY
 DATE.        03-OCT-1978:   LOGDATE
 API .       490251071800:   API NUMBER
~CURVE INFORMATION
#MNEM.UNIT       API CODE    CURVE DESCRIPTION
#----------   ------------   ------------------------------
 DEPT.F                  :   
 SPR .MV     05 010 01 00:   SPONTANEOUS POTENTIAL FROM RES.
 GRD .GAPI   45 310 01 00:   GAMMA RAY FROM DENSITY LOG
 CALD.IN     45 280 60 00:   CALIPER
 RHOB.G/C3   45 350 01 00:   BULK DENSITY
 DPHI.DEC    45 890 12 00:   DENSITY POROSITY SANDSTONE
 CORR.G/C3   45 356 01 00:   DENSITY CORRECTION
 SN  .OHMM   05 040 16 00:   SHORT NORMAL 16"
 IL  .OHMM   05 120 00 00:   INDUCTION LOG
~PARAMETER INFORMATION
#MNEM.UNIT          VALUE    DESCRIPTION
#----------   ------------   ------------------------------
 PD  .                 GL:   PERMANENT DATUM
 EPD .F              5129:   ELEVATION PERMANENT DATUM
 LMF .                 KB:   LOG MEASURED FROM
 DAPD.F                 4:   FEET ABOVE PERMANENT DATUM
 DMF .                 KB:   DRILLING MEASURED FROM
 EKB .F              5133:   KELLING BUSHING
 EGL .F              5129:   GROUND LEVEL
 DATE.            10-3-78:   RUN DATE
 RUN .                  1:   RUN NUMBER
 DD  .F               521:   DEPTH DRILLER
 DL  .F               520:   DEPTH LOGGER
 BLI .F               514:   BOTTOM LOG INTERVAL
 TLI .F                46:   TOP LOG INTERVAL
 CS  .IN            8.625:   CASING SIZE
 CBL .F                44:   CASING BOTTOM LOGGER
 BS  .IN            7.875:   BIT SIZE
 BSD .F               521:   BIT SIZE AT DEPTH
 DFT .                KCL:   DRILLING FLUID TYPE
 DFD .                8.7:   DRILLING FLUID DENSITY
 DFV .                 34:   DRILLING FLUID VISCOSITY
 DFPH.                  9:   DRILLING FLUID PH
 DFL .               10.8:   DRILLING FLUID LOSS
 MSS .            MUD PIT:   MUD SAMPLE SOURCE
 RMS .OHMM            .24:   RESISTIVITY MUD SAMPLE
 MST .F                54:   MUD SAMPLE TEMPERATURE
 RMF .OHMM            .22:   RESISTIVITY MUD FILTRATE SAMPLE
 MFST.F                60:   MUD FILTRATE SAMPLE TEMPERATURE
 RMC .OHMM             .3:   RESISTIVITY MUD CAKE
 MCST.F                64:   MUD CAKE SAMPLE TEMPERATURE
 MFSS.               MEAS:   MUD FILTRATE SAMPLE SOURCE
 MCSS.               MEAS:   MUD CAKE SAMPLE SOURCE
 BHT .F                60:   BOTTOM HOLE TEMPERATURE
 TCS .HRS               3:   TIME CURCULATED STOPPED
 MRT .F                60:   MAXIMUM RECORDED TEMPERATURE
 LUN .               2958:   LOGGING UNIT NUMBER
 LUL .               CASP:   LOGGING UNIT LOCATION
 ENGI.             MILLER:   RECORDING ENGINEER
 WITN.           DINSMORE:   WITNESSED BY
 CLNT.            A2DTECH:   CLIENT CODE
 ORIG.       2", 5" PRINT:   ORIGIN OF DATA
 UWI .       490251071800:   UNIQUE WELL ID
 DICO. A2D Technologies, Inc.:   DIGITIZING COMPANY
~OTHER INFORMATION
~A   DEPT      SPR         GRD      CALD       RHOB       DPHI       CORR         SN         IL   
# ...
  193.0000   -26.0908   126.4444     7.8561     2.4719     0.1262     0.0099     6.1944     7.4573
  193.5000   -26.0912   125.7354     7.8542     2.4651     0.1299     0.0096     6.1098     7.0939
  194.0000   -26.0891   124.7030     7.8523     2.4530     0.1389     0.0113     6.0272     6.7721
  194.5000   -26.0928   119.9932     7.8503     2.4371     0.1480     0.0136     5.8828     6.4188
  195.0000   -26.2580   118.3807     7.8484     2.4245     0.1571     0.0159     5.6598     6.0845
  195.5000   -27.0626   118.4985     7.8465     2.4147     0.1618     0.0181     5.4510     5.7682
  196.0000   -27.0060   119.0428     7.8446     2.4192     0.1623     0.0156     5.4032     5.6106
  196.5000   -26.5912   118.7283     7.8427     2.4355     0.1510     0.0073     5.3514     5.5399
  197.0000   -26.1889   118.3760     7.8407     2.4515     0.1415     0.0075     5.4049     5.5013
  197.5000   -25.7904   118.1711     7.8388     2.4685     0.1320     0.0075     5.5062     5.8001
  198.0000   -25.4896   120.3384     7.8369     2.4756     0.1230     0.0075     5.7263     6.0158
  198.5000   -25.4958   122.5450     7.8350     2.4774     0.1235     0.0075     5.9552     6.2730
  199.0000   -25.4959   123.4296     7.8330     2.4760     0.1241     0.0075     6.1933     6.5585
  199.5000   -25.4932   122.5110     7.8311     2.4746     0.1246     0.0089     6.4408     6.8571
  200.0000   -25.3401   120.4455     7.8292     2.4732     0.1250     0.0147     6.6983     7.1692
  200.5000   -25.0244   121.7428     7.8273     2.4717     0.1273     0.0258     6.9915     7.5267
  201.0000   -24.7104   124.8269     7.8253     2.4763     0.1259     0.0454     7.0591     7.7407
  201.5000   -24.3815   127.2045     7.8234     2.4871     0.1080     0.0551     7.1343     7.8247
  202.0000   -24.3597   126.1022     7.8219     2.4996     0.1044     0.0632     7.2103     7.8463
  202.5000   -24.4325   115.8205     7.8232     2.5103     0.1032     0.0608     7.2871     7.8676
  203.0000   -24.5080   107.7304     7.8245     2.5145     0.1002     0.0468     7.3648     7.8890
  203.5000   -24.5829   105.2755     7.8257     2.5130     0.0999     0.0303     7.4433     7.9105
  204.0000   -24.6576   104.9921     7.8270     2.5120     0.1013     0.0162     7.5267     7.9321
  204.5000   -24.7324   104.7033     7.8282     2.5148     0.0990     0.0116     7.5209     7.9548
  205.0000   -24.8075   103.8706     7.8295     2.5284     0.0970     0.0074     7.5149     8.0639
  205.5000   -24.8881   102.7846     7.8308     2.5406     0.0874     0.0036     7.5087     8.1798
  206.0000   -24.7291   101.4194     7.8320     2.5375     0.0866     0.0045     7.5026     8.2536
  206.5000   -24.5004   100.4143     7.8333     2.5245     0.0959     0.0055     7.4965     8.2536
  207.0000   -24.2700   100.5068     7.8345     2.5120     0.1028     0.0035     7.4904     8.2537
  207.5000   -24.0400   100.5798     7.8358     2.4997     0.1095     0.0014     7.4843     8.2536
  208.0000   -23.8101   100.6524     7.8370     2.4896     0.1156    -0.0006     7.4782     8.2536
  208.5000   -23.5798   100.7254     7.8383     2.4852     0.1197    -0.0007     7.4721     8.2536
  209.0000   -23.3479   100.8102     7.8395     2.4841     0.1215    -0.0009     7.4661     8.2536
  209.5000   -23.1268   100.2845     7.8408     2.4839     0.1194    -0.0010     7.4598     8.2537
  210.0000   -23.2651    99.5902     7.8432     2.4869     0.1194    -0.0012     7.4241     8.2532
  210.5000   -23.4233    99.0336     7.8476     2.4917     0.1146    -0.0014     7.3699     8.2547
  211.0000   -23.5801    99.2657     7.8520     2.4921     0.1146    -0.0016     7.3161     8.1751
  211.5000   -23.7363   100.6998     7.8563     2.4928     0.1139    -0.0017     7.2636     8.1000
  212.0000   -23.8925   102.1734     7.8607     2.4941     0.1126    -0.0019     7.1485     8.0252
  212.5000   -24.0488   103.0471     7.8650     2.4935     0.1126    -0.0021     7.0352     7.9548
  213.0000   -24.2050   103.1327     7.8694     2.4902     0.1137    -0.0022     6.9490     7.8224
  213.5000   -24.3612   102.9097     7.8738     2.4827     0.1185    -0.0024     6.8642     7.6983
  214.0000   -24.5163   101.2458     7.8781     2.4753     0.1240    -0.0023     6.7805     7.5762
  214.5000   -24.6618    98.1057     7.8817     2.4693     0.1280    -0.0018     6.6978     7.4560
  215.0000   -25.2479    95.0876     7.8833     2.4661     0.1294    -0.0012     6.6160     7.3377
  215.5000   -25.6357    92.9220     7.8850     2.4648     0.1303    -0.0006     6.5378     7.1956
  216.0000   -25.8690    94.6844     7.8866     2.4616     0.1303     0.0000     6.3544     6.9931
  216.5000   -26.0987    98.0428     7.8883     2.4545     0.1348     0.0005     6.0842     6.7964
  217.0000   -26.3284   101.0523     7.8899     2.4477     0.1414     0.0011     5.8228     6.6052
  217.5000   -26.5603   101.4932     7.8916     2.4366     0.1460     0.0016     5.5715     6.4206
  218.0000   -26.8495   101.6345     7.8932     2.4251     0.1540     0.0022     5.2199     6.2075
  218.5000   -27.2055   101.7615     7.8948     2.4071     0.1637     0.0028     4.8487     5.7813
  219.0000   -28.1248   102.7378     7.8965     2.3769     0.1791     0.0034     4.5038     5.3852
  219.5000   -28.7543   103.7436     7.8982     2.3442     0.1963     0.0034     4.1835     4.8934
  220.0000   -28.9333   102.7447     7.8998     2.2996     0.2211     0.0068     3.8773     4.3593
  220.5000   -29.0528   100.2641     7.9003     2.2521     0.2462     0.0114     3.6415     3.8817
  221.0000   -28.9672    96.2089     7.8970     2.2217     0.2717     0.0159     3.4200     3.4567
  221.5000   -28.8877    92.5527     7.8939     2.2203     0.2797     0.0194     3.2121     3.0783
  222.0000   -28.8107    91.1212     7.8907     2.2514     0.2634     0.0176     3.1061     2.9771
  222.5000   -28.7248    88.5459     7.8876     2.2960     0.2356     0.0160     3.1061     2.9554
  223.0000   -28.3894    88.3073     7.8845     2.3522     0.2061     0.0144     3.1349     2.9338
  223.5000   -27.2169    93.1068     7.8813     2.4024     0.1774     0.0127     3.4390     2.9120
  224.0000   -26.9785    98.4286     7.8782     2.4356     0.1340     0.0099     3.7812     3.2262
  224.5000   -26.6929   101.9746     7.8750     2.4641     0.1288     0.0036     4.1575     3.5811
  225.0000   -25.9105   102.1556     7.8719     2.4816     0.1229     0.0035     4.5711     3.9749
  225.5000   -25.1393   101.5329     7.8688     2.4931     0.1157     0.0035     4.9847     4.4121
  226.0000   -25.2101   102.6664     7.8656     2.4909     0.1129     0.0035     5.4061     4.8774
  226.5000   -25.3452   105.6696     7.8625     2.4857     0.1196     0.0035     5.7996     5.3022
  227.0000   -25.4769   108.7401     7.8594     2.4805     0.1223     0.0035     5.9824     5.6466
  227.5000   -25.6046   110.6900     7.8562     2.4800     0.1223     0.0035     6.1080     5.8854
  228.0000   -25.6626   111.5286     7.8531     2.4795     0.1203     0.0035     6.1537     5.9415
  228.5000   -25.5518   110.5664     7.8499     2.4774     0.1223     0.0035     6.1992     5.9645
  229.0000   -25.4444   109.7152     7.8468     2.4802     0.1236     0.0035     6.2454     5.9773
  229.5000   -25.3367   110.5450     7.8437     2.4869     0.1189     0.0035     6.2919     5.9258
  230.0000   -25.2290   115.1269     7.8405     2.4894     0.1154     0.0035     6.3173     5.8905
  230.5000   -25.1211   115.6129     7.8374     2.4852     0.1158     0.0035     6.1929     5.8554
  231.0000   -25.0124   111.2220     7.8343     2.4755     0.1227     0.0035     6.1090     5.8207
  231.5000   -24.9061   108.3277     7.8311     2.4602     0.1305     0.0035     6.0327     5.7857
  232.0000   -24.9723   109.8090     7.8280     2.4436     0.1398     0.0077     5.8500     5.7046
  232.5000   -25.0541   110.8353     7.8249     2.4290     0.1491     0.0125     5.6854     5.5096
  233.0000   -25.3751   110.8048     7.8217     2.4261     0.1557     0.0142     5.5254     5.3213
