~VERSION INFORMATION
 VERS.                2.0:   CWLS LOG ASCII STANDARD - VERSION 2.0
 WRAP.                 NO:   ONE LINE PER DEPTH STEP
~WELL INFORMATION
#MNEM.UNIT      DATA TYPE    INFORMATION
#----------   ------------   ------------------------------
 STRT.F           30.0000:   START DEPTH
 STOP.F          562.0000:   STOP DEPTH
 STEP.F            0.5000:   STEP LENGTH
 NULL.          -999.2500:   NO VALUE
 COMP. LAWRENCE/ALLISON INC:   COMPANY
 WELL. NPR 3 #53-16-SX-10:   WELL
 FLD .             TEAPOT:   FIELD
 LOC .      S10 T38N R78W:   LOCATION
 CNTY.            NATRONA:   COUNTY
 STAT.            WYOMING:   STATE
 CTRY. UNITED STATES OF AMERICA:   COUNTRY
 SRVC.      Dresser Atlas:   SERVICE COMPANY
 DATE.        27-AUG-1984:   LOGDATE
 API .       490251098200:   API NUMBER
~CURVE INFORMATION
#MNEM.UNIT       API CODE    CURVE DESCRIPTION
#----------   ------------   ------------------------------
 DEPT.F                  :   
 RILD.OHMM   07 120 46 00:   INDUCTION LOG DEEP RESISTIVITY
 RILM.OHMM   07 120 44 00:   INDUCTION LOG MEDIUM RESISTIVITY
 RFOC.OHMM   07 220 04 00:   RESISTIVITY FOCUSED LOG
 SPR .MV     07 010 01 00:   SPONTANEOUS POTENTIAL
 AC  .US/F   60 520 00 00:   ACOUSTIC SONIC
 DEN .G/C3   45 350 01 00:   COMPENSATED BULK DENSTIY
 CORR.G/C3   45 356 01 00:   DENSITY CORRECTION
 CNC .DEC    42 890 01 00:   NEUTRON POROSITY LIMESTONE
 CALD.IN     45 280 60 00:   CALIPER
 GRD .GAPI   45 310 01 00:   GAMMA RAY FROM DENSITY LOG
 PORD.DEC    45 890 10 00:   POROSITY DENSITY LIMESTONE
~PARAMETER INFORMATION
#MNEM.UNIT          VALUE    DESCRIPTION
#----------   ------------   ------------------------------
 PD  .                 GL:   PERMANENT DATUM
 EPD .F              5199:   ELEVATION PERMANENT DATUM
 LMF .                 GL:   LOG MEASURED FROM
 DMF .                 GL:   DRILLING MEASURED FROM
 EGL .F              5199:   GROUND LEVEL
 DATE.            8-27-84:   RUN DATE
 RUN .                  1:   RUN NUMBER
 DD  .F               550:   DEPTH DRILLER
 DL  .F               549:   DEPTH LOGGER
 BLI .F               547:   BOTTOM LOG INTERVAL
 TLI .F                30:   TOP LOG INTERVAL
 CS  .IN            9.625:   CASING SIZE
 CBD .F                40:   CASING BOTTOM DRILLER
 CBL .F                44:   CASING BOTTOM LOGGER
 BS  .IN            7.875:   BIT SIZE
 BSD .F               550:   BIT SIZE AT DEPTH
 DFT .          KCL/WATER:   DRILLING FLUID TYPE
 MSS .           MUD TANK:   MUD SAMPLE SOURCE
 RMS .OHMM            .28:   RESISTIVITY MUD SAMPLE
 MST .F                78:   MUD SAMPLE TEMPERATURE
 TCS .HRS               4:   TIME CURCULATED STOPPED
 LUN .               4082:   LOGGING UNIT NUMBER
 LUL .          ROOSEVELT:   LOGGING UNIT LOCATION
 ENGI.            FRANCIS:   RECORDING ENGINEER
 WITN.              FIVAS:   WITNESSED BY
 CLNT.            A2DTECH:   CLIENT CODE
 ORIG.       2", 5" PRINT:   ORIGIN OF DATA
 UWI .       490251098200:   UNIQUE WELL ID
 DICO. A2D Technologies, Inc.:   DIGITIZING COMPANY
~OTHER INFORMATION
~A   DEPT     RILD       RILM       RFOC        SPR         AC        DEN       CORR          CNC     CALD         GRD      PORD   
# ...
  426.5000    11.2342    11.9594    12.5433   -11.1441    89.2138     2.5496     0.0536     0.2012     8.5110   100.9098     0.0777
  427.0000    11.4558    12.2197    12.8726   -10.7003    88.1828     2.5536     0.0563     0.2060     8.5096   104.3351     0.0758
  427.5000    11.6817    12.4856    13.2106   -10.2516    87.6428     2.5574     0.0591     0.2103     8.5081   107.7927     0.0731
  428.0000    11.9122    12.7572    13.5574    -9.8021    87.4023     2.5504     0.0619     0.2103     8.5067   109.7774     0.0727
  428.5000    12.1471    13.0348    13.8213    -9.3862    87.5675     2.5384     0.0648     0.2012     8.5051   104.9931     0.0802
  429.0000    12.3870    13.3175    13.9345    -9.4618    87.7326     2.5242     0.0701     0.1923     8.5098    99.5832     0.0898
  429.5000    12.6306    13.5712    14.0418    -9.5532    87.8978     2.5151     0.0755     0.1842     8.5154    97.8071     0.0970
  430.0000    12.8467    13.5707    14.1500    -9.6700    87.9008     2.5142     0.0745     0.1860     8.5211    97.3335     0.0985
  430.5000    12.8923    13.5683    14.2587    -9.8001    87.8136     2.5118     0.0587     0.1892     8.5267    96.8274     0.0987
  431.0000    12.9400    13.5683    14.3410    -9.9304    87.7264     2.5044     0.0424     0.1924     8.5324    96.4198     0.1015
  431.5000    12.9878    13.5683    14.2101   -10.0607    87.6393     2.4977     0.0392     0.1939     8.5380    97.2577     0.1059
  432.0000    13.0358    13.6179    14.1049   -10.1910    87.5451     2.5059     0.0432     0.1910     8.5437    98.0947     0.1089
  432.5000    13.0840    13.7743    14.0774   -10.3215    87.2702     2.5235     0.0531     0.1868     8.5493    98.9253     0.0996
  433.0000    13.1325    13.9324    14.4070   -10.4531    86.9714     2.5405     0.0631     0.1842     8.5550    99.7575     0.0897
  433.5000    13.1974    14.0924    14.8368   -10.5784    86.6725     2.5453     0.0653     0.1878     8.5607   100.6018     0.0821
  434.0000    13.1725    14.2097    15.1589   -10.4913    86.3736     2.5282     0.0571     0.1955     8.5648    99.8712     0.0802
  434.5000    13.1349    14.0839    14.8633   -10.3930    86.6752     2.5103     0.0525     0.1951     8.5596    97.0862     0.0898
  435.0000    13.0973    13.9050    14.6351   -10.2959    87.3227     2.4928     0.0703     0.1927     8.5546    94.3111     0.1005
  435.5000    13.0599    13.7284    14.4105   -10.1989    87.9717     2.4856     0.0877     0.1942     8.5495    95.0343     0.1112
  436.0000    13.0226    13.5537    14.1894   -10.1019    88.6105     2.4808     0.1001     0.2021     8.5445    96.3402     0.1159
  436.5000    12.9853    13.3805    13.9716   -10.0049    89.1607     2.4761     0.1097     0.2079     8.5395    97.1997     0.1190
  437.0000    12.9482    13.1974    13.8416    -9.9081    89.1483     2.4715     0.1087     0.2012     8.5345    96.2846     0.1205
  437.5000    12.9112    13.2994    14.1374    -9.8097    88.8277     2.4684     0.1073     0.1967     8.5295    94.8317     0.1244
  438.0000    12.8743    13.4418    14.3432    -9.8044    88.4092     2.4756     0.0966     0.1974     8.5244    94.3940     0.1269
  438.5000    12.8375    13.5829    14.3121    -9.8421    88.1071     2.4950     0.0855     0.1982     8.5194    97.0287     0.1235
  439.0000    12.8008    13.6892    14.2826    -9.8807    87.8255     2.5119     0.0645     0.1990     8.5144    99.8629     0.1114
  439.5000    12.7643    13.4897    14.2531    -9.9193    87.7583     2.5213     0.0403     0.1990     8.5094   102.3933     0.1011
  440.0000    12.7277    13.3657    14.2228    -9.9596    88.1037     2.5225     0.0138     0.1989     8.5049   101.4718     0.0954
  440.5000    12.5524    13.1283    14.0383   -10.0726    88.6699     2.5234     0.0425     0.1988     8.5050   100.4639     0.0938
  441.0000    12.3339    12.8957    13.7357   -10.2856    89.3356     2.5243     0.0633     0.1987     8.5050   101.4359     0.0936
  441.5000    12.1192    12.6671    13.4397   -10.4976    89.6954     2.5234     0.0634     0.1979     8.5050   102.4838     0.0926
  442.0000    11.9083    12.4426    13.1497   -10.7100    89.8983     2.5217     0.0562     0.1970     8.5050   102.9872     0.0925
  442.5000    11.7010    12.2221    12.8658   -10.9224    90.4509     2.5193     0.0466     0.1972     8.5050   102.1354     0.0936
  443.0000    11.4974    12.0056    12.5890   -11.1347    91.0521     2.5144     0.0393     0.2017     8.5050   102.9572     0.0948
  443.5000    11.2973    11.7929    12.3710   -11.3470    91.4510     2.5064     0.0351     0.2035     8.5050   103.6157     0.0985
  444.0000    11.1007    11.5839    12.4808   -11.5594    91.8202     2.5070     0.0345     0.2035     8.5050   103.6315     0.1023
  444.5000    10.9075    11.3786    12.6000   -11.7720    92.1894     2.5175     0.0444     0.2080     8.5050   104.4149     0.1036
  445.0000    10.7176    11.1770    12.4259   -11.9863    91.7375     2.5259     0.0543     0.2150     8.5050   106.7479     0.0978
  445.5000    10.5311    10.9710    12.1701   -12.2021    91.0521     2.5203     0.0646     0.2172     8.5050   108.2334     0.0912
  446.0000    10.3478    10.8948    11.9222   -11.7824    91.5018     2.5127     0.0650     0.2148     8.5050   108.1020     0.0943
  446.5000    10.1677    10.8174    11.7990   -11.2612    92.1295     2.5095     0.0588     0.2123     8.5050   107.3609     0.0997
  447.0000    10.0029    10.7400    11.6767   -10.9874    92.5631     2.5153     0.0517     0.2099     8.5050   108.1653     0.1016
  447.5000     9.9842    10.6630    11.5556   -10.9877    92.9485     2.5196     0.0446     0.2085     8.5050   109.3547     0.0952
  448.0000     9.9666    10.5866    11.4362   -10.9875    93.3329     2.5196     0.0379     0.2057     8.5050   110.5546     0.0948
  448.5000     9.9493    10.5107    11.3662   -10.9879    93.6373     2.5232     0.0442     0.2004     8.5050   111.7326     0.0919
  449.0000     9.9319    10.4354    11.3365   -10.9874    93.4827     2.5338     0.0512     0.1983     8.5050   112.4979     0.0863
  449.5000     9.9145    10.3795    11.3065   -10.9879    93.3399     2.5368     0.0512     0.2097     8.5050   111.0438     0.0831
  450.0000     9.8971    10.3985    11.2825   -11.0242    93.2463     2.5310     0.0417     0.2207     8.5050   108.7988     0.0883
  450.5000     9.8798    10.4137    11.3841   -11.1768    93.5454     2.5229     0.0376     0.2305     8.5050   106.7444     0.0942
  451.0000     9.8625    10.4291    11.4805   -11.3231    93.4093     2.5165     0.0437     0.2285     8.5050   109.4062     0.0968
  451.5000     9.8454    10.4445    11.5777   -11.4695    93.2791     2.5190     0.0510     0.2232     8.5050   113.3793     0.0955
  452.0000     9.8278    10.4597    11.7039   -11.6160    93.1563     2.5216     0.0586     0.2154     8.5050   115.4119     0.0940
  452.5000     9.7576    10.4758    11.5974   -11.7625    93.6571     2.5242     0.0620     0.2083     8.5050   114.1588     0.0924
  453.0000     9.6400    10.3517    11.3967   -11.9081    94.1553     2.5267     0.0633     0.2127     8.5050   111.8486     0.0908
  453.5000     9.5239    10.2229    11.1994   -12.0150    94.1229     2.5365     0.0644     0.2210     8.5050   109.4907     0.0852
  454.0000     9.4091    10.0958    11.0056   -12.0603    94.0757     2.5491     0.0627     0.2276     8.5050   108.4228     0.0783
  454.5000     9.2957     9.9702    10.8151   -12.1065    94.3606     2.5618     0.0554     0.2265     8.5050   110.3205     0.0715
  455.0000     9.1837     9.8462    10.7177   -12.1537    95.0445     2.5669     0.0552     0.2269     8.5050   112.7140     0.0673
  455.5000     9.0730     9.7295    10.6263   -12.1904    95.7283     2.5586     0.0550     0.2403     8.5050   114.4842     0.0707
  456.0000     8.9636     9.5852    10.5358   -11.9865    96.1240     2.5487     0.0618     0.2489     8.5050   114.2644     0.0770
  456.5000     8.8556     9.4494    10.4460   -11.7730    96.0305     2.5396     0.0710     0.2415     8.5050   114.1027     0.0829
