~VERSION INFORMATION
 VERS.                2.0:   CWLS LOG ASCII STANDARD - VERSION 2.0
 WRAP.                 NO:   ONE LINE PER DEPTH STEP
~WELL INFORMATION
#MNEM.UNIT      DATA TYPE    INFORMATION
#----------   ------------   ------------------------------
 STRT.F            7.0000:   START DEPTH
 STOP.F          549.0000:   STOP DEPTH
 STEP.F            0.5000:   STEP LENGTH
 NULL.          -999.2500:   NO VALUE
 COMP. LAWRENCE-ALLISON &AS:   COMPANY
 WELL. NPR 3 #51-62-SX-10-LP3:   WELL
 FLD .             TEAPOT:   FIELD
 LOC .      S10 T38N R78W:   LOCATION
 CNTY.            NATRONA:   COUNTY
 STAT.            WYOMING:   STATE
 CTRY. UNITED STATES OF AMERICA:   COUNTRY
 SRVC.      Dresser Atlas:   SERVICE COMPANY
 DATE.        10-DEC-1984:   LOGDATE
 API .       490251099500:   API NUMBER
~CURVE INFORMATION
#MNEM.UNIT       API CODE    CURVE DESCRIPTION
#----------   ------------   ------------------------------
 DEPT.F                  :   
 SPR .MV     07 010 01 00:   SPONTANEOUS POTENTIAL
 RILD.OHMM   07 120 46 00:   INDUCTION LOG DEEP RESISTIVITY
 RILM.OHMM   07 120 44 00:   INDUCTION LOG MEDIUM RESISTIVITY
 RFOC.OHMM   07 220 04 00:   RESISTIVITY FOCUSED LOG
 DT  .US/F   60 520 00 00:   INTERVAL TRANSIT TIME
 PORD.DEC    45 890 12 00:   POROSITY DENSITY SANDSTONE
 CNCF.DEC    42 890 03 00:   NEUTRON POROSITY SANDSTONE
 CALD.IN     45 280 60 00:   CALIPER FROM DENSITY LOG
 GRD .GAPI   45 310 01 00:   GAMMA RAY FROM DENSITY LOG
 CORR.G/C3   45 356 01 00:   DENSITY CORRECTION
 DEN .G/C3   45 350 01 00:   COMPENSATED BULK DENSTIY
~PARAMETER INFORMATION
#MNEM.UNIT          VALUE    DESCRIPTION
#----------   ------------   ------------------------------
 PD  .                 GL:   PERMANENT DATUM
 EPD .F              5179:   ELEVATION PERMANENT DATUM
 LMF .                 GL:   LOG MEASURED FROM
 DMF .                 GL:   DRILLING MEASURED FROM
 EGL .F              5179:   GROUND LEVEL
 DATE.        10-DEC-1984:   RUN DATE
 RUN .                  1:   RUN NUMBER
 DD  .F               554:   DEPTH DRILLER
 DL  .F               551:   DEPTH LOGGER
 BLI .F               549:   BOTTOM LOG INTERVAL
 TLI .F                20:   TOP LOG INTERVAL
 CS  .IN            8.625:   CASING SIZE
 CBD .F                20:   CASING BOTTOM DRILLER
 CBL .F                20:   CASING BOTTOM LOGGER
 BS  .IN            7.875:   BIT SIZE
 BSD .F               554:   BIT SIZE AT DEPTH
 DFT .         KCL- WATER:   DRILLING FLUID TYPE
 MSS .           MUD TANK:   MUD SAMPLE SOURCE
 RMS .OHMM           .168:   RESISTIVITY MUD SAMPLE
 MST .F                77:   MUD SAMPLE TEMPERATURE
 RMF .OHMM           .126:   RESISTIVITY MUD FILTRATE SAMPLE
 MFST.F                77:   MUD FILTRATE SAMPLE TEMPERATURE
 RMC .OHMM            .21:   RESISTIVITY MUD CAKE
 MCST.F                77:   MUD CAKE SAMPLE TEMPERATURE
 MFSS.               CALC:   MUD FILTRATE SAMPLE SOURCE
 MCSS.               CALC:   MUD CAKE SAMPLE SOURCE
 RMB .OHMM            .15:   RESISTIVITY MUD AT BHT
 BHT .F                85:   BOTTOM HOLE TEMPERATURE
 TCS .HRS             3.5:   TIME CURCULATED STOPPED
 MRT .F               100:   MAXIMUM RECORDED TEMPERATURE
 LUN .               6270:   LOGGING UNIT NUMBER
 LUL .                 FM:   LOGGING UNIT LOCATION
 ENGI.          E. GOVETT:   RECORDING ENGINEER
 WITN.             GROOMS:   WITNESSED BY
 CLNT.            A2DTECH:   CLIENT CODE
 ORIG.           5" PRINT:   ORIGIN OF DATA
 UWI .       490251099500:   UNIQUE WELL ID
 DICO. A2D Technologies, Inc.:   DIGITIZING COMPANY
~OTHER INFORMATION
~A    DEPT     SPR       RILD       RILM       RFOC         DT       PORD         CNCF     CALD        GRD       CORR        DEN   
# ...
  281.5000   -48.2509    20.8322    16.0124    23.0540    95.6103     0.1800     0.2563     8.0430    73.4461     0.0199     2.3752
  282.0000   -48.3926    20.5510    15.9052    22.7431    95.9850     0.1728     0.2627     8.0414    73.1328     0.0093     2.3894
  282.5000   -48.5321    20.5553    15.7987    22.5924    96.4486     0.1755     0.2693     8.0548    72.1728     0.0123     2.3871
  283.0000   -48.9661    20.7024    15.7911    21.9813    96.9438     0.1803     0.2668     8.0681    71.1808     0.0167     2.3773
  283.5000   -49.2562    20.7067    15.6962    21.6849    97.2423     0.1836     0.2607     8.0665    71.9267     0.0272     2.3720
  284.0000   -49.3957    20.8549    15.5911    21.9955    97.4641     0.1843     0.2556     8.0649    73.5749     0.0377     2.3719
  284.5000   -49.0879    20.8592    15.7028    22.3063    97.5370     0.1828     0.2573     8.0632    75.2231     0.0331     2.3742
  285.0000   -48.6339    20.8635    15.7060    22.3126    97.6092     0.1804     0.2606     8.0767    73.5630     0.0255     2.3757
  285.5000   -48.0316    21.0128    15.8185    22.1646    97.6055     0.1801     0.2597     8.0746    71.0006     0.0176     2.3779
  286.0000   -48.0227    21.0172    15.8224    21.8658    97.7529     0.1820     0.2543     8.0730    68.5887     0.0054     2.3801
  286.5000   -48.0138    20.8754    15.7165    21.7209    97.9010     0.1828     0.2480     8.0868    67.3797     0.0013     2.3740
  287.0000   -48.0050    20.8808    15.7198    21.7270    97.8973     0.1828     0.2450     8.0848    67.9753     0.0072     2.3740
  287.5000   -47.9961    20.7399    15.7230    21.7330    97.8943     0.1840     0.2495     8.0832    69.3227     0.0147     2.3731
  288.0000   -48.1378    20.8894    15.6169    21.8901    98.7184     0.1880     0.2598     8.0815    72.3243     0.0222     2.3649
  288.5000   -48.2773    21.1851    15.7295    21.9119    99.0913     0.1877     0.2631     8.0799    74.7243     0.0146     2.3626
  289.0000   -48.4146    21.4850    15.8421    22.0718    99.4643     0.1853     0.2622     8.0783    78.0266     0.0115     2.3678
  289.5000   -48.4058    21.6388    15.8454    22.2139    99.8372     0.1817     0.2650     8.0767    79.5259     0.0114     2.3715
  290.0000   -48.5475    21.3456    15.7385    22.3744    99.3831     0.1826     0.2689     8.0750    77.8644     0.0144     2.3760
  290.5000   -48.5364    20.9110    15.6339    22.3584    99.0794     0.1835     0.2635     8.1035    77.7080     0.0369     2.3737
  291.0000   -48.3792    20.4853    15.5292    21.9034    99.0012     0.1841     0.2599     8.1179    78.1532     0.0354     2.3729
  291.5000   -48.2219    20.4896    15.4244    21.4574    98.9982     0.1829     0.2611     8.1302    77.9969     0.0217     2.3737
  292.0000   -48.0647    20.4938    15.3212    21.0455    98.9952     0.1820     0.2612     8.1737    76.7874     0.0187     2.3744
  292.5000   -47.7591    20.4980    15.3251    21.0517    98.9922     0.1823     0.2569     8.1871    75.1273     0.0307     2.3766
  293.0000   -47.6019    20.3597    15.2217    21.0575    99.0644     0.1830     0.2563     8.2301    74.6703     0.0381     2.3720
  293.5000   -47.5930    20.2245    15.0162    20.9176    99.2870     0.1856     0.2658     8.2439    74.6643     0.0396     2.3675
  294.0000   -47.7347    20.2286    14.9149    20.7790    99.0584     0.1905     0.2675     8.2719    78.1170     0.0395     2.3607
  294.5000   -47.8724    20.0930    14.8151    20.4989    98.4539     0.1896     0.2623     8.3003    79.4646     0.0395     2.3614
  295.0000   -48.0119    20.0974    14.6151    20.5060    98.0750     0.1881     0.2606     8.2987    79.6091     0.0364     2.3613
  295.5000   -48.1513    19.9626    14.5165    20.5116    97.8465     0.1878     0.2627     8.3271    80.0540     0.0243     2.3621
  296.0000   -48.2908    19.6923    14.3197    20.5173    97.8435     0.1867     0.2612     8.3409    81.2511     0.0167     2.3665
  296.5000   -48.4300    19.4254    14.2239    20.3813    97.8405     0.1830     0.2588     8.3539    74.5926     0.0121     2.3740
  297.0000   -48.5695    19.2953    14.2275    19.8300    97.7623     0.1813     0.2640     8.3672    69.7110     0.0089     2.3763
  297.5000   -48.7092    19.4335    14.2305    19.6972    97.3834     0.1828     0.2658     8.3956    68.4511     0.0060     2.3716
  298.0000   -49.1453    19.5726    14.3323    19.4317    96.9293     0.1873     0.2591     8.4090    68.6918     0.0059     2.3655
  298.5000   -49.7299    19.7127    14.5352    19.3029    97.1518     0.1855     0.2480     8.4074    71.4454     0.0073     2.3679
  299.0000   -49.8695    19.8538    14.7410    19.5789    97.6000     0.1807     0.2462     8.4054    74.2966     0.0163     2.3738
  299.5000   -49.7121    19.8579    14.7441    19.7204    98.3489     0.1831     0.2604     8.4038    74.5929     0.0283     2.3768
  300.0000   -49.5549    19.8620    14.6043    19.8615    98.9469     0.1880     0.2653     8.3853    73.5332     0.0358     2.3719
  300.5000   -49.2519    19.6618    14.4466    19.7253    99.1694     0.1946     0.2571     8.3561    73.5258     0.0357     2.3564
  301.0000   -49.3946    19.5321    14.3341    19.5997    99.0912     0.1976     0.2463     8.4000    73.6706     0.0357     2.3488
  301.5000   -49.5371    19.4025    13.7693    19.4740    98.8627     0.1968     0.2420     8.3988    73.8117     0.0356     2.3473
  302.0000   -49.9763    18.9275    13.7721    19.3462    98.4837     0.1992     0.2360     8.3676    72.6013     0.0322     2.3457
  302.5000   -50.1361    18.4116    13.6791    18.8241    98.0296     0.1986     0.2315     8.3814    73.1954     0.0234     2.3450
  303.0000   -50.4098    18.2855    13.4937    18.3078    97.7259     0.1974     0.2387     8.3802    73.7895     0.0173     2.3472
  303.5000   -50.5509    18.1608    13.4972    18.0539    97.6477     0.1951     0.2478     8.3938    74.7104     0.0052     2.3524
  304.0000   -50.5451    18.0368    13.4999    17.9517    97.4191     0.1863     0.2478     8.3926    75.4288     0.0037     2.3697
  304.5000   -50.6891    18.0380    13.5027    17.9593    96.8898     0.1870     0.2429     8.4515    73.6151     0.0096     2.3659
  305.0000   -50.8317    18.1646    13.5054    17.8415    96.3605     0.1930     0.2476     8.4953    73.4573     0.0050     2.3583
  305.5000   -50.9742    18.0404    13.5082    17.7229    96.0567     0.1942     0.2584     8.5095    73.7506    -0.0010     2.3523
  306.0000   -51.1154    17.8958    13.4177    17.4850    95.9785     0.1885     0.2602     8.5380    75.6981     0.0034     2.3537
  306.5000   -51.2579    17.5500    13.3241    17.3703    96.4267     0.1847     0.2481     8.5521    78.3993     0.0109     2.3703
  307.0000   -51.2521    17.3098    13.0457    17.3777    96.7244     0.1811     0.2435     8.5660    76.7359     0.0274     2.3763
  307.5000   -51.2463    17.5527    12.7906    17.5044    97.0974     0.1862     0.2580     8.5645    75.5255     0.0364     2.3709
  308.0000   -51.2404    16.8394    12.7049    16.9145    96.6432     0.1920     0.2644     8.5633    75.5181     0.0167     2.3611
  308.5000   -51.2333    16.0437    12.6204    16.1196    96.1139     0.1908     0.2526     8.5622    77.3152     0.0046     2.3573
  309.0000   -51.2275    15.8238    12.7107    15.9031    95.4342     0.1881     0.2508     8.5610    76.7063     0.0046     2.3596
  309.5000   -51.2216    15.9351    12.7133    15.7988    94.8297     0.1836     0.2577     8.5598    72.3380     0.0090     2.3672
  310.0000   -51.3657    16.2708    12.8043    15.8043    94.4515     0.1769     0.2617     8.5583    69.6238     0.0044     2.3796
  310.5000   -51.5082    16.2719    12.8959    15.9270    94.8989     0.1728     0.2638     8.5571    69.6055     0.0044     2.3888
  311.0000   -51.6508    16.2730    12.9881    16.0358    95.0470     0.1734     0.2650     8.5560    72.3158     0.0043     2.3888
  311.5000   -51.7934    16.2741    12.9908    16.0424    95.1937     0.1730     0.2662     8.5548    75.5499     0.0059     2.3887
