~VERSION INFORMATION
 VERS.                2.0:   CWLS LOG ASCII STANDARD - VERSION 2.0
 WRAP.                 NO:   ONE LINE PER DEPTH STEP
~WELL INFORMATION
#MNEM.UNIT      DATA TYPE    INFORMATION
#----------   ------------   ------------------------------
 STRT.F           20.0000:   START DEPTH
 STOP.F          698.0000:   STOP DEPTH
 STEP.F            0.5000:   STEP LENGTH
 NULL.          -999.2500:   NO VALUE
 COMP. FENIX & SCISSON INC:   COMPANY
 WELL.    52 SX 34 #52-34:   WELL
 FLD .             TEAPOT:   FIELD
 LOC .      S34 T39N R78W:   LOCATION
 CNTY.            NATRONA:   COUNTY
 STAT.            WYOMING:   STATE
 CTRY. UNITED STATES OF AMERICA:   COUNTRY
 SRVC.            Unknown:   SERVICE COMPANY
 DATE.        26-JAN-1979:   LOGDATE
 API .       490251077100:   API NUMBER
~CURVE INFORMATION
#MNEM.UNIT       API CODE    CURVE DESCRIPTION
#----------   ------------   ------------------------------
 DEPT.F                  :   
 SPR .MV     05 010 01 00:   SPONTANEOUS POTENTIAL FROM RES.
 CALD.IN     45 280 60 00:   CALIPER
 GRD .GAPI   45 310 01 00:   GAMMA RAY FROM DENSITY LOG
 CORR.G/C3   45 356 01 00:   DENSITY CORRECTION
 RHOB.G/C3   45 350 01 00:   BULK DENSITY
 ILD .OHMM   05 120 46 00:   INDUCTION LOG DEEP
 SN  .OHMM   05 040 16 00:   SHORT NORMAL 16"
 DPHI.DEC    45 890 12 00:   DENSITY POROSITY SANDSTONE
~PARAMETER INFORMATION
#MNEM.UNIT          VALUE    DESCRIPTION
#----------   ------------   ------------------------------
 PD  .                 GL:   PERMANENT DATUM
 EPD .F              5072:   ELEVATION PERMANENT DATUM
 LMF .                 KB:   LOG MEASURED FROM
 DAPD.F                 4:   FEET ABOVE PERMANENT DATUM
 DMF .                 KB:   DRILLING MEASURED FROM
 EKB .F              5076:   KELLING BUSHING
 EGL .F              5072:   GROUND LEVEL
 DATE.            1-26-79:   RUN DATE
 RUN .                  1:   RUN NUMBER
 DD  .F               688:   DEPTH DRILLER
 DL  .F               698:   DEPTH LOGGER
 BLI .F               691:   BOTTOM LOG INTERVAL
 TLI .F                30:   TOP LOG INTERVAL
 CS  .IN            8.625:   CASING SIZE
 CBD .F                40:   CASING BOTTOM DRILLER
 CBL .F                20:   CASING BOTTOM LOGGER
 BS  .IN            7.875:   BIT SIZE
 BSD .F               688:   BIT SIZE AT DEPTH
 DFT .                KCL:   DRILLING FLUID TYPE
 DFD .                8.9:   DRILLING FLUID DENSITY
 DFV .                 39:   DRILLING FLUID VISCOSITY
 DFPH.                 10:   DRILLING FLUID PH
 DFL .                 10:   DRILLING FLUID LOSS
 MSS .           FLOWLINE:   MUD SAMPLE SOURCE
 RMS .OHMM             .3:   RESISTIVITY MUD SAMPLE
 MST .F                60:   MUD SAMPLE TEMPERATURE
 RMF .OHMM            .22:   RESISTIVITY MUD FILTRATE SAMPLE
 MFST.F                66:   MUD FILTRATE SAMPLE TEMPERATURE
 MFSS.           MEASURED:   MUD FILTRATE SAMPLE SOURCE
 MCSS.           MEASURED:   MUD CAKE SAMPLE SOURCE
 RMB .OHMM            .25:   RESISTIVITY MUD AT BHT
 BHT .F                70:   BOTTOM HOLE TEMPERATURE
 TCS .HRS               7:   TIME CURCULATED STOPPED
 MRT .F                70:   MAXIMUM RECORDED TEMPERATURE
 LUN .               3006:   LOGGING UNIT NUMBER
 LUL .             CASPER:   LOGGING UNIT LOCATION
 ENGI.            ROLLINS:   RECORDING ENGINEER
 WITN.              AMEND:   WITNESSED BY
 CLNT.            A2DTECH:   CLIENT CODE
 ORIG.       2", 5" PRINT:   ORIGIN OF DATA
 UWI .       490251077100:   UNIQUE WELL ID
 DICO. A2D Technologies, Inc.:   DIGITIZING COMPANY
~OTHER INFORMATION
~A   DEPT      SPR         CALD       GRD      CORR       RHOB        ILD         SN       DPHI   
# ...
  506.0000   -24.1770     8.1279    95.0696     0.0189     2.4820     9.3623    10.0875     0.1294
  506.5000   -23.2862     8.1383    88.5479     0.0296     2.4696     9.4333    10.0747     0.1453
  507.0000   -22.9400     8.1488    82.0975     0.0338     2.4333     9.5636    10.2741     0.1608
  507.5000   -22.5946     8.1417    72.0792     0.0346     2.3970     9.9067    10.5554     0.1904
  508.0000   -22.3471     8.1256    60.2040     0.0355     2.3340    10.8263    11.0518     0.2194
  508.5000   -22.3564     8.1093    52.6158     0.0312     2.2914    11.8312    11.6152     0.2246
  509.0000   -22.3604     8.0937    51.0086     0.0258     2.2961    12.9294    12.2602     0.2230
  509.5000   -22.3640     8.1039    54.1911     0.0204     2.2996    13.9504    12.9410     0.2134
  510.0000   -22.3680     8.1153    58.4503     0.0152     2.3191    15.1673    13.6596     0.2028
  510.5000   -22.3719     8.1267    62.7544     0.0122     2.3410    16.8843    14.4181     0.1912
  511.0000   -22.3759     8.1212    64.7645     0.0144     2.3549    18.6558    15.2187     0.1890
  511.5000   -22.3798     8.0990    65.6382     0.0185     2.3562    20.5632    15.9610     0.1904
  512.0000   -22.3838     8.0931    66.0221     0.0227     2.3546    20.5246    16.3793     0.1918
  512.5000   -22.3877     8.0928    66.1339     0.0269     2.3491    20.4777    16.8034     0.2012
  513.0000   -22.3916     8.0929    65.9062     0.0295     2.3284    20.4309    17.2454     0.2163
  513.5000   -22.3956     8.0931    65.6665     0.0287     2.3073    20.3737    17.2639     0.2176
  514.0000   -22.3995     8.1083    65.8990     0.0264     2.3113    20.3950    17.2833     0.2132
  514.5000   -22.4035     8.1471    68.0602     0.0240     2.3184    20.4319    17.3017     0.2070
  515.0000   -22.4074     8.1668    70.2621     0.0240     2.3230    20.4694    17.3201     0.2168
  515.5000   -22.4114     8.1509    68.6971     0.0247     2.3074    20.5050    17.3385     0.2286
  516.0000   -22.4153     8.1357    66.5732     0.0254     2.2883    20.5456    17.3570     0.2378
  516.5000   -22.4192     8.1205    67.4554     0.0262     2.2701    20.8265    17.3754     0.2471
  517.0000   -22.4232     8.1196    68.1385     0.0269     2.2527    21.3525    17.3939     0.2564
  517.5000   -22.4271     8.1334    65.7795     0.0272     2.2407    21.8918    17.4475     0.2645
  518.0000   -22.4310     8.1476    62.4705     0.0257     2.2197    22.4447    17.5899     0.2757
  518.5000   -22.4350     8.1342    58.5769     0.0243     2.2098    23.0115    17.7346     0.2729
  519.0000   -22.4389     8.1120    54.6362     0.0228     2.2124    23.5927    17.8803     0.2738
  519.5000   -22.4429     8.1126    53.3936     0.0206     2.2167    24.1886    18.0271     0.2658
  520.0000   -22.4468     8.1106    58.5295     0.0231     2.2367    24.7995    18.2277     0.2535
  520.5000   -22.4508     8.0982    63.3474     0.0278     2.2482    25.4258    18.2087     0.2468
  521.0000   -22.4547     8.0932    68.2667     0.0327     2.2506    25.7848    18.1710     0.2392
  521.5000   -22.4587     8.1095    69.2615     0.0363     2.2701    26.3263    18.1335     0.2358
  522.0000   -22.4626     8.1279    69.2307     0.0383     2.2817    26.8951    18.0953     0.2281
  522.5000   -22.4665     8.1208    66.7977     0.0394     2.2966    26.8951    17.9970     0.2231
  523.0000   -22.4705     8.1050    63.5255     0.0383     2.2984    26.6403    17.5902     0.2251
  523.5000   -22.4744     8.0921    64.4393     0.0321     2.2957    25.9301    17.3661     0.2301
  524.0000   -22.4783     8.0905    66.1937     0.0209     2.2849    25.2404    17.0721     0.2360
  524.5000   -22.4823     8.0887    66.8484     0.0075     2.2736    24.5698    16.9088     0.2444
  525.0000   -22.4862     8.0868    66.0323     0.0074     2.2635    23.8376    16.8657     0.2445
  525.5000   -22.4902     8.0849    65.0434     0.0075     2.2617    23.8509    16.8225     0.2436
  526.0000   -22.4941     8.0831    64.7450     0.0075     2.2814    24.0445    16.7801     0.2305
  526.5000   -22.4981     8.0812    68.7725     0.0075     2.3242    24.2285    16.4798     0.1917
  527.0000   -22.5020     8.0793    70.4074     0.0097     2.3667    24.4139    16.1630     0.1625
  527.5000   -22.5059     8.0777    71.3747     0.0150     2.3992    24.6006    16.1662     0.1645
  528.0000   -22.5099     8.0759    72.9301     0.0204     2.3928    24.7453    16.1647     0.1729
  528.5000   -22.5138     8.0711    74.4990     0.0220     2.3825    24.0676    15.8682     0.1776
  529.0000   -22.5178     8.1389    76.5678     0.0227     2.3745    23.0257    15.8682     0.1825
  529.5000   -22.5217     8.1481    77.3031     0.0234     2.3701    22.0444    15.5973     0.1811
  530.0000   -22.5257     8.1207    77.3441     0.0240     2.3737    21.1050    15.4321     0.1795
  530.5000   -22.5296     8.0746    76.0403     0.0247     2.3725    20.2056    15.4242     0.1815
  531.0000   -22.5335     8.0793    75.2314     0.0254     2.3696    19.5161    15.4163     0.1834
  531.5000   -22.5375     8.0860    75.8926     0.0237     2.3635    18.9013    15.4084     0.1890
  532.0000   -22.5413     8.0926    75.6555     0.0216     2.3556    18.3027    15.4005     0.1922
  532.5000   -22.5453     8.0990    71.0851     0.0195     2.3526    17.5635    15.3926     0.1908
  533.0000   -22.5508     8.1053    66.9993     0.0202     2.3538    17.5718    15.3847     0.1889
  533.5000   -22.5520     8.1121    66.4735     0.0211     2.3553    17.5645    15.3767     0.1901
  534.0000   -22.7777     8.1616    66.2345     0.0242     2.3553    17.8320    15.3688     0.1917
  534.5000   -23.2397     8.1879    68.6818     0.0331     2.3467    18.2345    15.3610     0.2021
  535.0000   -23.7016     8.1805    68.2081     0.0335     2.3380    18.7417    15.3531     0.2044
  535.5000   -24.1278     8.1733    66.4064     0.0281     2.3311    19.2630    15.3452     0.2066
  536.0000   -24.0575     8.1658    64.7132     0.0221     2.3259    19.6372    15.3373     0.2056
  536.5000   -23.9654     8.1584    64.3628     0.0174     2.3294    19.9279    15.3294     0.2028
  537.0000   -24.4294     8.1509    67.2867     0.0178     2.3367    20.2230    15.3216     0.1989
  537.5000   -25.2141     8.1434    67.5265     0.0181     2.3441    20.5224    15.3135     0.1962
  538.0000   -25.5358     8.1360    67.0045     0.0184     2.3449    20.8261    15.3056     0.1970
  538.5000   -25.9172     8.1285    69.1890     0.0187     2.3418    21.1421    15.2979     0.1984
  539.0000   -26.3116     8.1210    71.0045     0.0190     2.3387    21.5031    15.2531     0.1990
  539.5000   -26.3676     8.1136    71.2636     0.0192     2.3375    21.4090    15.0224     0.1974
  540.0000   -26.4076     8.1167    71.4421     0.0195     2.3413    21.0530    14.7953     0.1957
  540.5000   -26.4491     8.1213    71.6380     0.0198     2.3449    20.7030    14.5722     0.1940
  541.0000   -26.4912     8.1259    71.8571     0.0201     2.3485    20.3588    14.3303     0.1943
  541.5000   -26.5333     8.1306    72.5297     0.0204     2.3498    20.0203    14.3329     0.1949
  542.0000   -26.5753     8.1337    73.8853     0.0207     2.3465    19.6874    14.1510     0.1954
  542.5000   -26.6174     8.1359    75.2449     0.0209     2.3431    19.4522    13.9525     0.1956
  543.0000   -26.6595     8.1381    75.6181     0.0212     2.3442    19.3154    13.8110     0.1948
  543.5000   -26.7015     8.1404    74.4526     0.0215     2.3463    19.0307    13.8110     0.1960
  544.0000   -26.7436     8.1426    73.4605     0.0218     2.3441    18.6716    13.8110     0.1986
  544.5000   -26.7857     8.1448    76.0990     0.0221     2.3397    18.3746    13.7559     0.1996
  545.0000   -26.8283     8.1470    76.2275     0.0224     2.3389    18.2614    13.6307     0.1991
  545.5000   -26.8694     8.1492    75.5347     0.0226     2.3391    18.1490    13.4710     0.1937
  546.0000   -26.9018     8.1513    75.6262     0.0229     2.3548    18.0371    13.3090     0.1836
