~VERSION INFORMATION
 VERS.                2.0:   CWLS LOG ASCII STANDARD - VERSION 2.0
 WRAP.                 NO:   ONE LINE PER DEPTH STEP
~WELL INFORMATION
#MNEM.UNIT      DATA TYPE    INFORMATION
#----------   ------------   ------------------------------
 STRT.F            4.0000:   START DEPTH
 STOP.F          528.0000:   STOP DEPTH
 STEP.F            0.1000:   STEP LENGTH
 NULL.          -999.2500:   NO VALUE
 COMP. BROWN JOHN E&C INC:   COMPANY
 WELL.    84-1 SHX- #84-3:   WELL
 FLD .        TEAPOT DOME:   FIELD
 LOC .       S3 T38N R78W:   LOCATION
 CNTY.            NATRONA:   COUNTY
 STAT.            WYOMING:   STATE
 CTRY. UNITED STATES OF AMERICA:   COUNTRY
 SRVC.     Atlas Wireline:   SERVICE COMPANY
 DATE.        18-JAN-1992:   LOGDATE
 API .       490252249900:   API NUMBER
~CURVE INFORMATION
#MNEM.UNIT       API CODE    CURVE DESCRIPTION
#----------   ------------   ------------------------------
 DEPT.F                  :   
 GRR .GAPI   07 310 01 00:   GAMMA RAY
 RILD.OHMM   07 120 46 00:   INDUCTION LOG DEEP RESISTIVITY
 RILM.OHMM   07 120 44 00:   INDUCTION LOG MEDIUM RESISTIVITY
~PARAMETER INFORMATION
#MNEM.UNIT          VALUE    DESCRIPTION
#----------   ------------   ------------------------------
 PD  .                 GL:   PERMANENT DATUM
 EPD .F              5147:   ELEVATION PERMANENT DATUM
 LMF .                 KB:   LOG MEASURED FROM
 DAPD.F                10:   FEET ABOVE PERMANENT DATUM
 DMF .                 KB:   DRILLING MEASURED FROM
 EKB .F              5157:   KELLING BUSHING
 EDF .F              5156:   DRILLING FLOOR
 EGL .F              5147:   GROUND LEVEL
 DATE.        18-JAN-1992:   RUN DATE
 RUN .                  1:   RUN NUMBER
 DD  .F               842:   DEPTH DRILLER
 DL  .F               837:   DEPTH LOGGER
 BLI .F               835:   BOTTOM LOG INTERVAL
 TLI .F                 4:   TOP LOG INTERVAL
 CS  .IN            8.625:   CASING SIZE
 CBD .F                39:   CASING BOTTOM DRILLER
 CBL .F                56:   CASING BOTTOM LOGGER
 BS  .IN             8.75:   BIT SIZE
 BSD .F               842:   BIT SIZE AT DEPTH
 DFT .                AIR:   DRILLING FLUID TYPE
 LUN .           HL- 6272:   LOGGING UNIT NUMBER
 LUL .             CASPER:   LOGGING UNIT LOCATION
 ENGI.       P. RASMUSSEN:   RECORDING ENGINEER
 WITN.          G. STRONG:   WITNESSED BY
 CLNT.            A2DTECH:   CLIENT CODE
 ORIG.           5" PRINT:   ORIGIN OF DATA
 UWI .       490252249900:   UNIQUE WELL ID
 DICO. A2D Technologies, Inc.:   DIGITIZING COMPANY
~OTHER INFORMATION
~A    DEPT      GRR      RILD       RILM   
# ...
  477.2000   107.4824    14.1930    14.4141
  477.3000   107.7626    14.1500    14.3333
  477.4000   107.7626    14.0699    14.2529
  477.5000   107.7626    13.9904    14.1730
  477.6000   107.7626    13.8975    14.1566
  477.7000   107.7626    13.8973    14.1568
  477.8000   107.7626    13.8510    14.1571
  477.9000   107.5414    13.8001    14.1512
  478.0000   107.2958    13.7999    14.0589
  478.1000   107.0502    13.7997    14.0590
  478.2000   106.8046    13.7312    14.0123
  478.3000   106.5449    13.7031    13.9616
  478.4000   106.3134    13.6716    13.9527
  478.5000   106.0679    13.5943    13.8647
  478.6000   105.8225    13.5122    13.8649
  478.7000   105.6317    13.5120    13.8651
  478.8000   105.6317    13.4589    13.8653
  478.9000   105.1485    13.3828    13.8654
  479.0000   104.4748    13.3238    13.8657
  479.1000   103.7384    13.3236    13.8658
  479.2000   103.0019    13.2495    13.8132
  479.3000   102.2646    13.2304    13.7697
  479.4000   101.5283    13.1920    13.7698
  479.5000   100.9842    13.1379    13.7701
  479.6000   100.6270    13.1347    13.6961
  479.7000   100.3815    13.0459    13.6746
  479.8000   100.1522    13.0458    13.6379
  479.9000   100.1522    13.0039    13.5797
  480.0000   100.1522    12.9544    13.5799
  480.1000   100.0081    12.9475    13.5038
  480.2000    99.5923    12.8638    13.4857
  480.3000    98.8294    12.8637    13.4464
  480.4000    97.7169    12.8635    13.3921
  480.5000    96.6515    12.8355    13.3891
  480.6000    95.1156    12.7735    13.2993
  480.7000    93.7779    12.7733    13.2994
  480.8000    93.0409    12.7731    13.2996
  480.9000    92.2374    12.7244    13.2758
  481.0000    91.5680    12.6837    13.2074
  481.1000    90.8929    12.6836    13.2076
  481.2000    90.2481    12.6834    13.1452
  481.3000    89.6033    12.6144    13.1160
  481.4000    89.1039    12.5946    13.1162
  481.5000    88.8889    12.5596    13.1163
  481.6000    88.8889    12.5065    13.1166
  481.7000    88.8889    12.5063    13.0515
  481.8000    89.0472    12.5061    13.0256
  481.9000    89.6905    12.4510    13.0258
  482.0000    90.9588    12.4187    13.0259
  482.1000    92.5419    12.4185    13.0261
  482.2000    93.6784    12.4133    13.0262
  482.3000    94.9058    12.3316    13.0265
  482.4000    95.9147    12.3315    13.0267
  482.5000    96.6516    12.3313    13.0268
  482.6000    97.4125    12.3060    13.0270
  482.7000    97.8873    12.2450    12.9564
  482.8000    98.3785    12.2448    12.9367
  482.9000    98.7499    12.1834    12.9369
  483.0000    98.9954    12.1591    12.9370
  483.1000    99.2390    12.1305    12.9366
  483.2000    99.2390    12.0741    12.8641
  483.3000    99.4278    12.0739    12.8475
  483.4000    99.5434    12.0096    12.8477
  483.5000    99.5434    11.9894    12.8478
  483.6000    99.5557    11.9576    12.8444
  483.7000    99.8478    11.9056    12.7587
  483.8000    99.8478    11.9054    12.7589
  483.9000    99.8478    11.8385    12.7591
  484.0000    99.8478    11.8221    12.7593
  484.1000    99.8701    11.7871    12.7594
  484.2000   100.1522    11.7394    12.7596
  484.3000   100.1522    11.7392    12.7598
  484.4000   100.1522    11.7390    12.7162
  484.5000   100.0609    11.7389    12.6713
  484.6000    99.7830    11.7006    12.6714
  484.7000    99.2390    11.6567    12.6717
  484.8000    98.5814    11.6566    12.6718
  484.9000    98.0051    11.6564    12.6720
  485.0000    97.6155    11.6563    12.6722
  485.1000    97.4125    11.6561    12.6723
  485.2000    97.4125    11.6559    12.6725
  485.3000    97.1832    11.6558    12.6727
  485.4000    97.1081    11.6556    12.6729
  485.5000    96.9964    11.6555    12.6731
  485.6000    96.8036    11.6553    12.6732
  485.7000    96.8036    11.6551    12.6734
  485.8000    96.8036    11.6549    12.6736
  485.9000    96.8036    11.6547    12.6214
  486.0000    96.8036    11.5907    12.5857
  486.1000    96.8036    11.5732    12.5677
  486.2000    96.8036    11.5730    12.4984
  486.3000    96.8036    11.5729    12.4986
  486.4000    96.8036    11.5710    12.4987
  486.5000    96.6718    11.5056    12.4612
  486.6000    96.4992    11.4918    12.4120
  486.7000    96.4850    11.4916    12.4082
  486.8000    96.1948    11.4914    12.3260
  486.9000    96.1948    11.4913    12.3261
  487.0000    96.0528    11.4911    12.3263
  487.1000    95.8072    11.4910    12.3265
  487.2000    95.5860    11.4908    12.3198
  487.3000    95.5860    11.4906    12.2410
  487.4000    95.3749    11.4905    12.2411
  487.5000    95.1294    11.4903    12.2413
  487.6000    94.9772    11.4902    12.2415
  487.7000    94.9772    11.5331    12.2416
  487.8000    94.9772    11.5704    12.2418
  487.9000    94.9772    11.5703    12.2420
  488.0000    94.9772    11.5701    12.2422
  488.1000    94.9772    11.5699    12.2424
  488.2000    95.0666    11.5698    12.2551
  488.3000    95.5860    11.5696    12.3285
  488.4000    97.4378    11.5695    12.3287
  488.5000    99.0568    11.5693    12.3289
  488.6000   100.4160    11.5691    12.3613
  488.7000   101.6438    11.6194    12.4157
  488.8000   102.8919    11.6500    12.4159
  488.9000   104.3413    11.6499    12.4161
  489.0000   105.2664    11.6497    12.4162
  489.1000   106.0029    11.6495    12.4518
  489.2000   106.6746    11.6494    12.5036
  489.3000   107.1599    11.6492    12.5038
  489.4000   107.4053    11.6490    12.5040
  489.5000   107.4581    11.6562    12.5041
  489.6000   107.4581    11.7305    12.5043
  489.7000   107.3079    11.7303    12.5045
  489.8000   106.8007    11.7301    12.5094
  489.9000   105.9361    11.7299    12.5926
  490.0000   105.3272    11.7298    12.5927
  490.1000   104.5905    11.7296    12.5929
  490.2000   103.9393    11.7294    12.5931
  490.3000   103.4482    11.7753    12.5932
  490.4000   102.8919    11.8114    12.5934
  490.5000   102.4658    11.8113    12.5936
  490.6000   102.2831    11.8111    12.5938
  490.7000   102.1878    11.8768    12.5940
  490.8000   101.9787    11.8937    12.5941
  490.9000   101.9787    11.8935    12.5943
  491.0000   101.9787    11.8934    12.5944
  491.1000   101.9787    11.8932    12.5947
  491.2000   102.0842    11.8930    12.5949
  491.3000   102.2831    11.8929    12.5950
  491.4000   102.2831    11.8927    12.5952
  491.5000   102.5165    11.8925    12.5954
  491.6000   102.7620    11.8924    12.5955
  491.7000   103.1232    11.8922    12.5624
  491.8000   103.5576    11.8921    12.5081
  491.9000   103.8052    11.8919    12.5083
  492.0000   104.0487    11.8917    12.5085
  492.1000   104.4790    11.8916    12.5087
  492.2000   104.9702    11.8914    12.5089
  492.3000   105.3942    11.8913    12.5090
  492.4000   105.6479    11.8910    12.5092
  492.5000   106.1389    11.9201    12.5094
  492.6000   106.4352    11.9742    12.4538
  492.7000   106.5449    11.9740    12.4226
  492.8000   106.6220    11.9738    12.4229
  492.9000   106.8493    11.9737    12.4230
  493.0000   106.8493    11.9735    12.4232
  493.1000   106.6443    11.9903    12.4820
  493.2000   106.3988    12.0572    12.5106
  493.3000   106.0660    12.0570    12.5108
  493.4000   105.5462    12.0569    12.5110
  493.5000   104.7184    12.0567    12.5112
  493.6000   104.5034    12.0565    12.5113
  493.7000   104.2578    12.0563    12.5115
  493.8000   104.0122    12.0561    12.5117
  493.9000   103.8052    12.0560    12.5118
  494.0000   103.8052    12.0558    12.5120
  494.1000   103.8052    12.0556    12.4477
  494.2000   103.8052    12.0555    12.4252
  494.3000   103.9127    12.0553    12.4254
  494.4000   104.1096    12.0552    12.4255
  494.5000   104.1096    12.0550    12.4258
  494.6000   104.3450    12.0548    12.4260
  494.7000   104.5906    12.0547    12.4261
  494.8000   104.7184    12.0545    12.3928
  494.9000   104.7184    11.9907    12.3399
  495.0000   104.7184    11.9701    12.3401
  495.1000   104.9639    11.9699    12.2710
  495.2000   105.0228    11.9544    12.2545
  495.3000   104.8950    11.8862    12.2189
