~VERSION INFORMATION
 VERS.                2.0:   CWLS LOG ASCII STANDARD - VERSION 2.0
 WRAP.                 NO:   ONE LINE PER DEPTH STEP
~WELL INFORMATION
#MNEM.UNIT      DATA TYPE    INFORMATION
#----------   ------------   ------------------------------
 STRT.F          248.0000:   START DEPTH
 STOP.F         2495.0000:   STOP DEPTH
 STEP.F            0.5000:   STEP LENGTH
 NULL.          -999.2500:   NO VALUE
 COMP. FENIX & SCISSON INC:   COMPANY
 WELL.      85 SHX #28-28:   WELL
 FLD .             TEAPOT:   FIELD
 LOC .      S28 T39N R78W:   LOCATION
 CNTY.            NATRONA:   COUNTY
 STAT.            WYOMING:   STATE
 CTRY. UNITED STATES OF AMERICA:   COUNTRY
 SRVC.           BIRDWELL:   SERVICE COMPANY
 DATE.        18-AUG-1979:   LOGDATE
 API .       490251079700:   API NUMBER
~CURVE INFORMATION
#MNEM.UNIT       API CODE    CURVE DESCRIPTION
#----------   ------------   ------------------------------
 DEPT.F                  :   
 CALD.IN     45 280 60 00:   CALIPER
 CORR.G/C3   45 356 01 00:   DENSITY CORRECTION
 RHOB.G/C3   45 350 01 00:   BULK DENSITY
 DPHI.DEC    45 890 12 00:   DENSITY POROSITY SANDSTONE
 GRD .GAPI   45 310 01 00:   GAMMA RAY FROM DENSITY LOG
~PARAMETER INFORMATION
#MNEM.UNIT          VALUE    DESCRIPTION
#----------   ------------   ------------------------------
 PD  .                 GL:   PERMANENT DATUM
 EPD .F              5044:   ELEVATION PERMANENT DATUM
 LMF .                 DF:   LOG MEASURED FROM
 DMF .                 KB:   DRILLING MEASURED FROM
 EKB .F              5054:   KELLING BUSHING
 EDF .F              5052:   DRILLING FLOOR
 EGL .F              5044:   GROUND LEVEL
 DATE.            8-18-79:   RUN DATE
 RUN .                  1:   RUN NUMBER
 DD  .F              2500:   DEPTH DRILLER
 DL  .F              2495:   DEPTH LOGGER
 BLI .F              2495:   BOTTOM LOG INTERVAL
 CS  .IN            9.625:   CASING SIZE
 CBD .F               520:   CASING BOTTOM DRILLER
 CBL .F               505:   CASING BOTTOM LOGGER
 BS  .IN             8.75:   BIT SIZE
 BSD .F              2500:   BIT SIZE AT DEPTH
 DFT .                AIR:   DRILLING FLUID TYPE
 TCS .HRS               2:   TIME CURCULATED STOPPED
 ENGI.          B. MILLER:   RECORDING ENGINEER
 WITN.           DINSMORE:   WITNESSED BY
 CLNT.            A2DTECH:   CLIENT CODE
 ORIG.           5" PRINT:   ORIGIN OF DATA
 UWI .       490251079700:   UNIQUE WELL ID
 DICO. A2D Technologies, Inc.:   DIGITIZING COMPANY
~OTHER INFORMATION
~A   DEPT     CALD       CORR       RHOB       DPHI         GRD  
# ...
  492.0000  -999.2500  -999.2500  -999.2500  -999.2500    72.7175
  492.5000  -999.2500  -999.2500  -999.2500  -999.2500    73.6746
  493.0000  -999.2500  -999.2500  -999.2500  -999.2500    74.1875
  493.5000  -999.2500  -999.2500  -999.2500  -999.2500    73.3249
  494.0000  -999.2500  -999.2500  -999.2500  -999.2500    79.4001
  494.5000  -999.2500  -999.2500  -999.2500  -999.2500    85.3146
  495.0000  -999.2500  -999.2500  -999.2500  -999.2500    86.7708
  495.5000  -999.2500  -999.2500  -999.2500  -999.2500    88.6432
  496.0000  -999.2500  -999.2500  -999.2500  -999.2500    96.7196
  496.5000  -999.2500  -999.2500  -999.2500  -999.2500    97.0215
  497.0000  -999.2500  -999.2500  -999.2500  -999.2500    99.2601
  497.5000  -999.2500  -999.2500  -999.2500  -999.2500   100.9396
  498.0000  -999.2500  -999.2500  -999.2500  -999.2500   103.3851
  498.5000  -999.2500  -999.2500  -999.2500  -999.2500   104.6949
  499.0000  -999.2500  -999.2500  -999.2500  -999.2500   105.2533
  499.5000  -999.2500  -999.2500  -999.2500  -999.2500   107.3994
  500.0000  -999.2500  -999.2500  -999.2500  -999.2500   109.7016
  500.5000  -999.2500  -999.2500  -999.2500  -999.2500   110.0590
  501.0000  -999.2500  -999.2500  -999.2500  -999.2500   107.8407
  501.5000  -999.2500  -999.2500  -999.2500  -999.2500   106.3146
  502.0000  -999.2500  -999.2500  -999.2500  -999.2500   112.4292
  502.5000  -999.2500  -999.2500  -999.2500  -999.2500   116.4607
  503.0000  -999.2500  -999.2500  -999.2500  -999.2500   116.6632
  503.5000  -999.2500  -999.2500  -999.2500  -999.2500    99.1400
  504.0000  -999.2500  -999.2500  -999.2500  -999.2500    96.9222
  504.5000  -999.2500  -999.2500  -999.2500  -999.2500    96.6428
  505.0000     9.1799    -0.1434     2.4481     0.0459   100.3343
  505.5000     9.3759     0.1915     2.0561     0.1805   108.2435
  506.0000     9.7384     0.5019     2.0055     0.2986   153.5928
  506.5000    10.0302  -999.2500     2.1056     0.0039   167.9323
  507.0000    10.3906  -999.2500     2.5400     0.0349   182.3015
  507.5000    10.4680  -999.2500     2.4002     0.0819   182.6030
  508.0000    10.5893  -999.2500     2.3849     0.0932   173.1262
  508.5000    10.7344  -999.2500     2.4571     0.0584   168.9001
  509.0000    10.8792  -999.2500     2.3275     0.0996   174.1231
  509.5000    11.0240  -999.2500     2.2076     0.1666   179.4754
  510.0000    11.1688  -999.2500     2.1433     0.2215   179.4747
  510.5000    11.3139  -999.2500     2.1099     0.2430   178.2019
  511.0000    11.4696  -999.2500     2.1546     0.1762   174.8322
  511.5000    11.4541  -999.2500     2.3069     0.1031   166.7932
  512.0000    11.3889  -999.2500     2.4670     0.0463   158.8560
  512.5000    11.3649  -999.2500     2.4286     0.0724   149.7856
  513.0000    11.4186  -999.2500     2.4206     0.0728   138.6268
  513.5000    11.4674  -999.2500     2.5067     0.0104   133.5457
  514.0000    11.2916  -999.2500     2.6101    -0.0404   128.5302
  514.5000    11.1159  -999.2500     2.6590    -0.0626   125.1866
  515.0000    10.9409  -999.2500     2.6336    -0.0385   125.1643
  515.5000    10.7658  -999.2500     2.6123    -0.0618   130.4461
  516.0000    10.5924  -999.2500     2.6667    -0.0405   137.9238
  516.5000    10.5128     0.5019     2.6149    -0.0393   147.1118
  517.0000    10.4902     0.4899     2.5733     0.0105   156.2982
  517.5000    10.5251     0.3052     2.4857     0.0619   160.8146
  518.0000    10.5583     0.2694     2.3977     0.1077   161.9807
  518.5000    10.5915     0.3239     2.3369     0.1180   165.5299
  519.0000    10.6247     0.3302     2.3033     0.1532   167.3701
  519.5000    10.6580     0.3667     2.2741     0.1532   166.2098
  520.0000    10.6918     0.4338     2.3516     0.1010   164.3590
  520.5000    10.7285     0.4896     2.4408     0.0524   162.4997
  521.0000    10.6842     0.4947     2.5058     0.0225   160.6446
  521.5000    10.6048     0.3448     2.3805     0.0877   158.8012
  522.0000    10.5294     0.3626     2.3412     0.1195   158.3268
  522.5000    10.5289     0.3900     2.3856     0.0822   160.5477
  523.0000    10.5670     0.4186     2.4156     0.0759   161.3322
  523.5000    10.6059     0.4485     2.4164     0.0754   161.7200
  524.0000    10.5984     0.4985     2.4233     0.0712   163.0877
  524.5000    10.5741  -999.2500     2.4650     0.0440   158.5681
  525.0000    10.5414  -999.2500     2.5064     0.0167   153.6771
  525.5000    10.5275  -999.2500     2.5482    -0.0145   150.8154
  526.0000    10.5211  -999.2500     2.5775    -0.0110   153.3307
  526.5000    10.5159  -999.2500     2.5534     0.0021   159.0226
  527.0000    10.5105  -999.2500     2.5372     0.0055   164.7166
  527.5000    10.5078  -999.2500     2.5640    -0.0193   167.9500
  528.0000    10.5085  -999.2500     2.5826    -0.0182   167.8542
  528.5000    10.5236  -999.2500     2.5796    -0.0165   165.8451
  529.0000    10.5236  -999.2500     2.5629    -0.0013   163.8595
  529.5000    10.5062  -999.2500     2.5573    -0.0027   162.7414
  530.0000    10.4949  -999.2500     2.5529     0.0002   162.5616
  530.5000    10.4847  -999.2500     2.5408     0.0065   160.0768
  531.0000    10.4745  -999.2500     2.5282     0.0127   157.3433
  531.5000    10.4642  -999.2500     2.5157     0.0220   155.8223
  532.0000    10.4540  -999.2500     2.5055     0.0246   157.9727
  532.5000    10.4437  -999.2500     2.5124     0.0262   157.8638
  533.0000    10.4334  -999.2500     2.4868     0.0397   156.6660
  533.5000    10.4231  -999.2500     2.4733     0.0461   155.3877
  534.0000    10.4129  -999.2500     2.4616     0.0546   155.7241
  534.5000    10.4139     0.4516     2.4214     0.0696   159.7411
  535.0000    10.4473     0.4452     2.4312     0.0644   162.6025
  535.5000    10.4493     0.4160     2.4367     0.0661   159.9020
  536.0000    10.4191     0.3738     2.3988     0.0866   157.3643
  536.5000    10.3944     0.3474     2.3554     0.1108   157.2091
  537.0000    10.3734     0.3591     2.3610     0.1100   164.2601
  537.5000    10.4166     0.3935     2.3680     0.1018   169.1537
  538.0000    10.4706     0.4379     2.3903     0.0901   169.3980
  538.5000    10.5242     0.4956     2.4140     0.0771   170.4279
  539.0000    10.5781     0.4973     2.4379     0.0640   173.7949
  539.5000    10.6255     0.4971     2.4700     0.0439   170.9660
  540.0000    10.5943     0.4971     2.5066     0.0141   167.4227
  540.5000    10.5623     0.4985     2.5363     0.0071   163.8369
  541.0000    10.5306     0.4362     2.4982     0.0315   160.3088
  541.5000    10.4991     0.3593     2.4578     0.0542   160.0437
  542.0000    10.4675     0.3170     2.4180     0.0708   162.3235
  542.5000    10.4359     0.3282     2.4152     0.0788   165.2731
  543.0000    10.4044     0.3521     2.4255     0.0688   168.2137
  543.5000    10.3880     0.3582     2.4297     0.0752   168.7737
  544.0000    10.3871     0.3660     2.4094     0.0788   167.7594
  544.5000    10.3862     0.4159     2.4505     0.0518   163.8846
  545.0000    10.3854     0.4424     2.4857     0.0401   159.7013
  545.5000    10.3845     0.4519     2.4789     0.0367   159.1985
  546.0000    10.3836     0.4960     2.5200     0.0147   165.6908
  546.5000    10.3827     0.4975     2.5444     0.0046   168.4211
  547.0000    10.3818     0.4946     2.5284     0.0133   165.3287
  547.5000    10.3809     0.4933     2.5148     0.0207   161.5931
  548.0000    10.3800     0.4951     2.5208     0.0207   163.8479
  548.5000    10.3791     0.4831     2.5268     0.0131   167.8883
  549.0000    10.3783     0.4241     2.4868     0.0300   168.6512
  549.5000    10.3774     0.4119     2.4783     0.0411   165.6201
  550.0000    10.3765     0.3677     2.4801     0.0516   162.1394
  550.5000    10.3756     0.3290     2.4011     0.0823   161.3660
  551.0000    10.3747     0.3463     2.3813     0.0956   161.1229
  551.5000    10.3738     0.4212     2.4155     0.0752   160.9429
  552.0000    10.3729     0.4978     2.4601     0.0466   161.6287
  552.5000    10.3720     0.5001     2.5017     0.0203   163.9618
