~VERSION INFORMATION
 VERS.                2.0:   CWLS LOG ASCII STANDARD - VERSION 2.0
 WRAP.                 NO:   ONE LINE PER DEPTH STEP
~WELL INFORMATION
#MNEM.UNIT      DATA TYPE    INFORMATION
#----------   ------------   ------------------------------
 STRT.F            1.5000:   START DEPTH
 STOP.F          440.0000:   STOP DEPTH
 STEP.F            0.5000:   STEP LENGTH
 NULL.          -999.2500:   NO VALUE
 COMP.       F D SERV INC:   COMPANY
 WELL. NAVAL PETROLEUM RESERVE 3 SX-3 #78-2-3:   WELL
 FLD .             TEAPOT:   FIELD
 LOC .       S3 T38N R78W:   LOCATION
 CNTY.            NATRONA:   COUNTY
 STAT.            WYOMING:   STATE
 CTRY. UNITED STATES OF AMERICA:   COUNTRY
 SRVC.     Atlas Wireline:   SERVICE COMPANY
 DATE.        21-OCT-1992:   LOGDATE
 API .       490252255500:   API NUMBER
~CURVE INFORMATION
#MNEM.UNIT       API CODE    CURVE DESCRIPTION
#----------   ------------   ------------------------------
 DEPT.F                  :   
 GRR .GAPI   07 310 01 00:   GAMMA RAY
 RILD.OHMM   07 120 46 00:   INDUCTION LOG DEEP RESISTIVITY
 RILM.OHMM   07 120 44 00:   INDUCTION LOG MEDIUM RESISTIVITY
~PARAMETER INFORMATION
#MNEM.UNIT          VALUE    DESCRIPTION
#----------   ------------   ------------------------------
 PD  .                 GL:   PERMANENT DATUM
 EPD .F              5132:   ELEVATION PERMANENT DATUM
 LMF .                 KB:   LOG MEASURED FROM
 DAPD.F                10:   FEET ABOVE PERMANENT DATUM
 DMF .                 KB:   DRILLING MEASURED FROM
 EKB .F              5142:   KELLING BUSHING
 EDF .F              5141:   DRILLING FLOOR
 EGL .F              5132:   GROUND LEVEL
 DATE.        21-OCT-1992:   RUN DATE
 RUN .                  1:   RUN NUMBER
 DD  .F               445:   DEPTH DRILLER
 DL  .F               448:   DEPTH LOGGER
 BLI .F               440:   BOTTOM LOG INTERVAL
 CS  .IN            8.625:   CASING SIZE
 CBD .F                85:   CASING BOTTOM DRILLER
 CBL .F                98:   CASING BOTTOM LOGGER
 BS  .IN            7.875:   BIT SIZE
 BSD .F               445:   BIT SIZE AT DEPTH
 DFT .           AIR FOAM:   DRILLING FLUID TYPE
 TCS .HRS               2:   TIME CURCULATED STOPPED
 MRT .F                70:   MAXIMUM RECORDED TEMPERATURE
 LUN .            HL-6274:   LOGGING UNIT NUMBER
 LUL .             CASPER:   LOGGING UNIT LOCATION
 ENGI.             RAUTIO:   RECORDING ENGINEER
 WITN.        GARY STRONG:   WITNESSED BY
 CLNT.            A2DTECH:   CLIENT CODE
 ORIG.           5" PRINT:   ORIGIN OF DATA
 UWI .       490252255500:   UNIQUE WELL ID
 DICO. A2D Technologies, Inc.:   DIGITIZING COMPANY
~OTHER INFORMATION
~A    DEPT      GRR      RILD       RILM   
# ...
   92.5000    84.7210  -999.2500  -999.2500
   93.0000    90.5883  -999.2500  -999.2500
   93.5000    94.9840  -999.2500  -999.2500
   94.0000    92.8753  -999.2500  -999.2500
   94.5000    85.9400  -999.2500  -999.2500
   95.0000    86.5463  -999.2500  -999.2500
   95.5000    89.5658  -999.2500  -999.2500
   96.0000    94.9986  -999.2500  -999.2500
   96.5000    95.3031  -999.2500  -999.2500
   97.0000    93.7978  -999.2500  -999.2500
   97.5000   103.1528  -999.2500  -999.2500
   98.0000   115.5238  9903.0010  9901.1953
   98.5000   123.3698   115.3273   581.0721
   99.0000   127.2943     2.9369     4.0151
   99.5000   128.5039     2.0919     2.2282
  100.0000   128.8084     3.0408     4.5862
  100.5000   128.8114     4.3291     7.3164
  101.0000   128.8150     6.4248     8.2243
  101.5000   128.8179    11.6087    10.4884
  102.0000   129.4942    12.9324    18.1089
  102.5000   127.9261    11.3387    19.2482
  103.0000   128.8365     9.7224    18.6965
  103.5000   130.0475     9.0863    12.3216
  104.0000   130.3535     8.7171    11.8166
  104.5000   129.1502     8.6574    14.0509
  105.0000   126.4407     8.9013    14.8502
  105.5000   120.7136    10.0837    14.3388
  106.0000   112.8507    13.7717    13.0076
  106.5000   108.6559    14.6583    12.5605
  107.0000   108.3587    14.6532    12.5571
  107.5000   111.0790    13.7747    12.6550
  108.0000   118.9266    12.3308    12.5495
  108.5000   121.0425    11.8297    12.2026
  109.0000   121.6502    11.6676    12.1150
  109.5000   123.1629    11.7496    12.1969
  110.0000   125.3193    11.8321    12.1928
  110.5000   126.4910    11.7512    12.1895
  111.0000   127.0987    11.5866    12.1019
  111.5000   127.7064    11.4317    12.0039
  112.0000   127.4091    11.1974    11.8453
  112.5000   124.3969    11.1209    11.5981
  113.0000   122.8929    11.1218    11.4352
  113.5000   123.5691    10.9696    11.2745
  114.0000   124.4111    10.8944    11.1935
  114.5000   123.5101    10.8953    11.1905
  115.0000   118.6879    10.8986    11.1874
  115.5000   114.4651    11.1256    11.2705
  116.0000   113.5685    11.2817    11.5755
  116.5000   114.7806    11.3608    11.8161
  117.0000   114.4833    11.3615    12.2301
  117.5000   111.7727    11.4413    12.4841
  118.0000   106.0456    11.4420    12.1350
  118.5000   106.0499    11.4430    11.8033
  119.0000   109.0709    11.4438    11.4763
  119.5000   115.1850    11.2869    11.3939
  120.0000   116.0189    10.9795    11.1561
  120.5000   115.4200    10.7545    10.9233
  121.0000   116.0276    10.5340    10.7698
  121.5000   116.3337    10.3181    10.4721
  122.0000   117.5447    10.2410    10.2535
  122.5000   119.3590    10.1075    10.1093
  123.0000   118.7280    10.0383    10.0361
  123.5000   118.1611     9.8327     9.9640
  124.0000   118.4671     9.7655     9.9613
  124.5000   117.5676     9.7662     9.8898
  125.0000   116.9676     9.7668     9.6834
  125.5000   116.6703     9.7001     9.6808
  126.0000   118.1841     9.6285     9.6112
  126.5000   119.9985     9.5019     9.5421
  127.0000   120.0039     9.5027     9.6060
  127.5000   119.7055     9.3726     9.6028
  128.0000   119.1065     9.3084     9.5338
  128.5000   119.4137     9.3092     9.4653
  129.0000   122.1330     9.3744     9.4628
  129.5000   122.4390     9.3104     9.5926
  130.0000   120.9150     9.2468     9.5235
  130.5000   117.3206     9.3118     9.3897
  131.0000   116.4189     9.2481     9.3866
  131.5000   118.8377     9.1848     9.3840
  132.0000   119.4454     9.0593     9.3166
  132.5000   119.7514     8.9353     9.1857
  133.0000   122.1690     8.8741     9.0566
  133.5000   125.8356     8.7527     8.8063
  134.0000   128.2121     8.6266     8.5628
  134.5000   128.2164     8.2821     8.3155
  135.0000   127.3158     8.0009     7.9286
  135.5000   125.8119     7.8368     7.7631
  136.0000   125.2119     7.6762     7.7074
  136.5000   125.1830     7.6768     7.7595
  137.0000   124.9120     7.6244     7.7569
  137.5000   123.7683     7.6249     7.7548
  138.0000   119.4989     7.5728     7.6991
  138.5000   119.8060     7.6259     7.7506
  139.0000   121.0170     7.7867     7.8025
  139.5000   120.7187     7.8413     7.9089
  140.0000   122.2324     7.7877     7.9068
  140.5000   124.0488     7.7882     7.9046
  141.0000   123.7054     7.8429     8.0135
  141.5000   123.1505     7.8979     8.1233
  142.0000   124.9659     8.0642     8.1772
  142.5000   127.3836     8.1378     8.2892
  143.0000   127.6885     8.2348     8.2869
  143.5000   125.5824     8.2353     8.3424
  144.0000   124.6817     8.2931     8.4568
  144.5000   125.3278     8.4678     8.5721
  145.0000   125.8982     8.4683     8.6896
  145.5000   125.9026     8.4754     8.6872
  146.0000   126.8120     8.4695     8.5652
  146.5000   130.4362     8.2959     8.5629
  147.0000   131.3456     8.2966     8.5013
  147.5000   131.9533     8.2972     8.3234
  148.0000   131.9900     8.2404     8.2636
  148.5000   132.2648     8.1275     8.2042
  149.0000   132.5708     8.1282     8.2591
  149.5000   134.0835     8.0726     8.2569
  150.0000   135.5961     8.0732     8.2547
  150.5000   135.6005     8.0807     8.3099
  151.0000   134.6999     8.1870     8.3076
  151.5000   132.8421     8.2445     8.3049
  152.0000   130.4865     8.2450     8.3026
  152.5000   128.0776     8.2456     8.3004
  153.0000   126.2720     8.2461     8.2982
  153.5000   125.6720     8.2467     8.2959
  154.0000   127.1858     8.1338     8.2937
  154.5000   134.1283     8.0782     8.2915
  155.0000   133.1876     8.0789     8.1721
  155.5000   127.2000     8.0794     8.0600
  156.0000   125.6949     8.0241     8.0574
  156.5000   125.3977     7.8596     8.0000
  157.0000   123.8948     7.8603     7.9973
  157.5000   121.4859     7.8065     7.8850
  158.0000   121.1885     7.7532     7.8283
  158.5000   121.1931     7.7002     7.8262
  159.0000   121.1985     7.6477     7.8241
  159.5000   122.1078     7.5955     7.8141
  160.0000   122.4139     7.4915     7.6582
  160.5000   122.7188     7.2873     7.4465
  161.0000   120.3110     7.0398     7.1906
  161.5000   117.2988     6.4788     6.6142
  162.0000   116.6998     6.1301     6.3427
  162.5000   119.1679     6.0462     6.2103
  163.0000   127.5694     6.0049     6.0807
  163.5000   129.6854     6.0891     6.0790
  164.0000   129.3881     6.1318     6.1198
  164.5000   127.8842     6.1749     6.2036
  165.0000   125.4753     6.3049     6.4205
  165.5000   125.1780     6.4824     6.6918
  166.0000   126.0875     6.7113     6.9262
  166.5000   126.0928     6.9516     7.1193
  167.0000   123.6839     7.2436     7.2168
  167.5000   122.7822     7.3961     7.3667
  168.0000   126.1059     7.4480     7.4160
  168.5000   128.8252     7.5003     7.5176
  169.0000   128.5279     7.5008     7.5151
  169.5000   128.2306     7.5013     7.4611
  170.0000   129.7444     7.4500     7.4591
  170.5000   131.5587     7.4505     7.5095
  171.0000   129.4515     7.3997     7.4035
  171.5000   127.3442     7.2480     7.3470
  172.0000   126.1420     7.0995     7.1467
  172.5000   126.1463     7.0023     7.0953
  173.0000   126.4847     6.8587     6.9472
  173.5000   127.3628     6.6259     6.7552
  174.0000   127.6688     6.3127     6.4779
  174.5000   125.2599     5.9712     6.1264
  175.0000   125.8676     5.7171     5.7140
  175.5000   131.3019     5.3473     5.3997
  176.0000   134.6245     5.0946     5.1106
  176.5000   129.5933     5.0597     4.9691
  177.0000   121.0597     5.1663     5.0372
  177.5000   116.2375     5.2387     5.1066
  178.0000   115.3358     5.4614     5.2123
  178.5000   122.5811     5.6958     5.3205
  179.0000   124.6971     5.9830     5.5452
  179.5000   125.0031     6.3176     5.8612
  180.0000   125.0276     6.5406     6.1989
  180.5000   127.1245     6.6323     6.6823
  181.0000   132.8604     6.6789     6.9169
  181.5000   134.6748     6.8669     7.1092
  182.0000   133.7742     7.1093     7.2066
  182.5000   132.2702     7.3611     7.3059
  183.0000   131.0680     7.5226     7.5091
