~VERSION INFORMATION
 VERS.                2.0:   CWLS LOG ASCII STANDARD - VERSION 2.0
 WRAP.                 NO:   ONE LINE PER DEPTH STEP
~WELL INFORMATION
#MNEM.UNIT      DATA TYPE    INFORMATION
#----------   ------------   ------------------------------
 STRT.F           30.0000:   START DEPTH
 STOP.F          440.0000:   STOP DEPTH
 STEP.F            0.5000:   STEP LENGTH
 NULL.          -999.2500:   NO VALUE
 COMP. FENIX & SCISSON INC:   COMPANY
 WELL.    54 SX 10 #54-10:   WELL
 FLD .             TEAPOT:   FIELD
 LOC .      S10 T38N R78W:   LOCATION
 CNTY.            NATRONA:   COUNTY
 STAT.            WYOMING:   STATE
 CTRY. UNITED STATES OF AMERICA:   COUNTRY
 SRVC.            Unknown:   SERVICE COMPANY
 DATE.        10-NOV-1978:   LOGDATE
 API .       490251072800:   API NUMBER
~CURVE INFORMATION
#MNEM.UNIT       API CODE    CURVE DESCRIPTION
#----------   ------------   ------------------------------
 DEPT.F                  :   
 CALD.IN     45 280 60 00:   CALIPER
 GRD .GAPI   45 310 01 00:   GAMMA RAY FROM DENSITY LOG
 DPHI.DEC    45 890 12 00:   DENSITY POROSITY SANDSTONE
 RHOB.G/C3   45 350 01 00:   BULK DENSITY
 CORR.G/C3   45 356 01 00:   DENSITY CORRECTION
 SPR .MV     05 010 01 00:   SPONTANEOUS POTENTIAL FROM RES.
 ILD .OHMM   05 120 46 00:   INDUCTION LOG DEEP
 SN  .OHMM   05 040 16 00:   SHORT NORMAL 16"
~PARAMETER INFORMATION
#MNEM.UNIT          VALUE    DESCRIPTION
#----------   ------------   ------------------------------
 PD  .                 GL:   PERMANENT DATUM
 EPD .F              5196:   ELEVATION PERMANENT DATUM
 LMF .                 KB:   LOG MEASURED FROM
 DAPD.F                 4:   FEET ABOVE PERMANENT DATUM
 DMF .                 KB:   DRILLING MEASURED FROM
 EKB .F              5200:   KELLING BUSHING
 EGL .F              5196:   GROUND LEVEL
 DATE.           11-10-78:   RUN DATE
 RUN .                  1:   RUN NUMBER
 DD  .F               435:   DEPTH DRILLER
 DL  .F               442:   DEPTH LOGGER
 BLI .F               436:   BOTTOM LOG INTERVAL
 TLI .F                50:   TOP LOG INTERVAL
 CS  .IN            8.625:   CASING SIZE
 CBD .F                40:   CASING BOTTOM DRILLER
 CBL .F                50:   CASING BOTTOM LOGGER
 BS  .IN            7.875:   BIT SIZE
 BSD .F               435:   BIT SIZE AT DEPTH
 DFT .            SEA MUD:   DRILLING FLUID TYPE
 DFD .                8.7:   DRILLING FLUID DENSITY
 DFV .                 34:   DRILLING FLUID VISCOSITY
 DFPH.                 10:   DRILLING FLUID PH
 MSS .            MUD PIT:   MUD SAMPLE SOURCE
 RMS .OHMM             .4:   RESISTIVITY MUD SAMPLE
 MST .F                57:   MUD SAMPLE TEMPERATURE
 RMF .OHMM            .34:   RESISTIVITY MUD FILTRATE SAMPLE
 MFST.F                64:   MUD FILTRATE SAMPLE TEMPERATURE
 RMC .OHMM            .44:   RESISTIVITY MUD CAKE
 MCST.F                60:   MUD CAKE SAMPLE TEMPERATURE
 MFSS.            MUD PIT:   MUD FILTRATE SAMPLE SOURCE
 MCSS.            MUD PIT:   MUD CAKE SAMPLE SOURCE
 RMB .OHMM            .36:   RESISTIVITY MUD AT BHT
 BHT .F                72:   BOTTOM HOLE TEMPERATURE
 TCS .HRS               1:   TIME CURCULATED STOPPED
 MRT .F                70:   MAXIMUM RECORDED TEMPERATURE
 LUN .               3006:   LOGGING UNIT NUMBER
 LUL .               CASP:   LOGGING UNIT LOCATION
 ENGI.             MILLER:   RECORDING ENGINEER
 WITN.           DINSMORE:   WITNESSED BY
 CLNT.            A2DTECH:   CLIENT CODE
 ORIG.           5" PRINT:   ORIGIN OF DATA
 UWI .       490251072800:   UNIQUE WELL ID
 DICO. A2D Technologies, Inc.:   DIGITIZING COMPANY
~OTHER INFORMATION
~A   DEPT     CALD         GRD      DPHI       RHOB       CORR        SPR        ILD         SN   
# ...
  192.0000     7.9665   122.2118     0.1137     2.4798     0.0165   -38.9944     6.8062     7.7917
  192.5000     7.9646   122.5560     0.1135     2.4875     0.0164   -41.2984     7.0760     8.0793
  193.0000     7.9626   122.9117     0.1133     2.4952     0.0162   -45.3917     7.3564     8.3775
  193.5000     7.9606   123.4863     0.1151     2.4965     0.0160   -47.4932     7.5163     8.5438
  194.0000     7.9586   124.1237     0.1172     2.4944     0.0159   -49.1064     7.6095     8.5438
  194.5000     7.9566   123.8285     0.1193     2.4894     0.0169   -49.8747     7.7329     8.5438
  195.0000     7.9546   121.9757     0.1190     2.4847     0.0178   -50.2794     7.7324     8.5438
  195.5000     7.9527   122.0130     0.1174     2.4846     0.0187   -50.7075     7.6571     8.5002
  196.0000     7.9506   122.0866     0.1159     2.4859     0.0196   -50.1986     7.5548     8.3705
  196.5000     7.9440   122.4026     0.1155     2.4887     0.0206   -49.3902     7.4541     8.2424
  197.0000     7.9263   124.3442     0.1153     2.4916     0.0215   -48.5750     7.3548     8.1163
  197.5000     7.9086   125.6559     0.1151     2.4927     0.0224   -47.7631     7.2567     7.9922
  198.0000     7.8906   126.2463     0.1148     2.4933     0.0233   -46.9390     7.1600     7.8700
  198.5000     7.8895   126.8669     0.1146     2.4939     0.0214   -46.4355     7.0760     7.7497
  199.0000     7.8896   125.4962     0.1164     2.4945     0.0199   -45.9262     6.9994     7.6313
  199.5000     7.8897   123.4168     0.1189     2.4951     0.0184   -45.6565     6.9237     7.5239
  200.0000     7.8897   121.3096     0.1216     2.4946     0.0169   -45.5938     6.7733     7.3450
  200.5000     7.8897   119.1302     0.1269     2.4905     0.0154   -45.5313     6.4526     7.1833
  201.0000     7.8897   117.7594     0.1389     2.4797     0.0139   -45.4971     6.1470     7.0251
  201.5000     7.8897   117.3192     0.1509     2.4620     0.0123   -44.1613     5.8559     6.8704
  202.0000     7.8897   117.5718     0.1629     2.4445     0.0124   -42.4556     5.5787     6.6452
  202.5000     7.8897   118.2641     0.1749     2.4269     0.0131   -40.7384     5.4260     6.3793
  203.0000     7.8897   118.4746     0.1857     2.4093     0.0140   -39.1455     5.4630     6.1240
  203.5000     7.8896   118.5453     0.1788     2.3920     0.0211   -38.8029     5.5452     5.9959
  204.0000     7.8896   118.6173     0.1660     2.3822     0.0287   -39.9722     5.6287     6.1990
  204.5000     7.8920   118.3892     0.1531     2.4033     0.0318   -40.8805     5.7133     6.6176
  205.0000     7.9114   118.0578     0.1403     2.4204     0.0255   -40.3287     5.7993     7.0644
  205.5000     7.9310   117.7019     0.1292     2.4375     0.0194   -39.7985     5.9707     7.5414
  206.0000     7.9506   118.1926     0.1276     2.4546     0.0132   -39.2720     6.3966     8.0506
  206.5000     7.9701   118.9535     0.1260     2.4697     0.0116   -38.7481     6.8528     8.5942
  207.0000     7.9896   119.6398     0.1244     2.4730     0.0111   -38.2521     7.3416     8.7919
  207.5000     8.0091   119.6224     0.1228     2.4747     0.0106   -37.1946     7.8042     8.8060
  208.0000     8.0287   119.6303     0.1212     2.4760     0.0102   -36.1075     7.8204     8.8211
  208.5000     8.0482   120.3052     0.1195     2.4773     0.0097   -35.1401     7.8385     8.8364
  209.0000     8.0679   122.5089     0.1182     2.4787     0.0092   -34.8924     7.8552     8.8519
  209.5000     8.0875   123.6150     0.1165     2.4832     0.0088   -34.6274     7.8723     8.8674
  210.0000     8.0850   123.7652     0.1162     2.4879     0.0083   -34.3613     7.8894     8.8829
  210.5000     8.0811   123.7185     0.1159     2.4897     0.0080   -34.2204     7.9065     8.8985
  211.0000     8.0772   123.6669     0.1155     2.4900     0.0082   -34.2208     7.9237     8.9141
  211.5000     8.0734   123.6254     0.1153     2.4903     0.0084   -34.2163     7.9453     8.9297
  212.0000     8.0695   122.7291     0.1153     2.4909     0.0087   -34.2029     7.9353     8.9453
  212.5000     8.0657   121.1457     0.1153     2.4927     0.0089   -34.1894     7.9174     8.9610
  213.0000     8.0619   119.5647     0.1153     2.4945     0.0091   -34.1758     7.8996     8.9767
  213.5000     8.0581   118.2061     0.1172     2.4964     0.0093   -34.1623     7.8819     8.9923
  214.0000     8.0542   119.1509     0.1257     2.4937     0.0095   -34.1488     7.8642     9.0084
  214.5000     8.0503   121.8687     0.1243     2.4864     0.0098   -34.1353     7.8465     9.0222
  215.0000     8.0552   124.6125     0.1214     2.4773     0.0107   -34.1218     7.8289     8.9558
  215.5000     8.0666   125.8054     0.1193     2.4782     0.0140   -34.1082     7.8113     8.8962
  216.0000     8.0781   126.6331     0.1188     2.4831     0.0171   -34.0947     7.7937     8.8371
  216.5000     8.0896   126.9322     0.1183     2.4851     0.0203   -34.0812     7.7762     8.7797
  217.0000     8.1009   126.8636     0.1173     2.4859     0.0228   -34.0677     7.7588     8.7491
  217.5000     8.1016   126.7634     0.1144     2.4866     0.0247   -34.0540     7.7413     8.7193
  218.0000     8.0823   128.0773     0.1113     2.4909     0.0266   -34.0402     7.7239     8.6896
  218.5000     8.0634   129.7474     0.1085     2.4956     0.0293   -34.0205     7.7066     8.6600
  219.0000     8.0444   131.4541     0.1088     2.5004     0.0255   -34.2943     7.6893     8.6304
  219.5000     8.0278   131.1027     0.1108     2.5043     0.0206   -34.6572     7.6720     8.6011
  220.0000     8.0244   129.3163     0.1128     2.5022     0.0158   -35.0218     7.6023     8.5724
  220.5000     8.0208   128.8160     0.1175     2.4992     0.0111   -35.3859     7.4585     8.5431
  221.0000     8.0171   128.6228     0.1231     2.4898     0.0079   -35.7502     7.3174     8.3845
  221.5000     8.0135   127.4128     0.1288     2.4804     0.0066   -36.1175     7.1790     8.2338
  222.0000     8.0102   128.3992     0.1322     2.4709     0.0052   -36.4820     7.0606     8.0862
  222.5000     7.9873   129.9055     0.1316     2.4658     0.0040   -36.6333     7.0877     7.9415
  223.0000     7.9599   130.4397     0.1310     2.4642     0.0047   -35.5145     7.1245     7.7993
  223.5000     7.9323   126.3203     0.1317     2.4650     0.0052   -34.3737     7.1616     7.6618
  224.0000     7.9048   125.8571     0.1363     2.4655     0.0058   -35.1992     7.1900     7.5925
  224.5000     7.8772   125.5485     0.1410     2.4596     0.0059   -36.3979     6.8484     7.6690
  225.0000     7.8507   124.1096     0.1456     2.4534     0.0094   -37.5985     6.5361     7.7229
  225.5000     7.8497   120.8015     0.1475     2.4472     0.0138   -38.8019     6.2177     7.8022
  226.0000     7.8499   119.3419     0.1476     2.4409     0.0182   -39.1496     6.1063     7.5930
  226.5000     7.8500   121.5674     0.1413     2.4398     0.0196   -38.8274     5.9418     7.2208
  227.0000     7.8495   124.4684     0.1337     2.4396     0.0182   -38.9583     5.9733     6.8708
  227.5000     7.8370   126.8881     0.1316     2.4517     0.0169   -41.1778     6.0266     6.8708
  228.0000     7.8241   126.2309     0.1307     2.4632     0.0155   -42.2133     6.0804     7.0348
  228.5000     7.8112   124.3572     0.1294     2.4643     0.0141   -43.0377     6.1347     7.2948
  229.0000     7.7984   122.5027     0.1270     2.4654     0.0156   -43.7901     6.2724     7.5646
  229.5000     7.7855   120.6428     0.1246     2.4699     0.0182   -49.3356     6.4959     7.8444
  230.0000     7.7723   118.8287     0.1230     2.4750     0.0209   -54.2679     6.7273     8.1342
  230.5000     7.7778   117.5636     0.1235     2.4796     0.0235   -54.9970     6.9670     8.3142
  231.0000     7.7868   117.0260     0.1240     2.4802     0.0231   -55.3462     7.2151     8.1798
  231.5000     7.7959   117.5025     0.1265     2.4800     0.0220   -55.3356     7.4559     8.0852
  232.0000     7.8050   117.9584     0.1318     2.4753     0.0208   -55.2157     7.0953     7.9912
