~VERSION INFORMATION
 VERS.                2.0:   CWLS LOG ASCII STANDARD - VERSION 2.0
 WRAP.                 NO:   ONE LINE PER DEPTH STEP
~WELL INFORMATION
#MNEM.UNIT      DATA TYPE    INFORMATION
#----------   ------------   ------------------------------
 STRT.F           39.5000:   START DEPTH
 STOP.F          591.0000:   STOP DEPTH
 STEP.F            0.5000:   STEP LENGTH
 NULL.          -999.2500:   NO VALUE
 COMP. FENIX & SCISSON INC:   COMPANY
 WELL.      26 SX 3 #26-3:   WELL
 FLD .             TEAPOT:   FIELD
 LOC .       S3 T38N R78W:   LOCATION
 CNTY.            NATRONA:   COUNTY
 STAT.            WYOMING:   STATE
 CTRY. UNITED STATES OF AMERICA:   COUNTRY
 SRVC.           BIRDWELL:   SERVICE COMPANY
 DATE.        01-OCT-1978:   LOGDATE
 API .       490251071500:   API NUMBER
~CURVE INFORMATION
#MNEM.UNIT       API CODE    CURVE DESCRIPTION
#----------   ------------   ------------------------------
 DEPT.F                  :   
 SPR .MV     05 010 01 00:   SPONTANEOUS POTENTIAL FROM RES.
 SN  .OHMM   05 040 16 00:   SHORT NORMAL 16"
 ILD .OHMM   05 120 46 00:   INDUCTION LOG DEEP
 RHOB.G/C3   45 350 01 00:   BULK DENSITY
 CORR.G/C3   45 356 01 00:   DENSITY CORRECTION
 DPHI.DEC    45 890 12 00:   DENSITY POROSITY SANDSTONE
 GRD .GAPI   45 310 01 00:   GAMMA RAY FROM DENSITY LOG
 CALD.IN     45 280 60 00:   CALIPER
~PARAMETER INFORMATION
#MNEM.UNIT          VALUE    DESCRIPTION
#----------   ------------   ------------------------------
 PD  .                 GL:   PERMANENT DATUM
 EPD .F              5225:   ELEVATION PERMANENT DATUM
 LMF .                 KB:   LOG MEASURED FROM
 DAPD.F                 4:   FEET ABOVE PERMANENT DATUM
 DMF .                 KB:   DRILLING MEASURED FROM
 EKB .F              5229:   KELLING BUSHING
 EGL .F              5225:   GROUND LEVEL
 DATE.            10-1-78:   RUN DATE
 RUN .                  1:   RUN NUMBER
 DD  .F               600:   DEPTH DRILLER
 DL  .F               597:   DEPTH LOGGER
 BLI .F               591:   BOTTOM LOG INTERVAL
 TLI .F                60:   TOP LOG INTERVAL
 CS  .IN            8.625:   CASING SIZE
 CBD .F                40:   CASING BOTTOM DRILLER
 BS  .IN            7.875:   BIT SIZE
 BSD .F               600:   BIT SIZE AT DEPTH
 DFT .                KCL:   DRILLING FLUID TYPE
 DFD .                8.7:   DRILLING FLUID DENSITY
 DFV .                 34:   DRILLING FLUID VISCOSITY
 DFPH.                  9:   DRILLING FLUID PH
 DFL .                 10:   DRILLING FLUID LOSS
 MSS .            MUD PIT:   MUD SAMPLE SOURCE
 RMS .OHMM            .24:   RESISTIVITY MUD SAMPLE
 MST .F                65:   MUD SAMPLE TEMPERATURE
 RMF .OHMM            .45:   RESISTIVITY MUD FILTRATE SAMPLE
 MFST.F                65:   MUD FILTRATE SAMPLE TEMPERATURE
 RMC .OHMM             .4:   RESISTIVITY MUD CAKE
 MCST.F                65:   MUD CAKE SAMPLE TEMPERATURE
 MFSS.               MEAS:   MUD FILTRATE SAMPLE SOURCE
 TCS .HRS               3:   TIME CURCULATED STOPPED
 LUN .               2958:   LOGGING UNIT NUMBER
 LUL .               CASP:   LOGGING UNIT LOCATION
 ENGI.             MILLER:   RECORDING ENGINEER
 WITN.           DINSMORE:   WITNESSED BY
 CLNT.            A2DTECH:   CLIENT CODE
 ORIG.       2", 5" PRINT:   ORIGIN OF DATA
 UWI .       490251071500:   UNIQUE WELL ID
 DICO. A2D Technologies, Inc.:   DIGITIZING COMPANY
~OTHER INFORMATION
~A   DEPT      SPR         SN        ILD       RHOB       CORR       DPHI        GRD         CALD 
# ...
  201.5000    -9.4846     9.2477    11.0105     2.4808     0.0090     0.1172   130.9028     7.5148
  202.0000    -9.4997     9.2477    10.8586     2.4817     0.0081     0.1162   131.7498     7.5132
  202.5000    -9.6763     9.2477    10.6933     2.4826     0.0071     0.1173   132.6082     7.5116
  203.0000    -9.8552     9.2477    10.5164     2.4816     0.0061     0.1233   132.7565     7.5100
  203.5000   -10.0335     9.2477    10.4919     2.4735     0.0052     0.1305   132.3504     7.5084
  204.0000   -10.2117     9.2477    10.4651     2.4639     0.0075     0.1377   130.9122     7.5068
  204.5000   -10.3899     9.2475    10.4384     2.4544     0.0139     0.1398   129.8776     7.5048
  205.0000   -10.5681     9.2306    10.4118     2.4466     0.0202     0.1355   130.0694     7.5151
  205.5000   -10.7464     9.1981    10.3852     2.4446     0.0238     0.1279   131.2368     7.5384
  206.0000   -10.9246     9.1657    10.3587     2.4576     0.0178     0.1226   137.1971     7.6066
  206.5000   -11.1029     9.1333    10.3322     2.4723     0.0156     0.1303   137.6570     7.6437
  207.0000   -11.2815     9.1010    10.3059     2.4740     0.0136     0.1391   135.3411     7.6444
  207.5000   -11.4589     9.0689    10.2796     2.4538     0.0178     0.1422   131.8567     7.6630
  208.0000   -11.5435     9.0368    10.2533     2.4442     0.0274     0.1363   130.2528     7.6812
  208.5000   -11.6156     9.0049    10.2272     2.4494     0.0370     0.1280   130.6247     7.6832
  209.0000   -11.5703     8.9693    10.2010     2.4571     0.0466     0.1233   130.3602     7.6832
  209.5000   -10.5866     8.9324    10.1750     2.4647     0.0484     0.1245   129.5296     7.6832
  210.0000    -9.8785     8.8957    10.1490     2.4703     0.0498     0.1273   128.7464     7.6832
  210.5000    -9.9298     8.8591    10.1231     2.4650     0.0536     0.1300   128.4348     7.6832
  211.0000    -9.9690     8.8227    10.0973     2.4601     0.0686     0.1313   128.3678     7.6833
  211.5000   -10.0081     8.7864    10.0715     2.4591     0.0835     0.1321   128.8124     7.6831
  212.0000   -10.0469     8.7503    10.0458     2.4583     0.0994     0.1329   129.2484     7.6673
  212.5000   -10.0857     8.7143    10.0202     2.4574     0.1159     0.1338   129.8330     7.6250
  213.0000   -10.1244     8.6785     9.9946     2.4553     0.1325     0.1293   131.0359     7.6825
  213.5000   -10.1632     8.6428     9.9691     2.4516     0.1490     0.1187   134.8719     7.6758
  214.0000   -10.2019     8.6072     9.9379     2.4671     0.1514     0.1081   137.6427     7.6432
  214.5000   -10.2407     8.5718     9.8964     2.4892     0.1335     0.0990   137.0072     7.6455
  215.0000   -10.2794     8.5366     9.8157     2.5061     0.1092     0.1034   135.6223     7.6470
  215.5000   -10.3182     8.4437     9.5325     2.5113     0.0844     0.1146   134.1327     7.6486
  216.0000   -10.3570     8.2517     9.2477     2.4965     0.0665     0.1297   133.7791     7.6501
  216.5000   -10.3957     8.0640     9.1944     2.4767     0.0667     0.1397   135.0474     7.6516
  217.0000   -10.4345     7.8807     9.1394     2.4569     0.0770     0.1367   137.6522     7.6532
  217.5000   -10.4732     7.6962     9.0847     2.4402     0.0784     0.1272   141.1079     7.6547
  218.0000   -10.5120     7.7392     9.0303     2.4566     0.0777     0.1176   140.4576     7.6563
  218.5000   -10.5507     7.7839     8.9609     2.4780     0.0770     0.1138   136.8442     7.6578
  219.0000   -10.5894     7.8287     8.8662     2.4861     0.0762     0.1131   137.3206     7.6593
  219.5000   -10.6281     7.8739     8.7520     2.4880     0.0754     0.1183   140.1982     7.6608
  220.0000   -10.6643     7.9193     8.8571     2.4849     0.0756     0.1247   140.6416     7.6626
  220.5000   -10.8456     7.9650     8.9940     2.4753     0.0889     0.1302   137.8524     7.6780
  221.0000   -11.0824     8.0109     9.0794     2.4660     0.1023     0.1260   135.5531     7.7170
  221.5000   -11.3201     8.0571     9.0794     2.4656     0.1118     0.1213   134.9429     7.7559
  222.0000   -11.5579     8.1036     9.0875     2.4710     0.1053     0.1165   135.8706     7.7635
  222.5000   -11.6852     8.1503     9.0978     2.4782     0.0900     0.1133   137.3292     7.7648
  223.0000   -11.7020     8.1973     9.1081     2.4853     0.0745     0.1128   138.8152     7.7659
  223.5000   -11.7191     8.2110     9.1184     2.4892     0.0636     0.1176   139.3546     7.7672
  224.0000   -11.7359     8.2159     9.1287     2.4838     0.0624     0.1262   139.4482     7.7684
  224.5000   -11.7528     8.2208     9.1391     2.4689     0.0782     0.1185   139.6398     7.7697
  225.0000   -11.7697     8.2257     9.1494     2.4673     0.0820     0.1085   140.8659     7.7709
  225.5000   -11.7866     8.2306     9.1598     2.4920     0.0781     0.0986   144.0542     7.7722
  226.0000   -11.8035     8.2356     9.1701     2.5088     0.0540     0.0942   147.1248     7.7734
  226.5000   -11.8204     8.2405     9.1805     2.5147     0.0287     0.0904   149.6005     7.7747
  227.0000   -11.8373     8.2454     9.1909     2.5202     0.0207     0.0871   150.6572     7.7759
  227.5000   -11.8543     8.2503     9.2013     2.5246     0.0131     0.0870   151.0579     7.7772
  228.0000   -11.8712     8.2553     9.2117     2.5284     0.0130     0.0946   149.0181     7.7784
  228.5000   -11.8881     8.2602     9.2221     2.5319     0.0130     0.1029   146.3097     7.7797
  229.0000   -11.9050     8.2651     9.2326     2.5204     0.0130     0.1099   145.4016     7.7809
  229.5000   -11.9219     8.2701     9.2430     2.4989     0.0130     0.1151   144.5823     7.7825
  230.0000   -11.9388     8.2750     9.2535     2.4865     0.0130     0.1180   143.1981     7.7942
  230.5000   -11.9558     8.2798     9.2640     2.4812     0.0130     0.1211   141.7008     7.8063
  231.0000   -11.9727     8.2821     9.2745     2.4761     0.0130     0.1242   141.7236     7.8184
  231.5000   -11.9896     8.2596     9.2850     2.4722     0.0130     0.1214   142.7318     7.8304
  232.0000   -12.0065     8.2434     9.2955     2.4738     0.0130     0.1186   143.6344     7.8414
  232.5000   -12.0234     8.2271     9.3060     2.4761     0.0130     0.1210   142.9908     7.8417
  233.0000   -12.0402     8.2109     9.3165     2.4769     0.0130     0.1234   141.3196     7.8416
  233.5000   -12.0568     8.1947     9.3270     2.4713     0.0168     0.1278   140.7204     7.8416
  234.0000   -12.0746     8.1786     9.3340     2.4657     0.0276     0.1282   141.2501     7.8416
  234.5000   -12.1782     8.1625     9.2342     2.4656     0.0408     0.1219   144.9470     7.8416
  235.0000   -12.2924     8.1464     9.1548     2.4716     0.0529     0.1145   150.6362     7.8416
  235.5000   -12.4066     8.1304     9.0794     2.4859     0.0531     0.1071   151.7255     7.8416
  236.0000   -12.5207     8.1143     9.0290     2.4985     0.0532     0.1031   150.9729     7.8416
  236.5000   -12.6348     8.0984     8.9808     2.5053     0.0432     0.1067   149.6621     7.8416
  237.0000   -12.7493     8.0823     8.9329     2.5017     0.0297     0.1112   148.9882     7.8416
  237.5000   -12.8623     8.0676     8.8852     2.4915     0.0323     0.1142   148.0159     7.8416
  238.0000   -12.8780     7.9830     8.8378     2.4884     0.0253     0.1088   145.2802     7.8385
  238.5000   -12.8826     7.9442     8.7907     2.4971     0.0152     0.1089   144.0438     7.8214
  239.0000   -12.8872     7.9065     8.7438     2.4958     0.0059     0.1106   140.9578     7.8047
  239.5000   -12.8920     7.8690     8.6971     2.4922     0.0009     0.1128   140.1370     7.7880
  240.0000   -12.8968     7.8317     8.6720     2.4871    -0.0007     0.1150   140.2031     7.7714
  240.5000   -12.9016     7.7941     8.6330     2.4827     0.0001     0.1172   140.8985     7.7663
  241.0000   -12.9065     7.7423     8.4853     2.4822     0.0009     0.1195   141.5735     7.7749
  241.5000   -12.9113     7.6450     8.3402     2.4786     0.0017     0.1226   142.2333     7.7834
