~VERSION INFORMATION
 VERS.                2.0:   CWLS LOG ASCII STANDARD - VERSION 2.0
 WRAP.                 NO:   ONE LINE PER DEPTH STEP
~WELL INFORMATION
#MNEM.UNIT      DATA TYPE    INFORMATION
#----------   ------------   ------------------------------
 STRT.F            0.0000:   START DEPTH
 STOP.F          530.0000:   STOP DEPTH
 STEP.F            0.5000:   STEP LENGTH
 NULL.          -999.2500:   NO VALUE
 COMP. FENIX & SCISSON INC:   COMPANY
 WELL.      74 SX 3 #74-3:   WELL
 FLD .             TEAPOT:   FIELD
 LOC .       S3 T38N R78W:   LOCATION
 CNTY.            NATRONA:   COUNTY
 STAT.            WYOMING:   STATE
 CTRY. UNITED STATES OF AMERICA:   COUNTRY
 SRVC.            Unknown:   SERVICE COMPANY
 DATE.        20-SEP-1978:   LOGDATE
 API .       490251072200:   API NUMBER
~CURVE INFORMATION
#MNEM.UNIT       API CODE    CURVE DESCRIPTION
#----------   ------------   ------------------------------
 DEPT.F                  :   
 CALD.IN     45 280 60 00:   CALIPER
 GRD .GAPI   45 310 01 00:   GAMMA RAY FROM DENSITY LOG
 RHOB.G/C3   45 350 01 00:   BULK DENSITY
 DPHI.DEC    45 890 12 00:   DENSITY POROSITY SANDSTONE
 CORR.G/C3   45 356 01 00:   DENSITY CORRECTION
 SPR .MV     05 010 01 00:   SPONTANEOUS POTENTIAL FROM RES.
 SN  .OHMM   05 040 16 00:   SHORT NORMAL 16"
 ILD .OHMM   05 120 46 00:   INDUCTION LOG DEEP
~PARAMETER INFORMATION
#MNEM.UNIT          VALUE    DESCRIPTION
#----------   ------------   ------------------------------
 PD  .                 GL:   PERMANENT DATUM
 EPD .F              5139:   ELEVATION PERMANENT DATUM
 LMF .                 KB:   LOG MEASURED FROM
 DAPD.F                 4:   FEET ABOVE PERMANENT DATUM
 DMF .                 KB:   DRILLING MEASURED FROM
 EKB .F              5143:   KELLING BUSHING
 EGL .F              5139:   GROUND LEVEL
 DATE.            9-20-78:   RUN DATE
 RUN .                  1:   RUN NUMBER
 DD  .F               532:   DEPTH DRILLER
 DL  .F               530:   DEPTH LOGGER
 BLI .F               524:   BOTTOM LOG INTERVAL
 TLI .F                40:   TOP LOG INTERVAL
 CS  .IN            8.625:   CASING SIZE
 CBD .F                40:   CASING BOTTOM DRILLER
 CBL .F                40:   CASING BOTTOM LOGGER
 BS  .IN            7.875:   BIT SIZE
 BSD .F               532:   BIT SIZE AT DEPTH
 DFT .                KCL:   DRILLING FLUID TYPE
 DFD .                8.8:   DRILLING FLUID DENSITY
 DFV .                 38:   DRILLING FLUID VISCOSITY
 DFPH.                  9:   DRILLING FLUID PH
 DFL .                6.2:   DRILLING FLUID LOSS
 MSS .                PIT:   MUD SAMPLE SOURCE
 BHT .F                69:   BOTTOM HOLE TEMPERATURE
 TCS .HRS               3:   TIME CURCULATED STOPPED
 MRT .F                69:   MAXIMUM RECORDED TEMPERATURE
 LUN .               2958:   LOGGING UNIT NUMBER
 LUL .             CASPER:   LOGGING UNIT LOCATION
 ENGI.           REYNOLDS:   RECORDING ENGINEER
 WITN.           DINSMORE:   WITNESSED BY
 CLNT.            A2DTECH:   CLIENT CODE
 ORIG.       2", 5" PRINT:   ORIGIN OF DATA
 UWI .       490251072200:   UNIQUE WELL ID
 DICO. A2D Technologies, Inc.:   DIGITIZING COMPANY
~OTHER INFORMATION
~A    DEPT    CALD         GRD      RHOB       DPHI       CORR        SPR         SN        ILD   
# ...
   81.0000     7.4916    75.4441     2.4836     0.1131     0.1587   -43.0679     9.4443     8.9827
   81.5000     7.5546    77.0895     2.4897     0.1065     0.1609   -42.9899     9.5619     9.1008
   82.0000     7.5489    77.4446     2.4961     0.1005     0.1629   -42.8214     9.6811     9.2204
   82.5000     7.4932    76.7684     2.5026     0.0945     0.1621   -42.6541     9.7897     9.3419
   83.0000     7.5713    76.1624     2.5105     0.0885     0.1594   -42.4863     9.8243     9.4637
   83.5000     7.4712    74.4722     2.5192     0.0825     0.1514   -42.3185     9.8589     9.5184
   84.0000     7.6524    72.6872     2.5280     0.0795     0.1432   -42.1506     9.8937     9.5222
   84.5000     7.4035    70.9121     2.5366     0.0875     0.1284   -41.9824     9.9286     9.5321
   85.0000     7.5310    69.9647     2.5422     0.0970     0.1007   -41.8152     9.9636     9.5420
   85.5000     7.6308    69.8721     2.5198     0.1064     0.0746   -41.6885     9.9987     9.5519
   86.0000     7.6186    70.7710     2.5015     0.1115     0.0570   -41.7382    10.0340     9.5618
   86.5000     7.6094    71.9620     2.4907     0.1159     0.0478   -41.7844    10.0694     9.5718
   87.0000     7.5921    73.1408     2.4838     0.1204     0.0437   -41.8287    10.1049     9.5817
   87.5000     7.5757    74.0587     2.4803     0.1248     0.0416   -41.8661    10.1405     9.5918
   88.0000     7.4759    73.7458     2.4769     0.1292     0.0394   -42.2781    10.1763     9.6017
   88.5000     7.4603    72.8267     2.4681     0.1337     0.0372   -42.6549    10.2122     9.6334
   89.0000     7.5327    71.5506     2.4591     0.1347     0.0372   -42.3964    10.2482     9.6850
   89.5000     7.5913    69.8981     2.4557     0.1332     0.0414   -42.1465    10.2844     9.7369
   90.0000     7.5901    67.8740     2.4575     0.1298     0.0460   -41.4134    10.3206     9.7891
   90.5000     7.5903    66.6414     2.4619     0.1248     0.0506   -40.6633    10.3571     9.8416
   91.0000     7.5685    68.0559     2.4678     0.1196     0.0552   -40.6062    10.3935     9.8943
   91.5000     7.5326    70.3045     2.4749     0.1157     0.0572   -40.5351    10.4364     9.9668
   92.0000     7.6278    71.4004     2.4820     0.1120     0.0567   -40.4097    10.3897     9.9123
   92.5000     7.6353    72.4605     2.4867     0.1108     0.0535   -40.2076    10.3338     9.8268
   93.0000     7.5567    74.3768     2.4880     0.1096     0.0504   -40.0079    10.2782     9.7420
   93.5000     7.5384    76.3562     2.4880     0.1095     0.0471   -39.9567    10.2229     9.6580
   94.0000     7.5002    82.7125     2.4880     0.1129     0.0418   -40.0765    10.1513     9.5747
   94.5000     7.6456    88.6009     2.4864     0.1164     0.0363   -40.1944    10.1651     9.5184
   95.0000     7.5162    90.9269     2.4827     0.1199     0.0317   -40.2926    10.2054     9.6026
   95.5000     7.4792    91.3170     2.4772     0.1233     0.0284   -40.2317    10.2462     9.6670
   96.0000     7.5363    90.5180     2.4717     0.1263     0.0247   -40.1728    10.2871     9.7318
   96.5000     7.4905    89.4505     2.4662     0.1287     0.0212   -40.1144    10.3281     9.7971
   97.0000     7.5261    86.8380     2.4606     0.1305     0.0222   -40.0561    10.3693     9.8755
   97.5000     7.5515    81.7593     2.4599     0.1305     0.0233   -39.9978    10.4107     9.8631
   98.0000     7.4731    80.7070     2.4604     0.1268     0.0284   -39.9394    10.4522     9.8479
   98.5000     7.4808    81.3165     2.4630     0.1224     0.0335   -39.8811    10.4939     9.8326
   99.0000     7.5375    82.5908     2.4678     0.1181     0.0386   -39.8228    10.5330     9.8174
   99.5000     7.4839    83.9793     2.4759     0.1137     0.0437   -39.7645    10.4198     9.8022
  100.0000     7.4940    85.4463     2.4839     0.1094     0.0446   -39.7062    10.3148     9.7870
  100.5000     7.4995    85.6317     2.4920     0.1050     0.0439   -39.6478    10.2109     9.7718
  101.0000     7.5486    85.4064     2.4984     0.1018     0.0432   -39.5895    10.0590     9.7567
  101.5000     7.4740    85.1564     2.5038     0.0998     0.0426   -39.5312    10.0752     9.7416
  102.0000     7.8047    85.2438     2.5058     0.0988     0.0376   -39.4729    10.1064     9.7265
  102.5000     7.5089    85.4789     2.5054     0.1016     0.0324   -39.4148    10.1521     9.7114
  103.0000     7.4194    85.7985     2.5045     0.1057     0.0311   -39.3570    10.1420     9.6964
  103.5000     7.4199    86.1656     2.5021     0.1097     0.0311   -39.3018    10.1235     9.6814
  104.0000     7.4324    86.7986     2.4944     0.1137     0.0311   -39.0605    10.1052     9.6664
  104.5000     7.4440    87.4445     2.4867     0.1177     0.0308   -38.3607    10.0868     9.6514
  105.0000     7.4634    87.5867     2.4794     0.1217     0.0305   -37.8889    10.0685     9.6365
  105.5000     7.5010    87.6976     2.4734     0.1253     0.0302   -37.8234    10.0502     9.6216
  106.0000     7.7240    88.2517     2.4696     0.1248     0.0299   -37.7510    10.0319     9.6067
  106.5000     7.3108    88.8359     2.4687     0.1242     0.0296   -37.6800    10.0137     9.5918
  107.0000     7.4985    88.7417     2.4680     0.1236     0.0293   -37.6084     9.9955     9.5769
  107.5000     7.5079    89.6172     2.4688     0.1230     0.0294   -37.5354     9.9774     9.5621
  108.0000     7.5233    90.9742     2.4696     0.1223     0.0303   -37.5603     9.9669     9.5472
  108.5000     7.5104    92.3105     2.4704     0.1217     0.0312   -37.6035     9.9668     9.5323
  109.0000     7.3973    92.7005     2.4720     0.1136     0.0320   -37.6471     9.9670     9.5175
  109.5000     7.4875    93.0471     2.4769     0.1044     0.0329   -37.6906     9.9668     9.5791
  110.0000     7.5465    93.2813     2.4906     0.1031     0.0323   -37.7340     9.9977     9.6515
  110.5000     7.4911    93.3664     2.5001     0.1028     0.0311   -37.7774    10.1181     9.7244
  111.0000     7.1092    92.1221     2.5000     0.1035     0.0299   -37.8208    10.2400     9.7978
  111.5000     7.3408    90.7555     2.5000     0.1042     0.0291   -37.8655    10.3635     9.8719
  112.0000     7.3293    89.3855     2.5000     0.1049     0.0291   -37.9121    10.4885     9.9464
  112.5000     7.3040    88.0602     2.4995     0.1056     0.0291   -37.8749    10.6141    10.0590
  113.0000     7.3064    88.7803     2.4963     0.1101     0.0291   -37.1194    10.7287    10.0370
  113.5000     7.3586    90.0275     2.4930     0.1125     0.0291   -37.1718    10.6797     9.9934
  114.0000     7.5134    91.2680     2.4897     0.1125     0.0291   -37.2162    10.6259     9.9500
  114.5000     7.2656    92.9086     2.4871     0.1103     0.0291   -37.2582    10.5725     9.9068
  115.0000     7.3726    94.6610     2.4887     0.1086     0.0291   -37.2985    10.5193     9.8638
  115.5000     7.4797    94.8891     2.4903     0.1100     0.0289   -37.2758    10.4663     9.8212
  116.0000     7.5106    91.7765     2.4906     0.1114     0.0271   -37.1199    10.4137     9.7850
  116.5000     7.5005    90.0079     2.4882     0.1128     0.0253   -36.9628    10.3613     9.7729
  117.0000     7.4798    88.7642     2.4859     0.1141     0.0235   -36.9095    10.3091     9.6990
  117.5000     7.5587    89.1950     2.4834     0.1172     0.0217   -36.8814    10.2573     9.6256
  118.0000     7.6280    90.1310     2.4830     0.1209     0.0199   -36.8540    10.1719     9.5528
  118.5000     7.6413    91.0797     2.4792     0.1200     0.0182   -36.8263    10.0779     9.4805
  119.0000     7.4384    92.0301     2.4738     0.1189     0.0194   -36.7988     9.9848     9.4088
  119.5000     7.4563    92.6566     2.4746     0.1160     0.0259   -36.7704     9.8926     9.3376
  120.0000     7.5112    93.1250     2.4790     0.1146     0.0316   -36.7449     9.8012     9.2669
  120.5000     7.5448    93.6552     2.4833     0.1138     0.0338   -36.4922     9.7107     9.1968
  121.0000     7.5669    94.4645     2.4860     0.1130     0.0353   -36.1608     9.6209     9.1273
