~VERSION INFORMATION
 VERS.                2.0:   CWLS LOG ASCII STANDARD - VERSION 2.0
 WRAP.                 NO:   ONE LINE PER DEPTH STEP
~WELL INFORMATION
#MNEM.UNIT      DATA TYPE    INFORMATION
#----------   ------------   ------------------------------
 STRT.F            1.0000:   START DEPTH
 STOP.F          755.5000:   STOP DEPTH
 STEP.F            0.5000:   STEP LENGTH
 NULL.          -999.2500:   NO VALUE
 COMP. FENIX & SCISSON INC:   COMPANY
 WELL.       25-SX #25-14:   WELL
 FLD .        TEAPOT DOME:   FIELD
 LOC .      S14 T38N R78W:   LOCATION
 CNTY.            NATRONA:   COUNTY
 STAT.            WYOMING:   STATE
 CTRY. UNITED STATES OF AMERICA:   COUNTRY
 SRVC.           BIRDWELL:   SERVICE COMPANY
 DATE.        29-DEC-1978:   LOGDATE
 API .       490251076000:   API NUMBER
~CURVE INFORMATION
#MNEM.UNIT       API CODE    CURVE DESCRIPTION
#----------   ------------   ------------------------------
 DEPT.F                  :   
 SPR .MV     05 010 01 00:   SPONTANEOUS POTENTIAL FROM RES.
 SN  .OHMM   05 040 16 00:   SHORT NORMAL 16"
 IL  .OHMM   05 120 00 00:   INDUCTION LOG
 CALD.IN     45 280 60 00:   CALIPER
 GRD .GAPI   45 310 01 00:   GAMMA RAY FROM DENSITY LOG
 CORR.G/C3   45 356 01 00:   DENSITY CORRECTION
 DPHI.DEC    45 890 12 00:   DENSITY POROSITY SANDSTONE
 RHOB.G/C3   45 350 01 00:   BULK DENSITY
~PARAMETER INFORMATION
#MNEM.UNIT          VALUE    DESCRIPTION
#----------   ------------   ------------------------------
 PD  .                 GL:   PERMANENT DATUM
 EPD .F              5214:   ELEVATION PERMANENT DATUM
 LMF .                 KB:   LOG MEASURED FROM
 DAPD.F                 4:   FEET ABOVE PERMANENT DATUM
 DMF .                 KB:   DRILLING MEASURED FROM
 EKB .F              5218:   KELLING BUSHING
 EGL .F              5214:   GROUND LEVEL
 DATE.           12-29-79:   RUN DATE
 RUN .                  1:   RUN NUMBER
 DD  .F               765:   DEPTH DRILLER
 DL  .F               747:   DEPTH LOGGER
 BLI .F               740:   BOTTOM LOG INTERVAL
 TLI .F                40:   TOP LOG INTERVAL
 CS  .IN            8.625:   CASING SIZE
 CBD .F                40:   CASING BOTTOM DRILLER
 CBL .F                40:   CASING BOTTOM LOGGER
 BS  .IN            7.875:   BIT SIZE
 BSD .F               765:   BIT SIZE AT DEPTH
 DFT .                KCL:   DRILLING FLUID TYPE
 DFD .                8.8:   DRILLING FLUID DENSITY
 DFV .                 48:   DRILLING FLUID VISCOSITY
 DFPH.                9.2:   DRILLING FLUID PH
 MSS .           FLOWLINE:   MUD SAMPLE SOURCE
 RMS .OHMM            .17:   RESISTIVITY MUD SAMPLE
 MST .F                56:   MUD SAMPLE TEMPERATURE
 RMF .OHMM            .15:   RESISTIVITY MUD FILTRATE SAMPLE
 MFST.F                56:   MUD FILTRATE SAMPLE TEMPERATURE
 RMC .OHMM            .23:   RESISTIVITY MUD CAKE
 MCST.F                64:   MUD CAKE SAMPLE TEMPERATURE
 MFSS.           MEASURED:   MUD FILTRATE SAMPLE SOURCE
 MCSS.           MEASURED:   MUD CAKE SAMPLE SOURCE
 RMB .OHMM            .16:   RESISTIVITY MUD AT BHT
 BHT .F                59:   BOTTOM HOLE TEMPERATURE
 TCS .HRS              12:   TIME CURCULATED STOPPED
 MRT .F                59:   MAXIMUM RECORDED TEMPERATURE
 LUN .               2958:   LOGGING UNIT NUMBER
 LUL .             CASPER:   LOGGING UNIT LOCATION
 ENGI.            ROLLINS:   RECORDING ENGINEER
 WITN.         RICHARDSON:   WITNESSED BY
 CLNT.            A2DTECH:   CLIENT CODE
 ORIG.           5" PRINT:   ORIGIN OF DATA
 UWI .       490251076000:   UNIQUE WELL ID
 DICO. A2D Technologies, Inc.:   DIGITIZING COMPANY
~OTHER INFORMATION
~A    DEPT     SPR         SN         IL       CALD         GRD      CORR       DPHI       RHOB   
# ...
  608.5000   -62.2240     9.3520     8.8580     7.1150    81.8080     0.0060     0.0820     2.5750
  609.0000   -62.2240     9.1290     8.5890     7.1140    82.2250     0.0070     0.0980     2.5650
  609.5000   -62.2240     8.9060     8.3190     7.1130    82.6320     0.0080     0.1130     2.5540
  610.0000   -62.2240     8.6520     8.0500     7.1120    83.5400     0.0080     0.1280     2.5010
  610.5000   -62.2240     8.3330     7.7810     7.1120    84.6740     0.0080     0.1380     2.4560
  611.0000   -62.2240     8.1790     7.5120     7.1110    86.4470     0.0090     0.1410     2.4480
  611.5000   -62.2240     8.0240     7.2990     7.1100    91.4940     0.0090     0.1440     2.4470
  612.0000   -62.2240     7.8690     7.3060     7.1100    94.0680     0.0100     0.1450     2.4450
  612.5000   -62.2250     7.7140     7.3120     7.1090    95.0350     0.0110     0.1450     2.4380
  613.0000   -62.2250     7.6830     7.3180     7.1080    94.5710     0.0120     0.1450     2.4330
  613.5000   -62.2250     7.6830     7.3240     7.1070    91.5710     0.0130     0.1450     2.4360
  614.0000   -62.2230     7.6830     7.3300     7.1070    85.2340     0.0110     0.1430     2.4380
  614.5000   -62.4030     7.6990     7.3360     7.1060    84.1240     0.0080     0.1400     2.4400
  615.0000   -62.6740     7.7210     7.3410     7.1050    84.2210     0.0060     0.1410     2.4430
  615.5000   -63.0750     7.7420     7.3470     7.1050    84.4370     0.0030     0.1440     2.4420
  616.0000   -63.6480     7.7630     7.3530     7.1040    86.8850     0.0000     0.1470     2.4380
  616.5000   -64.2230     7.7840     7.3590     7.1030    88.2830    -0.0030     0.1500     2.4270
  617.0000   -64.5030     7.8060     7.3990     7.1020    87.3730    -0.0020     0.1530     2.4210
  617.5000   -64.6460     7.8460     7.4660     7.1020    85.5430    -0.0010     0.1540     2.4190
  618.0000   -65.1690     7.9000     7.5320     7.1010    84.1300     0.0010     0.1510     2.4190
  618.5000   -65.6970     7.9550     7.5990     7.1000    84.1690     0.0020     0.1450     2.4190
  619.0000   -66.2200     8.0100     7.6650     7.1000    84.1740     0.0040     0.1380     2.4330
  619.5000   -66.6740     8.0650     7.7310     7.0990    84.2330     0.0050     0.1220     2.4520
  620.0000   -66.8090     8.1190     7.7480     7.0980    85.7640     0.0030     0.1070     2.4730
  620.5000   -66.8170     8.1560     7.7480     7.0970    87.0610     0.0010     0.0940     2.5020
  621.0000   -66.8000     8.1560     7.7130     7.0970    86.4460     0.0030     0.0830     2.5310
  621.5000   -66.7820     8.1440     7.6740     7.0960    86.1750     0.0050     0.0890     2.5410
  622.0000   -66.7640     8.0530     7.6360     7.0950    86.1790     0.0080     0.0960     2.5410
  622.5000   -66.7460     7.9630     7.5000     7.0940    86.1440     0.0100     0.1040     2.5130
  623.0000   -66.7280     7.8720     7.3350     7.0940    85.8840     0.0100     0.1100     2.4930
  623.5000   -66.7100     7.7820     7.1710     7.0930    85.5880     0.0090     0.1160     2.4880
  624.0000   -66.6920     7.6830     7.0060     7.0920    87.1710     0.0070     0.1220     2.4820
  624.5000   -66.6740     7.5500     6.7590     7.0920    88.2130     0.0050     0.1280     2.4760
  625.0000   -66.6550     7.5440     6.7860     7.0910    90.5930     0.0040     0.1290     2.4690
  625.5000   -66.6340     7.5370     6.8380     7.0900    93.3380     0.0040     0.1280     2.4640
  626.0000   -66.7310     7.5300     6.8910     7.0890    94.5070     0.0030     0.1270     2.4630
  626.5000   -66.8510     7.5230     6.9430     7.0890    89.7730     0.0020     0.1260     2.4650
  627.0000   -66.9720     7.5160     6.9950     7.0880    89.1300     0.0010     0.1250     2.4670
  627.5000   -67.0940     7.5090     7.0490     7.0870    89.1220     0.0010     0.1240     2.4660
  628.0000   -67.2150     7.5020     7.0200     7.0870    85.6590     0.0020     0.1230     2.4650
  628.5000   -67.3380     7.4950     6.9800     7.0860    81.8860     0.0060     0.1230     2.4700
  629.0000   -67.5150     7.4880     6.9410     7.0850    81.9930     0.0100     0.1220     2.4740
  629.5000   -67.9420     7.4810     6.9020     7.0840    83.6960     0.0170     0.1230     2.4740
  630.0000   -68.3700     7.4740     6.8620     7.0840    84.9240     0.0180     0.1240     2.4720
  630.5000   -68.7540     7.4670     6.8230     7.0830    85.4970     0.0180     0.1250     2.4690
  631.0000   -69.0610     7.4610     6.8170     7.0820    84.9720     0.0190     0.1250     2.4680
  631.5000   -69.3730     7.4540     6.8170     7.0810    84.4240     0.0180     0.1250     2.4680
  632.0000   -69.4360     7.4470     6.8170     7.0810    84.4080     0.0180     0.1250     2.4690
  632.5000   -69.4380     7.4400     6.8170     7.0800    85.0890     0.0170     0.1260     2.4700
  633.0000   -69.4390     7.4330     6.8170     7.0790    87.0910     0.0170     0.1270     2.4660
  633.5000   -69.4390     7.4250     6.8170     7.0790    88.5100     0.0170     0.1280     2.4600
  634.0000   -69.4390     7.4290     6.8170     7.0780    88.7690     0.0160     0.1280     2.4650
  634.5000   -69.4390     7.4340     6.8170     7.0770    89.2300     0.0160     0.1250     2.4690
  635.0000   -69.4390     7.4390     6.8170     7.0760    91.3080     0.0150     0.1220     2.4740
  635.5000   -69.4390     7.4450     6.8170     7.0760    92.8850     0.0150     0.1210     2.4740
  636.0000   -69.4390     7.4500     6.8170     7.0750    93.5450     0.0140     0.1240     2.4690
  636.5000   -69.4390     7.4550     6.8170     7.0740    95.4140     0.0140     0.1260     2.4630
  637.0000   -69.4390     7.4600     6.8170     7.0740    95.9070     0.0130     0.1280     2.4590
  637.5000   -69.4390     7.4650     6.8170     7.0730    96.0010     0.0130     0.1300     2.4570
  638.0000   -69.4390     7.4700     6.8170     7.0720    94.8890     0.0150     0.1320     2.4550
  638.5000   -69.4390     7.4760     6.8170     7.0710    90.7460     0.0170     0.1320     2.4580
  639.0000   -69.4390     7.4810     6.8170     7.0710    89.8910     0.0190     0.1310     2.4610
  639.5000   -69.4390     7.4860     6.8170     7.0700    90.2040     0.0210     0.1300     2.4610
  640.0000   -69.4390     7.4910     6.8170     7.0690    90.5550     0.0230     0.1290     2.4610
  640.5000   -69.4390     7.4960     6.8170     7.0690    90.9090     0.0250     0.1310     2.4610
  641.0000   -69.4390     7.5020     6.8170     7.0680    91.2660     0.0270     0.1350     2.4570
  641.5000   -69.4390     7.5070     6.8170     7.0670    91.6250     0.0290     0.1370     2.4530
  642.0000   -69.4390     7.5120     6.8170     7.0660    92.0020     0.0290     0.1300     2.4550
  642.5000   -69.4390     7.5170     6.8170     7.0660    92.7140     0.0290     0.1240     2.4650
  643.0000   -69.4390     7.5220     6.8180     7.0650    94.3610     0.0260     0.1180     2.4740
  643.5000   -69.4390     7.5270     6.8170     7.0640    94.5330     0.0230     0.1150     2.4830
  644.0000   -69.4390     7.5330     6.8170     7.0630    94.6230     0.0210     0.1210     2.4790
  644.5000   -69.4380     7.5380     6.8170     7.0630    94.5020     0.0190     0.1250     2.4740
  645.0000   -69.4330     7.5430     6.9920     7.0620    94.4520     0.0180     0.1270     2.4730
  645.5000   -69.3120     7.5480     7.1760     7.0610    95.1380     0.0380     0.1280     2.4700
  646.0000   -68.8520     7.5710     7.3900     7.0610    95.7790     0.0830     0.1300     2.4630
  646.5000   -68.4050     7.7100     7.6610     7.0600    94.8220     0.1160     0.1350     2.4510
  647.0000   -67.9480     7.8490     7.9320     7.0590    93.6900     0.1320     0.1420     2.4280
  647.5000   -67.2990     7.9870     8.2040     7.0580    89.7660     0.1300     0.1500     2.3890
  648.0000   -66.0860     8.1260     8.4750     7.0580    88.5340     0.1180     0.1590     2.3740
  648.5000   -64.9010     8.2650     8.7460     7.0570    88.1460     0.0980     0.1680     2.3770
