~VERSION INFORMATION
 VERS.                2.0:   CWLS LOG ASCII STANDARD - VERSION 2.0
 WRAP.                 NO:   ONE LINE PER DEPTH STEP
~WELL INFORMATION
#MNEM.UNIT      DATA TYPE    INFORMATION
#----------   ------------   ------------------------------
 STRT.F           60.0000:   START DEPTH
 STOP.F         3052.0000:   STOP DEPTH
 STEP.F            0.5000:   STEP LENGTH
 NULL.          -999.2500:   NO VALUE
 COMP.   FLUOR DANIEL INC:   COMPANY
 WELL. NAVAL PETROLEUM RESERVE 3 X-14 #57-14:   WELL
 FLD .            WILDCAT:   FIELD
 LOC .      S14 T38N R78W:   LOCATION
 CNTY.            NATRONA:   COUNTY
 STAT.            WYOMING:   STATE
 CTRY. UNITED STATES OF AMERICA:   COUNTRY
 SRVC.            Unknown:   SERVICE COMPANY
 DATE.        16-MAY-1995:   LOGDATE
 API .       490252272000:   API NUMBER
~CURVE INFORMATION
#MNEM.UNIT       API CODE    CURVE DESCRIPTION
#----------   ------------   ------------------------------
 DEPT.F                  :   
 ROP .FT/HR  91 810 01 00:   RAT OF DRILLING PENETRATION
 TGAS.TC/CC  91 830 01 00:   TOTAL GAS UNIT
~PARAMETER INFORMATION
#MNEM.UNIT          VALUE    DESCRIPTION
#----------   ------------   ------------------------------
 EKB .F              5312:   KELLING BUSHING
 EGL .F              5302:   GROUND LEVEL
 DATE.        16-MAY-1995:   RUN DATE
 RUN .                  1:   RUN NUMBER
 BLI .F              3062:   BOTTOM LOG INTERVAL
 TLI .F                60:   TOP LOG INTERVAL
 ENGI.     C.TOWER/R.HUSK:   RECORDING ENGINEER
 CLNT.            A2DTECH:   CLIENT CODE
 ORIG.           5" PRINT:   ORIGIN OF DATA
 UWI .       490252272000:   UNIQUE WELL ID
 DICO. A2D Technologies, Inc.:   DIGITIZING COMPANY
~OTHER INFORMATION
~A   DEPT        ROP       TGAS 
# ...
 2247.0000     1.1479     4.6610
 2247.5000     1.1484     4.6702
 2248.0000     1.1300     4.4907
 2248.5000     1.0172     4.5000
 2249.0000     1.0221     4.5094
 2249.5000     1.0262     4.5206
 2250.0000     1.0302     4.7185
 2250.5000     1.0401     4.7277
 2251.0000     1.0417     4.7369
 2251.5000     1.0598     4.5551
 2252.0000     0.8994     4.5666
 2252.5000     0.8998     4.5758
 2253.0000     0.9002     4.3962
 2253.5000     0.9006     4.4057
 2254.0000     1.0144     4.4453
 2254.5000     1.0148     4.6149
 2255.0000     1.0152     4.8128
 2255.5000     1.1195     4.8220
 2256.0000     1.1107     4.8312
 2256.5000     1.1020     4.6517
 2257.0000     1.0933     4.4722
 2257.5000     1.0832     4.4814
 2258.0000     1.2614     4.4906
 2258.5000     1.2592     4.6887
 2259.0000     1.2570     4.7000
 2259.5000     1.2548     4.8978
 2260.0000     1.0836     4.9070
 2260.5000     1.0810     4.9162
 2261.0000     1.0785     4.7345
 2261.5000     1.0759     4.5550
 2262.0000     1.0733     4.3755
 2262.5000     1.0707     4.3319
 2263.0000     1.0953     4.2827
 2263.5000     1.3149     4.1149
 2264.0000     1.3173     4.1218
 2264.5000     1.3197     4.1274
 2265.0000     1.3220     4.1329
 2265.5000     1.3244     4.1385
 2266.0000     1.1274     4.1440
 2266.5000     1.1278     4.3382
 2267.0000     1.1282     4.3438
 2267.5000     1.1285     4.3491
 2268.0000     1.1289     4.3549
 2268.5000     1.1293     4.3604
 2269.0000     1.1297     4.1773
 2269.5000     1.1301     4.1830
 2270.0000     1.0020     4.1898
 2270.5000     1.0118     4.1953
 2271.0000     1.0216     4.2009
 2271.5000     1.0313     4.2064
 2272.0000     0.9501     4.4007
 2272.5000     0.8025     4.4062
 2273.0000     0.8058     4.4113
 2273.5000     0.8092     4.6060
 2274.0000     0.8878     4.6115
 2274.5000     1.0442     4.6171
 2275.0000     1.0381     4.4340
 2275.5000     1.0321     4.4396
 2276.0000     1.1268     4.4453
 2276.5000     1.1293     4.4520
 2277.0000     1.1318     4.4575
 2277.5000     1.1344     4.2730
 2278.0000     0.9569     4.2800
 2278.5000     0.9608     4.0968
 2279.0000     0.9644     4.1024
 2279.5000     0.9491     3.9179
 2280.0000     0.8449     3.9248
 2280.5000     0.8454     3.9304
 2281.0000     0.8457     3.9359
 2281.5000     0.8461     3.9415
 2282.0000     0.8465     4.0529
 2282.5000     0.8469     4.1426
 2283.0000     0.8473     4.3368
 2283.5000     0.8476     4.3424
 2284.0000     0.8480     4.5366
 2284.5000     1.0091     4.5422
 2285.0000     1.0095     4.7364
 2285.5000     1.0098     4.7420
 2286.0000     1.0102     4.7475
 2286.5000     1.0106     4.7531
 2287.0000     1.0110     4.5698
 2287.5000     1.0113     4.5755
 2288.0000     1.0117     4.3923
 2288.5000     1.0121     4.2092
 2289.0000     1.0125     4.2161
 2289.5000     1.0129     4.0316
 2290.0000     1.4953     4.0386
 2290.5000     1.5013     4.0441
 2291.0000     1.5073     4.0497
 2291.5000     1.5133     3.8651
 2292.0000     1.2794     3.8721
 2292.5000     1.2798     3.8776
 2293.0000     1.2802     4.0719
 2293.5000     1.2806     4.0774
 2294.0000     1.1486     4.0830
 2294.5000     1.1490     4.0887
 2295.0000     1.1493     4.0955
 2295.5000     1.1497     4.1010
 2296.0000     1.4715     4.1065
 2296.5000     1.4718     4.1121
 2297.0000     1.4722     4.1176
 2297.5000     1.4726     4.1232
 2298.0000     1.3312     4.3174
 2298.5000     1.3316     4.3230
 2299.0000     1.3319     4.1396
 2299.5000     1.3323     4.3341
 2300.0000     1.2524     4.3396
 2300.5000     1.1724     4.1565
 2301.0000     1.1728     4.1623
 2301.5000     1.1732     4.1690
 2302.0000     1.1420     4.1745
 2302.5000     0.9564     4.3688
 2303.0000     0.9572     4.3524
 2303.5000     0.9471     4.3332
 2304.0000     0.8737     4.3140
 2304.5000     0.8934     4.2948
 2305.0000     0.8941     4.2756
 2305.5000     0.9137     4.2565
 2306.0000     1.0276     4.2403
 2306.5000     0.9917     3.8703
 2307.0000     0.9940     3.8795
 2307.5000     0.9963     4.0755
 2308.0000     0.9985     4.1008
 2308.5000     1.0008     4.2807
 2309.0000     1.0031     4.2881
 2309.5000     1.0054     4.4841
 2310.0000     1.0077     4.3009
 2310.5000     1.0100     4.3101
 2311.0000     1.0122     4.3174
 2311.5000     1.0145     4.3248
 2312.0000     1.0168     4.3321
 2312.5000     1.4992     4.3396
 2313.0000     1.4905     4.3487
 2313.5000     1.5008     4.3560
 2314.0000     1.5014     3.9860
 2314.5000     1.4154     3.9933
 2315.0000     1.3802     3.8102
 2315.5000     1.2867     3.4420
 2316.0000     1.2778     3.2604
 2316.5000     1.5239     3.0793
 2317.0000     1.5246     3.0868
 2317.5000     1.5253     3.0958
 2318.0000     1.5166     3.1032
 2318.5000     0.9984     2.9200
 2319.0000     0.9993     3.1179
 2319.5000     0.9999     3.1252
 2320.0000     1.0006     3.1326
 2320.5000     1.0014     3.1399
 2321.0000     1.0021     3.1473
 2321.5000     1.0028     3.1547
 2322.0000     1.2960     3.1623
 2322.5000     1.5042     3.1711
 2323.0000     1.5145     3.1785
 2323.5000     1.5152     3.1858
 2324.0000     1.5160     3.1932
 2324.5000     1.3091     3.2005
 2325.0000     1.2908     3.2079
 2325.5000     1.2917     3.2152
 2326.0000     1.2924     3.2226
 2326.5000     1.5006     3.2302
 2327.0000     1.5013     3.2391
 2327.5000     1.5020     3.2464
 2328.0000     1.1631     3.2538
 2328.5000     1.1640     3.2611
 2329.0000     1.1647     3.2685
 2329.5000     1.1748     3.2758
 2330.0000     1.1659     3.2831
 2330.5000     1.5264     3.2906
 2331.0000     1.5332     3.2981
 2331.5000     1.5401     3.3070
 2332.0000     1.4765     3.3144
 2332.5000     1.2167     3.3217
 2333.0000     1.2176     3.3291
 2333.5000     1.2183     3.3364
 2334.0000     0.9940     3.3437
 2334.5000     0.9768     3.3511
 2335.0000     0.9597     3.3584
 2335.5000     0.9425     3.1771
 2336.0000     0.9672     3.3750
 2336.5000     0.9868     3.3823
 2337.0000     0.9780     3.3896
 2337.5000     0.9883     3.3970
 2338.0000     1.1023     3.4043
 2338.5000     1.1124     3.4117
 2339.0000     1.1225     3.4190
 2339.5000     0.9912     3.4264
 2340.0000     0.9919     3.4340
 2340.5000     0.9831     3.2524
 2341.0000     0.9838     3.2616
 2341.5000     0.9846     3.2689
 2342.0000     0.9854     3.2763
 2342.5000     0.9861     2.9044
 2343.0000     0.9868     2.9136
 2343.5000     0.9875     2.9209
 2344.0000     0.8750     2.9283
 2344.5000     0.8757     3.1245
 2345.0000     0.8859     3.3208
 2345.5000     0.8866     3.5182
 2346.0000     1.0571     3.5255
 2346.5000     1.0687     3.5329
 2347.0000     1.0870     3.3497
 2347.5000     1.4084     3.3589
 2348.0000     1.5046     3.3662
 2348.5000     1.5076     3.3736
 2349.0000     1.5106     3.3811
 2349.5000     1.5136     3.5788
 2350.0000     1.5166     0.3786
 2350.5000     1.5196     0.3859
 2351.0000     1.5226     0.3933
 2351.5000     1.5256     0.4006
 2352.0000     2.3867     0.4080
 2352.5000     2.4062     0.4153
 2353.0000     2.4092     0.4227
 2353.5000     2.4138     0.4302
 2354.0000     2.9083     0.4392
 2354.5000     2.9090     0.4465
 2355.0000     2.9099     0.4539
 2355.5000     2.9106     0.6499
 2356.0000     2.8075     0.6572
 2356.5000     1.5534     0.4741
 2357.0000     1.5542     0.4833
 2357.5000     1.5549     0.4906
 2358.0000     1.2442     0.4981
 2358.5000     1.2545     0.5071
 2359.0000     1.2553     0.5145
 2359.5000     1.2560     0.5218
 2360.0000     1.5019     0.3386
 2360.5000     1.5215     0.3478
 2361.0000     1.5222     0.3552
 2361.5000     1.5229     0.3625
 2362.0000     1.6124     0.5585
 2362.5000     1.7792     0.3772
 2363.0000     1.7799     0.3864
 2363.5000     1.7806     0.3925
 2364.0000     1.7813     0.4011
 2364.5000     1.7820     0.4084
 2365.0000     1.7828     0.4158
 2365.5000     1.7929     0.4231
 2366.0000     1.9634     0.6350
 2366.5000     2.2475     0.6528
 2367.0000     2.2573     0.6340
 2367.5000     2.2676     0.6415
 2368.0000     1.7589     0.6491
