~VERSION INFORMATION
 VERS.                2.0:   CWLS LOG ASCII STANDARD - VERSION 2.0
 WRAP.                 NO:   ONE LINE PER DEPTH STEP
~WELL INFORMATION
#MNEM.UNIT      DATA TYPE    INFORMATION
#----------   ------------   ------------------------------
 STRT.F           21.0000:   START DEPTH
 STOP.F          484.0000:   STOP DEPTH
 STEP.F            0.5000:   STEP LENGTH
 NULL.          -999.2500:   NO VALUE
 COMP.       F D SERV INC:   COMPANY
 WELL. N P R 3 SX-3 #78-3:   WELL
 FLD .             TEAPOT:   FIELD
 LOC .       S3 T38N R78W:   LOCATION
 CNTY.            NATRONA:   COUNTY
 STAT.            WYOMING:   STATE
 CTRY. UNITED STATES OF AMERICA:   COUNTRY
 SRVC.     Atlas Wireline:   SERVICE COMPANY
 DATE.        04-DEC-1992:   LOGDATE
 API .       490252254500:   API NUMBER
~CURVE INFORMATION
#MNEM.UNIT       API CODE    CURVE DESCRIPTION
#----------   ------------   ------------------------------
 DEPT.F                  :   
 DPHI.DEC    45 890 12 00:   DENSITY POROSITY SANDSTONE
 NPHI.DEC    42 890 03 00:   NEUTRON POROSITY SANDSTONE
 C13 .IN     45 280 13 00:   CALIPER 1 - 3
 GRD .GAPI   45 310 01 00:   GAMMA RAY FROM DENSITY LOG
 ZCOR.G/C3   45 356 01 00:   DENSITY CORRECTION
 ZDEN.G/C3   45 350 01 00:   BULK DENSITY
 RILD.OHMM   07 120 46 00:   INDUCTION LOG DEEP RESISTIVITY
 RILM.OHMM   07 120 44 00:   INDUCTION LOG MEDIUM RESISTIVITY
~PARAMETER INFORMATION
#MNEM.UNIT          VALUE    DESCRIPTION
#----------   ------------   ------------------------------
 PD  .                 GL:   PERMANENT DATUM
 EPD .F              5120:   ELEVATION PERMANENT DATUM
 LMF .                 KB:   LOG MEASURED FROM
 DAPD.F                10:   FEET ABOVE PERMANENT DATUM
 DMF .                 KB:   DRILLING MEASURED FROM
 EKB .F              5130:   KELLING BUSHING
 EDF .F              5129:   DRILLING FLOOR
 EGL .F              5120:   GROUND LEVEL
 DATE.        04-DEC-1992:   RUN DATE
 RUN .                  1:   RUN NUMBER
 DD  .F               488:   DEPTH DRILLER
 DL  .F               488:   DEPTH LOGGER
 BLI .F               479:   BOTTOM LOG INTERVAL
 CS  .IN            8.625:   CASING SIZE
 CBD .F                50:   CASING BOTTOM DRILLER
 CBL .F                54:   CASING BOTTOM LOGGER
 BS  .IN            7.875:   BIT SIZE
 BSD .F               488:   BIT SIZE AT DEPTH
 DFT .           AIR FOAM:   DRILLING FLUID TYPE
 MRT .F                66:   MAXIMUM RECORDED TEMPERATURE
 LUN .           HL- 6274:   LOGGING UNIT NUMBER
 LUL .             CASPER:   LOGGING UNIT LOCATION
 ENGI.             RAUTIO:   RECORDING ENGINEER
 WITN.        GARY STRONG:   WITNESSED BY
 CLNT.            A2DTECH:   CLIENT CODE
 ORIG.           5" PRINT:   ORIGIN OF DATA
 UWI .       490252254500:   UNIQUE WELL ID
 DICO. A2D Technologies, Inc.:   DIGITIZING COMPANY
~OTHER INFORMATION
~A   DEPT     DPHI       NPHI        C13        GRD       ZCOR       ZDEN       RILD       RILM   
# ...
   61.5000     0.1068     0.3148     8.1213   165.1052     0.0432     2.4708     8.6044     7.7146
   62.0000     0.1077     0.3172     8.1330   167.8176     0.0235     2.4707     9.3563     7.6060
   62.5000     0.1053     0.3175     8.1473   164.7724     0.0053     2.4763     8.7209     7.8193
   63.0000     0.1020     0.3142     8.1462   164.1515     0.0083     2.4835     8.1288     7.9271
   63.5000     0.1011     0.3108     8.1453   164.4606     0.0233     2.4796     7.9020     7.7061
   64.0000     0.1067     0.3099     8.1444   164.7717     0.0354     2.4690     7.8447     7.6503
   64.5000     0.1163     0.3105     8.1435   165.9214     0.0368     2.4568     7.8425     7.7018
   65.0000     0.1224     0.3138     8.1426   168.0277     0.0352     2.4492     7.8403     7.7537
   65.5000     0.1245     0.3163     8.1571   169.2287     0.0367     2.4468     7.8933     7.8058
   66.0000     0.1206     0.3178     8.1712   169.2101     0.0457     2.4544     7.8911     7.8036
   66.5000     0.1139     0.3199     8.1854   167.3770     0.0532     2.4626     8.0001     7.8010
   67.0000     0.1109     0.3244     8.1845   167.6652     0.0388     2.4671     8.0556     7.9085
   67.5000     0.1134     0.3293     8.1836   171.2867     0.0228     2.4648     8.1655     8.0176
   68.0000     0.1152     0.3302     8.1522   177.0294     0.0213     2.4617     8.2267     8.0721
   68.5000     0.1128     0.3271     8.1209   178.5798     0.0530     2.4632     8.3343     8.1833
   69.0000     0.1095     0.3256     8.0745   174.2724     0.0590     2.4679     8.4014     8.2956
   69.5000     0.1092     0.3290     8.0281   167.8939     0.0483     2.4707     8.5065     8.3520
   70.0000     0.1104     0.3299     8.1334   163.5757     0.0407     2.4698     8.6235     8.4082
   70.5000     0.1107     0.3280     8.2539   160.8505     0.0376     2.4683     8.6817     8.4648
   71.0000     0.1099     0.3256     8.3137   160.5729     0.0391     2.4697     8.6793     8.5217
   71.5000     0.1081     0.3253     8.3432   162.3762     0.0466     2.4727     8.6164     8.5188
   72.0000     0.1060     0.3241     8.3727   163.2741     0.0571     2.4757     8.5538     8.4572
   72.5000     0.1051     0.3223     8.3718   160.5283     0.0782     2.4764     8.4325     8.3376
   73.0000     0.1039     0.3214     8.3860   159.3050     0.0949     2.4763     8.3129     8.2197
   73.5000     0.1006     0.3223     8.3837   161.7106     0.0878     2.4839     8.1950     8.1603
   74.0000     0.0921     0.3241     8.3209   163.8170     0.0538     2.4937     8.1355     7.9889
   74.5000     0.0863     0.3256     8.2314   165.3173     0.0492     2.5065     8.0765     7.8699
   75.0000     0.0842     0.3286     8.1546   166.2115     0.0597     2.5117     8.0179     7.7645
   75.5000     0.0873     0.3326     8.1386   167.1057     0.0582     2.5085     7.9598     7.7079
   76.0000     0.0955     0.3332     8.1377   167.3939     0.0415     2.4998     7.9575     7.7603
   76.5000     0.1013     0.3328     8.1368   167.0758     0.0217     2.4835     7.8447     7.7576
   77.0000     0.1031     0.3325     8.1359   167.3642     0.0050     2.4812     7.7334     7.8104
   77.5000     0.1046     0.3347     8.1350   168.8607     0.0004     2.4781     7.6773     7.8629
   78.0000     0.1047     0.3362     8.1038   170.6640     0.0049     2.4781     7.6216     7.7512
   78.5000     0.1041     0.3371     8.0725   171.8613     0.0094     2.4795     7.5663     7.5356
   79.0000     0.1026     0.3374     8.0564   171.2404     0.0033     2.4818     7.5642     7.4291
   79.5000     0.1014     0.3380     8.0555   168.4982     0.0002     2.4825     7.5621     7.3754
   80.0000     0.1017     0.3380     8.0546   167.2712     0.0109     2.4824     7.5600     7.3733
   80.5000     0.1032     0.3383     8.0689   169.0746     0.0137     2.4809     7.5635     7.4229
   81.0000     0.1042     0.3377     8.0984   169.9725     0.0000     2.4808     7.6089     7.4729
   81.5000     0.1030     0.3371     8.0973   167.2267     0.0060     2.4830     7.6702     7.5759
   82.0000     0.1009     0.3364     8.1118   166.8808     0.0196     2.4860     7.7662     7.7342
   82.5000     0.0988     0.3361     8.1261   168.1060     0.0195     2.4898     7.8730     7.7871
   83.0000     0.0967     0.3352     8.1403   169.6063     0.0149     2.4935     7.9267     7.8426
   83.5000     0.0945     0.3295     8.1392   168.2959     0.0133     2.4965     8.0363     7.9467
   84.0000     0.0931     0.3258     8.1383   165.9365     0.0133     2.4994     8.0335     7.9444
   84.5000     0.0937     0.3228     8.1374   165.3155     0.0163     2.4994     8.0313     7.9417
   85.0000     0.0958     0.3240     8.1366   165.3007     0.0162     2.4986     8.0860     7.9957
   85.5000     0.0964     0.3282     8.1357   165.2858     0.0146     2.4993     8.0832     7.9930
   86.0000     0.0931     0.3307     8.1347   164.9679     0.0146     2.4992     8.0810     7.9908
   86.5000     0.0913     0.3310     8.1338   163.7409     0.0190     2.4992     8.0788     7.9886
   87.0000     0.0910     0.3310     8.1328   162.8170     0.0126     2.4999     8.1333     7.9864
   87.5000     0.0895     0.3313     8.1319   163.4119     0.0068     2.5013     8.1310     8.0407
   88.0000     0.0853     0.3337     8.1464   164.9084     0.0173     2.5058     8.1288     8.0379
   88.5000     0.0838     0.3361     8.1453   164.2875     0.0294     2.5111     8.1265     8.0357
   89.0000     0.0860     0.3370     8.1444   161.5454     0.0248     2.5102     8.1243     8.0335
   89.5000     0.0875     0.3367     8.1435   161.5305     0.0187     2.5064     8.0090     7.9754
   90.0000     0.0849     0.3370     8.1426   164.0202     0.0186     2.5101     8.0068     7.8626
   90.5000     0.0818     0.3388     8.1417   166.6486     0.0231     2.5146     7.8932     7.8058
   91.0000     0.0860     0.3394     8.1408   168.7549     0.0306     2.5131     7.7813     7.6954
   91.5000     0.0918     0.3373     8.1399   171.4673     0.0245     2.5054     7.6709     7.5318
   92.0000     0.0952     0.3373     8.1230   173.2706     0.0032     2.4986     7.5079     7.3707
   92.5000     0.0976     0.3397     8.0926   173.5625    -0.0002     2.4940     7.3511     7.2206
   93.0000     0.0979     0.3409     8.0915   172.9379     0.0137     2.4901     7.2978     7.1680
   93.5000     0.0976     0.3403     8.0906   172.0139     0.0304     2.4886     7.2448     7.1660
   94.0000     0.0961     0.3370     8.1051   171.0900     0.0333     2.4915     7.1922     7.1640
   94.5000     0.0962     0.3358     8.1194   170.7721     0.0196     2.4946     7.2404     7.1620
   95.0000     0.0986     0.3354     8.1337   170.1511     0.0089     2.4892     7.2383     7.2107
   95.5000     0.1017     0.3351     8.1325   169.2272     0.0013     2.4831     7.2877     7.2593
   96.0000     0.1056     0.3321     8.1316   166.4364    -0.0018     2.4768     7.3369     7.3076
   96.5000     0.1078     0.3272     8.1308   161.1212    -0.0034     2.4721     7.3864     7.3573
   97.0000     0.1075     0.3248     8.1299   158.5728    -0.0049     2.4738     7.4880     7.4582
   97.5000     0.1026     0.3254     8.1290   160.3761    -0.0035     2.4828     7.5391     7.5084
   98.0000     0.0966     0.3273     8.1281   163.0885    -0.0005     2.4888     7.6433     7.5595
   98.5000     0.0954     0.3294     8.1272   164.2895     0.0085     2.4941     7.6949     7.6632
   99.0000     0.0972     0.3297     8.1415   164.8770     0.0251     2.4933     7.8013     7.7688
   99.5000     0.1009     0.3288     8.1403   166.0742     0.0326     2.4811     7.9086     7.8759
  100.0000     0.1067     0.3267     8.1397   167.8805     0.0068     2.4742     7.9625     7.9289
  100.5000     0.1070     0.3243     8.1414   164.8244     0.0007     2.4742     8.0163     7.9266
  101.0000     0.1052     0.3225     8.1431   163.8947     0.0006     2.4795     8.0135     7.9244
  101.5000     0.1015     0.3219     8.1447   164.1822     0.0036     2.4855     8.0113     7.9222
