~VERSION INFORMATION
 VERS.                2.0:   CWLS LOG ASCII STANDARD - VERSION 2.0
 WRAP.                 NO:   ONE LINE PER DEPTH STEP
~WELL INFORMATION
#MNEM.UNIT      DATA TYPE    INFORMATION
#----------   ------------   ------------------------------
 STRT.F           28.0000:   START DEPTH
 STOP.F          546.5000:   STOP DEPTH
 STEP.F            0.5000:   STEP LENGTH
 NULL.          -999.2500:   NO VALUE
 COMP. LAWRENCE/ALLISON INC:   COMPANY
 WELL.    55-66 SX #10-10:   WELL
 FLD .            WILDCAT:   FIELD
 LOC .      S10 T38N R78W:   LOCATION
 CNTY.            NATRONA:   COUNTY
 STAT.            WYOMING:   STATE
 CTRY. UNITED STATES OF AMERICA:   COUNTRY
 SRVC.            Unknown:   SERVICE COMPANY
 DATE.        20-AUG-1984:   LOGDATE
 API .       490251098000:   API NUMBER
~CURVE INFORMATION
#MNEM.UNIT       API CODE    CURVE DESCRIPTION
#----------   ------------   ------------------------------
 DEPT.F                  :   
 CNC .DEC    42 890 03 00:   NEUTRON POROSITY SANDSTONE
 CALD.IN     45 280 60 00:   CALIPER FROM DENSITY LOG
 DEN .G/C3   45 350 01 00:   COMPENSATED BULK DENSTIY
 PORD.DEC    45 890 12 00:   POROSITY DENSITY STONESTONE
 CORR.G/C3   45 356 01 00:   DENSITY CORRECTION
 SPR .MV     07 010 01 00:   SPONTANEOUS POTENTIAL
 RFOC.OHMM   07 220 04 00:   RESISTIVITY FOCUSED LOG
 RILD.OHMM   07 120 46 00:   INDUCTION LOG DEEP RESISTIVITY
 RILM.OHMM   07 120 44 00:   INDUCTION LOG MEDIUM RESISTIVITY
 AC  .US/F   60 520 00 00:   ACCOUSTIC
 GRD .GAPI   45 310 01 00:   GAMMA RAY FROM DENSITY LOG
~PARAMETER INFORMATION
#MNEM.UNIT          VALUE    DESCRIPTION
#----------   ------------   ------------------------------
 PD  .                 GL:   PERMANENT DATUM
 EPD .F              5200:   ELEVATION PERMANENT DATUM
 LMF .                 GL:   LOG MEASURED FROM
 DMF .                 GL:   DRILLING MEASURED FROM
 EGL .F              5200:   GROUND LEVEL
 DATE.        20-AUG-1984:   RUN DATE
 RUN .                  1:   RUN NUMBER
 DD  .F               554:   DEPTH DRILLER
 DL  .F               548:   DEPTH LOGGER
 BLI .F               546:   BOTTOM LOG INTERVAL
 TLI .F                30:   TOP LOG INTERVAL
 CS  .IN            9.625:   CASING SIZE
 CBD .F                46:   CASING BOTTOM DRILLER
 CBL .F                41:   CASING BOTTOM LOGGER
 BS  .IN            7.875:   BIT SIZE
 BSD .F               554:   BIT SIZE AT DEPTH
 DFT .          KCL WATER:   DRILLING FLUID TYPE
 MSS .           FLOWLINE:   MUD SAMPLE SOURCE
 RMS .OHMM           .691:   RESISTIVITY MUD SAMPLE
 MST .F                82:   MUD SAMPLE TEMPERATURE
 MRT .F               100:   MAXIMUM RECORDED TEMPERATURE
 LUN .               6307:   LOGGING UNIT NUMBER
 LUL .               GLTE:   LOGGING UNIT LOCATION
 ENGI.           FAHLSING:   RECORDING ENGINEER
 WITN.           JENNINGS:   WITNESSED BY
 CLNT.            A2DTECH:   CLIENT CODE
 ORIG.       2", 5" PRINT:   ORIGIN OF DATA
 UWI .       490251098000:   UNIQUE WELL ID
 DICO. A2D Technologies, Inc.:   DIGITIZING COMPANY
~OTHER INFORMATION
~A   DEPT      CNC       CALD        DEN       PORD       CORR        SPR       RFOC       RILD       RILM         AC        GRD   
# ...
  424.5000     0.2897     7.6920     2.5130     0.1000     0.0030   -40.0830    12.9240    11.1870    11.9230    92.7990   106.8020
  425.0000     0.2878     7.6920     2.5110     0.1010     0.0050   -40.4890    13.1640    11.0570    11.8140    92.8440   109.1880
  425.5000     0.2905     7.6910     2.5150     0.0980     0.0130   -40.8850    13.2140    10.9270    11.7060    92.7330   111.9080
  426.0000     0.2967     7.6910     2.5180     0.0960     0.0210   -41.2790    13.2600    10.7980    11.5970    92.6210   114.6720
  426.5000     0.3061     7.6910     2.5210     0.0950     0.0290   -41.6730    13.3050    10.6680    11.4880    92.5100   115.6600
  427.0000     0.3206     7.6910     2.5220     0.0960     0.0330   -42.0680    13.3510    10.5380    11.3800    92.3820   114.1330
  427.5000     0.3227     7.6900     2.5210     0.0960     0.0340   -42.4640    13.4080    10.4080    11.2710    92.2310   112.5240
  428.0000     0.3103     7.6900     2.5200     0.0970     0.0340   -42.8650    13.3730    10.2710    11.1570    92.1690   110.1220
  428.5000     0.2829     7.6900     2.5190     0.0970     0.0200   -42.9500    13.3260    10.2460    10.9830    92.2700   111.3910
  429.0000     0.2813     7.6890     2.5230     0.0950     0.0200   -42.9150    13.1640    10.2200    10.7990    92.3760   112.9010
  429.5000     0.2957     7.6890     2.5270     0.0920     0.0340   -42.6660    12.7230    10.1930    10.6160    92.7850   114.4300
  430.0000     0.3143     7.6890     2.5320     0.0910     0.0360   -42.4160    11.9440    10.1770    10.4320    93.5380   115.9650
  430.5000     0.3238     7.6890     2.5290     0.0940     0.0310   -42.1660    11.1570    10.1770    10.2490    94.2910   116.5310
  431.0000     0.3222     7.6880     2.5250     0.0960     0.0260   -41.9160    11.7070    10.5800    10.0190    94.8400   116.0140
  431.5000     0.3202     7.6880     2.5210     0.0960     0.0220   -41.6660    12.4040    10.9710    10.2710    94.6410   114.9000
  432.0000     0.3066     7.6880     2.5220     0.0950     0.0300   -41.4160    13.1000    11.3630    10.7080    93.6310   112.8770
  432.5000     0.2919     7.6870     2.5230     0.0950     0.0380   -41.1660    13.7830    11.7540    11.1150    92.6940   109.8800
  433.0000     0.2918     7.6870     2.5210     0.0960     0.0480   -40.9160    14.0270    12.1450    11.5220    91.8460   106.9260
  433.5000     0.2911     7.6870     2.5200     0.0960     0.0430   -40.6650    14.2660    12.5370    11.9290    91.0030   104.9170
  434.0000     0.2827     7.6870     2.5250     0.0930     0.0330   -40.4160    14.5050    12.9280    12.3350    90.2330   106.8440
  434.5000     0.2789     7.6860     2.5330     0.0890     0.0240   -40.1990    14.7430    13.3190    12.7420    89.5510   108.7060
  435.0000     0.2758     7.6860     2.5340     0.0900     0.0150   -40.5010    15.1100    13.5560    13.0480    88.6190   109.2060
  435.5000     0.2742     7.6860     2.5310     0.0920     0.0070   -40.8090    15.0840    13.6090    13.0640    87.7830   107.8910
  436.0000     0.2852     7.6860     2.5330     0.0880     0.0150   -41.1180    15.0260    13.6570    13.0800    87.5550   109.5760
  436.5000     0.2877     7.6850     2.5400     0.0850     0.0220   -41.4250    14.9690    13.6850    13.0960    87.7540   111.6800
  437.0000     0.2838     7.6850     2.5470     0.0820     0.0300   -41.7330    14.9120    13.7100    13.1120    88.0210   113.9270
  437.5000     0.2813     7.6850     2.5500     0.0830     0.0350   -42.0420    14.8550    13.7350    13.1280    88.3040   111.8860
  438.0000     0.2787     7.6840     2.5420     0.0870     0.0330   -42.3550    14.7970    13.7610    13.1440    88.5880   107.9420
  438.5000     0.2748     7.6840     2.5330     0.0920     0.0310   -42.7180    14.7400    13.7830    13.1600    88.8720   104.3120
  439.0000     0.2708     7.6840     2.5270     0.0920     0.0290   -42.7480    14.6830    13.7830    13.1760    89.0290   105.0720
  439.5000     0.2705     7.6840     2.5330     0.0880     0.0270   -42.7380    14.6260    13.7830    13.1920    88.9660   105.9280
  440.0000     0.2828     7.6830     2.5380     0.0850     0.0260   -42.7270    14.5650    13.9270    13.2080    88.6410   106.5520
  440.5000     0.2895     7.6830     2.5440     0.0810     0.0280   -42.7160    14.8690    14.1240    13.2240    88.2390   106.3640
  441.0000     0.2919     7.6830     2.5500     0.0770     0.0430   -42.7060    15.1120    14.3200    13.2400    87.8380   106.1940
  441.5000     0.2859     7.6830     2.5500     0.0780     0.0550   -42.6950    15.2990    14.5160    13.2560    87.7170   106.2780
  442.0000     0.2834     7.6830     2.5450     0.0810     0.0360   -42.6840    15.4860    14.7130    13.2730    87.6690   108.4850
  442.5000     0.2867     7.6830     2.5410     0.0850     0.0130   -42.6740    15.6760    15.1100    13.2860    87.6210   110.4090
  443.0000     0.2870     7.6830     2.5370     0.0880     0.0210   -42.6630    15.5330    14.9720    12.8620    87.5730   108.4360
  443.5000     0.2838     7.6830     2.5370     0.0890     0.0280   -42.6520    14.8350    14.3010    12.5030    87.7350   106.4320
  444.0000     0.2790     7.6830     2.5400     0.0850     0.0360   -42.6420    14.2690    13.6260    12.1440    88.0250   104.4360
  444.5000     0.2743     7.6830     2.5420     0.0850     0.0340   -42.6310    13.8640    12.9520    11.7890    88.3160   102.4360
  445.0000     0.2730     7.6830     2.5410     0.0850     0.0360   -42.6210    13.4590    12.2780    11.2930    88.6060   100.3570
  445.5000     0.2826     7.6830     2.5460     0.0820     0.0410   -42.6100    13.0530    11.6040    10.8030    89.3460   100.3040
  446.0000     0.2971     7.6830     2.5500     0.0790     0.0440   -42.5990    12.6480    10.9540    10.3130    90.1710   102.7090
  446.5000     0.3008     7.6830     2.5460     0.0810     0.0380   -42.5890    12.2430     9.7900     9.8230    90.9960   105.7700
  447.0000     0.3052     7.6830     2.5350     0.0870     0.0310   -42.5790    11.8380     8.7050     9.1720    91.8200   107.0920
  447.5000     0.2989     7.6830     2.5390     0.0890     0.0250   -42.5730    11.4330     7.7300     8.0390    92.6450   105.9880
  448.0000     0.2962     7.6830     2.5490     0.0840     0.0460   -42.6740    11.0550     6.7560     6.9050    93.7650   104.8820
  448.5000     0.3081     7.6830     2.5560     0.0800     0.0680   -43.1550    10.0560     5.7820     5.8950    95.6650   106.2610
  449.0000     0.3218     7.6830     2.5440     0.0790     0.0630   -43.6310     9.1980     4.8080     5.2100    97.5660   109.6190
  449.5000     0.3525     7.6830     2.5160     0.1110     0.0590   -44.1210     8.0060     3.8340     4.5250   100.7510   112.9570
  450.0000     0.4233     7.6830     2.4860     0.1340     0.0540   -44.0820     6.6590     3.5040     3.8400   104.8200   115.3940
  450.5000     0.4405     7.6830     2.3910     0.1720     0.0490   -42.8900     5.3120     3.5040     3.6350   114.6860   115.2430
  451.0000     0.4266     7.6830     2.3250     0.2110     0.0530   -41.7350     4.3090     3.5770     4.1380   123.3710   113.4230
  451.5000     0.4120     7.6830     2.2680     0.2500     0.0700   -40.5850     4.2500     3.7230     4.6840   127.1760   112.1920
  452.0000     0.3763     7.6830     2.2170     0.2760     0.0860   -39.6850     6.8570     3.8690     5.6000   124.0160   111.4840
  452.5000     0.3351     7.6830     2.2700     0.2490     0.0730   -39.4030     8.8620     4.2500     6.5160   114.5720   110.7940
  453.0000     0.3100     7.6830     2.3500     0.1950     0.0480   -39.5510    11.4690     5.3090     7.4320   105.1280   108.5490
  453.5000     0.2883     7.6830     2.4390     0.1320     0.0390   -39.7410    11.3950     6.4860     8.3470    95.1400   105.6880
  454.0000     0.2839     7.6830     2.5030     0.0980     0.0400   -39.5810    10.9030     7.6640     9.2630    94.2290   105.5040
  454.5000     0.3032     7.6830     2.5140     0.1010     0.0170   -39.4830    10.6560     8.8410    10.2710    94.4800   106.1670
