~VERSION INFORMATION
 VERS.                2.0:   CWLS LOG ASCII STANDARD - VERSION 2.0
 WRAP.                 NO:   ONE LINE PER DEPTH STEP
~WELL INFORMATION
#MNEM.UNIT      DATA TYPE    INFORMATION
#----------   ------------   ------------------------------
 STRT.F           12.0000:   START DEPTH
 STOP.F          563.5000:   STOP DEPTH
 STEP.F            0.5000:   STEP LENGTH
 NULL.          -999.2500:   NO VALUE
 COMP.       F D SERV INC:   COMPANY
 WELL. N P R 3 SX-3 #52-3:   WELL
 FLD .             TEAPOT:   FIELD
 LOC .       S3 T38N R78W:   LOCATION
 CNTY.            NATRONA:   COUNTY
 STAT.            WYOMING:   STATE
 CTRY. UNITED STATES OF AMERICA:   COUNTRY
 SRVC.     Atlas Wireline:   SERVICE COMPANY
 DATE.        27-APR-1992:   LOGDATE
 API .       490252252000:   API NUMBER
~CURVE INFORMATION
#MNEM.UNIT       API CODE    CURVE DESCRIPTION
#----------   ------------   ------------------------------
 DEPT.F                  :   
 PORZ.DEC    45 890 12 00:   DENSITY POROSITY
 CNC .DEC    42 890 03 00:   NEUTRON POROSITY SANDSTONE
 CALD.IN     45 280 60 00:   CALIPER FROM DENSITY
 GRD .GAPI   45 310 01 00:   GAMMA RAY FROM DENSITY LOG
 ZCOR.G/C3   45 356 01 00:   DENSITY CORRECTION
 ZDEN.G/C3   45 350 01 00:   BULK DENSITY
 RILD.OHMM   07 120 46 00:   INDUCTION LOG DEEP RESISTIVITY
 RILM.OHMM   07 120 44 00:   INDUCTION LOG MEDIUM RESISTIVITY
 RFOC.OHMM   07 220 04 00:   RESISTIVITY FOCUSED LOG
~PARAMETER INFORMATION
#MNEM.UNIT          VALUE    DESCRIPTION
#----------   ------------   ------------------------------
 PD  .                 GL:   PERMANENT DATUM
 EPD .F              5145:   ELEVATION PERMANENT DATUM
 LMF .                 KB:   LOG MEASURED FROM
 DAPD.F                 5:   FEET ABOVE PERMANENT DATUM
 DMF .                 KB:   DRILLING MEASURED FROM
 EKB .F              5150:   KELLING BUSHING
 EDF .F              5149:   DRILLING FLOOR
 EGL .F              5145:   GROUND LEVEL
 DATE.        27-APR-1992:   RUN DATE
 RUN .                  1:   RUN NUMBER
 DD  .F               565:   DEPTH DRILLER
 DL  .F               565:   DEPTH LOGGER
 BLI .F               563:   BOTTOM LOG INTERVAL
 CS  .IN            8.625:   CASING SIZE
 CBD .F                48:   CASING BOTTOM DRILLER
 CBL .F                51:   CASING BOTTOM LOGGER
 BS  .IN            7.875:   BIT SIZE
 BSD .F               565:   BIT SIZE AT DEPTH
 DFT .              WATER:   DRILLING FLUID TYPE
 TCS .HRS            0200:   TIME CURCULATED STOPPED
 MRT .F                88:   MAXIMUM RECORDED TEMPERATURE
 LUN .           HL- 6274:   LOGGING UNIT NUMBER
 LUL .             CASPER:   LOGGING UNIT LOCATION
 ENGI.             RAUTIO:   RECORDING ENGINEER
 WITN.        GARY STRONG:   WITNESSED BY
 CLNT.            A2DTECH:   CLIENT CODE
 ORIG.           5" PRINT:   ORIGIN OF DATA
 UWI .       490252252000:   UNIQUE WELL ID
 DICO. A2D Technologies, Inc.:   DIGITIZING COMPANY
~OTHER INFORMATION
~A   DEPT     PORZ        CNC       CALD        GRD       ZCOR       ZDEN       RILD       RILM       RFOC   
# ...
  413.5000     0.1384     0.2873     8.0608    89.4653     0.0125     2.4220    13.7633    13.5981    12.4722
  414.0000     0.1430     0.2870     8.0605    88.5757     0.0096     2.4122    13.5775    13.5963    13.1821
  414.5000     0.1418     0.2879     8.0603    88.5843     0.0081     2.4160    13.4810    13.3142    13.1958
  415.0000     0.1376     0.2931     8.0600    89.4911     0.0081     2.4244    13.2008    12.9476    12.9070
  415.5000     0.1307     0.2985     8.0596    89.2003     0.0159     2.4394    12.9264    12.5005    12.5375
  416.0000     0.1210     0.2961     8.0593    88.3128     0.0188     2.4515    12.5702    11.9916    11.8720
  416.5000     0.1189     0.2964     8.0590    88.6208     0.0188     2.4546    12.3040    11.8246    11.8704
  417.0000     0.1210     0.3005     8.0588    89.8270     0.0189     2.4493    11.9691    11.7412    11.7868
  417.5000     0.1219     0.3066     8.0585    91.6321     0.0189     2.4471    11.8019    11.7396    11.7037
  418.0000     0.1216     0.3124     8.0582    92.5389     0.0205     2.4502    11.7995    11.6568    11.7021
  418.5000     0.1167     0.3072     8.0729    92.5496     0.0251     2.4607    11.7156    11.5746    11.6195
  419.0000     0.1105     0.2988     8.0725    92.2567     0.0266     2.4645    11.6323    11.4925    11.6177
  419.5000     0.1104     0.2976     8.0722    91.0698     0.0282     2.4631    11.6300    11.4910    11.6161
  420.0000     0.1113     0.3042     8.0720    90.1781     0.0297     2.4631    11.7080    11.4895    11.6146
  420.5000     0.1131     0.3054     8.0717    90.4882     0.0282     2.4672    11.7057    11.4879    11.6130
  421.0000     0.1116     0.3027     8.0864    92.0200     0.0298     2.4752    11.7848    11.4864    11.6115
  421.5000     0.1050     0.2989     8.0860    92.3018     0.0299     2.4768    12.1139    11.8283    11.7722
  422.0000     0.1032     0.2967     8.0857    90.2168     0.0299     2.4617    12.7139    12.8328    11.8527
  422.5000     0.1095     0.2837     8.0854    86.6326     0.0284     2.4565    13.7256    14.5399    12.0163
  423.0000     0.1161     0.2858     8.0852    82.1501     0.0285     2.4512    15.5394    16.4741    12.2675
  423.5000     0.1191     0.3023     8.0849    77.0689     0.0240     2.4340    17.6021    18.2807    13.1475
  424.0000     0.1238     0.3139     8.0845    72.4552     0.0225     2.3858    19.9386    20.1450    15.3144
  424.5000     0.1516     0.3181     8.0842    69.3038     0.0286     2.3061    21.6647    22.4806    23.1196
  425.0000     0.1841     0.3211     8.0839    69.6119     0.0302     2.2948    24.7112    25.6813    26.1259
  425.5000     0.2100     0.3308     8.0836    71.4169     0.0226     2.2933    27.7979    27.9099    27.8063
  426.0000     0.2139     0.3375     8.0834    71.1258     0.0197     2.2866    30.7987    32.9685    26.1190
  426.5000     0.2158     0.3446     8.0830    71.1347     0.0213     2.2678    33.9755    33.1941    26.2975
  427.0000     0.2250     0.3516     8.0827    71.4448     0.0228     2.2611    34.4449    32.7195    27.9887
  427.5000     0.2338     0.3618     8.0824    71.7528     0.0274     2.2649    34.1983    31.3903    30.5582
  428.0000     0.2347     0.3627     8.0821    72.6596     0.0304     2.2800    33.4874    29.8966    33.9824
  428.5000     0.2238     0.3548     8.0968    74.1652     0.0229     2.3139    32.3396    29.0735    31.6995
  429.0000     0.2081     0.3425     8.0966    77.4672     0.0139     2.3305    30.7413    27.8830    28.3639
  429.5000     0.1946     0.3359     8.1113    79.5719     0.0095     2.3275    28.9299    26.1898    25.3793
  430.0000     0.1925     0.3308     8.1109    78.0854     0.0080     2.3276    28.5256    24.7708    25.0261
  430.5000     0.1940     0.3271     8.1257    76.2976     0.0141     2.3306    28.3228    24.9402    25.0516
  431.0000     0.1922     0.3244     8.1253    74.8092     0.0398     2.3370    28.5142    25.4612    26.0824
  431.5000     0.1871     0.3199     8.1400    73.0214     0.0730     2.3744    28.5085    26.5412    26.8131
  432.0000     0.1811     0.3089     8.1397    71.2336     0.0836     2.4136    28.5026    28.8444    27.1852
  432.5000     0.1479     0.2795     8.1394    68.4581     0.0731     2.4543    28.6955    28.6409    27.9459
  433.0000     0.1139     0.2327     8.1241    67.9574     0.0445     2.5002    28.0976    27.8317    36.8835
  433.5000     0.0895     0.2137     8.1088    70.0639     0.0189     2.4927    27.3233    26.8972    38.7146
  434.0000     0.0979     0.2134     8.1085    73.0666     0.0159     2.4182    26.7553    26.1567    33.2267
  434.5000     0.1368     0.2170     8.0933    76.9674     0.0129     2.3919    25.8383    25.0857    26.9774
  435.0000     0.1677     0.2529     8.0929    80.8983     0.0115     2.3648    25.1088    24.2262    21.3037
  435.5000     0.1750     0.2817     8.0926    82.6732     0.0115     2.3521    24.0962    23.3961    21.2765
  436.0000     0.1792     0.3154     8.0923    80.8875     0.0161     2.3529    23.4322    22.2600    21.7462
  436.5000     0.1774     0.3256     8.0920    79.0997     0.0222     2.3612    22.9451    21.5187    22.2008
  437.0000     0.1743     0.3278     8.0918    78.8068     0.0252     2.3620    22.4681    21.0721    22.1971
  437.5000     0.1728     0.3314     8.0914    80.3146     0.0268     2.3590    22.1542    20.3501    20.7059
  438.0000     0.1746     0.3332     8.0911    81.2216     0.0283     2.3560    21.8445    20.3474    20.5600
  438.5000     0.1770     0.3341     8.0908    80.6311     0.0269     2.3561    21.8392    20.3447    20.4150
  439.0000     0.1779     0.3347     8.0905    80.0410     0.0269     2.3570    21.8348    20.3413    20.4123
  439.5000     0.1767     0.3347     8.0902    80.9499     0.0270     2.3592    21.9824    20.6231    20.4095
  440.0000     0.1746     0.3324     8.0900    84.5513     0.0255     2.3577    22.1310    21.0546    20.5490
  440.5000     0.1752     0.3278     8.0896    84.8593     0.0210     2.3509    22.1265    21.1992    20.6887
  441.0000     0.1785     0.3244     8.0893    83.2794     0.0133     2.3480    22.2853    21.0489    20.6859
  441.5000     0.1812     0.3232     8.0890    80.9865     0.0075     2.3473    22.4266    20.9005    20.5401
  442.0000     0.1827     0.3241     8.0887    79.7975     0.0045     2.3465    22.5782    20.7523    20.5374
  442.5000     0.1821     0.3222     8.1034    78.9079     0.0061     2.3451    22.8878    20.7496    20.3925
  443.0000     0.1812     0.3163     8.1182    80.7129     0.0137     2.3443    23.0437    20.6032    20.3892
  443.5000     0.1824     0.3124     8.1329    84.3583     0.0214     2.3444    23.0379    20.6005    20.5292
  444.0000     0.1836     0.3100     8.1325    87.0175     0.0274     2.3452    22.7160    20.4551    20.6694
  444.5000     0.1836     0.3075     8.1322    84.9324     0.0259     2.3460    22.2427    20.3108    20.6659
  445.0000     0.1827     0.3069     8.1469    82.2464     0.0184     2.3460    21.7803    20.3075    20.6632
  445.5000     0.1815     0.3081     8.1466    80.4586     0.0109     2.3483    21.3276    20.1642    20.5174
  446.0000     0.1788     0.3112     8.1463    80.7666     0.0064     2.3581    20.8842    19.8834    19.6774
  446.5000     0.1706     0.3127     8.1460    82.6008     0.0140     2.3732    20.7357    19.7431    19.4035
  447.0000     0.1634     0.3142     8.1307    83.4806     0.0216     2.3801    20.5883    19.7405    19.2667
  447.5000     0.1619     0.3151     8.1154    82.2916     0.0277     2.3786    20.4409    19.6012    19.2642
  448.0000     0.1637     0.3145     8.1001    81.1026     0.0292     2.3786    20.2956    19.8721    19.2616
  448.5000     0.1631     0.3115     8.0998    81.1112     0.0275     2.3794    20.2915    20.2879    19.2589
  449.0000     0.1592     0.3039     8.0845    81.7186     0.0188     2.3862    20.2875    20.5689    19.3906
  449.5000     0.1501     0.3002     8.0842    83.5708     0.0203     2.4036    20.2834    20.2825    19.5230
