~VERSION INFORMATION
 VERS.                2.0:   CWLS LOG ASCII STANDARD - VERSION 2.0
 WRAP.                 NO:   ONE LINE PER DEPTH STEP
~WELL INFORMATION
#MNEM.UNIT      DATA TYPE    INFORMATION
#----------   ------------   ------------------------------
 STRT.F            0.0000:   START DEPTH
 STOP.F          523.0000:   STOP DEPTH
 STEP.F            0.1000:   STEP LENGTH
 NULL.          -999.2500:   NO VALUE
 COMP.       F D SERV INC:   COMPANY
 WELL. NAVAL PETROLEUM RESERVE 3 SX-3 #87-3:   WELL
 FLD .             TEAPOT:   FIELD
 LOC .       S3 T38N R78W:   LOCATION
 CNTY.            NATRONA:   COUNTY
 STAT.            WYOMING:   STATE
 CTRY. UNITED STATES OF AMERICA:   COUNTRY
 SRVC.      Western Atlas:   SERVICE COMPANY
 DATE.        22-NOV-1992:   LOGDATE
 API .       490252254300:   API NUMBER
~CURVE INFORMATION
#MNEM.UNIT       API CODE    CURVE DESCRIPTION
#----------   ------------   ------------------------------
 DEPT.F                  :   
 GRR .GAPI   07 310 01 00:   GAMMA RAY
 RILD.OHMM   07 120 46 00:   INDUCTION LOG DEEP RESISTIVITY
 RILM.OHMM   07 120 44 00:   INDUCTION LOG MEDIUM RESISTIVITY
~PARAMETER INFORMATION
#MNEM.UNIT          VALUE    DESCRIPTION
#----------   ------------   ------------------------------
 PD  .                 GL:   PERMANENT DATUM
 EPD .F              5129:   ELEVATION PERMANENT DATUM
 LMF .                 KB:   LOG MEASURED FROM
 DAPD.F                10:   FEET ABOVE PERMANENT DATUM
 DMF .                 KB:   DRILLING MEASURED FROM
 EKB .F              5139:   KELLING BUSHING
 EDF .F              5138:   DRILLING FLOOR
 EGL .F              5129:   GROUND LEVEL
 DATE.        22-NOV-1992:   RUN DATE
 RUN .                  1:   RUN NUMBER
 DD  .F               530:   DEPTH DRILLER
 DL  .F               531:   DEPTH LOGGER
 BLI .F               530:   BOTTOM LOG INTERVAL
 TLI .F                58:   TOP LOG INTERVAL
 CS  .IN            8.625:   CASING SIZE
 CBD .F                58:   CASING BOTTOM DRILLER
 CBL .F                58:   CASING BOTTOM LOGGER
 BS  .IN            7.875:   BIT SIZE
 BSD .F               530:   BIT SIZE AT DEPTH
 DFT .           AIR FOAM:   DRILLING FLUID TYPE
 MRT .F                73:   MAXIMUM RECORDED TEMPERATURE
 LUN .            HL-6274:   LOGGING UNIT NUMBER
 LUL .             CASPER:   LOGGING UNIT LOCATION
 ENGI.       P. RASMUSSEN:   RECORDING ENGINEER
 WITN.          G. STRONG:   WITNESSED BY
 CLNT.            A2DTECH:   CLIENT CODE
 ORIG.           5" PRINT:   ORIGIN OF DATA
 UWI .       490252254300:   UNIQUE WELL ID
 DICO. A2D Technologies, Inc.:   DIGITIZING COMPANY
~OTHER INFORMATION
~A    DEPT      GRR      RILD       RILM   
# ...
  236.6000   139.9106     4.2514     4.5285
  236.7000   138.9668     4.1457     4.4001
  236.8000   137.4560     4.0624     4.2977
  236.9000   136.4669     4.0008     4.2345
  237.0000   136.2835     3.9457     4.1800
  237.1000   136.2818     3.8744     4.0783
  237.2000   136.2800     3.7847     3.9953
  237.3000   136.2781     3.6219     3.9062
  237.4000   136.2763     3.5193     3.8189
  237.5000   136.2745     3.4401     3.7292
  237.6000   136.2905     3.3627     3.6220
  237.7000   136.5723     3.2868     3.5437
  237.8000   136.5708     3.1997     3.4646
  237.9000   136.8613     3.1408     3.3872
  238.0000   137.3475     3.0701     3.3018
  238.1000   137.8335     3.0010     3.1920
  238.2000   138.3732     2.9354     3.1034
  238.3000   138.5887     2.8806     3.0171
  238.4000   138.6715     2.8512     2.9513
  238.5000   138.6697     2.7977     2.8965
  238.6000   138.6679     2.7414     2.8330
  238.7000   138.6660     2.6980     2.7783
  238.8000   138.6642     2.6667     2.7517
  238.9000   138.6624     2.6371     2.7396
  239.0000   138.6606     2.6181     2.7395
  239.1000   138.6588     2.5880     2.7394
  239.2000   138.6570     2.5563     2.7393
  239.3000   138.6552     2.5561     2.7392
  239.4000   138.4679     2.5557     2.7390
  239.5000   138.0944     2.5555     2.7389
  239.6000   137.4649     2.5552     2.7388
  239.7000   136.4754     2.5549     2.7387
  239.8000   135.0259     2.5547     2.7386
  239.9000   134.0320     2.5543     2.7498
  240.0000   132.1062     2.5541     2.7575
  240.1000   129.4150     2.5538     2.7574
  240.2000   126.3697     2.5599     2.7573
  240.3000   124.1572     2.5741     2.7571
  240.4000   123.3093     2.5887     2.7693
  240.5000   122.9472     2.6174     2.7849
  240.6000   122.9454     2.6245     2.8005
  240.7000   122.9819     2.6476     2.8175
  240.8000   123.2433     2.6926     2.8543
  240.9000   123.2417     2.7374     2.8816
  241.0000   123.5737     2.7736     2.9344
  241.1000   124.1691     2.8261     3.0077
  241.2000   124.8989     2.8807     3.0884
  241.3000   125.6476     2.9297     3.1461
  241.4000   126.5968     2.9817     3.1945
  241.5000   127.5706     3.0561     3.2489
  241.6000   128.6669     3.1194     3.3042
  241.7000   129.9499     3.2030     3.3603
  241.8000   131.3975     3.2861     3.4197
  241.9000   132.3711     3.3567     3.4946
  242.0000   133.5384     3.4146     3.5743
  242.1000   134.6210     3.4719     3.6557
  242.2000   135.5173     3.5463     3.7388
  242.3000   136.2077     3.6491     3.8237
  242.4000   136.4872     3.7554     3.9110
  242.5000   137.1038     3.8205     3.9825
  242.6000   138.5018     3.9225     4.0502
  242.7000   140.9984     3.9781     4.1338
  242.8000   142.7458     4.0458     4.2478
  242.9000   144.0993     4.1322     4.3317
  243.0000   146.2742     4.2432     4.3938
  243.1000   148.5409     4.3220     4.4686
  243.2000   148.9481     4.4117     4.5541
  243.3000   149.2875     4.4949     4.6576
  243.4000   149.4407     4.5597     4.7745
  243.5000   149.4389     4.6168     4.8973
  243.6000   149.4369     4.6963     4.9993
  243.7000   149.2178     4.7753     5.0844
  243.8000   148.8124     4.8357     5.1765
  243.9000   148.4248     4.9198     5.2994
  244.0000   148.0908     4.9854     5.4150
  244.1000   147.3163     4.9761     5.5157
  244.2000   147.0842     5.0108     5.5941
  244.3000   147.0112     5.0672     5.6493
  244.4000   147.1244     5.1244     5.6814
  244.5000   147.3092     5.2054     5.7457
  244.6000   147.3074     5.3108     5.7851
  244.7000   147.3055     5.4216     5.7998
  244.8000   147.8612     5.5108     5.8096
  244.9000   148.3351     5.5816     5.8422
  245.0000   148.6477     5.6636     5.8804
  245.1000   149.1337     5.7809     5.9642
  245.2000   149.7095     5.8990     6.0657
  245.3000   149.9069     5.9934     6.1434
  245.4000   150.4314     6.0650     6.1824
  245.5000   151.0779     6.1621     6.2596
  245.6000   151.5383     6.2167     6.2910
  245.7000   151.8121     6.2855     6.3263
  245.8000   151.8106     6.3653     6.3467
  245.9000   151.8087     6.3646     6.3465
  246.0000   151.5172     6.4006     6.3462
  246.1000   150.8225     6.4077     6.3459
  246.2000   150.2949     6.3869     6.3456
  246.3000   149.6180     6.3618     6.3454
  246.4000   148.7173     6.3610     6.3364
  246.5000   147.8492     6.3603     6.3008
  246.6000   147.2193     6.3597     6.3006
  246.7000   146.9677     6.3362     6.2729
  246.8000   145.2985     6.3141     6.2563
  246.9000   143.4089     6.3011     6.2454
  247.0000   142.3147     6.2253     6.2123
  247.1000   141.9391     6.1915     6.2120
  247.2000   141.2126     6.1559     6.1828
  247.3000   140.7230     6.1039     6.1478
  247.4000   140.6202     6.0430     6.1130
  247.5000   140.7541     6.0082     6.0784
  247.6000   140.9963     5.9736     6.0400
  247.7000   141.2383     5.9392     6.0097
  247.8000   141.5177     5.8864     5.9538
  247.9000   141.9292     5.8303     5.9005
  248.0000   142.2664     5.7967     5.8612
  248.1000   142.4175     5.7589     5.7916
  248.2000   142.5159     5.7021     5.6997
  248.3000   143.3187     5.6172     5.6262
  248.4000   143.9760     5.5345     5.5482
  248.5000   144.7060     5.4662     5.4621
  248.6000   145.4358     5.3684     5.4004
  248.7000   146.1657     5.2544     5.3097
  248.8000   146.9296     5.1570     5.1982
  248.9000   147.6259     5.0972     5.1124
  249.0000   148.3561     5.0607     5.0548
  249.1000   148.9689     5.0030     4.9978
  249.2000   149.3953     4.9462     4.9318
  249.3000   149.6373     4.9119     4.9088
  249.4000   149.8795     4.8682     4.8648
  249.5000   150.3097     4.8218     4.8292
  249.6000   150.9262     4.7913     4.8225
  249.7000   151.8744     4.7298     4.7619
  249.8000   153.3655     4.6830     4.7618
  249.9000   155.6576     4.6465     4.7443
  250.0000   156.4605     4.6305     4.7065
  250.1000   157.5779     4.6206     4.6627
  250.2000   158.7958     4.5654     4.6624
  250.3000   159.9861     4.5405     4.6374
  250.4000   161.0785     4.5327     4.6295
  250.5000   162.1475     4.5322     4.6168
  250.6000   163.2092     4.5317     4.5968
  250.7000   163.7883     4.5312     4.5966
  250.8000   163.7864     4.5307     4.5964
  250.9000   163.7845     4.5098     4.5960
  251.0000   163.7829     4.4982     4.5958
  251.1000   163.6115     4.4977     4.5955
  251.2000   163.1422     4.4972     4.5973
  251.3000   161.9753     4.4967     4.6271
  251.4000   159.2507     4.4963     4.6269
  251.5000   158.0469     4.4957     4.6426
  251.6000   156.0949     4.4952     4.6686
  251.7000   154.1129     4.4994     4.6911
  251.8000   152.3353     4.5256     4.6908
  251.9000   150.5577     4.5251     4.7146
  252.0000   148.7802     4.5246     4.7411
  252.1000   147.0271     4.5368     4.7677
  252.2000   145.3329     4.5688     4.7944
  252.3000   144.4961     4.6195     4.8220
  252.4000   143.2083     4.6503     4.8751
  252.5000   141.9254     4.6710     4.9096
  252.6000   141.0980     4.7276     4.9372
  252.7000   141.0948     4.7802     4.9725
  252.8000   141.0920     4.7886     5.0275
  252.9000   141.0890     4.8801     5.0612
  253.0000   141.0860     4.9531     5.0841
  253.1000   141.0830     5.0189     5.1293
  253.2000   141.0800     5.0876     5.1772
  253.3000   141.5705     5.1685     5.2094
  253.4000   141.6773     5.2293     5.2758
  253.5000   141.9418     5.3145     5.3017
  253.6000   142.4291     5.3827     5.3507
  253.7000   142.9165     5.4434     5.4112
  253.8000   143.4747     5.5131     5.4723
  253.9000   144.3092     5.6046     5.5380
  254.0000   144.8285     5.6419     5.6266
  254.1000   145.2635     5.6931     5.6996
  254.2000   145.9962     5.7573     5.7640
  254.3000   146.7781     5.8336     5.8292
  254.4000   147.6888     5.9252     5.8949
  254.5000   148.8385     5.9621     5.9617
  254.6000   149.9459     5.9913     6.0291
  254.7000   150.9233     6.0470     6.0973
