~VERSION INFORMATION
 VERS.                2.0:   CWLS LOG ASCII STANDARD - VERSION 2.0
 WRAP.                 NO:   ONE LINE PER DEPTH STEP
~WELL INFORMATION
#MNEM.UNIT      DATA TYPE    INFORMATION
#----------   ------------   ------------------------------
 STRT.F            4.0000:   START DEPTH
 STOP.F          584.0000:   STOP DEPTH
 STEP.F            0.1000:   STEP LENGTH
 NULL.          -999.2500:   NO VALUE
 COMP.       F D SERV INC:   COMPANY
 WELL. N P R 3 SX-3 #62-3:   WELL
 FLD .             TEAPOT:   FIELD
 LOC .       S3 T38N R78W:   LOCATION
 CNTY.            NATRONA:   COUNTY
 STAT.            WYOMING:   STATE
 CTRY. UNITED STATES OF AMERICA:   COUNTRY
 SRVC.     Atlas Wireline:   SERVICE COMPANY
 DATE.        17-APR-1992:   LOGDATE
 API .       490252251600:   API NUMBER
~CURVE INFORMATION
#MNEM.UNIT       API CODE    CURVE DESCRIPTION
#----------   ------------   ------------------------------
 DEPT.F                  :   
 GRR .GAPI   07 310 01 00:   GAMMA RAY
 RILD.OHMM   07 120 46 00:   INDUCTION LOG DEEP RESISTIVITY
 RILM.OHMM   07 120 44 00:   INDUCTION LOG MEDIUM RESISTIVITY
~PARAMETER INFORMATION
#MNEM.UNIT          VALUE    DESCRIPTION
#----------   ------------   ------------------------------
 PD  .                 GL:   PERMANENT DATUM
 EPD .F              5135:   ELEVATION PERMANENT DATUM
 LMF .                 KB:   LOG MEASURED FROM
 DAPD.F                 5:   FEET ABOVE PERMANENT DATUM
 DMF .                 KB:   DRILLING MEASURED FROM
 EKB .F              5140:   KELLING BUSHING
 EDF .F              5139:   DRILLING FLOOR
 EGL .F              5135:   GROUND LEVEL
 DATE.        17-APR-1992:   RUN DATE
 RUN .                  1:   RUN NUMBER
 DD  .F               589:   DEPTH DRILLER
 DL  .F               590:   DEPTH LOGGER
 BLI .F               584:   BOTTOM LOG INTERVAL
 TLI .F                48:   TOP LOG INTERVAL
 CS  .IN            8.625:   CASING SIZE
 CBD .F                48:   CASING BOTTOM DRILLER
 CBL .F                48:   CASING BOTTOM LOGGER
 BS  .IN            7.875:   BIT SIZE
 BSD .F               589:   BIT SIZE AT DEPTH
 DFT .                AIR:   DRILLING FLUID TYPE
 TCS .HRS               2:   TIME CURCULATED STOPPED
 MRT .F                85:   MAXIMUM RECORDED TEMPERATURE
 LUN .            HL-6274:   LOGGING UNIT NUMBER
 LUL .             CASPER:   LOGGING UNIT LOCATION
 ENGI.             RAUTIO:   RECORDING ENGINEER
 WITN.        GARY STRONG:   WITNESSED BY
 CLNT.            A2DTECH:   CLIENT CODE
 ORIG.           5" PRINT:   ORIGIN OF DATA
 UWI .       490252251600:   UNIQUE WELL ID
 DICO. A2D Technologies, Inc.:   DIGITIZING COMPANY
~OTHER INFORMATION
~A    DEPT      GRR      RILD       RILM   
# ...
  550.0000   106.8405    12.0365    11.8796
  550.1000   106.5194    12.0369    11.8791
  550.2000   106.1785    12.0373    11.8787
  550.3000   105.7576    12.0377    11.8783
  550.4000   105.7576    12.0381    11.8779
  550.5000   105.7576    12.0385    11.8775
  550.6000   106.1109    12.0389    11.8591
  550.7000   106.6074    12.0394    11.7888
  550.8000   107.2377    12.0399    11.6301
  550.9000   108.2550    12.0402    11.5232
  551.0000   110.0000    12.0406    11.3926
  551.1000   110.8225    12.0160    11.2860
  551.2000   111.8159    11.9480    11.2137
  551.3000   112.6167    11.8744    11.0735
  551.4000   113.1547    11.8132    11.0169
  551.5000   113.9394    11.7464    10.9542
  551.6000   114.4095    11.7105    10.9192
  551.7000   114.9058    11.6955    10.9057
  551.8000   115.4023    11.6293    10.8427
  551.9000   115.8990    11.5636    10.7218
  552.0000   116.3795    11.4981    10.6917
  552.1000   116.6667    11.4331    10.6915
  552.2000   117.2952    11.3893    10.6731
  552.3000   117.7306    11.3835    10.6167
  552.4000   118.0789    11.3107    10.6165
  552.5000   118.5300    11.2551    10.6163
  552.6000   118.7879    11.1915    10.6161
  552.7000   119.0266    11.1545    10.6159
  552.8000   119.4587    11.1429    10.6158
  552.9000   119.8261    11.0774    10.6155
  553.0000   120.0746    11.0778    10.6153
  553.1000   120.3428    11.0781    10.5728
  553.2000   120.9091    11.0785    10.5410
  553.3000   121.1223    11.0613    10.5409
  553.4000   121.2121    10.9987    10.5407
  553.5000   121.3157    10.9256    10.5405
  553.6000   121.5641    10.8746    10.4930
  553.7000   121.8182    10.8501    10.4666
  553.8000   122.0607    10.8505    10.4467
  553.9000   122.3088    10.8419    10.3934
  554.0000   122.4242    10.7755    10.3931
  554.1000   122.3460    10.7759    10.3930
  554.2000   122.0979    10.7762    10.3928
  554.3000   121.8182    10.7481    10.3926
  554.4000   121.6013    10.6874    10.3925
  554.5000   121.3531    10.6269    10.3922
  554.6000   120.8902    10.5667    10.3352
  554.7000   120.2503    10.5540    10.3195
  554.8000   120.0000    10.5210    10.3193
  554.9000   119.2615    10.4811    10.3191
  555.0000   118.8996    10.4814    10.3189
  555.1000   118.3780    10.4819    10.3187
  555.2000   117.7969    10.4822    10.3186
  555.3000   117.5217    10.4439    10.3184
  555.4000   116.9697    10.3848    10.3182
  555.5000   116.7491    10.3260    10.3098
  555.6000   116.5008    10.2657    10.2459
  555.7000   116.3636    10.2660    10.2458
  555.8000   116.3636    10.2232    10.2060
  555.9000   116.3636    10.1951    10.1479
  556.0000   116.3636    10.1954    10.1029
  556.1000   116.3636    10.1958    10.1027
  556.2000   116.3636    10.1962    10.1025
  556.3000   116.3636    10.1483    10.1024
  556.4000   116.3636    10.0909    10.0712
  556.5000   116.3636    10.0338    10.0316
  556.6000   116.3636     9.9855    10.0315
  556.7000   116.3636     9.9859    10.0313
  556.8000   116.3636     9.9863     9.9824
  556.9000   116.3636     9.9470     9.9610
  557.0000   116.3636     9.9173     9.9159
  557.1000   116.3636     9.9176     9.8224
  557.2000   116.3636     9.9179     9.8221
  557.3000   116.3636     9.9183     9.8219
  557.4000   116.3636     9.8742     9.7820
  557.5000   116.3636     9.7870     9.7532
  557.6000   116.3636     9.6946     9.7531
  557.7000   116.3636     9.6456     9.7529
  557.8000   116.3636     9.6460     9.7527
  557.9000   116.4823     9.5980     9.7082
  558.0000   116.9220     9.5437     9.6844
  558.1000   117.9154     9.4896     9.6653
  558.2000   119.0909     9.4468     9.6166
  558.3000   119.6984     9.4471     9.6164
  558.4000   120.5910     9.4474     9.5677
  558.5000   121.3984     9.4477     9.5490
  558.6000   121.8952     9.4481     9.5488
  558.7000   122.4242     9.4642     9.5487
  558.8000   123.1198     9.5187     9.5485
  558.9000   123.5105     9.5824     9.5483
  559.0000   123.8811     9.5827     9.5889
  559.1000   124.3774     9.6166     9.6435
  559.2000   124.8614     9.6507     9.6824
  559.3000   125.1515     9.6598     9.6788
  559.4000   125.5639     9.7192     9.6145
  559.5000   125.9091     9.8236     9.5689
  559.6000   126.1575     9.8968     9.5144
  559.7000   126.4481     9.8730     9.4602
  559.8000   126.9697     9.7613     9.4063
  559.9000   127.2052     9.6519     9.3485
  560.0000   127.4534     9.5972     9.2994
  560.1000   127.5758     9.4998     9.2830
  560.2000   127.5758     9.4228     9.2828
  560.3000   127.6092     9.3877     9.2827
  560.4000   128.1818     9.3880     9.2825
  560.5000   128.1818     9.3884     9.2823
  560.6000   128.3371     9.3887     9.2822
  560.7000   128.4848     9.3890     9.2820
  560.8000   128.4848     9.3893     9.2818
  560.9000   128.4848     9.4008     9.2817
  561.0000   128.2456     9.4560     9.2815
  561.1000   127.9973     9.4563     9.2814
  561.2000   127.7490     9.4566     9.2812
  561.3000   127.5758     9.4570     9.2810
  561.4000   127.5758     9.4573     9.2809
  561.5000   127.5758     9.4576     9.2807
  561.6000   127.5758     9.4580     9.2805
  561.7000   127.5758     9.4583     9.2804
  561.8000   127.5758     9.4586     9.2802
  561.9000   127.6252     9.4589     9.2801
  562.0000   127.8788     9.4681     9.2799
  562.1000   128.1220     9.5261     9.2797
  562.2000   128.3701     9.5264     9.2796
  562.3000   128.4848     9.5268     9.2794
  562.4000   128.4848     9.5272     9.2792
  562.5000   128.5086     9.5136     9.2791
  562.6000   128.7879     9.4613     9.2789
  562.7000   128.7879     9.4617     9.2788
  562.8000   128.7879     9.4620     9.2786
  562.9000   128.6799     9.4623     9.2784
  563.0000   128.4848     9.4439     9.2670
  563.1000   128.4848     9.3969     9.2135
  563.2000   127.7449     9.3973     9.2133
  563.3000   127.3838     9.3976     9.2132
  563.4000   126.8611     9.3979     9.2130
  563.5000   126.2811     9.3982     9.2129
  563.6000   126.0328     9.3986     9.2127
  563.7000   125.7576     9.3989     9.2125
  563.8000   125.3149     9.3992     9.2124
  563.9000   124.9850     9.3995     9.2122
  564.0000   124.8485     9.3999     9.1917
  564.1000   124.7916     9.4002     9.1477
  564.2000   124.5455     9.4005     9.1475
  564.3000   124.5455     9.4009     9.0509
  564.4000   124.3497     9.4012     9.0202
  564.5000   124.1014     9.4015     9.0200
  564.6000   123.9394     9.3806     9.0072
  564.7000   123.9394     9.3365     8.9568
  564.8000   123.9394     9.3369     8.9566
  564.9000   123.9394     9.2872     8.9163
  565.0000   123.9394     9.2346     8.8373
  565.1000   123.9394     9.2080     8.7702
  565.2000   123.9394     9.1946     8.7647
  565.3000   123.9453     9.1443     8.7088
  565.4000   124.2424     9.1447     8.6653
  565.5000   124.6414     9.1030     8.6159
  565.6000   124.8485     9.0216     8.5669
  565.7000   125.0282     8.9554     8.5180
  565.8000   125.5249     8.9493     8.4678
  565.9000   126.0606     8.8936     8.4677
  566.0000   126.3636     8.8483     8.4322
  566.1000  -999.2500     8.7983     8.3841
  566.2000  -999.2500     8.7485     8.3363
  566.3000  -999.2500     8.6990     8.2888
  566.4000  -999.2500     8.6494     8.2334
  566.5000  -999.2500     8.6009     8.2333
  566.6000  -999.2500     8.5151     8.2053
  566.7000  -999.2500     8.4445     8.1756
  566.8000  -999.2500     8.3967     8.1755
  566.9000  -999.2500     8.3453     8.1753
  567.0000  -999.2500     8.2373     8.1752
  567.1000  -999.2500     8.2376     8.1750
  567.2000  -999.2500     8.2083     8.1748
  567.3000  -999.2500     8.1806     8.1747
  567.4000  -999.2500     8.1809     8.1746
  567.5000  -999.2500     8.1812     8.1744
  567.6000  -999.2500     8.1815     8.1743
  567.7000  -999.2500     8.1818     8.1490
  567.8000  -999.2500     8.1590     8.1170
  567.9000  -999.2500     8.1377     8.1169
  568.0000  -999.2500     8.1826     8.1167
  568.1000  -999.2500     8.1830     8.0771
