~VERSION INFORMATION
 VERS.                2.0:   CWLS LOG ASCII STANDARD - VERSION 2.0
 WRAP.                 NO:   ONE LINE PER DEPTH STEP
~WELL INFORMATION
#MNEM.UNIT      DATA TYPE    INFORMATION
#----------   ------------   ------------------------------
 STRT.F           30.0000:   START DEPTH
 STOP.F          515.0000:   STOP DEPTH
 STEP.F            0.5000:   STEP LENGTH
 NULL.          -999.2500:   NO VALUE
 COMP. FENIX & SCISSON INC:   COMPANY
 WELL.      FP SX-3 #63-3:   WELL
 FLD .              NPR 3:   FIELD
 LOC .       S3 T38N R78W:   LOCATION
 CNTY.            NATRONA:   COUNTY
 STAT.            WYOMING:   STATE
 CTRY. UNITED STATES OF AMERICA:   COUNTRY
 SRVC.              Welex:   SERVICE COMPANY
 DATE.        21-JUN-1980:   LOGDATE
 API .       490251082100:   API NUMBER
~CURVE INFORMATION
#MNEM.UNIT       API CODE    CURVE DESCRIPTION
#----------   ------------   ------------------------------
 DEPT.F                  :   
 SPR .MV     07 010 01 00:   SPONTANEOUS POTENTIAL
 SGRD.OHMM   07 220 05 00:   SHALLOW GUARD RESISTIVITY
 ILD .OHMM   07 120 46 00:   INDUCTION LOG DEEP RESISTIVITY
 ILM .OHMM   07 120 44 00:   INDUCTION LOG MEDIUM
 CALD.IN     45 280 60 00:   CALIPER
 GRD .GAPI   45 310 01 00:   GAMMA RAY FROM DENSITY LOG
 CORR.G/C3   45 356 01 00:   DENSITY CORRECTION
 RHOB.G/C3   45 350 01 00:   BULK DENSITY
 DPHI.DEC    45 890 12 00:   DENSITY POROSITY SANDSTONE
 NPHI.DEC    42 890 03 00:   NEUTRON POROSITY SANDSTONE
~PARAMETER INFORMATION
#MNEM.UNIT          VALUE    DESCRIPTION
#----------   ------------   ------------------------------
 PD  .                 GL:   PERMANENT DATUM
 EPD .F              5160:   ELEVATION PERMANENT DATUM
 LMF .                 KB:   LOG MEASURED FROM
 DAPD.F                 5:   FEET ABOVE PERMANENT DATUM
 DMF .                 KB:   DRILLING MEASURED FROM
 EKB .F              5165:   KELLING BUSHING
 EGL .F              5160:   GROUND LEVEL
 DATE.            6-21-80:   RUN DATE
 RUN .                  1:   RUN NUMBER
 DD  .F               508:   DEPTH DRILLER
 DL  .F               517:   DEPTH LOGGER
 BLI .F               515:   BOTTOM LOG INTERVAL
 TLI .F                35:   TOP LOG INTERVAL
 BS  .IN            9.875:   BIT SIZE
 BSD .F               508:   BIT SIZE AT DEPTH
 DFT .            KCL MUD:   DRILLING FLUID TYPE
 DFD .                9.2:   DRILLING FLUID DENSITY
 DFV .                 50:   DRILLING FLUID VISCOSITY
 DFPH.                8.5:   DRILLING FLUID PH
 DFL .                  8:   DRILLING FLUID LOSS
 MSS .           FLOWLINE:   MUD SAMPLE SOURCE
 RMS .OHMM            .42:   RESISTIVITY MUD SAMPLE
 MST .F                63:   MUD SAMPLE TEMPERATURE
 RMF .OHMM            .34:   RESISTIVITY MUD FILTRATE SAMPLE
 MFST.F                63:   MUD FILTRATE SAMPLE TEMPERATURE
 RMC .OHMM             .5:   RESISTIVITY MUD CAKE
 MCST.F                63:   MUD CAKE SAMPLE TEMPERATURE
 MFSS.           MEASURED:   MUD FILTRATE SAMPLE SOURCE
 MCSS.           MEASURED:   MUD CAKE SAMPLE SOURCE
 RMB .OHMM            .35:   RESISTIVITY MUD AT BHT
 BHT .F                75:   BOTTOM HOLE TEMPERATURE
 TCS .HRS             1.5:   TIME CURCULATED STOPPED
 MRT .F                75:   MAXIMUM RECORDED TEMPERATURE
 LUN .               9685:   LOGGING UNIT NUMBER
 LUL .             CASPER:   LOGGING UNIT LOCATION
 ENGI.            TOTHILL:   RECORDING ENGINEER
 WITN.           DINSMORE:   WITNESSED BY
 CLNT.            A2DTECH:   CLIENT CODE
 ORIG.           5" PRINT:   ORIGIN OF DATA
 UWI .       490251082100:   UNIQUE WELL ID
 DICO. A2D Technologies, Inc.:   DIGITIZING COMPANY
~OTHER INFORMATION
~A   DEPT      SPR       SGRD        ILD        ILM        CALD       GRD         CORR       RHOB       DPHI       NPHI 
# ...
  298.0000   -19.2661    20.5667    19.8146    12.9641     9.9780    62.5025     0.0817     2.2924     0.2195     0.2583
  298.5000   -19.3352    22.0237    19.8146    13.2762     9.9780    62.2467     0.0945     2.3111     0.2021     0.2590
  299.0000   -19.1640    23.6500    19.5215    13.1883     9.9779    64.0370     0.1133     2.3357     0.1835     0.2580
  299.5000   -18.9276    22.0677    19.1006    13.0608     9.9781    65.8369     0.1316     2.3599     0.1672     0.2596
  300.0000   -18.6911    20.5667    18.6889    12.9347     9.9809    67.6488     0.1483     2.3985     0.1591     0.2574
  300.5000   -18.5179    21.9520    18.2860    12.8089     9.9837    68.8739     0.1556     2.4093     0.1544     0.2497
  301.0000   -18.6167    20.9989    17.8918    12.6831     9.9865    69.0193     0.1625     2.4149     0.1528     0.2444
  301.5000   -18.7144    19.6309    17.5553    12.5547     9.9892    69.1310     0.1693     2.4183     0.1416     0.2400
  302.0000   -18.9415    22.3647    17.3982    13.2050     9.9920    70.1935     0.1764     2.4327     0.1387     0.2372
  302.5000   -18.6412    19.0901    17.5421    13.9414     9.9947    71.3668     0.1779     2.4407     0.1329     0.2333
  303.0000   -18.1405    29.7944    17.6712    14.4369     9.9975    72.5512     0.1721     2.4493     0.1329     0.2297
  303.5000   -18.2726    33.6916    17.8049    14.3030    10.0002    73.0814     0.1601     2.4522     0.1408     0.2204
  304.0000   -18.6959    19.5125    17.8845    13.2053    10.0030    72.3195     0.1475     2.4471     0.1496     0.2148
  304.5000   -18.7499    17.3540    17.5396    12.3230    10.0058    71.4825     0.1347     2.4346     0.1535     0.2145
  305.0000   -17.7048    18.6214    17.2911    12.3613    10.0085    70.9088     0.1284     2.4229     0.1571     0.2254
  305.5000   -17.3055    20.1927    17.0470    12.4099    10.0113    71.3102     0.1258     2.4168     0.1620     0.2371
  306.0000   -17.3718    19.0615    16.8064    12.4586    10.0140    72.6339     0.1235     2.4085     0.1667     0.2437
  306.5000   -18.8770    17.7167    16.5691    12.5075    10.0168    73.9633     0.1188     2.3988     0.1703     0.2433
  307.0000   -18.9475    18.6886    16.3352    12.5544    10.0192    75.3069     0.1102     2.3896     0.1648     0.2397
  307.5000   -17.9742    19.6377    16.1045    12.5547    10.0213    75.8569     0.1016     2.3908     0.1595     0.2356
  308.0000   -17.5556    19.0412    15.8772    12.5546    10.0234    75.0230     0.1000     2.3986     0.1523     0.2336
  308.5000   -18.3748    17.5369    15.8459    12.5557    10.0255    74.1371     0.1057     2.4086     0.1465     0.2325
  309.0000   -19.1164    17.0716    15.8637    12.5568    10.0276    73.6822     0.1124     2.4185     0.1421     0.2377
  309.5000   -18.9188    18.2981    15.9011    12.5547    10.0297    73.7327     0.1192     2.4302     0.1392     0.2396
  310.0000   -18.1424    19.0901    15.9384    12.8998    10.0318    74.2177     0.1260     2.4437     0.1464     0.2367
  310.5000   -18.5184    25.7176    15.9756    13.2250    10.0339    74.5249     0.1283     2.4320     0.1496     0.2357
  311.0000   -18.8969    22.1471    15.9942    13.6523    10.0362    74.8372     0.1220     2.4283     0.1513     0.2343
  311.5000   -19.2702    17.8758    15.7650    13.2335    10.0367    75.1491     0.1149     2.4228     0.1529     0.2328
  312.0000   -19.6535    15.2394    15.5198    12.6751    10.0594    75.4610     0.1078     2.4173     0.1514     0.2394
  312.5000   -19.6896    16.0876    15.2784    12.3230    10.0618    75.7729     0.1041     2.4183     0.1480     0.2469
  313.0000   -19.5502    17.0716    15.0407    12.3230    10.0685    76.0847     0.1100     2.4226     0.1480     0.2516
  313.5000   -19.4096    17.0716    14.8068    12.3230    10.0750    76.3966     0.1181     2.4263     0.1515     0.2548
  314.0000   -19.2685    16.3779    14.5757    12.2146    10.0815    76.7085     0.1224     2.4220     0.1544     0.2564
  314.5000   -19.1378    15.6924    14.4372    11.9842    10.0880    77.0204     0.1055     2.4174     0.1520     0.2559
  315.0000   -19.2729    15.5535    14.2601    11.8808    10.0946    77.3325     0.1061     2.4159     0.1538     0.2537
  315.5000   -19.4200    16.3386    14.0836    11.7527    10.0969    77.6448     0.1062     2.4202     0.1540     0.2486
  316.0000   -19.5355    16.6012    13.9094    11.6533    10.1171    77.9587     0.1061     2.4136     0.1520     0.2436
  316.5000   -19.4272    16.3466    13.7373    11.7277    10.1030    78.0077     0.1028     2.4200     0.1580     0.2392
  317.0000   -19.1692    15.9942    13.5671    11.7624    10.0909    77.6945     0.0992     2.4086     0.1534     0.2365
  317.5000   -18.9140    16.2066    13.3992    11.6832    10.0787    77.3867     0.0962     2.4120     0.1488     0.2361
  318.0000   -18.7141    16.4627    13.2749    11.5453    10.0664    77.0789     0.0997     2.4202     0.1472     0.2385
  318.5000   -18.9440    16.7554    13.2768    11.8169    10.0541    76.7708     0.1075     2.4257     0.1495     0.2424
  319.0000   -19.1998    16.5424    13.4679    12.0791    10.0418    76.4848     0.1122     2.4272     0.1520     0.2466
  319.5000   -19.4583    16.3032    13.6915    12.3230    10.0296    76.4725     0.1121     2.4240     0.1482     0.2456
  320.0000   -19.4795    15.9910    13.9187    12.4383    10.0177    76.5236     0.1120     2.4195     0.1452     0.2424
  320.5000   -19.3708    15.9952    14.1705    12.0365    10.0504    77.1736     0.1205     2.4281     0.1485     0.2426
  321.0000   -19.2614    15.9935    14.1705    11.6552    10.0982    77.6087     0.1298     2.4309     0.1547     0.2457
  321.5000   -19.1514    16.2073    14.1705    11.7768    10.1465    78.0251     0.1266     2.4232     0.1609     0.2502
  322.0000   -19.0409    16.6238    14.1704    11.9475    10.1949    78.4432     0.1183     2.4144     0.1675     0.2524
  322.5000   -18.9327    17.0716    14.1701    12.0956    10.2437    78.8626     0.1102     2.4015     0.1679     0.2524
  323.0000   -18.9849    17.0716    14.2025    12.0956    10.2584    79.2837     0.1036     2.3945     0.1710     0.2524
  323.5000   -19.0477    16.5087    14.2915    12.0956    10.2586    79.6461     0.1015     2.3911     0.1741     0.2523
  324.0000   -19.1099    16.0378    14.3814    12.0956    10.2585    79.8759     0.1004     2.3875     0.1792     0.2517
  324.5000   -19.1717    15.7632    14.4369    12.0198    10.2586    79.8593     0.0953     2.3822     0.1852     0.2508
  325.0000   -19.2337    15.6227    14.3298    11.9430    10.2587    79.8609     0.0852     2.3739     0.1906     0.2466
  325.5000   -19.2972    15.4833    14.1958    11.8666    10.2535    79.6603     0.0752     2.3648     0.1931     0.2431
  326.0000   -19.4373    15.3453    14.0627    11.7908    10.2076    79.2620     0.0651     2.3557     0.1926     0.2425
  326.5000   -19.6929    15.2360    13.9310    11.7624    10.1607    78.8618     0.0560     2.3487     0.1861     0.2401
  327.0000   -19.9003    15.1645    13.8006    11.8724    10.1389    78.6710     0.0543     2.3499     0.1802     0.2376
  327.5000   -20.0970    15.0933    13.6132    11.7029    10.1553    78.8063     0.0636     2.3609     0.1747     0.2379
  328.0000   -20.2937    15.0225    13.4177    11.5418    10.2121    79.0731     0.0738     2.3720     0.1739     0.2387
  328.5000   -20.4901    14.9401    13.2383    11.3841    10.2379    79.3288     0.0839     2.3815     0.1763     0.2442
  329.0000   -20.6902    14.8446    13.0975    11.3299    10.2310    79.6879     0.0786     2.3779     0.1719     0.2503
  329.5000   -20.6916    14.7497    12.9581    11.5614    10.2070    78.9814     0.0721     2.3776     0.1660     0.2524
  330.0000   -20.6118    14.6554    12.8196    11.6533    10.1829    78.0894     0.0741     2.3870     0.1582     0.2498
  330.5000   -20.5297    14.5719    12.6706    11.5961    10.1606    77.4285     0.0887     2.3994     0.1519     0.2497
  331.0000   -20.4475    14.7604    12.6729    11.5443    10.1365    77.0900     0.1035     2.4118     0.1520     0.2517
