~VERSION INFORMATION
 VERS.                2.0:   CWLS LOG ASCII STANDARD - VERSION 2.0
 WRAP.                 NO:   ONE LINE PER DEPTH STEP
~WELL INFORMATION
#MNEM.UNIT      DATA TYPE    INFORMATION
#----------   ------------   ------------------------------
 STRT.F           10.0000:   START DEPTH
 STOP.F          833.5000:   STOP DEPTH
 STEP.F            0.5000:   STEP LENGTH
 NULL.          -999.2500:   NO VALUE
 COMP. FENIX & SCISSON INC:   COMPANY
 WELL.       NPR 3 #46-11:   WELL
 FLD .             TEAPOT:   FIELD
 LOC .      S11 T38N R78W:   LOCATION
 CNTY.            NATRONA:   COUNTY
 STAT.            WYOMING:   STATE
 CTRY. UNITED STATES OF AMERICA:   COUNTRY
 SRVC.           BIRDWELL:   SERVICE COMPANY
 DATE.        17-DEC-1978:   LOGDATE
 API .       490251075600:   API NUMBER
~CURVE INFORMATION
#MNEM.UNIT       API CODE    CURVE DESCRIPTION
#----------   ------------   ------------------------------
 DEPT.F                  :   
 GRD .GAPI   45 310 01 00:   GAMMA RAY FROM DENSITY LOG
 CALD.IN     45 280 60 00:   CALIPER
 CORR.G/C3   45 356 01 00:   DENSITY CORRECTION
 DPHI.DEC    45 890 12 00:   DENSITY POROSITY SANDSTONE
 RHOB.G/C3   45 350 01 00:   BULK DENSITY
 SPR .MV     05 010 01 00:   SPONTANEOUS POTENTIAL FROM RES.
 SN  .OHMM   05 040 16 00:   SHORT NORMAL 16"
 IL  .OHMM   05 120 00 00:   INDUCTION LOG
~PARAMETER INFORMATION
#MNEM.UNIT          VALUE    DESCRIPTION
#----------   ------------   ------------------------------
 PD  .                 GL:   PERMANENT DATUM
 EPD .F              5193:   ELEVATION PERMANENT DATUM
 LMF .                 KB:   LOG MEASURED FROM
 DAPD.F                 4:   FEET ABOVE PERMANENT DATUM
 DMF .                 KB:   DRILLING MEASURED FROM
 EKB .F              5197:   KELLING BUSHING
 EGL .F              5193:   GROUND LEVEL
 DATE.           12-17-78:   RUN DATE
 RUN .                  1:   RUN NUMBER
 DD  .F               845:   DEPTH DRILLER
 DL  .F               834:   DEPTH LOGGER
 BLI .F               827:   BOTTOM LOG INTERVAL
 TLI .F                60:   TOP LOG INTERVAL
 CS  .IN            8.625:   CASING SIZE
 CBD .F                40:   CASING BOTTOM DRILLER
 CBL .F                42:   CASING BOTTOM LOGGER
 BS  .IN            7.875:   BIT SIZE
 BSD .F               845:   BIT SIZE AT DEPTH
 DFT .                KCL:   DRILLING FLUID TYPE
 DFD .                8.8:   DRILLING FLUID DENSITY
 DFV .                 36:   DRILLING FLUID VISCOSITY
 DFPH.               10.5:   DRILLING FLUID PH
 MSS .          FLOW LINE:   MUD SAMPLE SOURCE
 RMS .OHMM            .34:   RESISTIVITY MUD SAMPLE
 MST .F                62:   MUD SAMPLE TEMPERATURE
 RMF .OHMM            .26:   RESISTIVITY MUD FILTRATE SAMPLE
 MFST.F                66:   MUD FILTRATE SAMPLE TEMPERATURE
 RMC .OHMM            .42:   RESISTIVITY MUD CAKE
 MCST.F                68:   MUD CAKE SAMPLE TEMPERATURE
 MFSS.           MEASURED:   MUD FILTRATE SAMPLE SOURCE
 MCSS.           MEASURED:   MUD CAKE SAMPLE SOURCE
 RMB .OHMM           .288:   RESISTIVITY MUD AT BHT
 BHT .F                73:   BOTTOM HOLE TEMPERATURE
 TCS .HRS               4:   TIME CURCULATED STOPPED
 MRT .F                73:   MAXIMUM RECORDED TEMPERATURE
 LUN .               3006:   LOGGING UNIT NUMBER
 LUL .             CASPER:   LOGGING UNIT LOCATION
 ENGI.         B. ROLLINS:   RECORDING ENGINEER
 WITN.         RICHARDSON:   WITNESSED BY
 CLNT.            A2DTECH:   CLIENT CODE
 ORIG.           5" PRINT:   ORIGIN OF DATA
 UWI .       490251075600:   UNIQUE WELL ID
 DICO. A2D Technologies, Inc.:   DIGITIZING COMPANY
~OTHER INFORMATION
~A   DEPT      GRD       CALD       CORR       DPHI       RHOB        SPR         SN         IL   
# ...
  739.0000    72.1720     7.8970     0.0110     0.1910     2.3470   -18.1740    12.8920    14.8250
  739.5000    72.8770     7.9000     0.0110     0.1870     2.3510   -18.3520    12.7760    14.7290
  740.0000    73.6020     7.9030     0.0110     0.1830     2.3560   -18.5280    12.6610    14.6340
  740.5000    74.3200     7.9050     0.0120     0.1800     2.3620   -18.6710    12.5450    14.5380
  741.0000    75.0370     7.9080     0.0120     0.1810     2.3630   -18.6930    12.4300    14.4420
  741.5000    75.7490     7.9100     0.0120     0.1830     2.3620   -18.7220    12.3140    14.3470
  742.0000    77.2080     7.9310     0.0120     0.1860     2.3610   -18.7470    12.1830    14.2510
  742.5000    79.4260     7.9540     0.0130     0.1860     2.3600   -18.7730    12.1940    14.1550
  743.0000    81.7150     7.9770     0.0130     0.1790     2.3600   -18.8000    12.2090    14.0600
  743.5000    81.5630     8.0000     0.0130     0.1710     2.3680   -18.8250    12.2240    13.9640
  744.0000    80.5960     8.0220     0.0130     0.1680     2.3770   -18.8520    12.2400    13.8690
  744.5000    79.7070     8.0450     0.0140     0.1690     2.3850   -18.8780    12.2560    13.7730
  745.0000    79.5990     8.0680     0.0140     0.1700     2.3860   -18.9040    12.2720    13.6770
  745.5000    79.5110     8.0910     0.0150     0.1670     2.3870   -18.9300    12.2890    13.5820
  746.0000    79.8220     8.1140     0.0170     0.1610     2.3880   -18.9560    12.3050    13.4860
  746.5000    80.1780     8.1370     0.0180     0.1560     2.3950   -18.9830    12.3210    13.3900
  747.0000    80.5300     8.1600     0.0200     0.1630     2.4000   -19.0090    12.3370    13.2950
  747.5000    81.5010     8.1840     0.0220     0.1690     2.3960   -19.0350    12.3530    13.1990
  748.0000    83.0880     8.1840     0.0230     0.1740     2.3870   -19.0610    12.3680    13.1030
  748.5000    84.6850     8.1770     0.0230     0.1790     2.3790   -19.0880    12.3860    13.0080
  749.0000    85.1370     8.1700     0.0200     0.1810     2.3710   -19.1140    12.4060    12.9120
  749.5000    82.9130     8.1630     0.0170     0.1820     2.3670   -19.1400    12.3500    12.8170
  750.0000    80.9860     8.1550     0.0140     0.1680     2.3700   -19.1660    12.1850    12.7210
  750.5000    81.9230     8.1530     0.0120     0.1590     2.3780   -19.1920    12.0250    12.6250
  751.0000    83.5830     8.1640     0.0100     0.1560     2.3880   -19.2190    11.8630    12.5300
  751.5000    85.1480     8.1750     0.0080     0.1540     2.3990   -19.2450    11.7020    12.4340
  752.0000    86.4290     8.1850     0.0060     0.1470     2.4100   -19.2710    11.5410    12.3380
  752.5000    87.6140     8.1960     0.0040     0.1400     2.4210   -19.2970    11.3800    12.2430
  753.0000    87.8130     8.2070     0.0020     0.1450     2.4320   -19.3230    11.3080    12.1470
  753.5000    85.2160     8.2230     0.0000     0.1500     2.4300   -19.3490    11.3080    12.0510
  754.0000    82.7020     8.2410     0.0000     0.1520     2.4200   -19.3740    11.3080    11.9560
  754.5000    80.1450     8.2590     0.0000     0.1500     2.4130   -19.4040    11.3080    11.8600
  755.0000    79.3330     8.2770     0.0000     0.1480     2.4160   -19.4220    11.3080    11.7640
  755.5000    79.0390     8.2860     0.0000     0.1450     2.4190   -19.4580    11.3080    11.7110
  756.0000    78.7650     8.2720     0.0000     0.1430     2.4230   -19.5060    11.3080    11.6750
  756.5000    78.4930     8.2580     0.0000     0.1430     2.4260   -19.9250    11.3080    11.6380
  757.0000    78.2230     8.2450     0.0010     0.1500     2.4240   -20.3120    11.3080    11.6020
  757.5000    77.9530     8.2310     0.0010     0.1580     2.4180   -20.7170    11.2950    11.5650
  758.0000    77.6880     8.2170     0.0010     0.1620     2.4080   -21.0750    11.2500    11.5290
  758.5000    77.5960     8.2040     0.0010     0.1640     2.3990   -21.1860    11.2060    11.4930
  759.0000    77.9430     8.1900     0.0010     0.1590     2.3970   -21.2890    11.1620    11.4560
  759.5000    78.2660     8.1760     0.0010     0.1550     2.4010   -21.3820    11.1170    11.4200
  760.0000    78.2490     8.1630     0.0010     0.1500     2.4070   -21.4810    11.0720    11.3830
  760.5000    77.3630     8.1490     0.0010     0.1490     2.4140   -21.5780    11.0280    11.3470
  761.0000    76.4970     8.1350     0.0010     0.1480     2.4190   -21.6750    10.9830    11.3100
  761.5000    76.3100     8.1220     0.0010     0.1480     2.4210   -21.7720    10.9390    11.2740
  762.0000    76.3050     8.1080     0.0010     0.1470     2.4230   -21.8690    10.8940    11.2370
  762.5000    76.3010     8.1530     0.0010     0.1470     2.4240   -21.9660    10.8770    11.2010
  763.0000    76.2710     8.1890     0.0010     0.1450     2.4260   -22.0630    10.8490    11.1640
  763.5000    77.5320     8.1770     0.0020     0.1420     2.4280   -22.1600    10.8210    11.1280
  764.0000    79.1310     8.1660     0.0020     0.1390     2.4320   -22.2570    10.7930    11.0920
  764.5000    80.7250     8.1550     0.0020     0.1390     2.4350   -22.3550    10.7650    11.0550
  765.0000    82.1420     8.1440     0.0020     0.1390     2.4360   -22.4520    10.7370    11.0190
  765.5000    82.1010     8.1330     0.0020     0.1380     2.4390   -22.5490    10.7080    10.9820
  766.0000    82.0870     8.1220     0.0020     0.1350     2.4420   -22.6460    10.6800    10.9460
  766.5000    81.8710     8.1100     0.0020     0.1320     2.4450   -22.7430    10.6520    10.9090
  767.0000    80.4940     8.0990     0.0020     0.1290     2.4480   -22.8400    10.6240    10.8730
  767.5000    79.1120     8.0880     0.0020     0.1280     2.4500   -22.9380    10.5960    10.8360
  768.0000    77.7600     8.0770     0.0020     0.1290     2.4510   -23.0350    10.5680    10.8000
  768.5000    77.6990     8.0780     0.0020     0.1310     2.4510   -23.1320    10.5400    10.7630
  769.0000    77.9690     8.0990     0.0020     0.1330     2.4480   -23.2290    10.5120    10.7270
  769.5000    79.3060     8.1190     0.0020     0.1330     2.4460   -23.3260    10.4830    10.6900
  770.0000    80.8220     8.1400     0.0020     0.1320     2.4440   -23.4230    10.4550    10.6540
  770.5000    82.3390     8.1600     0.0030     0.1310     2.4470   -23.5210    10.4270    10.6180
  771.0000    83.5260     8.1810     0.0030     0.1300     2.4510   -23.6180    10.3990    10.5810
  771.5000    83.4960     8.1620     0.0030     0.1260     2.4540   -23.7150    10.3710    10.5450
  772.0000    83.4120     8.1150     0.0030     0.1220     2.4580   -23.8110    10.3430    10.5080
  772.5000    82.9450     8.0690     0.0030     0.1180     2.4640   -23.9080    10.3150    10.4720
  773.0000    82.4870     8.0370     0.0030     0.1150     2.4700   -24.0080    10.2870    10.4350
  773.5000    82.2380     8.0810     0.0030     0.1140     2.4750   -24.0990    10.2580    10.3990
  774.0000    83.0470     8.1240     0.0030     0.1130     2.4780   -24.2050    10.2300    10.3620
  774.5000    83.6690     8.1490     0.0030     0.1150     2.4770   -24.3160    10.2020    10.3260
  775.0000    83.3700     8.1430     0.0030     0.1170     2.4750   -24.7590    10.1740    10.2890
  775.5000    83.1720     8.1380     0.0030     0.1190     2.4740   -25.2020    10.1460    10.2530
  776.0000    85.0840     8.1330     0.0030     0.1210     2.4720   -25.6580    10.1180    10.2160
  776.5000    87.0690     8.1270     0.0030     0.1220     2.4700   -26.1220    10.1060    10.1800
  777.0000    88.3120     8.1220     0.0040     0.1190     2.4710   -26.3490    10.0980    10.1440
  777.5000    85.8640     8.1160     0.0040     0.1170     2.4730   -26.3910    10.0900    10.1070
  778.0000    83.9920     8.1110     0.0040     0.1150     2.4750   -26.4480    10.0830    10.0710
  778.5000    85.0140     8.1050     0.0040     0.1120     2.4770   -26.5050    10.0750    10.0340
  779.0000    86.8110     8.1000     0.0040     0.1120     2.4780   -26.5580    10.0670     9.9980
