~VERSION INFORMATION
 VERS.                2.0:   CWLS LOG ASCII STANDARD - VERSION 2.0
 WRAP.                 NO:   ONE LINE PER DEPTH STEP
~WELL INFORMATION
#MNEM.UNIT      DATA TYPE    INFORMATION
#----------   ------------   ------------------------------
 STRT.F           22.0000:   START DEPTH
 STOP.F          533.0000:   STOP DEPTH
 STEP.F            0.5000:   STEP LENGTH
 NULL.          -999.2500:   NO VALUE
 COMP. FENIX & SCISSON INC:   COMPANY
 WELL.        NPR 3 #32-3:   WELL
 FLD .        TEAPOT DOME:   FIELD
 LOC .       S3 T38N R78W:   LOCATION
 CNTY.            NATRONA:   COUNTY
 STAT.            WYOMING:   STATE
 CTRY. UNITED STATES OF AMERICA:   COUNTRY
 SRVC.            Unknown:   SERVICE COMPANY
 DATE.        19-JUL-1978:   LOGDATE
 API .       490251067200:   API NUMBER
~CURVE INFORMATION
#MNEM.UNIT       API CODE    CURVE DESCRIPTION
#----------   ------------   ------------------------------
 DEPT.F                  :   
 SPR .MV     05 010 01 00:   SPONTANEOUS POTENTIAL FROM RES.
 SN  .OHMM   05 040 16 00:   SHORT NORMAL 16"
 IL  .OHMM   05 120 00 00:   INDUCTION LOG
 RHOB.G/C3   45 350 01 00:   BULK DENSITY
 DPHI.DEC    45 890 12 00:   DENSITY POROSITY SANDSTONE
 CORR.G/C3   45 356 01 00:   DENSITY CORRECTION
 CALD.IN     45 280 60 00:   CALIPER
 GRD .GAPI   45 310 01 00:   GAMMA RAY FROM DENSITY LOG
~PARAMETER INFORMATION
#MNEM.UNIT          VALUE    DESCRIPTION
#----------   ------------   ------------------------------
 PD  .                 GL:   PERMANENT DATUM
 EPD .F              5179:   ELEVATION PERMANENT DATUM
 LMF .                 KB:   LOG MEASURED FROM
 DAPD.F                 4:   FEET ABOVE PERMANENT DATUM
 DMF .                 KB:   DRILLING MEASURED FROM
 EKB .F              5183:   KELLING BUSHING
 EGL .F              5179:   GROUND LEVEL
 DATE.            7-19-78:   RUN DATE
 RUN .                  1:   RUN NUMBER
 DD  .F               520:   DEPTH DRILLER
 DL  .F               533:   DEPTH LOGGER
 BLI .F               527:   BOTTOM LOG INTERVAL
 TLI .F                50:   TOP LOG INTERVAL
 CS  .IN            8.625:   CASING SIZE
 CBD .F                40:   CASING BOTTOM DRILLER
 BS  .IN            7.875:   BIT SIZE
 BSD .F               520:   BIT SIZE AT DEPTH
 DFT .                KCL:   DRILLING FLUID TYPE
 DFD .                8.7:   DRILLING FLUID DENSITY
 DFV .                 33:   DRILLING FLUID VISCOSITY
 DFPH.                  9:   DRILLING FLUID PH
 DFL .               12.4:   DRILLING FLUID LOSS
 MSS .          FLOW LINE:   MUD SAMPLE SOURCE
 RMS .OHMM            .28:   RESISTIVITY MUD SAMPLE
 MST .F                70:   MUD SAMPLE TEMPERATURE
 RMF .OHMM            .24:   RESISTIVITY MUD FILTRATE SAMPLE
 MFST.F                76:   MUD FILTRATE SAMPLE TEMPERATURE
 RMC .OHMM             .5:   RESISTIVITY MUD CAKE
 MCST.F                78:   MUD CAKE SAMPLE TEMPERATURE
 MFSS.               MEAS:   MUD FILTRATE SAMPLE SOURCE
 MCSS.               MEAS:   MUD CAKE SAMPLE SOURCE
 TCS .HRS               2:   TIME CURCULATED STOPPED
 LUN .               2958:   LOGGING UNIT NUMBER
 LUL .               CASP:   LOGGING UNIT LOCATION
 ENGI.             MILLER:   RECORDING ENGINEER
 WITN.           MCGINLEY:   WITNESSED BY
 CLNT.            A2DTECH:   CLIENT CODE
 ORIG.           5" PRINT:   ORIGIN OF DATA
 UWI .       490251067200:   UNIQUE WELL ID
 DICO. A2D Technologies, Inc.:   DIGITIZING COMPANY
~OTHER INFORMATION
~A   DEPT      SPR         SN         IL       RHOB       DPHI       CORR       CALD         GRD  
# ...
  386.5000   -14.5367    14.0499    23.5979     2.4260     0.1862     0.0026     8.4740    53.1983
  387.0000   -14.5113    13.6102    22.4781     2.3823     0.1982     0.0030     8.4824    54.6456
  387.5000   -14.4859    13.2867    21.4115     2.3618     0.2063     0.0023     8.4821    55.6263
  388.0000   -14.4605    12.9852    20.3955     2.3513     0.2070     0.0016     8.4789    55.8767
  388.5000   -14.4351    12.7020    19.4276     2.3416     0.2051     0.0009     8.4693    56.7254
  389.0000   -14.4096    12.4527    18.9276     2.3441     0.2033     0.0002     8.4598    60.1315
  389.5000   -14.3834    12.2098    18.5453     2.3498     0.1994    -0.0005     8.4502    61.3816
  390.0000   -14.3599    12.0816    18.4166     2.3556     0.1933    -0.0012     8.4423    60.4090
  390.5000   -14.5339    12.1134    18.4660     2.3625     0.1823    -0.0019     8.4424    59.8777
  391.0000   -14.7323    12.1435    18.5000     2.3763     0.1908    -0.0026     8.4425    60.4924
  391.5000   -14.9307    12.1737    18.5339     2.3743     0.1937    -0.0033     8.4395    61.0892
  392.0000   -15.1287    12.2039    18.5680     2.3670     0.1939    -0.0040     8.4347    61.5826
  392.5000   -15.3267    12.2343    18.5868     2.3662     0.1930    -0.0047     8.4298    61.2594
  393.0000   -15.5249    12.2647    18.5303     2.3661     0.1918    -0.0054     8.4250    60.7809
  393.5000   -15.7239    12.2952    18.4863     2.3649     0.1944    -0.0061     8.4201    60.9973
  394.0000   -15.9198    12.3252    18.4424     2.3590     0.1981    -0.0059     8.4152    61.2775
  394.5000   -15.9009    12.3550    18.3986     2.3578     0.1998    -0.0044     8.4105    61.5551
  395.0000   -15.8553    12.3849    18.3550     2.3543     0.2023    -0.0030     8.4055    61.7656
  395.5000   -15.8101    12.4148    18.3115     2.3462     0.2083    -0.0015     8.3906    61.4475
  396.0000   -15.7649    12.4449    18.2680     2.3395     0.2007     0.0000     8.3319    60.7171
  396.5000   -15.9076    12.4750    18.2247     2.3502     0.1915     0.0015     8.2749    59.9897
  397.0000   -16.2376    12.5052    18.1815     2.3634     0.1823     0.0030     8.2437    59.2541
  397.5000   -16.5676    12.5327    18.1381     2.3767     0.1718     0.0044     8.2533    58.6536
  398.0000   -16.7328    12.5956    18.0752     2.3898     0.1607     0.0046     8.2667    59.8243
  398.5000   -16.7704    12.6481    18.3471     2.4013     0.1495     0.0005     8.2803    61.0186
  399.0000   -16.8456    12.9336    18.8884     2.4271     0.1345    -0.0035     8.2937    61.3303
  399.5000   -16.9255    13.2187    19.5956     2.4562     0.1082    -0.0075     8.3014    61.0398
  400.0000   -17.3707    13.5549    20.6949     2.4849     0.0800    -0.0115     8.3787    61.1670
  400.5000   -17.7628    13.8996    21.8559     2.5136     0.0833    -0.0154     8.4571    59.6554
  401.0000   -17.8752    14.2531    23.0820     2.5425     0.0870    -0.0197     8.5365    55.1489
  401.5000   -17.9949    14.6456    24.3768     2.5559     0.0906    -0.0118     8.5663    50.6693
  402.0000   -18.1129    14.7804    25.8507     2.5467     0.0932     0.0002     8.6030    48.7896
  402.5000   -18.0766    14.5430    26.3289     2.5343     0.0954     0.0004     8.6429    49.2696
  403.0000   -18.0294    14.1140    25.8200     2.5220     0.1070    -0.0088     8.6859    49.4308
  403.5000   -17.9827    13.7193    24.8002     2.5102     0.1257    -0.0034     8.7503    50.6032
  404.0000   -17.9363    13.3356    22.5509     2.4806     0.1445     0.0086     8.8353    53.6757
  404.5000   -17.8899    12.8821    20.5056     2.4503     0.1545     0.0209     8.9200    55.4475
  405.0000   -17.8434    12.3060    18.7108     2.4217     0.1588     0.0229     9.0049    57.1512
  405.5000   -17.7969    11.7301    17.3899     2.4243     0.1599     0.0189     9.0897    59.7999
  406.0000   -17.7511    11.1808    16.1622     2.4230     0.1591     0.0148     9.1745    62.4080
  406.5000   -17.7355    10.6565    15.0212     2.4195     0.1571     0.0106     9.2593    62.6617
  407.0000   -17.7694    10.1509    14.0681     2.4216     0.1646     0.0065     9.3442    61.3783
  407.5000   -17.8026     9.7989    13.3631     2.4193     0.1688     0.0024     9.4290    60.0828
  408.0000   -17.8359     9.4846    13.3354     2.4029     0.1698    -0.0001     9.5128    60.4090
  408.5000   -17.8692     9.3041    13.3069     2.4010     0.1761     0.0023     9.5989    61.6078
  409.0000   -17.9026     9.1267    13.2797     2.4005     0.1802     0.0049     9.6644    62.8222
  409.5000   -17.9355     9.0011    13.2528     2.3872     0.1748     0.0075     9.7344    63.3545
  410.0000   -17.9682     8.8879    13.2430     2.3951     0.1703     0.0101     9.8040    62.2330
  410.5000   -18.0009     8.7761    13.0217     2.4048     0.1655     0.0127     9.8737    60.2965
  411.0000   -18.0336     8.6658    12.8082     2.4105     0.1668     0.0153     9.9435    58.3413
  411.5000   -18.0664     8.5568    12.5989     2.4062     0.1665     0.0179    10.0021    57.1394
  412.0000   -18.0991     8.4492    12.3930     2.4083     0.1661     0.0190    10.0542    57.4404
  412.5000   -18.1318     8.3430    12.1900     2.4118     0.1679     0.0176    10.1062    59.6110
  413.0000   -18.1645     8.2380    12.0711     2.4072     0.1713     0.0162    10.1583    60.7817
  413.5000   -18.1972     8.1343    12.0300     2.4006     0.1747     0.0148    10.2105    60.6559
  414.0000   -18.2300     8.0320    11.9889     2.3941     0.1726     0.0134    10.2604    60.4924
  414.5000   -18.2628     7.9912    11.9481     2.3948     0.1675     0.0119    10.3283    60.5527
  415.0000   -18.2949     7.9806    11.9074     2.3986     0.1681     0.0125    10.3486    62.1523
  415.5000   -18.2979     7.9698    11.8622     2.4023     0.1686     0.0140    10.3470    63.5875
  416.0000   -18.2393     7.9590    11.8891     2.4055     0.1704     0.0155    10.3451    63.7279
  416.5000   -18.1818     7.9482    11.9283     2.4032     0.1730     0.0170    10.3428    64.6917
  417.0000   -18.1242     7.9375    11.9714     2.3991     0.1748     0.0184    10.3405    64.6876
  417.5000   -18.0666     7.9264    12.0653     2.3949     0.1752     0.0189    10.3382    63.9893
  418.0000   -18.0091     7.9535    12.1701     2.3921     0.1752     0.0171    10.3359    63.2606
  418.5000   -17.9515     7.9841    12.2757     2.3939     0.1726     0.0152    10.3336    62.0960
  419.0000   -17.8939     8.0304    12.4176     2.3994     0.1659     0.0134    10.3314    59.4678
  419.5000   -17.8363     8.0913    12.5746     2.4048     0.1691     0.0115    10.3291    56.9991
  420.0000   -17.7788     8.1525    12.8585     2.4058     0.1725     0.0097    10.3273    56.5579
  420.5000   -17.7219     8.2142    13.2598     2.3983     0.1720     0.0078    10.3301    58.2986
  421.0000   -17.6627     8.2764    13.6736     2.4009     0.1715     0.0069    10.3332    60.8237
  421.5000   -17.6039     8.3391    14.1184     2.4033     0.1797     0.0061    10.3364    61.5715
  422.0000   -17.5421     8.4023    14.2503     2.3942     0.1855     0.0058    10.3395    60.8530
  422.5000   -17.3919     8.4659    14.3893     2.3832     0.1883     0.0132    10.3426    59.8435
  423.0000   -17.0961     8.5300    14.5296     2.3729     0.1983     0.0208    10.3457    59.6520
  423.5000   -16.8027     8.5946    14.7155     2.3641     0.1939     0.0298    10.3477    60.1591
  424.0000   -16.5373     8.6596    15.1083     2.3581     0.2005     0.0393    10.3713    60.6520
  424.5000   -16.5335     8.7259    15.8128     2.3463     0.2091     0.0490    10.3963    60.4839
  425.0000   -16.5390     8.7932    16.8038     2.3321     0.2203     0.0588    10.4229    58.7863
  425.5000   -16.3001     8.8610    15.6458     2.3179     0.2316     0.0511    10.3447    57.1149
  426.0000   -15.9689     8.9294    14.1966     2.3029     0.2458     0.0426    10.2451    55.7778
  426.5000   -15.6356     8.9982    13.9533     2.2655     0.2918     0.0967    10.2202    56.0868
