~VERSION INFORMATION
 VERS.                2.0:   CWLS LOG ASCII STANDARD - VERSION 2.0
 WRAP.                 NO:   ONE LINE PER DEPTH STEP
~WELL INFORMATION
#MNEM.UNIT      DATA TYPE    INFORMATION
#----------   ------------   ------------------------------
 STRT.F           21.0000:   START DEPTH
 STOP.F          484.0000:   STOP DEPTH
 STEP.F            0.5000:   STEP LENGTH
 NULL.          -999.2500:   NO VALUE
 COMP.       F D SERV INC:   COMPANY
 WELL. N P R 3 SX-3 #78-3:   WELL
 FLD .             TEAPOT:   FIELD
 LOC .       S3 T38N R78W:   LOCATION
 CNTY.            NATRONA:   COUNTY
 STAT.            WYOMING:   STATE
 CTRY. UNITED STATES OF AMERICA:   COUNTRY
 SRVC.     Atlas Wireline:   SERVICE COMPANY
 DATE.        04-DEC-1992:   LOGDATE
 API .       490252254500:   API NUMBER
~CURVE INFORMATION
#MNEM.UNIT       API CODE    CURVE DESCRIPTION
#----------   ------------   ------------------------------
 DEPT.F                  :   
 DPHI.DEC    45 890 12 00:   DENSITY POROSITY SANDSTONE
 NPHI.DEC    42 890 03 00:   NEUTRON POROSITY SANDSTONE
 C13 .IN     45 280 13 00:   CALIPER 1 - 3
 GRD .GAPI   45 310 01 00:   GAMMA RAY FROM DENSITY LOG
 ZCOR.G/C3   45 356 01 00:   DENSITY CORRECTION
 ZDEN.G/C3   45 350 01 00:   BULK DENSITY
 RILD.OHMM   07 120 46 00:   INDUCTION LOG DEEP RESISTIVITY
 RILM.OHMM   07 120 44 00:   INDUCTION LOG MEDIUM RESISTIVITY
~PARAMETER INFORMATION
#MNEM.UNIT          VALUE    DESCRIPTION
#----------   ------------   ------------------------------
 PD  .                 GL:   PERMANENT DATUM
 EPD .F              5120:   ELEVATION PERMANENT DATUM
 LMF .                 KB:   LOG MEASURED FROM
 DAPD.F                10:   FEET ABOVE PERMANENT DATUM
 DMF .                 KB:   DRILLING MEASURED FROM
 EKB .F              5130:   KELLING BUSHING
 EDF .F              5129:   DRILLING FLOOR
 EGL .F              5120:   GROUND LEVEL
 DATE.        04-DEC-1992:   RUN DATE
 RUN .                  1:   RUN NUMBER
 DD  .F               488:   DEPTH DRILLER
 DL  .F               488:   DEPTH LOGGER
 BLI .F               479:   BOTTOM LOG INTERVAL
 CS  .IN            8.625:   CASING SIZE
 CBD .F                50:   CASING BOTTOM DRILLER
 CBL .F                54:   CASING BOTTOM LOGGER
 BS  .IN            7.875:   BIT SIZE
 BSD .F               488:   BIT SIZE AT DEPTH
 DFT .           AIR FOAM:   DRILLING FLUID TYPE
 MRT .F                66:   MAXIMUM RECORDED TEMPERATURE
 LUN .           HL- 6274:   LOGGING UNIT NUMBER
 LUL .             CASPER:   LOGGING UNIT LOCATION
 ENGI.             RAUTIO:   RECORDING ENGINEER
 WITN.        GARY STRONG:   WITNESSED BY
 CLNT.            A2DTECH:   CLIENT CODE
 ORIG.           5" PRINT:   ORIGIN OF DATA
 UWI .       490252254500:   UNIQUE WELL ID
 DICO. A2D Technologies, Inc.:   DIGITIZING COMPANY
~OTHER INFORMATION
~A   DEPT     DPHI       NPHI        C13        GRD       ZCOR       ZDEN       RILD       RILM   
# ...
  426.0000     0.0884     0.2649     7.9787   138.7755     0.0255     2.5041    11.7346    11.1541
  426.5000     0.0887     0.2655     7.9779   141.4968     0.0238     2.5040    11.5791    11.0741
  427.0000     0.0896     0.2649     7.9926   146.0363     0.0086     2.5010    11.4974    10.9947
  427.5000     0.0914     0.2649     7.9916   148.7677     0.0010     2.4979    11.3366    10.8398
  428.0000     0.0933     0.2662     8.0061   149.0547    -0.0006     2.4964    11.1782    10.6867
  428.5000     0.0930     0.2665     8.0053   144.8909     0.0053     2.4978    10.9450    10.5362
  429.0000     0.0903     0.2659     8.0046   141.7701     0.0128     2.5008    10.7920    10.4606
  429.5000     0.0885     0.2668     8.0036   144.4899     0.0202     2.5038    10.6411    10.3133
  430.0000     0.0891     0.2695     8.0183   149.6355     0.0232     2.5030    10.4924    10.1681
  430.5000     0.0900     0.2726     8.0173   153.8719     0.0185     2.5015    10.3457     9.9551
  431.0000     0.0915     0.2756     8.0166   157.5023     0.0169     2.5007     9.9890     9.7466
  431.5000     0.0922     0.2802     8.0158   159.0116     0.0183     2.5006     9.5772     9.4759
  432.0000     0.0907     0.2835     8.0151   158.7026     0.0197     2.5022     9.0547     9.1487
  432.5000     0.0889     0.2853     8.0144   157.4845     0.0166     2.5036     8.6209     8.6495
  433.0000     0.0877     0.2878     8.0136   156.8725     0.0119     2.5043     7.9254     7.9521
  433.5000     0.0895     0.2960     8.0129   157.7756     0.0042     2.5043     7.1847     7.3109
  434.0000     0.0904     0.3068     7.9969   160.4969    -0.0004     2.4974     6.6514     6.7215
  434.5000     0.1004     0.3272     7.9962   168.5150    -0.0020     2.4792     6.2435     5.8713
  435.0000     0.1198     0.3493     7.9954   179.2120     0.0027     2.4428     6.0293     5.2978
  435.5000     0.1400     0.3584     7.9947   183.5094     0.0134     2.4170     6.0764     5.4531
  436.0000     0.1429     0.3381     7.9938   181.9868     0.0234     2.4124     6.1565     5.8396
  436.5000     0.1208     0.3103     7.9930   173.7990     0.0172     2.4480     6.2429     6.6674
  437.0000     0.0966     0.2870     8.0077   158.9446     0.0020     2.4980     6.5103     7.0493
  437.5000     0.0854     0.2755     8.0221   152.5750     0.0034     2.5131     6.8851     7.5580
  438.0000     0.0808     0.2734     8.0363   149.5388     0.0139     2.5153     7.4882     8.0470
  438.5000     0.0863     0.2737     8.0356   147.7146     0.0259     2.5100     8.2591     8.5675
  439.0000     0.0872     0.2770     8.0500   147.4056     0.0288     2.5069     8.7345     9.1218
  439.5000     0.0863     0.2804     8.0341   149.5209     0.0242     2.5076     9.1728     9.5104
  440.0000     0.0833     0.2828     8.0333   151.0301     0.0195     2.5106     9.5658     9.7780
  440.5000     0.0776     0.2841     8.0326   152.2363     0.0179     2.5181     9.8369     9.9141
  441.0000     0.0721     0.2837     8.0167   153.1394     0.0178     2.5287    10.0451    10.1215
  441.5000     0.0685     0.2819     8.0159   152.8041     0.0147     2.5370    10.1861    10.2618
  442.0000     0.0679     0.2798     8.0136   151.2606     0.0100     2.5377    10.3291    10.4771
  442.5000     0.0692     0.2786     7.9992   150.3928     0.0099     2.5362    10.5477    10.6224
  443.0000     0.0731     0.2789     7.9983   150.9929     0.0098     2.5301    10.7710    10.7696
  443.5000     0.0762     0.2793     7.9976   152.1991     0.0079     2.5247    10.9221    10.9190
  444.0000     0.0771     0.2781     7.9969   152.7992     0.0050     2.5232    11.1533    11.0703
  444.5000     0.0768     0.2744     7.9961   153.7023     0.0080     2.5231    11.3098    11.2233
  445.0000     0.0756     0.2717     8.0107   154.0009     0.0139     2.5239    11.3992    11.2996
  445.5000     0.0750     0.2696     8.0098   153.0844     0.0198     2.5246    11.5484    11.3771
  446.0000     0.0756     0.2690     8.0091   150.6542     0.0122     2.5238    11.7105    11.5349
  446.5000     0.0766     0.2702     8.0235   150.3452     0.0000     2.5230    11.8749    11.6133
  447.0000     0.0757     0.2709     8.0227   151.5514     0.0029     2.5245    12.0416    11.7738
  447.5000     0.0739     0.2691     8.0220   152.7575     0.0058     2.5267    12.2106    12.0207
  448.0000     0.0763     0.2673     8.0364   152.4485     0.0042     2.5206    12.3818    12.1874
  448.5000     0.0822     0.2661     8.0357   151.1960    -0.0035     2.5092    12.4681    12.2710
  449.0000     0.0865     0.2658     8.0349   150.0109    -0.0081     2.5061    12.5549    12.3539
  449.5000     0.0874     0.2655     8.0340   150.3080    -0.0097     2.5069    12.6423    12.3513
  450.0000     0.0871     0.2652     8.0334   151.2103    -0.0068     2.5083    12.5525    12.3480
  450.5000     0.0889     0.2649     8.0322   150.8847     0.0007     2.5022    12.7271    12.2578
  451.0000     0.0914     0.2668     8.0311   150.8621     0.0051     2.4961    12.8132    12.1682
  451.5000     0.0944     0.2659     8.0299   150.5366     0.0080     2.4938    12.6309    12.1640
  452.0000     0.0920     0.2644     8.0288   150.2110     0.0110     2.4967    12.5395    12.1598
  452.5000     0.0872     0.2638     8.0277   149.5824     0.0108     2.5050    12.5363    12.1556
  453.0000     0.0847     0.2642     8.0265   148.6508     0.0060     2.5110    12.5330    12.1514
  453.5000     0.0829     0.2657     8.0254   148.3252    -0.0029     2.5148    12.5298    12.1472
  454.0000     0.0817     0.2675     8.0243   150.1208    -0.0061     2.5170    12.4391    12.1431
  454.5000     0.0811     0.2688     8.0231   152.8256    -0.0062     2.5193    12.4359    12.1389
  455.0000     0.0792     0.2691     8.0220   152.1970    -0.0002     2.5206    12.4327    12.1347
  455.5000     0.0750     0.2682     8.0207   149.1135     0.0148     2.5221    12.4294    12.0460
  456.0000     0.0718     0.2680     8.0195   145.7677     0.0208     2.5258    12.4262    12.0419
  456.5000     0.0723     0.2698     8.0339   144.8561     0.0162     2.5296    12.5103    11.9539
  457.0000     0.0782     0.2723     8.0325   144.8341     0.0085     2.5257    12.4197    11.9497
  457.5000     0.0818     0.2747     8.0314   145.7206     0.0008     2.5151    12.1576    11.9455
  458.0000     0.0848     0.2763     8.0303   147.2076     0.0008     2.5105    11.8187    11.8582
  458.5000     0.0842     0.2775     8.0291   149.0033     0.0007     2.5096    11.4892    11.7565
  459.0000     0.0824     0.2794     8.0280   150.6616     0.0006     2.5134    11.2474    11.4423
  459.5000     0.0806     0.2827     8.0269  -999.2500     0.0002     2.5164    11.0106    11.2796
  460.0000     0.0788     0.2861     8.0258  -999.2500    -0.0027     2.5193    10.7789    11.1192
  460.5000     0.0791     0.2897     8.0247  -999.2500    -0.0012     2.5200    10.6262    10.9611
  461.0000     0.0816     0.2922     8.0235  -999.2500     0.0017     2.5169    10.5493    10.7300
  461.5000     0.0834     0.2934     8.0376  -999.2500     0.0016     2.5123    10.3999    10.5038
  462.0000     0.0840     0.2935     8.0362  -999.2500    -0.0015     2.5108    10.3246    10.2823
  462.5000     0.0828     0.2929     8.0351  -999.2500    -0.0016     2.5152    10.2499    10.2072
  463.0000     0.0813     0.2911     8.0340  -999.2500     0.0043     2.5160    10.1757    10.1326
  463.5000     0.0874     0.2892     8.0025  -999.2500     0.0073     2.5045    10.1731     9.9885
  464.0000     0.0901     0.2875     7.9862  -999.2500    -0.0019     2.4992    10.0995     9.9155
  464.5000     0.0904     0.2879     7.9851  -999.2500    -0.0080     2.5006    10.0968     9.7745
  465.0000     0.0877     0.2891     7.9840  -999.2500    -0.0112     2.5052    10.0942     9.6356
  465.5000     0.0856     0.2903     7.9981  -999.2500    -0.0080     2.5105    10.0915     9.6322
  466.0000     0.0835     0.2952     7.9970  -999.2500    -0.0008     2.5141    10.0180     9.6289
