~VERSION INFORMATION
 VERS.                2.0:   CWLS LOG ASCII STANDARD - VERSION 2.0
 WRAP.                 NO:   ONE LINE PER DEPTH STEP
~WELL INFORMATION
#MNEM.UNIT      DATA TYPE    INFORMATION
#----------   ------------   ------------------------------
 STRT.F            2.0000:   START DEPTH
 STOP.F          564.0000:   STOP DEPTH
 STEP.F            0.5000:   STEP LENGTH
 NULL.          -999.2500:   NO VALUE
 COMP.       F D SERV INC:   COMPANY
 WELL. NAVAL PETROLEUM RESERVE 3 SX-3 #88-2-3:   WELL
 FLD .             TEAPOT:   FIELD
 LOC .       S3 T38N R78W:   LOCATION
 CNTY.            NATRONA:   COUNTY
 STAT.            WYOMING:   STATE
 CTRY. UNITED STATES OF AMERICA:   COUNTRY
 SRVC.      Western Atlas:   SERVICE COMPANY
 DATE.        29-OCT-1992:   LOGDATE
 API .       490252255900:   API NUMBER
~CURVE INFORMATION
#MNEM.UNIT       API CODE    CURVE DESCRIPTION
#----------   ------------   ------------------------------
 DEPT.F                  :   
 GRR .GAPI   07 310 01 00:   GAMMA RAY
 RILD.OHMM   07 120 46 00:   INDUCTION LOG DEEP RESISTIVITY
 RILM.OHMM   07 120 44 00:   INDUCTION LOG MEDIUM RESISTIVITY
~PARAMETER INFORMATION
#MNEM.UNIT          VALUE    DESCRIPTION
#----------   ------------   ------------------------------
 PD  .                 GL:   PERMANENT DATUM
 EPD .F              5138:   ELEVATION PERMANENT DATUM
 LMF .                 KB:   LOG MEASURED FROM
 DAPD.F                10:   FEET ABOVE PERMANENT DATUM
 DMF .                 KB:   DRILLING MEASURED FROM
 EKB .F              5148:   KELLING BUSHING
 EDF .F              5147:   DRILLING FLOOR
 EGL .F              5138:   GROUND LEVEL
 DATE.        29-OCT-1992:   RUN DATE
 RUN .                  1:   RUN NUMBER
 DD  .F               570:   DEPTH DRILLER
 DL  .F               572:   DEPTH LOGGER
 BLI .F               564:   BOTTOM LOG INTERVAL
 CS  .IN            8.625:   CASING SIZE
 CBD .F                98:   CASING BOTTOM DRILLER
 CBL .F                98:   CASING BOTTOM LOGGER
 BS  .IN            7.875:   BIT SIZE
 BSD .F               570:   BIT SIZE AT DEPTH
 DFT .           AIR FOAM:   DRILLING FLUID TYPE
 TCS .HRS               2:   TIME CURCULATED STOPPED
 MRT .F                60:   MAXIMUM RECORDED TEMPERATURE
 LUN .            HL-6274:   LOGGING UNIT NUMBER
 LUL .             CASPER:   LOGGING UNIT LOCATION
 ENGI.             RAUTIO:   RECORDING ENGINEER
 WITN.     BRUCE ANDERSON:   WITNESSED BY
 CLNT.            A2DTECH:   CLIENT CODE
 ORIG.           5" PRINT:   ORIGIN OF DATA
 UWI .       490252255900:   UNIQUE WELL ID
 DICO. A2D Technologies, Inc.:   DIGITIZING COMPANY
~OTHER INFORMATION
~A    DEPT      GRR      RILD       RILM   
# ...
  366.0000   122.2802     9.8209     9.7287
  366.5000   122.2955     9.8865     9.7274
  367.0000   126.7924    10.0906     9.7262
  367.5000   127.9933    10.1582     9.9286
  368.0000   127.6860    10.7695    10.6385
  368.5000   125.4760    12.1533    11.5582
  369.0000   111.6853    13.2938    12.8207
  369.5000   102.6299    14.6423    14.7213
  370.0000    85.7313    15.0631    16.1049
  370.5000    70.9717    16.5749    17.4970
  371.0000    60.3792    18.1303    18.7482
  371.5000    59.4700    19.5592    20.2649
  372.0000    64.8928    20.8529    21.5247
  372.5000    75.1421    23.0793    22.7469
  373.0000    79.6614    24.2184    23.9220
  373.5000    81.4657    25.2385    25.0722
  374.0000    82.9683    26.4825    26.4761
  374.5000    79.3413    27.2187    27.5949
  375.0000    73.0008    28.1696    28.5626
  375.5000    67.8669    28.7530    29.7854
  376.0000    64.2171    29.1461    30.8126
  376.5000    61.5194    29.3409    30.1756
  377.0000    62.7203    29.5369    28.1545
  377.5000    65.7313    28.9207    27.1747
  378.0000    72.4825    27.3543    26.2644
  378.5000    77.7849    26.6006    25.7214
  379.0000    79.2889    26.0473    25.3646
  379.5000    78.0752    25.8609    25.1863
  380.0000    75.8774    25.8525    25.0086
  380.5000    74.1409    26.3879    25.1790
  381.0000    75.0402    26.7504    25.3505
  381.5000    78.0512    27.6832    26.0586
  382.0000    80.7590    28.8474    27.5374
  382.5000    82.2617    29.2418    28.1113
  383.0000    81.3510    29.6435    28.1077
  383.5000    80.1387    29.6339    28.1040
  384.0000    78.3217    30.0390    28.0994
  384.5000    77.4111    31.0864    28.2908
  385.0000    77.7085    32.8473    28.8815
  385.5000    79.8310    33.9948    30.1009
  386.0000    84.0292    36.1675    32.2524
  386.5000    83.1185    37.1729    34.0837
  387.0000    76.4764    36.9070    34.7953
  387.5000    72.2474    36.8974    35.0924
  388.0000    71.3368    36.3784    32.4583
  388.5000    76.1563    35.6217    31.1342
  389.0000    81.5805    35.1230    29.8641
  389.5000    88.0743    34.8717    29.2467
  390.0000    91.8242    33.9087    29.0411
  390.5000    92.7249    32.7470    29.2391
  391.0000    89.0979    31.1904    29.2343
  391.5000    88.7892    29.6969    28.8288
  392.0000    88.7835    27.7126    27.2525
  392.5000    86.9679    26.9491    25.6218
  393.0000    86.3529    26.3885    24.5765
  393.5000    87.5585    25.8252    23.5740
  394.0000    89.6645    23.7729    22.4439
  394.5000    92.9771    22.6429    21.3910
  395.0000    92.9713    22.4809    20.6609
  395.5000    92.3610    22.1660    20.5157
  396.0000    91.7520    21.8543    20.5130
  396.5000    92.6513    21.6980    20.6521
  397.0000    93.8783    21.8444    20.7935
  397.5000    95.0519    21.9889    21.3736
  398.0000    95.3493    22.2896    21.6726
  398.5000    95.0406    22.7497    21.6651
  399.0000    95.9819    22.5869    21.6623
  399.5000    97.1408    22.5810    21.5101
  400.0000    95.6269    22.7414    21.3590
  400.5000    92.3010    22.8855    20.9185
  401.0000    90.7869    23.8525    21.6535
  401.5000    89.8761    24.6890    23.0434
  402.0000    90.1880    25.5548    24.3941
  402.5000    91.9762    26.4509    26.0962
  403.0000    90.1590    27.0134    27.2007
  403.5000    87.4383    27.3749    27.7695
  404.0000    85.6226    27.5613    27.5761
  404.5000    84.4102    27.1780    26.6176
  405.0000    85.9929    26.4325    25.7286
  405.5000    89.8271    25.3542    24.0068
  406.0000    95.5528    24.4684    22.4003
  406.5000   100.9769    23.0063    20.9013
  407.0000   100.6695    21.7644    20.0379
  407.5000    99.1453    21.0215    19.7727
  408.0000    98.2432    20.4449    19.4997
  408.5000    96.7291    20.1607    19.2304
  409.0000    95.2151    19.7437    18.9648
  409.5000    94.3043    19.4697    18.8237
  410.0000    96.4102    19.3329    18.5724
  410.5000    98.8858    19.0647    18.4431
  411.0000   101.8270    19.0621    18.4419
  411.5000   101.2179    19.0596    18.4407
  412.0000    99.4022    19.0565    18.4395
  412.5000    99.0948    19.0539    18.4380
  413.0000    99.9980    19.0514    18.5651
  413.5000    99.3834    19.1818    18.8222
  414.0000    96.0594    19.1786    18.8210
  414.5000    92.7354    19.3092    18.9504
  415.0000    91.5230    19.4407    18.9489
  415.5000    90.6122    19.5731    18.8170
  416.0000    89.7014    19.4349    18.6860
  416.5000    89.9959    19.1653    18.4279
  417.0000    91.1968    19.0297    18.2996
  417.5000    93.0010    18.8962    18.0466
  418.0000    94.8052    18.7634    17.6747
  418.5000    94.7994    18.5031    17.6735
  419.0000    95.3955    18.2464    17.6724
  419.5000    96.5978    18.1181    17.6712
  420.0000    97.7987    17.9825    17.4269
  420.5000    97.7914    17.6182    17.1862
  421.0000    97.1824    17.2540    16.9489
  421.5000    96.2493    17.1327    16.8309
  422.0000    94.4544    16.7785    16.2575
  422.5000    94.4487    16.5457    15.9221
  423.0000    96.2528    16.0777    15.5940
  423.5000    98.6603    15.5421    15.2726
  424.0000    99.5676    15.3264    15.1662
  424.5000    97.7436    15.1137    15.1652
  425.0000    96.5300    15.0075    14.9556
  425.5000    95.9209    15.0055    14.8515
  426.0000    97.1217    15.0031    14.7481
  426.5000    96.8143    15.0011    14.7471
  427.0000    95.8874    14.9991    14.7461
  427.5000    94.9913    14.9971    14.7451
  428.0000    96.1922    14.8917    14.6423
  428.5000    97.0929    14.5838    14.3405
  429.0000    98.2937    14.5818    14.1425
  429.5000    96.7782    14.4789    14.0440
  430.0000    95.2640    14.3772    13.9334
  430.5000    94.3519    14.2761    13.7534
  431.0000    95.2512    14.0780    13.6577
  431.5000    97.9603    13.9665    13.5626
  432.0000   100.0662    13.7847    13.5617
  432.5000    98.5520    13.6878    13.5608
  433.0000    97.9416    13.6860    13.5597
  433.5000    98.5391    13.5898    13.5588
  434.0000    99.7400    13.4943    13.4644
  434.5000   101.2425    13.3990    13.2785
  435.0000   103.0467    13.3049    13.1860
  435.5000   103.9459    13.2114    13.0940
  436.0000   102.7320    13.2096    13.0029
  436.5000   101.8213    13.1168    13.0020
  437.0000   103.0221    13.2061    13.0012
  437.5000   103.9228    13.2039    13.0906
  438.0000   102.4032    13.2943    13.0895
  438.5000   101.1934    13.2921    13.1797
  439.0000   102.3957    13.3831    13.3012
  439.5000   103.8968    13.4738    13.5476
  440.0000   102.3827    13.5655    13.6408
  440.5000   101.4720    13.6578    13.6397
  441.0000   100.2596    13.7509    13.6388
  441.5000   101.4604    13.6538    13.7326
  442.0000   100.8499    13.5579    13.6370
  442.5000    99.6375    13.3698    13.4394
  443.0000   100.8383    13.0929    13.0804
  443.5000   103.5475    13.0009    12.7225
  444.0000   105.6519    12.6443    12.4603
  444.5000   106.5511    12.2975    12.1193
  445.0000   106.5453    12.0432    11.9519
  445.5000   106.5396    11.9586    11.8686
  446.0000   107.1371    11.8742    11.7859
  446.5000   107.4330    11.8726    11.7852
  447.0000   105.9175    11.8710    11.7844
  447.5000   104.4034    11.8694    11.7836
  448.0000   104.6993    11.9503    11.8646
  448.5000   105.5999    11.9486    11.9462
  449.0000   103.7828    12.1973    12.1958
  449.5000   102.2685    12.5380    12.5373
  450.0000   101.0563    13.0024    12.8883
  450.5000   101.2861    13.7156    13.4318
  451.0000    99.7929    14.4287    14.8201
  451.5000    94.0795    15.7391    16.4095
  452.0000    90.7498    17.3356    17.4605
  452.5000    84.7052    18.6598    18.9685
  453.0000    79.5656    21.0296    20.7499
  453.5000    77.1380    23.8128    22.7706
  454.0000    76.2216    26.4105    25.8816
  454.5000    78.6234    28.7056    28.5088
  455.0000    81.0253    30.3127    29.7115
  455.5000    81.3155    30.9405    30.3289
  456.0000    76.7763    31.3635    30.7454
  456.5000    75.8627    31.5730    30.5258
