~VERSION INFORMATION
 VERS.                2.0:   CWLS LOG ASCII STANDARD - VERSION 2.0
 WRAP.                 NO:   ONE LINE PER DEPTH STEP
~WELL INFORMATION
#MNEM.UNIT      DATA TYPE    INFORMATION
#----------   ------------   ------------------------------
 STRT.F           20.0000:   START DEPTH
 STOP.F          930.0000:   STOP DEPTH
 STEP.F            0.5000:   STEP LENGTH
 NULL.          -999.2500:   NO VALUE
 COMP. FENIX & SCISSON INC:   COMPANY
 WELL.     NPR 3 #45-S-14:   WELL
 FLD .        TEAPOT DOME:   FIELD
 LOC .      S14 T38N R78W:   LOCATION
 CNTY.            NATRONA:   COUNTY
 STAT.            WYOMING:   STATE
 CTRY. UNITED STATES OF AMERICA:   COUNTRY
 SRVC.           BIRDWELL:   SERVICE COMPANY
 DATE.        02-JAN-1979:   LOGDATE
 API .       490251076200:   API NUMBER
~CURVE INFORMATION
#MNEM.UNIT       API CODE    CURVE DESCRIPTION
#----------   ------------   ------------------------------
 DEPT.F                  :   
 GRD .GAPI   45 310 01 00:   GAMMA RAY FROM DENSITY LOG
 CALD.IN     45 280 60 00:   CALIPER
 RHOB.G/C3   45 350 01 00:   BULK DENSITY
 DPHI.DEC    45 890 12 00:   DENSITY POROSITY SANDSTONE
 CORR.G/C3   45 356 01 00:   DENSITY CORRECTION
~PARAMETER INFORMATION
#MNEM.UNIT          VALUE    DESCRIPTION
#----------   ------------   ------------------------------
 PD  .                 GL:   PERMANENT DATUM
 EPD .F              5261:   ELEVATION PERMANENT DATUM
 LMF .                 KB:   LOG MEASURED FROM
 DAPD.F                 4:   FEET ABOVE PERMANENT DATUM
 DMF .                 KB:   DRILLING MEASURED FROM
 EKB .F              5265:   KELLING BUSHING
 EGL .F              5261:   GROUND LEVEL
 DATE.             1-7-79:   RUN DATE
 RUN .                  1:   RUN NUMBER
 DD  .F               969:   DEPTH DRILLER
 DL  .F               928:   DEPTH LOGGER
 BLI .F               928:   BOTTOM LOG INTERVAL
 TLI .F                20:   TOP LOG INTERVAL
 CS  .IN            8.625:   CASING SIZE
 CBD .F                40:   CASING BOTTOM DRILLER
 CBL .F                46:   CASING BOTTOM LOGGER
 BS  .IN            7.875:   BIT SIZE
 BSD .F               969:   BIT SIZE AT DEPTH
 DFT .                KCL:   DRILLING FLUID TYPE
 DFD .                8.8:   DRILLING FLUID DENSITY
 DFV .                 42:   DRILLING FLUID VISCOSITY
 DFPH.                9.2:   DRILLING FLUID PH
 DFL .                 10:   DRILLING FLUID LOSS
 MSS .           FLOWLINE:   MUD SAMPLE SOURCE
 RMS .OHMM            .95:   RESISTIVITY MUD SAMPLE
 MST .F                60:   MUD SAMPLE TEMPERATURE
 RMF .OHMM            1.7:   RESISTIVITY MUD FILTRATE SAMPLE
 MFST.F                60:   MUD FILTRATE SAMPLE TEMPERATURE
 RMC .OHMM            1.6:   RESISTIVITY MUD CAKE
 MCST.F                60:   MUD CAKE SAMPLE TEMPERATURE
 MFSS.           MEASURED:   MUD FILTRATE SAMPLE SOURCE
 MCSS.           MEASURED:   MUD CAKE SAMPLE SOURCE
 RMB .OHMM            .98:   RESISTIVITY MUD AT BHT
 BHT .F                58:   BOTTOM HOLE TEMPERATURE
 TCS .HRS               4:   TIME CURCULATED STOPPED
 MRT .F                58:   MAXIMUM RECORDED TEMPERATURE
 LUN .               3006:   LOGGING UNIT NUMBER
 LUL .             CASPER:   LOGGING UNIT LOCATION
 ENGI.            ROLLINS:   RECORDING ENGINEER
 WITN.           DINSMORE:   WITNESSED BY
 CLNT.            A2DTECH:   CLIENT CODE
 ORIG.           5" PRINT:   ORIGIN OF DATA
 UWI .       490251076200:   UNIQUE WELL ID
 DICO. A2D Technologies, Inc.:   DIGITIZING COMPANY
~OTHER INFORMATION
~A   DEPT      GRD         CALD     RHOB       DPHI       CORR   
# ...
  752.0000    98.8210     7.8470     2.4690     0.1390    -0.0010
  752.5000    91.5090     7.8540     2.4600     0.1500    -0.0070
  753.0000    84.1490     7.8620     2.4390     0.1590    -0.0050
  753.5000    73.9280     7.8690     2.4170     0.1630     0.0080
  754.0000    63.2130     7.8690     2.4040     0.1690     0.0200
  754.5000    56.5540     7.8680     2.3950     0.1830     0.0330
  755.0000    51.4500     7.8670     2.3820     0.1870     0.0450
  755.5000    52.5260     7.8650     2.3750     0.1820     0.0390
  756.0000    57.3660     7.8640     2.3810     0.1730     0.0300
  756.5000    62.8030     7.8620     2.3880     0.1670     0.0220
  757.0000    69.0920     7.8610     2.3880     0.1840     0.0270
  757.5000    67.9690     7.8590     2.3670     0.1950     0.0330
  758.0000    64.3050     7.8580     2.3480     0.1930     0.0380
  758.5000    60.5320     7.8570     2.3460     0.2060     0.0130
  759.0000    58.3440     7.8550     2.3230     0.2280     0.0140
  759.5000    57.9670     7.8540     2.3020     0.2330     0.0080
  760.0000    58.8400     7.8520     2.2960     0.2280     0.0030
  760.5000    64.3210     7.8510     2.3020     0.2180     0.0000
  761.0000    69.4740     7.8500     2.3200     0.2130     0.0010
  761.5000    70.3500     7.8480     2.3300     0.2080     0.0030
  762.0000    71.8330     7.8470     2.3410     0.1980     0.0030
  762.5000    73.0530     7.8450     2.3570     0.1870     0.0000
  763.0000    72.6630     7.8440     2.3680     0.1740    -0.0050
  763.5000    73.6760     7.8420     2.3820     0.1540    -0.0100
  764.0000    75.5800     7.8410     2.4010     0.1560    -0.0140
  764.5000    77.2860     7.8400     2.4040     0.1680    -0.0170
  765.0000    76.8270     7.8380     2.3960     0.1760    -0.0090
  765.5000    77.2410     7.8370     2.3750     0.1830    -0.0010
  766.0000    80.6570     7.8350     2.3640     0.1870    -0.0020
  766.5000    83.3150     7.8340     2.3600     0.1890    -0.0030
  767.0000    82.2990     7.8320     2.3590     0.1890    -0.0030
  767.5000    81.0150     7.8310     2.3590     0.1880    -0.0040
  768.0000    77.5490     7.8330     2.3590     0.1910    -0.0050
  768.5000    75.1050     7.8380     2.3590     0.1940    -0.0020
  769.0000    75.1540     7.8420     2.3590     0.1960     0.0010
  769.5000    78.4110     7.8470     2.3590     0.1940     0.0030
  770.0000    80.7220     7.8520     2.3590     0.1920     0.0020
  770.5000    79.7760     7.8570     2.3580     0.1910     0.0010
  771.0000    79.8770     7.8620     2.3580     0.1890     0.0000
  771.5000    80.9330     7.8670     2.3580     0.1880    -0.0010
  772.0000    81.1050     7.8700     2.3580     0.1970    -0.0010
  772.5000    81.0640     7.8640     2.3590     0.1950    -0.0020
  773.0000    81.0120     7.8580     2.3590     0.1920    -0.0030
  773.5000    80.9630     7.8530     2.3600     0.1870    -0.0060
  774.0000    80.2990     7.8470     2.3640     0.1840    -0.0080
  774.5000    79.0540     7.8410     2.3620     0.1890    -0.0110
  775.0000    78.7610     7.8360     2.3580     0.1890    -0.0170
  775.5000    80.6010     7.8300     2.3570     0.1890    -0.0170
  776.0000    84.6010     7.8320     2.3570     0.1930    -0.0170
  776.5000    88.1750     7.8330     2.3580     0.1970    -0.0160
  777.0000    88.6270     7.8350     2.3580     0.1960    -0.0160
  777.5000    87.4180     7.8360     2.3580     0.1950    -0.0150
  778.0000    84.8110     7.8370     2.3580     0.1950    -0.0110
  778.5000    81.1370     7.8390     2.3580     0.1960    -0.0040
  779.0000    78.1250     7.8400     2.3580     0.1930     0.0050
  779.5000    77.2120     7.8420     2.3580     0.1920     0.0070
  780.0000    77.2670     7.8430     2.3580     0.1940     0.0090
  780.5000    77.6150     7.8440     2.3570     0.1950     0.0080
  781.0000    80.6020     7.8460     2.3580     0.1960     0.0080
  781.5000    84.5000     7.8470     2.3580     0.1960     0.0080
  782.0000    83.3270     7.8480     2.3580     0.1960     0.0130
  782.5000    80.2270     7.8500     2.3590     0.1910     0.0190
  783.0000    79.3430     7.8510     2.3630     0.1860     0.0240
  783.5000    80.9250     7.8530     2.3660     0.1810     0.0250
  784.0000    83.7900     7.8540     2.3670     0.1820     0.0250
  784.5000    85.5770     7.8550     2.3660     0.1840     0.0240
  785.0000    87.0630     7.8570     2.3650     0.1850     0.0240
  785.5000    89.0160     7.8580     2.3640     0.1870     0.0230
  786.0000    88.2090     7.8600     2.3640     0.1860     0.0200
  786.5000    87.4630     7.8610     2.3640     0.1860     0.0120
  787.0000    85.4400     7.8620     2.3630     0.1860     0.0030
  787.5000    82.7200     7.8640     2.3630     0.1870     0.0000
  788.0000    81.0040     7.8650     2.3630     0.1880    -0.0010
  788.5000    81.7030     7.8670     2.3630     0.1870    -0.0020
  789.0000    82.4180     7.8680     2.3640     0.1860    -0.0030
  789.5000    83.1360     7.8690     2.3640     0.1840    -0.0020
  790.0000    83.5070     7.8700     2.3630     0.1840     0.0000
  790.5000    80.7920     7.8670     2.3620     0.1910     0.0010
  791.0000    80.3610     7.8650     2.3530     0.2000     0.0040
  791.5000    80.3660     7.8620     2.3470     0.2020     0.0120
  792.0000    78.9360     7.8600     2.3470     0.2000     0.0270
  792.5000    80.3670     7.8570     2.3550     0.1860     0.0400
  793.0000    80.9630     7.8550     2.3730     0.1780     0.0480
  793.5000    81.0200     7.8520     2.3840     0.1760     0.0460
  794.0000    81.3840     7.8500     2.3880     0.1730     0.0380
  794.5000    85.7150     7.8470     2.3880     0.1740     0.0160
  795.0000    82.3910     7.8440     2.3840     0.1790     0.0150
  795.5000    80.7400     7.8420     2.3820     0.1770     0.0140
  796.0000    80.8090     7.8390     2.3820     0.1750     0.0140
  796.5000    82.0900     7.8370     2.3820     0.1760     0.0140
  797.0000    81.9630     7.8340     2.3820     0.1790     0.0140
  797.5000    81.6980     7.8320     2.3820     0.1810     0.0130
  798.0000    81.4880     7.8290     2.3820     0.1760     0.0120
  798.5000    77.8640     7.8270     2.3820     0.1750     0.0080
  799.0000    77.4320     7.8240     2.3820     0.1810     0.0040
  799.5000    79.6960     7.8210     2.3820     0.1820     0.0040
  800.0000    82.2840     7.8190     2.3830     0.1820     0.0060
  800.5000    81.6620     7.8160     2.3870     0.1750     0.0080
  801.0000    82.5830     7.8140     2.3900     0.1740     0.0090
  801.5000    84.8870     7.8110     2.3930     0.1720     0.0110
  802.0000    82.0650     7.8220     2.3950     0.1690     0.0130
  802.5000    81.7920     7.8420     2.3960     0.1660     0.0100
  803.0000    82.4840     7.8610     2.3960     0.1660     0.0060
  803.5000    81.7180     7.8700     2.3960     0.1660     0.0020
  804.0000    84.6000     7.8680     2.3950     0.1690    -0.0010
  804.5000    81.7840     7.8670     2.3910     0.1740    -0.0030
  805.0000    78.9690     7.8650     2.3890     0.1700    -0.0050
  805.5000    78.5420     7.8640     2.3890     0.1700    -0.0070
  806.0000    79.5490     7.8620     2.3890     0.1720    -0.0090
  806.5000    81.0830     7.8610     2.3890     0.1740    -0.0090
  807.0000    81.7620     7.8590     2.3880     0.1760    -0.0090
  807.5000    84.2220     7.8580     2.3880     0.1790    -0.0090
  808.0000    86.5280     7.8560     2.3880     0.1780    -0.0090
  808.5000    85.6820     7.8550     2.3880     0.1760    -0.0090
  809.0000    83.9670     7.8530     2.3900     0.1720    -0.0110
  809.5000    83.8220     7.8520     2.3980     0.1660    -0.0120
  810.0000    86.5590     7.8500     2.4030     0.1590    -0.0130
  810.5000    87.8650     7.8480     2.4040     0.1590    -0.0130
  811.0000    88.2280     7.8470     2.4030     0.1630    -0.0130
  811.5000    86.5230     7.8450     2.3990     0.1670    -0.0130
  812.0000    83.0730     7.8440     2.3940     0.1700    -0.0130
  812.5000    80.0120     7.8420     2.3890     0.1740    -0.0130
