~VERSION INFORMATION
 VERS.                2.0:   CWLS LOG ASCII STANDARD - VERSION 2.0
 WRAP.                 NO:   ONE LINE PER DEPTH STEP
~WELL INFORMATION
#MNEM.UNIT      DATA TYPE    INFORMATION
#----------   ------------   ------------------------------
 STRT.F            7.0000:   START DEPTH
 STOP.F          549.0000:   STOP DEPTH
 STEP.F            0.5000:   STEP LENGTH
 NULL.          -999.2500:   NO VALUE
 COMP. LAWRENCE-ALLISON &AS:   COMPANY
 WELL. NPR 3 #51-62-SX-10-LP3:   WELL
 FLD .             TEAPOT:   FIELD
 LOC .      S10 T38N R78W:   LOCATION
 CNTY.            NATRONA:   COUNTY
 STAT.            WYOMING:   STATE
 CTRY. UNITED STATES OF AMERICA:   COUNTRY
 SRVC.      Dresser Atlas:   SERVICE COMPANY
 DATE.        10-DEC-1984:   LOGDATE
 API .       490251099500:   API NUMBER
~CURVE INFORMATION
#MNEM.UNIT       API CODE    CURVE DESCRIPTION
#----------   ------------   ------------------------------
 DEPT.F                  :   
 SPR .MV     07 010 01 00:   SPONTANEOUS POTENTIAL
 RILD.OHMM   07 120 46 00:   INDUCTION LOG DEEP RESISTIVITY
 RILM.OHMM   07 120 44 00:   INDUCTION LOG MEDIUM RESISTIVITY
 RFOC.OHMM   07 220 04 00:   RESISTIVITY FOCUSED LOG
 DT  .US/F   60 520 00 00:   INTERVAL TRANSIT TIME
 PORD.DEC    45 890 12 00:   POROSITY DENSITY SANDSTONE
 CNCF.DEC    42 890 03 00:   NEUTRON POROSITY SANDSTONE
 CALD.IN     45 280 60 00:   CALIPER FROM DENSITY LOG
 GRD .GAPI   45 310 01 00:   GAMMA RAY FROM DENSITY LOG
 CORR.G/C3   45 356 01 00:   DENSITY CORRECTION
 DEN .G/C3   45 350 01 00:   COMPENSATED BULK DENSTIY
~PARAMETER INFORMATION
#MNEM.UNIT          VALUE    DESCRIPTION
#----------   ------------   ------------------------------
 PD  .                 GL:   PERMANENT DATUM
 EPD .F              5179:   ELEVATION PERMANENT DATUM
 LMF .                 GL:   LOG MEASURED FROM
 DMF .                 GL:   DRILLING MEASURED FROM
 EGL .F              5179:   GROUND LEVEL
 DATE.        10-DEC-1984:   RUN DATE
 RUN .                  1:   RUN NUMBER
 DD  .F               554:   DEPTH DRILLER
 DL  .F               551:   DEPTH LOGGER
 BLI .F               549:   BOTTOM LOG INTERVAL
 TLI .F                20:   TOP LOG INTERVAL
 CS  .IN            8.625:   CASING SIZE
 CBD .F                20:   CASING BOTTOM DRILLER
 CBL .F                20:   CASING BOTTOM LOGGER
 BS  .IN            7.875:   BIT SIZE
 BSD .F               554:   BIT SIZE AT DEPTH
 DFT .         KCL- WATER:   DRILLING FLUID TYPE
 MSS .           MUD TANK:   MUD SAMPLE SOURCE
 RMS .OHMM           .168:   RESISTIVITY MUD SAMPLE
 MST .F                77:   MUD SAMPLE TEMPERATURE
 RMF .OHMM           .126:   RESISTIVITY MUD FILTRATE SAMPLE
 MFST.F                77:   MUD FILTRATE SAMPLE TEMPERATURE
 RMC .OHMM            .21:   RESISTIVITY MUD CAKE
 MCST.F                77:   MUD CAKE SAMPLE TEMPERATURE
 MFSS.               CALC:   MUD FILTRATE SAMPLE SOURCE
 MCSS.               CALC:   MUD CAKE SAMPLE SOURCE
 RMB .OHMM            .15:   RESISTIVITY MUD AT BHT
 BHT .F                85:   BOTTOM HOLE TEMPERATURE
 TCS .HRS             3.5:   TIME CURCULATED STOPPED
 MRT .F               100:   MAXIMUM RECORDED TEMPERATURE
 LUN .               6270:   LOGGING UNIT NUMBER
 LUL .                 FM:   LOGGING UNIT LOCATION
 ENGI.          E. GOVETT:   RECORDING ENGINEER
 WITN.             GROOMS:   WITNESSED BY
 CLNT.            A2DTECH:   CLIENT CODE
 ORIG.           5" PRINT:   ORIGIN OF DATA
 UWI .       490251099500:   UNIQUE WELL ID
 DICO. A2D Technologies, Inc.:   DIGITIZING COMPANY
~OTHER INFORMATION
~A    DEPT     SPR       RILD       RILM       RFOC         DT       PORD         CNCF     CALD        GRD       CORR        DEN   
# ...
  312.0000   -52.2312    16.1615    12.9934    16.0479    95.1907     0.1714     0.2659     8.5536    80.6359     0.0102     2.3895
  312.5000   -52.8190    15.9416    12.9961    15.9412    95.1877     0.1729     0.2620     8.5524    79.8121     0.0149     2.3887
  313.0000   -53.1108    15.7234    13.0891    15.6201    95.1095     0.1744     0.2592     8.5362    77.2467     0.0191     2.3879
  313.5000   -53.2524    15.5085    13.0918    15.5163    95.1065     0.1754     0.2565     8.5351    76.0363     0.0206     2.3856
  314.0000   -53.3949    15.2962    13.0040    15.3094    94.9531     0.1754     0.2556     8.5038    76.1792     0.0115     2.3848
  314.5000   -53.5360    15.0866    12.8284    15.1026    94.7997     0.1730     0.2614     8.4877    76.4744     0.0039     2.3877
  315.0000   -53.5302    14.8803    12.7418    15.0035    94.4960     0.1691     0.2677     8.4414    76.3148     0.0099     2.3915
  315.5000   -53.5244    14.6764    12.6571    14.8035    94.1922     0.1661     0.2665     8.4252    75.4051     0.0158     2.3990
  316.0000   -53.6684    14.4758    12.5717    14.6048    93.8133     0.1631     0.2680     8.4090    75.9992     0.0218     2.4012
  316.5000   -53.8110    14.4768    12.4881    14.5088    93.2840     0.1601     0.2701     8.3926    77.1967     0.0263     2.4072
  317.0000   -53.9536    14.3776    12.4907    14.4136    92.9050     0.1538     0.2662     8.3613    74.7814     0.0337     2.4154
  317.5000   -54.0961    14.1810    12.4932    14.5189    92.6013     0.1502     0.2586     8.3602    74.0221     0.0337     2.4275
  318.0000   -54.2374    14.0841    12.4094    14.9318    92.5231     0.1575     0.2526     8.3440    75.2177     0.0306     2.4305
  318.5000   -54.3798    13.8914    12.2413    14.8337    92.8208     0.1611     0.2499     8.3278    76.2629     0.0155     2.4086
  319.0000   -54.3739    13.8923    12.0721    14.5349    93.1193     0.1615     0.2508     8.2966    75.5037     0.0139     2.4085
  319.5000   -54.2196    13.8994    11.7382    14.2397    92.9652     0.1567     0.2527     8.2654    74.1419     0.0259     2.4100
  320.0000   -54.0642    14.1011    11.7509    14.1463    92.5111     0.1492     0.2532     8.2342    74.3158     0.0469     2.4273
  320.5000   -54.0584    14.3849    11.8349    14.2506    91.6058     0.1435     0.2494     8.2330    76.2521     0.0635     2.4393
  321.0000   -54.3508    14.4859    12.0024    14.1559    91.5276     0.1432     0.2460     8.2318    76.3763     0.0740     2.4393
  321.5000   -54.4934    14.5875    12.1723    14.2603    91.5246     0.1468     0.2405     8.2306    76.3670     0.0694     2.4361
  322.0000   -54.4861    14.6899    12.2594    14.4641    91.3713     0.1483     0.2366     8.2144    77.5626     0.0449     2.4332
  322.5000   -54.3319    14.6909    12.2619    16.6185    90.9171     0.1469     0.2381     8.2132    79.5101     0.0286     2.4347
  323.0000   -54.3261    14.5903    12.2644    17.5711    89.6359     0.1460     0.2351     8.1968    78.9012     0.0315     2.4362
  323.5000   -54.3203    14.4906    12.1822    18.1964    87.4525     0.1482     0.2324     8.1956    75.7359     0.0330     2.4345
  324.0000   -54.3145    14.3916    12.0171    16.4066    85.6450     0.1584     0.2462     8.1944    73.3225     0.0269     2.4270
  324.5000   -54.3086    14.2932    11.9366    15.1035    85.8675     0.1657     0.2484     8.1932    73.4673     0.0163     2.4021
  325.0000   -54.3027    14.3109    11.7748    14.9008    87.1427     0.1649     0.2451     8.1920    74.3603     0.0132     2.4005
  325.5000   -54.4455    14.3947    11.6152    14.8030    91.4254     0.1545     0.2408     8.2062    78.1123     0.0146     2.4080
  326.0000   -54.4382    14.0997    11.5248    14.9112    93.0766     0.1482     0.2435     8.2047    81.1124     0.0206     2.4283
  326.5000   -54.4324    13.9026    11.3031    14.8131    93.6751     0.1438     0.2375     8.2035    82.3083     0.0266     2.4381
  327.0000   -54.7233    13.7057    11.2268    14.5147    93.9728     0.1411     0.2315     8.2023    79.8946     0.0325     2.4441
  327.5000   -55.6078    13.4353    11.0746    14.1230    93.9698     0.1426     0.2336     8.2162    78.6842     0.0385     2.4425
  328.0000   -56.0471    13.2514    10.8497    13.6470    93.6661     0.1417     0.2339     8.2150    78.6767     0.0445     2.4417
  328.5000   -56.1911    13.1608    10.6288    13.3710    93.0616     0.1390     0.2339     8.2293    78.3554     0.0504     2.4432
  329.0000   -56.0354    13.0709    10.5570    13.2821    92.5323     0.1354     0.2400     8.2427    75.8887     0.0564     2.4500
  329.5000   -55.5845    13.1628    10.5597    13.1949    92.1533     0.1303     0.2460     8.2262    73.9910     0.0624     2.4567
  330.0000   -55.2819    12.9827    10.5619    13.1094    91.7744     0.1316     0.2435     8.2100    74.5851     0.0608     2.4620
  330.5000   -55.1276    12.7166    10.2754    13.1139    91.6210     0.1322     0.2399     8.2088    77.5852     0.0502     2.4596
  331.0000   -54.9722    12.7175    10.0662    13.1184    91.4676     0.1316     0.2520     8.2076    79.5327     0.0426     2.4596
  331.5000   -54.9664    12.8957    10.0682    13.2140    91.3895     0.1283     0.2617     8.2065    82.0817     0.0441     2.4618
  332.0000   -55.2573    13.0765    10.1404    13.2185    91.3864     0.1223     0.2689     8.2206    84.1795     0.0500     2.4716
  332.5000   -55.6966    13.2597    10.2133    13.2230    91.3834     0.1220     0.2662     8.2344    85.3751     0.0560     2.4746
  333.0000   -55.6908    13.2606    10.5753    13.3257    91.3804     0.1251     0.2650     8.2483    85.9711     0.0606     2.4715
  333.5000   -55.0915    13.5421    11.0262    13.6165    91.5278     0.1257     0.2653     8.2621    84.4581     0.0651     2.4715
  334.0000   -54.7890    14.0362    11.6567    13.8952    91.6000     0.1254     0.2677     8.2606    81.4431     0.0679     2.4714
  334.5000   -54.4865    14.7488    12.4089    14.7938    91.6722     0.1264     0.2704     8.2594    79.0297     0.0738     2.4684
  335.0000   -54.1839    15.8813    13.4869    15.9702    91.8196     0.1318     0.2725     8.2583    76.3155     0.0647     2.4628
  335.5000   -53.7245    17.0212    14.7604    17.8475    92.0453     0.1382     0.2737     8.2721    74.3532     0.0541     2.4513
  336.0000   -53.4085    19.2821    16.1541    18.7404    92.4272     0.1472     0.2722     8.2859    72.5413     0.0435     2.4351
  336.5000   -52.9781    20.8098    17.4363    19.8147    94.5316     0.1563     0.2713     8.2845    70.8518     0.0269     2.4162
  337.0000   -52.3788    21.8449    18.4333    21.0961    95.8201     0.1691     0.2716     8.2833    68.2518     0.0193     2.3861
  337.5000   -51.9279    22.9315    19.3528    21.5463    97.2431     0.1825     0.2753     8.2821    65.6015     0.0222     2.3664
  338.0000   -51.6254    24.2394    19.7632    22.4681    98.3638     0.1935     0.2805     8.2809    66.6452     0.0372     2.3536
  338.5000   -51.3229    25.4451    19.7673    23.9211    98.7159     0.1940     0.2819     8.2798    67.8408     0.0583     2.3543
  339.0000   -51.4669    26.5264    20.3275    24.7724    97.7935     0.1922     0.2713     8.2786    68.8860     0.0492     2.3595
  339.5000   -51.6094    27.4628    20.9027    25.1264    97.1029     0.1896     0.2647     8.2774    70.2320     0.0461     2.3655
  340.0000   -51.8989    28.2361    21.4942    24.6182    96.2607     0.1878     0.2608     8.2612    69.0216     0.0491     2.3655
  340.5000   -51.4480    28.8314    22.1024    24.9817    95.8467     0.1884     0.2653     8.2600    67.0593     0.0550     2.3624
  341.0000   -51.2937    29.4381    22.1069    26.0869    96.3063     0.1914     0.2755     8.2438    67.2041     0.0670     2.3556
  341.5000   -51.1395    29.6742    21.9577    27.1545    96.8304     0.1948     0.2804     8.2117    68.3978     0.0672     2.3518
  342.0000   -50.8357    30.0606    21.8106    27.7340    97.7824     0.1972     0.2725     8.1214    70.7983     0.0609     2.3503
