~VERSION INFORMATION
 VERS.                2.0:   CWLS LOG ASCII STANDARD - VERSION 2.0
 WRAP.                 NO:   ONE LINE PER DEPTH STEP
~WELL INFORMATION
#MNEM.UNIT      DATA TYPE    INFORMATION
#----------   ------------   ------------------------------
 STRT.F            1.0000:   START DEPTH
 STOP.F          524.0000:   STOP DEPTH
 STEP.F            0.1000:   STEP LENGTH
 NULL.          -999.2500:   NO VALUE
 COMP.       F D SERV INC:   COMPANY
 WELL.    87-2 SX-3 #87-3:   WELL
 FLD .             TEAPOT:   FIELD
 LOC .       S3 T38N R78W:   LOCATION
 CNTY.            NATRONA:   COUNTY
 STAT.            WYOMING:   STATE
 CTRY. UNITED STATES OF AMERICA:   COUNTRY
 SRVC.     Atlas Wireline:   SERVICE COMPANY
 DATE.        20-OCT-1992:   LOGDATE
 API .       490252254700:   API NUMBER
~CURVE INFORMATION
#MNEM.UNIT       API CODE    CURVE DESCRIPTION
#----------   ------------   ------------------------------
 DEPT.F                  :   
 GRR .GAPI   07 310 01 00:   GAMMA RAY
 RILD.OHMM   07 120 46 00:   INDUCTION LOG DEEP RESISTIVITY
 RILM.OHMM   07 120 44 00:   INDUCTION LOG MEDIUM RESISTIVITY
~PARAMETER INFORMATION
#MNEM.UNIT          VALUE    DESCRIPTION
#----------   ------------   ------------------------------
 PD  .                 GL:   PERMANENT DATUM
 EPD .F              5124:   ELEVATION PERMANENT DATUM
 LMF .                 KB:   LOG MEASURED FROM
 DAPD.F                10:   FEET ABOVE PERMANENT DATUM
 DMF .                 KB:   DRILLING MEASURED FROM
 EKB .F              5134:   KELLING BUSHING
 EDF .F              5133:   DRILLING FLOOR
 EGL .F              5124:   GROUND LEVEL
 DATE.        20-OCT-1992:   RUN DATE
 RUN .                  1:   RUN NUMBER
 DD  .F               533:   DEPTH DRILLER
 DL  .F               532:   DEPTH LOGGER
 BLI .F               524:   BOTTOM LOG INTERVAL
 TLI .F                74:   TOP LOG INTERVAL
 CS  .IN            8.625:   CASING SIZE
 CBD .F                85:   CASING BOTTOM DRILLER
 CBL .F                74:   CASING BOTTOM LOGGER
 BS  .IN            7.875:   BIT SIZE
 BSD .F               533:   BIT SIZE AT DEPTH
 DFT .           AIR FOAM:   DRILLING FLUID TYPE
 TCS .HRS               3:   TIME CURCULATED STOPPED
 MRT .F                70:   MAXIMUM RECORDED TEMPERATURE
 LUN .            HL-6274:   LOGGING UNIT NUMBER
 LUL .             CASPER:   LOGGING UNIT LOCATION
 ENGI.             RAUTIO:   RECORDING ENGINEER
 WITN.        GARY STRONG:   WITNESSED BY
 CLNT.            A2DTECH:   CLIENT CODE
 ORIG.           5" PRINT:   ORIGIN OF DATA
 UWI .       490252254700:   UNIQUE WELL ID
 DICO. A2D Technologies, Inc.:   DIGITIZING COMPANY
~OTHER INFORMATION
~A    DEPT     GRR       RILD       RILM   
# ...
  474.2000   105.6466    12.9297    12.9309
  474.3000   105.4062    12.9698    12.9648
  474.4000   105.1589    13.0442    12.9882
  474.5000   104.7820    13.1119    13.0624
  474.6000   104.3582    13.1121    13.1468
  474.7000   104.0944    13.1777    13.1467
  474.8000   103.5177    13.2043    13.1954
  474.9000   103.1003    13.2045    13.2710
  475.0000   102.2969    13.2201    13.3313
  475.1000   101.3005    13.2973    13.3311
  475.2000   100.3041    13.2975    13.4060
  475.3000    99.2418    13.2977    13.4243
  475.4000    98.0784    13.2979    13.4241
  475.5000    97.0089    13.2980    13.4239
  475.6000    96.1324    13.3052    13.4237
  475.7000    95.3855    13.3915    13.4235
  475.8000    94.6458    13.3917    13.4233
  475.9000    94.0501    13.3919    13.4232
  476.0000    93.8519    13.3921    13.4230
  476.1000    93.8918    13.3923    13.4228
  476.2000    94.0570    13.3925    13.4226
  476.3000    94.0899    13.3926    13.4978
  476.4000    94.3684    13.3928    13.5164
  476.5000    95.2650    13.3930    13.5162
  476.6000    96.0993    13.3932    13.5160
  476.7000    96.8509    13.3934    13.5158
  476.8000    97.6025    13.3936    13.5156
  476.9000    98.3620    13.3938    13.5155
  477.0000    99.1057    13.3940    13.5153
  477.1000    99.6668    13.3941    13.5151
  477.2000   100.1687    13.3943    13.5149
  477.3000   100.6705    13.3945    13.5147
  477.4000   101.1516    13.3947    13.4393
  477.5000   101.4399    13.3949    13.4202
  477.6000   101.6559    13.3951    13.4200
  477.7000   101.5933    13.3953    13.4198
  477.8000   101.1443    13.3954    13.4196
  477.9000   100.3533    13.3957    13.4194
  478.0000    99.3079    13.3300    13.4192
  478.1000    97.8856    13.3029    13.4190
  478.2000    96.5704    13.3030    13.4188
  478.3000    95.3241    13.3032    13.4036
  478.4000    94.1459    13.3034    13.3249
  478.5000    93.1609    13.3036    13.3248
  478.6000    92.2785    13.3038    13.3246
  478.7000    92.0762    13.3040    13.3244
  478.8000    91.8289    13.3042    13.3242
  478.9000    91.6729    13.3043    13.3240
  479.0000    91.8491    13.3046    13.3238
  479.1000    93.2094    13.3047    13.3236
  479.2000    94.5787    13.2566    13.3235
  479.3000    95.7368    13.2126    13.3233
  479.4000    96.7383    13.2128    13.3231
  479.5000    97.7398    13.2130    13.3229
  479.6000    98.7428    13.2131    13.2489
  479.7000    99.9938    13.2133    13.2297
  479.8000   101.2448    13.2135    13.2295
  479.9000   101.9428    13.1908    13.2064
  480.0000   102.1949    13.1220    13.1369
  480.1000   102.4221    13.1222    13.1367
  480.2000   102.4248    13.1224    13.1366
  480.3000   102.4270    13.1225    13.1364
  480.4000   101.6208    13.0918    13.1362
  480.5000   100.7953    13.0316    13.1360
  480.6000   100.5962    13.0318    13.1358
  480.7000   100.5992    12.9602    13.0631
  480.8000   100.6015    12.9416    13.0439
  480.9000   100.6040    12.9418    13.0437
  481.0000   100.6064    12.9198    13.0211
  481.1000   100.6089    12.8521    12.9525
  481.2000   100.6269    12.8523    12.9523
  481.3000   100.9205    12.8525    12.9521
  481.4000   100.9225    12.8527    12.9519
  481.5000   100.9250    12.8228    12.9517
  481.6000   101.0230    12.7636    12.9516
  481.7000   101.2361    12.7639    12.9514
  481.8000   101.2388    12.7640    12.9512
  481.9000   101.0089    12.7642    12.9510
  482.0000   100.7616    12.7644    12.9508
  482.1000   100.5143    12.7646    12.9507
  482.2000   100.2045    12.7647    12.9505
  482.3000    99.7135    12.7649    12.9503
  482.4000    99.4663    12.7651    12.9501
  482.5000    99.4181    12.7653    12.9499
  482.6000    99.4205    12.7654    12.9498
  482.7000    99.5949    12.7656    12.9496
  482.8000   100.0969    12.7658    12.9494
  482.9000   100.6533    12.7660    12.9492
  483.0000   100.8780    12.7662    12.9490
  483.1000   101.2962    12.7663    12.9488
  483.2000   101.6886    12.7665    12.9487
  483.3000   101.9936    12.7667    12.9485
  483.4000   102.5029    12.7669    12.9483
  483.5000   102.9975    12.7671    12.9481
  483.6000   103.4994    12.7672    12.9479
  483.7000   104.0013    12.7674    12.9478
  483.8000   104.5031    12.7676    12.9476
  483.9000   104.9851    12.7678    12.9474
  484.0000   105.2745    12.7679    12.9472
  484.1000   105.7025    12.8222    12.9470
  484.2000   106.0480    12.8577    12.9469
  484.3000   106.3002    12.8579    12.9467
  484.4000   106.5523    12.8581    12.9465
  484.5000   106.8179    12.8583    12.9463
  484.6000   107.0566    12.8584    12.8834
  484.7000   107.4887    12.8586    12.8557
  484.8000   107.8673    12.8588    12.8259
  484.9000   108.1195    12.8590    12.7658
  485.0000   108.3716    12.8591    12.7656
  485.1000   108.6706    12.8593    12.7654
  485.2000   109.0793    12.8595    12.7652
  485.3000   109.4344    12.8221    12.7651
  485.4000   109.6866    12.7704    12.7437
  485.5000   109.9724    12.7706    12.6758
  485.6000   110.5203    12.7708    12.6755
  485.7000   110.7494    12.7095    12.6754
  485.8000   110.8312    12.6373    12.6752
  485.9000   110.7200    12.5943    12.6750
  486.0000   110.3584    12.5817    12.6749
  486.1000   109.6115    12.5071    12.6747
  486.2000   108.8650    12.5073    12.6054
  486.3000   107.7308    12.4552    12.5860
  486.4000   106.6218    12.4207    12.5858
  486.5000   105.7060    12.4208    12.5649
  486.6000   105.0075    12.4163    12.4930
  486.7000   104.7280    12.3349    12.4105
  486.8000   104.7302    12.2758    12.3506
  486.9000   104.7326    12.2494    12.2366
  487.0000   104.8392    12.2218    12.0972
  487.1000   105.0913    12.1523    11.9713
  487.2000   105.3526    12.0802    11.8997
  487.3000   105.5957    12.0803    11.8348
  487.4000   105.8479    11.9803    11.7671
  487.5000   106.1001    11.8787    11.7339
  487.6000   106.3522    11.8306    11.7338
  487.7000   106.6044    11.8264    11.7336
  487.8000   106.8990    11.7487    11.7334
  487.9000   106.9011    11.7488    11.6769
  488.0000   107.0546    11.7490    11.6513
  488.1000   107.3068    11.7491    11.6512
  488.2000   107.5210    11.7376    11.6394
  488.3000   107.5236    11.6678    11.5696
  488.4000   107.7570    11.6679    11.5695
  488.5000   107.8346    11.6681    11.5693
  488.6000   107.9550    11.6346    11.5692
  488.7000   108.1458    11.5873    11.5502
  488.8000   108.1482    11.5834    11.4841
  488.9000   108.1507    11.5071    11.4080
  489.0000   108.3512    11.5072    11.4078
  489.1000   108.4619    11.4670    11.3675
  489.2000   108.4643    11.4275    11.3280
  489.3000   108.4668    11.4277    11.3279
  489.4000   108.4695    11.4278    11.3277
  489.5000   108.4717    11.4280    11.3275
  489.6000   108.4741    11.3809    11.2804
  489.7000   108.4766    11.3163    11.2483
  489.8000   108.4790    11.2520    11.2481
  489.9000   108.4815    11.1919    11.2480
  490.0000   108.4839    11.1921    11.2478
  490.1000   108.6748    11.1922    11.2477
  490.2000   108.7951    11.1532    11.2081
  490.3000   108.7975    11.1147    11.1690
  490.4000   108.8000    11.1148    11.1580
  490.5000   108.8028    11.1150    11.0908
  490.6000   109.0169    11.0553    11.0907
  490.7000   109.1136    11.0380    11.0447
  490.8000   109.2149    11.0066    11.0131
  490.9000   109.4248    10.9616    10.9953
  491.0000   109.4274    10.9582    10.9360
  491.1000   109.4297    10.8857    10.9358
  491.2000   109.4322    10.8858    10.8837
  491.3000   109.4346    10.8860    10.8214
  491.4000   109.4371    10.8620    10.7595
  491.5000   109.4395    10.8105    10.7082
  491.6000   109.4424    10.8107    10.7080
  491.7000   109.2421    10.7528    10.6502
  491.8000   108.8491    10.7358    10.6331
  491.9000   108.4413    10.7055    10.6027
  492.0000   108.1613    10.6615    10.5587
  492.1000   107.6168    10.6616    10.5553
  492.2000   107.1673    10.6618    10.4848
  492.3000   106.8396    10.6115    10.4847
