~VERSION INFORMATION
 VERS.                2.0:   CWLS LOG ASCII STANDARD - VERSION 2.0
 WRAP.                 NO:   ONE LINE PER DEPTH STEP
~WELL INFORMATION
#MNEM.UNIT      DATA TYPE    INFORMATION
#----------   ------------   ------------------------------
 STRT.F          534.0000:   START DEPTH
 STOP.F         1820.0000:   STOP DEPTH
 STEP.F            0.5000:   STEP LENGTH
 NULL.          -999.2500:   NO VALUE
 COMP.   FLUOR DANIEL INC:   COMPANY
 WELL. NAVAL PETROLEUM RESERVE 3 X-29 #45-29:   WELL
 FLD .             TEAPOT:   FIELD
 LOC .      S29 T39N R78W:   LOCATION
 CNTY.            NATRONA:   COUNTY
 STAT.            WYOMING:   STATE
 CTRY. UNITED STATES OF AMERICA:   COUNTRY
 SRVC.            Unknown:   SERVICE COMPANY
 DATE.        30-SEP-1994:   LOGDATE
 API .       490252265100:   API NUMBER
~CURVE INFORMATION
#MNEM.UNIT       API CODE    CURVE DESCRIPTION
#----------   ------------   ------------------------------
 DEPT.F                  :   
 ROP .FT/HR  91 810 01 00:   RAT OF DRILLING PENETRATION
 TGAS.TC/CC  91 830 01 00:   TOTAL GAS UNIT
~PARAMETER INFORMATION
#MNEM.UNIT          VALUE    DESCRIPTION
#----------   ------------   ------------------------------
 EKB .F              5023:   KELLING BUSHING
 EGL .F              5013:   GROUND LEVEL
 DATE.        30-SEP-1994:   RUN DATE
 RUN .                  1:   RUN NUMBER
 BLI .F              1820:   BOTTOM LOG INTERVAL
 TLI .F               540:   TOP LOG INTERVAL
 WITN.     C.TOWER/R.HUSK:   WITNESSED BY
 CLNT.            A2DTECH:   CLIENT CODE
 ORIG.           5" PRINT:   ORIGIN OF DATA
 UWI .       490252265100:   UNIQUE WELL ID
 DICO. A2D Technologies, Inc.:   DIGITIZING COMPANY
~OTHER INFORMATION
~A   DEPT        ROP       TGAS 
# ...
  655.5000     0.5587     1.9342
  656.0000     0.5675     1.9284
  656.5000     0.5670     1.9238
  657.0000     0.5665     1.9191
  657.5000     0.5753     1.9144
  658.0000     0.5748     1.9088
  658.5000     0.5741     1.7151
  659.0000     0.5735     1.7105
  659.5000     0.5730     1.8961
  660.0000     0.5725     1.8904
  660.5000     0.5719     2.0760
  661.0000     0.5714     1.8811
  661.5000     0.5708     2.0657
  662.0000     0.5702     2.0609
  662.5000     0.5696     2.0562
  663.0000     0.5690     2.2409
  663.5000     0.5685     2.2351
  664.0000     0.5679     2.2305
  664.5000     0.5769     2.0368
  665.0000     0.5857     2.0322
  665.5000     0.5851     1.8385
  666.0000     0.5846     1.8339
  666.5000     0.5745     1.8293
  667.0000     0.5645     1.8246
  667.5000     0.5640     1.8199
  668.0000     0.5634     1.8143
  668.5000     0.5629     1.8097
  669.0000     0.5529     1.8051
  669.5000     0.5618     1.8004
  670.0000     0.5611     1.7958
  670.5000     0.5605     1.7912
  671.0000     0.5600     1.7866
  671.5000     0.5595     1.7820
  672.0000     0.5589     1.7773
  672.5000     0.5584     1.7726
  673.0000     0.5578     1.7670
  673.5000     0.5573     1.7624
  674.0000     0.5566     1.7578
  674.5000     0.5656     1.7532
  675.0000     0.5649     1.7486
  675.5000     0.5627     1.5549
  676.0000     0.5639     1.5503
  676.5000     0.5591     1.5457
  677.0000     0.5533     1.5410
  677.5000     0.5527     1.5362
  678.0000     0.5521     1.5307
  678.5000     0.5515     1.7163
  679.0000     0.5510     1.7105
  679.5000     0.5504     1.7059
  680.0000     0.5593     1.7013
  680.5000     0.5587     1.6967
  681.0000     0.5582     1.5030
  681.5000     0.5671     1.4984
  682.0000     0.5665     1.6829
  682.5000     0.5753     1.6780
  683.0000     0.5747     1.6725
  683.5000     0.5836     1.4788
  684.0000     0.5830     1.4742
  684.5000     0.5825     1.6598
  685.0000     0.5819     1.4650
  685.5000     0.5813     1.4603
  686.0000     0.5807     1.4557
  686.5000     0.5802     1.4511
  687.0000     0.5796     1.4464
  687.5000     0.5791     1.4417
  688.0000     0.5879     1.4361
  688.5000     0.5968     1.4315
  689.0000     0.4173     1.4275
  689.5000     0.4167     1.4223
  690.0000     0.4161     1.2286
  690.5000     0.4250     1.2240
  691.0000     0.4245     1.2194
  691.5000     0.4239     1.0257
  692.0000     0.4422     1.0084
  692.5000     0.4510     0.8272
  693.0000     0.4599     0.8216
  693.5000     0.4688     0.6279
  694.0000     0.4681     0.6233
  694.5000     0.4771     0.6187
  695.0000     0.4858     0.6141
  695.5000     0.4853     0.6095
  696.0000     0.4847     0.6049
  696.5000     0.4936     0.6003
  697.0000     0.4929     0.7847
  697.5000     0.4924     0.7799
  698.0000     0.4918     0.9646
  698.5000     0.4885     1.1491
  699.0000     0.4813     1.3335
  699.5000     0.4808     1.5168
  700.0000     0.4802     1.3223
  700.5000     0.4891     1.1258
  701.0000     0.4909     1.3093
  701.5000     0.4877     1.3001
  702.0000     0.4870     1.2926
  702.5000     0.4863     1.2852
  703.0000     0.4857     1.2447
  703.5000     0.4850     1.2706
  704.0000     0.4844     1.2630
  704.5000     0.4837     1.2555
  705.0000     0.4831     1.2479
  705.5000     0.4824     1.2389
  706.0000     0.4817     1.2315
  706.5000     0.4811     1.2241
  707.0000     0.4804     1.2167
  707.5000     0.4798     1.2093
  708.0000     0.4791     1.2019
  708.5000     0.4784     1.1944
  709.0000     0.4778     1.1870
  709.5000     0.4771     1.1796
  710.0000     0.4765     1.1722
  710.5000     0.4758     1.1647
  711.0000     0.4751     1.1571
  711.5000     0.4745     1.1481
  712.0000     0.4738     1.1407
  712.5000     0.4732     1.3242
  713.0000     0.4725     1.3150
  713.5000     0.4718     1.1185
  714.0000     0.4712     1.3020
  714.5000     0.4705     1.2927
  715.0000     0.4699     1.2853
  715.5000     0.4692     1.0888
  716.0000     0.4685     1.0814
  716.5000     0.4679     1.0739
  717.0000     0.4672     1.0456
  717.5000     0.4666     0.8683
  718.0000     0.4659     0.8608
  718.5000     0.4653     0.8534
  719.0000     0.4646     0.8460
  719.5000     0.4639     0.8386
  720.0000     0.4633     0.8312
  720.5000     0.4626     0.8238
  721.0000     0.4620     0.6273
  721.5000     0.4613     0.4308
  722.0000     0.4606     0.4234
  722.5000     0.4600     0.4160
  723.0000     0.4593     0.5976
  723.5000     0.4587     0.5899
  724.0000     0.4580     0.5810
  724.5000     0.4573     0.7645
  725.0000     0.4567     0.7552
  725.5000     0.4559     0.7478
  726.0000     0.4648     0.7404
  726.5000     0.4546     0.7330
  727.0000     0.4540     0.7256
  727.5000     0.4533     0.7182
  728.0000     0.4527     0.7108
  728.5000     0.4521     0.7033
  729.0000     0.4514     0.8850
  729.5000     0.4508     0.8773
  730.0000     0.4500     0.8683
  730.5000     0.4494     0.8609
  731.0000     0.4489     0.8535
  731.5000     0.4576     0.8461
  732.0000     0.4662     0.8387
  732.5000     0.4562     0.8313
  733.0000     0.4650     0.8239
  733.5000     0.4643     0.8164
  734.0000     0.4637     0.6200
  734.5000     0.4725     0.6125
  735.0000     0.4716     0.6050
  735.5000     0.4710     0.7868
  736.0000     0.4704     0.7775
  736.5000     0.4697     0.7701
  737.0000     0.4691     0.7627
  737.5000     0.4779     0.7553
  738.0000     0.4772     0.7479
  738.5000     0.4766     0.7405
  739.0000     0.4759     0.7331
  739.5000     0.4751     0.9147
  740.0000     0.4745     0.9073
  740.5000     0.4739     0.8999
  741.0000     0.4827     0.8924
  741.5000     0.4877     1.0742
  742.0000     0.4908     1.0649
  742.5000     0.4901     1.0575
  743.0000     0.4895     1.2391
  743.5000     0.4888     1.4227
  744.0000     0.4881     1.4134
  744.5000     0.4874     1.4060
  745.0000     0.4962     1.3986
  745.5000     0.4956     1.3912
  746.0000     0.4949     1.3837
  746.5000     0.4942     1.3763
  747.0000     0.4842     1.3689
  747.5000     0.4835     1.3613
  748.0000     0.4827     1.3538
  748.5000     0.4916     1.3448
  749.0000     0.4910     1.3374
  749.5000     0.4903     1.3300
  750.0000     0.4896     1.3226
  750.5000     0.4889     1.3152
  751.0000     0.4862     1.3078
  751.5000     0.4782     1.3004
  752.0000     0.4776     1.2930
  752.5000     0.4768     1.2855
  753.0000     0.4763     1.2781
  753.5000     0.4756     1.2706
  754.0000     0.4748     1.2630
  754.5000     0.4743     1.2540
  755.0000     0.4736     1.2466
  755.5000     0.4824     1.2392
  756.0000     0.4841     1.2318
  756.5000     0.4905     1.2244
  757.0000     0.4897     1.2170
  757.5000     0.4796     1.2096
  758.0000     0.4790     1.2022
  758.5000     0.4784     1.1948
  759.0000     0.4777     1.1873
  759.5000     0.4770     1.1798
  760.0000     0.4765     1.3616
  760.5000     0.4758     1.5433
  761.0000     0.4846     1.5340
  761.5000     0.4839     1.3375
  762.0000     0.4832     1.1410
  762.5000     0.4826     1.1336
  763.0000     0.4818     0.9371
  763.5000     0.4812     0.9297
  764.0000     0.4806     1.1132
  764.5000     0.4705     1.1040
  765.0000     0.4699     1.0965
  765.5000     0.4786     1.0891
  766.0000     0.4780     1.2708
  766.5000     0.4772     1.2615
  767.0000     0.4766     1.2541
  767.5000     0.4759     1.0576
  768.0000     0.4752     1.0502
  768.5000     0.4747     1.0428
  769.0000     0.4739     1.0354
  769.5000     0.4784     1.2189
  770.0000     0.4822     1.2097
  770.5000     0.4815     1.3916
  771.0000     0.4808     1.3839
  771.5000     0.4801     1.3765
  772.0000     0.4794     1.3689
  772.5000     0.4788     1.3613
  773.0000     0.4875     1.3524
  773.5000     0.4869     1.3450
  774.0000     0.4862     1.3376
  774.5000     0.4856     1.3302
  775.0000     0.4879     1.3228
  775.5000     0.4937     1.1263
  776.0000     0.4930     0.9298
  776.5000     0.5017     0.9224
