~VERSION INFORMATION
 VERS.                2.0:   CWLS LOG ASCII STANDARD - VERSION 2.0
 WRAP.                 NO:   ONE LINE PER DEPTH STEP
~WELL INFORMATION
#MNEM.UNIT      DATA TYPE    INFORMATION
#----------   ------------   ------------------------------
 STRT.F          598.0000:   START DEPTH
 STOP.F         2552.0000:   STOP DEPTH
 STEP.F            0.5000:   STEP LENGTH
 NULL.          -999.2500:   NO VALUE
 COMP. FENIX & SCISSON INC:   COMPANY
 WELL.     15-SHX-2 #15-2:   WELL
 FLD .             TEAPOT:   FIELD
 LOC .       S2 T38N R78W:   LOCATION
 CNTY.            NATRONA:   COUNTY
 STAT.            WYOMING:   STATE
 CTRY. UNITED STATES OF AMERICA:   COUNTRY
 SRVC.              Welex:   SERVICE COMPANY
 DATE.        03-JUN-1979:   LOGDATE
 API .       490251002100:   API NUMBER
~CURVE INFORMATION
#MNEM.UNIT       API CODE    CURVE DESCRIPTION
#----------   ------------   ------------------------------
 DEPT.F                  :   
 CALD.IN     45 280 60 00:   CALIPER
 GRD .GAPI   45 310 01 00:   GAMMA RAY FROM DENSITY LOG
 RHOB.G/C3   45 350 01 00:   BULK DENSITY
 DPHI.DEC    45 890 12 00:   DENSITY POROSITY SANDSTONE
 CORR.G/C3   45 356 01 00:   DENSITY CORRECTION
~PARAMETER INFORMATION
#MNEM.UNIT          VALUE    DESCRIPTION
#----------   ------------   ------------------------------
 PD  .                 GL:   PERMANENT DATUM
 EPD .F              5118:   ELEVATION PERMANENT DATUM
 LMF .                 KB:   LOG MEASURED FROM
 DAPD.F                10:   FEET ABOVE PERMANENT DATUM
 DMF .                 KB:   DRILLING MEASURED FROM
 EKB .F              5128:   KELLING BUSHING
 EGL .F              5118:   GROUND LEVEL
 DATE.             6-3-79:   RUN DATE
 RUN .                  1:   RUN NUMBER
 DD  .F              2569:   DEPTH DRILLER
 DL  .F              2554:   DEPTH LOGGER
 BLI .F              2552:   BOTTOM LOG INTERVAL
 TLI .F               622:   TOP LOG INTERVAL
 CS  .IN            9.625:   CASING SIZE
 CBD .F               622:   CASING BOTTOM DRILLER
 BS  .IN             8.75:   BIT SIZE
 BSD .F              2569:   BIT SIZE AT DEPTH
 DFT .        AIR DRILLED:   DRILLING FLUID TYPE
 TCS .HRS             2.5:   TIME CURCULATED STOPPED
 MRT .F               124:   MAXIMUM RECORDED TEMPERATURE
 ENGI.               REIN:   RECORDING ENGINEER
 WITN.              AMEND:   WITNESSED BY
 CLNT.            A2DTECH:   CLIENT CODE
 ORIG.           5" PRINT:   ORIGIN OF DATA
 UWI .       490251002100:   UNIQUE WELL ID
 DICO. A2D Technologies, Inc.:   DIGITIZING COMPANY
~OTHER INFORMATION
~A   DEPT     CALD         GRD      RHOB       DPHI       CORR   
# ...
 1086.0000     9.3788    92.3551     2.5742    -0.0111     0.0328
 1086.5000     9.3870    91.7644     2.5723    -0.0135     0.0361
 1087.0000     9.3964    91.1419     2.5645    -0.0111     0.0388
 1087.5000     9.4059    91.8770     2.5561    -0.0054     0.0393
 1088.0000     9.4153    92.7446     2.5476     0.0013     0.0417
 1088.5000     9.4334    91.9294     2.5389     0.0089     0.0443
 1089.0000     9.4676    90.9612     2.5273     0.0165     0.0466
 1089.5000     9.5017    90.6768     2.5158     0.0257     0.0550
 1090.0000     9.5359    91.3496     2.4894     0.0408     0.0667
 1090.5000     9.5700    92.6816     2.4485     0.0629     0.0754
 1091.0000     9.6042    97.4539     2.4080     0.0913     0.0635
 1091.5000     9.6390   102.2551     2.3558     0.1168     0.0472
 1092.0000     9.6736   106.0070     2.3560     0.1160     0.0300
 1092.5000     9.6736   105.9594     2.5346     0.0182     0.0226
 1093.0000     9.6535   102.5133     2.5766    -0.0020     0.0275
 1093.5000     9.6334    98.6555     2.5871    -0.0221     0.0321
 1094.0000     9.6135    98.0702     2.5921    -0.0273     0.0314
 1094.5000     9.5957    99.0683     2.5858    -0.0275     0.0291
 1095.0000     9.5950    98.9968     2.5754    -0.0181     0.0269
 1095.5000     9.5932    98.5078     2.5680    -0.0121     0.0246
 1096.0000     9.5913    98.0018     2.5720    -0.0138     0.0231
 1096.5000     9.5894    97.9896     2.5861    -0.0209     0.0236
 1097.0000     9.5875    98.1245     2.5931    -0.0273     0.0242
 1097.5000     9.5857    95.7017     2.5903    -0.0269     0.0247
 1098.0000     9.5838    92.9569     2.5846    -0.0233     0.0250
 1098.5000     9.5819    91.9036     2.5789    -0.0192     0.0239
 1099.0000     9.5800    92.5466     2.5747    -0.0151     0.0227
 1099.5000     9.5781    93.2189     2.5705    -0.0111     0.0215
 1100.0000     9.5765    91.9500     2.5643    -0.0070     0.0203
 1100.5000     9.5612    89.9371     2.5568    -0.0029     0.0192
 1101.0000     9.5406    87.9387     2.5521     0.0000     0.0180
 1101.5000     9.5199    86.4024     2.5499     0.0016     0.0168
 1102.0000     9.4993    85.7516     2.5479     0.0033     0.0156
 1102.5000     9.4785    85.0388     2.5456     0.0050     0.0146
 1103.0000     9.4575    85.3267     2.5422     0.0067     0.0138
 1103.5000     9.4421    85.8147     2.5387     0.0084     0.0131
 1104.0000     9.4228    84.9080     2.5352     0.0099     0.0123
 1104.5000     9.4034    83.5344     2.5355     0.0103     0.0116
 1105.0000     9.3839    82.4014     2.5397     0.0077     0.0108
 1105.5000     9.3644    83.3898     2.5442     0.0047     0.0101
 1106.0000     9.3449    84.3512     2.5399     0.0057     0.0093
 1106.5000     9.3255    83.6488     2.5330     0.0107     0.0085
 1107.0000     9.3059    83.0880     2.5257     0.0158     0.0078
 1107.5000     9.2970    84.6000     2.5232     0.0171     0.0070
 1108.0000     9.2968    86.1111     2.5308     0.0132     0.0063
 1108.5000     9.2968    87.6062     2.5392     0.0080     0.0055
 1109.0000     9.2968    87.6438     2.5436     0.0051     0.0055
 1109.5000     9.2968    86.5316     2.5404     0.0066     0.0072
 1110.0000     9.2968    85.4432     2.5372     0.0091     0.0078
 1110.5000     9.2968    84.4705     2.5409     0.0072     0.0084
 1111.0000     9.2968    83.7777     2.5480     0.0047     0.0089
 1111.5000     9.2968    83.0581     2.5552     0.0015     0.0095
 1112.0000     9.2968    83.7239     2.5625    -0.0036     0.0100
 1112.5000     9.2968    85.2461     2.5631    -0.0081     0.0105
 1113.0000     9.2968    85.4864     2.5536    -0.0026     0.0110
 1113.5000     9.2968    85.9703     2.5447     0.0033     0.0110
 1114.0000     9.2968    88.2689     2.5441     0.0055     0.0108
 1114.5000     9.2968    86.8708     2.5434     0.0055     0.0101
 1115.0000     9.2968    85.0303     2.5380     0.0066     0.0094
 1115.5000     9.2968    83.8077     2.5289     0.0131     0.0087
 1116.0000     9.2978    84.5246     2.5198     0.0196     0.0080
 1116.5000     9.3041    86.6948     2.5108     0.0262     0.0073
 1117.0000     9.3103    89.0167     2.5039     0.0303     0.0070
 1117.5000     9.3166    88.7332     2.5040     0.0299     0.0071
 1118.0000     9.3228    87.6775     2.5092     0.0270     0.0074
 1118.5000     9.3290    86.4694     2.5182     0.0223     0.0078
 1119.0000     9.3353    85.1884     2.5272     0.0176     0.0081
 1119.5000     9.3415    83.8798     2.5319     0.0121     0.0084
 1120.0000     9.3477    82.5802     2.5399     0.0052     0.0087
 1120.5000     9.3540    83.0699     2.5481    -0.0017     0.0088
 1121.0000     9.3602    85.8816     2.5545    -0.0021     0.0078
 1121.5000     9.3665    87.0909     2.5430     0.0018     0.0068
 1122.0000     9.3727    87.9082     2.5287     0.0118     0.0058
 1122.5000     9.3789    89.2646     2.5279     0.0147     0.0035
 1123.0000     9.3852    89.0467     2.5309     0.0142     0.0025
 1123.5000     9.3914    87.8301     2.5313     0.0134     0.0010
 1124.0000     9.3976    86.5981     2.5316     0.0127     0.0021
 1124.5000     9.4039    85.4486     2.5318     0.0130     0.0036
 1125.0000     9.4101    84.7032     2.5319     0.0135     0.0050
 1125.5000     9.4164    84.4305     2.5359     0.0109     0.0064
 1126.0000     9.4226    85.1369     2.5406     0.0076     0.0079
 1126.5000     9.4288    86.9808     2.5454     0.0043     0.0093
 1127.0000     9.4351    86.7869     2.5502     0.0016     0.0107
 1127.5000     9.4413    84.5403     2.5508     0.0009     0.0121
 1128.0000     9.4475    82.2759     2.5481     0.0021     0.0127
 1128.5000     9.4538    81.6036     2.5505     0.0019     0.0118
 1129.0000     9.4525    81.8590     2.5537     0.0002     0.0110
 1129.5000     9.4437    82.1731     2.5576    -0.0014     0.0102
 1130.0000     9.4311    85.0962     2.5531     0.0014     0.0093
 1130.5000     9.4169    88.4773     2.5434     0.0071     0.0085
 1131.0000     9.4162    91.8780     2.5341     0.0110     0.0076
 1131.5000     9.4163    95.1378     2.5288     0.0138     0.0069
 1132.0000     9.4163    96.9809     2.5220     0.0184     0.0098
 1132.5000     9.4164    97.1110     2.5125     0.0229     0.0131
 1133.0000     9.4164    94.7062     2.5138     0.0255     0.0164
 1133.5000     9.4157    93.0491     2.5222     0.0192     0.0198
 1134.0000     9.3996    92.3428     2.5263     0.0143     0.0215
 1134.5000     9.3831    90.4484     2.5244     0.0153     0.0224
 1135.0000     9.3668    88.3783     2.5227     0.0183     0.0233
 1135.5000     9.3505    86.4504     2.5222     0.0199     0.0242
 1136.0000     9.3341    84.9516     2.5253     0.0179     0.0250
 1136.5000     9.3178    84.3278     2.5282     0.0148     0.0259
 1137.0000     9.3015    84.8404     2.5312     0.0146     0.0268
 1137.5000     9.2851    85.3094     2.5324     0.0143     0.0277
 1138.0000     9.2688    84.9234     2.5341     0.0103     0.0286
 1138.5000     9.2523    84.4418     2.5335     0.0122     0.0289
 1139.0000     9.2376    85.6848     2.5261     0.0163     0.0255
 1139.5000     9.2432    87.2122     2.5190     0.0204     0.0221
 1140.0000     9.2493    86.6964     2.5222     0.0243     0.0190
 1140.5000     9.2552    85.5705     2.5365     0.0137     0.0189
 1141.0000     9.2612    86.6182     2.5505     0.0037     0.0222
 1141.5000     9.2672    88.1045     2.5646    -0.0064     0.0259
 1142.0000     9.2731    89.4421     2.5692    -0.0117     0.0296
 1142.5000     9.2791    88.8213     2.5630    -0.0093     0.0335
 1143.0000     9.2850    88.9513     2.5559    -0.0069     0.0346
 1143.5000     9.2910    89.6712     2.5560    -0.0045     0.0269
 1144.0000     9.2970    88.7515     2.5573    -0.0013     0.0192
 1144.5000     9.3029    85.9398     2.5440     0.0065     0.0115
 1145.0000     9.3089    85.5996     2.5265     0.0140     0.0039
 1145.5000     9.3148    85.5638     2.5153     0.0215     0.0028
 1146.0000     9.3208    86.9406     2.5070     0.0272     0.0025
 1146.5000     9.3267    88.4266     2.5006     0.0320     0.0022
