~VERSION INFORMATION
 VERS.                2.0:   CWLS LOG ASCII STANDARD - VERSION 2.0
 WRAP.                 NO:   ONE LINE PER DEPTH STEP
~WELL INFORMATION
#MNEM.UNIT      DATA TYPE    INFORMATION
#----------   ------------   ------------------------------
 STRT.F           19.5000:   START DEPTH
 STOP.F          635.0000:   STOP DEPTH
 STEP.F            0.5000:   STEP LENGTH
 NULL.          -999.2500:   NO VALUE
 COMP. FENIX & SCISSON INC:   COMPANY
 WELL. NPR-3 68-S-34 #3-34:   WELL
 FLD .  TEAPOT DOME NPR-3:   FIELD
 LOC .      S34 T39N R78W:   LOCATION
 CNTY.            NATRONA:   COUNTY
 STAT.            WYOMING:   STATE
 CTRY. UNITED STATES OF AMERICA:   COUNTRY
 SRVC.           BIRDWELL:   SERVICE COMPANY
 DATE.        01-AUG-1978:   LOGDATE
 API .       490251070600:   API NUMBER
~CURVE INFORMATION
#MNEM.UNIT       API CODE    CURVE DESCRIPTION
#----------   ------------   ------------------------------
 DEPT.F                  :   
 SPR .MV     05 010 01 00:   SPONTANEOUS POTENTIAL
 SN  .OHMM   05 040 16 00:   SHORT NORMAL 16'
 ILD .OHMM   05 120 46 00:   INDUCTION LOG DEEP RESISTIVITY
 GRD .GAPI   45 310 01 00:   GAMMA RAY FROM DENSITY LOG
 CALD.IN     45 280 60 00:   CALIPER
 RHOB.G/C3   45 350 01 00:   BULK DENSITY
 DPHI.DEC    45 890 12 00:   DENSITY POROSITY SANDSTONE
 CORR.G/C3   45 356 01 00:   DENSITY CORRECTION
~PARAMETER INFORMATION
#MNEM.UNIT          VALUE    DESCRIPTION
#----------   ------------   ------------------------------
 PD  .                 GL:   PERMANENT DATUM
 EPD .F              5100:   ELEVATION PERMANENT DATUM
 LMF .                 KB:   LOG MEASURED FROM
 DAPD.F                 4:   FEET ABOVE PERMANENT DATUM
 DMF .                 KB:   DRILLING MEASURED FROM
 EKB .F              5104:   KELLING BUSHING
 EGL .F              5100:   GROUND LEVEL
 DATE.           9-1-1978:   RUN DATE
 RUN .                  1:   RUN NUMBER
 DD  .F               635:   DEPTH DRILLER
 DL  .F               635:   DEPTH LOGGER
 BLI .F               629:   BOTTOM LOG INTERVAL
 TLI .F                40:   TOP LOG INTERVAL
 CS  .IN            8.625:   CASING SIZE
 CBD .F                40:   CASING BOTTOM DRILLER
 CBL .F                40:   CASING BOTTOM LOGGER
 BS  .IN            7.875:   BIT SIZE
 BSD .F               635:   BIT SIZE AT DEPTH
 DFT .                KCL:   DRILLING FLUID TYPE
 DFD .                8.6:   DRILLING FLUID DENSITY
 DFV .                 32:   DRILLING FLUID VISCOSITY
 DFPH.                  9:   DRILLING FLUID PH
 DFL .                  7:   DRILLING FLUID LOSS
 MSS .          FLOW LINE:   MUD SAMPLE SOURCE
 RMS .OHMM             .4:   RESISTIVITY MUD SAMPLE
 MST .F                76:   MUD SAMPLE TEMPERATURE
 RMF .OHMM             .3:   RESISTIVITY MUD FILTRATE SAMPLE
 MFST.F                80:   MUD FILTRATE SAMPLE TEMPERATURE
 RMC .OHMM             .4:   RESISTIVITY MUD CAKE
 MCST.F                80:   MUD CAKE SAMPLE TEMPERATURE
 MFSS.               MEAS:   MUD FILTRATE SAMPLE SOURCE
 MCSS.               MEAS:   MUD CAKE SAMPLE SOURCE
 RMB .OHMM            .43:   RESISTIVITY MUD AT BHT
 BHT .F                70:   BOTTOM HOLE TEMPERATURE
 TCS .HRS               3:   TIME CURCULATED STOPPED
 MRT .F                70:   MAXIMUM RECORDED TEMPERATURE
 LUN .               2958:   LOGGING UNIT NUMBER
 LUL .               CASP:   LOGGING UNIT LOCATION
 ENGI.            POINTER:   RECORDING ENGINEER
 WITN.           MCGINLEY:   WITNESSED BY
 CLNT.            A2DTECH:   CLIENT CODE
 ORIG.           5" PRINT:   ORIGIN OF DATA
 UWI .       490251070600:   UNIQUE WELL ID
 DICO. A2D Technologies, Inc.:   DIGITIZING COMPANY
~OTHER INFORMATION
~A   DEPT      SPR         SN        ILD         GRD      CALD       RHOB       DPHI       CORR   
# ...
  181.5000   -17.2811     8.3888     8.7846   118.0059     7.3879     2.4923     0.1168     0.0165
  182.0000   -17.2653     8.4358     8.8263   116.9106     7.3902     2.4907     0.1139     0.0150
  182.5000   -17.2654     8.4930     8.8682   119.0747     7.3926     2.4938     0.1112     0.0203
  183.0000   -17.2657     8.5506     8.9103   121.7006     7.3950     2.4967     0.1085     0.0256
  183.5000   -17.2700     8.6086     8.9526   120.6797     7.3974     2.5003     0.1059     0.0275
  184.0000   -17.0436     8.6670     8.9951   121.2202     7.3998     2.5068     0.1020     0.0275
  184.5000   -16.7361     8.7259     9.0405   122.7276     7.4022     2.5130     0.0985     0.0275
  185.0000   -16.4265     8.7851     9.1001   120.7711     7.4045     2.5194     0.1012     0.0275
  185.5000   -16.1149     8.8447     9.1601   114.9740     7.4069     2.5175     0.1055     0.0255
  186.0000   -16.0670     8.9240     9.2206   109.3198     7.4095     2.5100     0.1099     0.0203
  186.5000   -16.0671     9.0150     9.2814   109.1104     7.3989     2.5022     0.1143     0.0155
  187.0000   -16.0914     9.1141     9.3426   111.7005     7.3832     2.4943     0.1127     0.0144
  187.5000   -16.1381     9.1368     9.4042   115.9831     7.3674     2.4948     0.1113     0.0133
  188.0000   -16.1849     9.1616     9.4683   120.4196     7.3516     2.4961     0.1122     0.0123
  188.5000   -16.2316     9.1864     9.5417   123.7668     7.3359     2.4964     0.1145     0.0113
  189.0000   -16.2784     9.2113     9.6157   123.7129     7.3201     2.4930     0.1170     0.0102
  189.5000   -16.3251     9.2361     9.6903   124.4969     7.3043     2.4897     0.1185     0.0095
  190.0000   -16.3720     9.2611     9.7655   127.0540     7.2885     2.4865     0.1185     0.0108
  190.5000   -16.4197     9.2992     9.8412   126.9112     7.2726     2.4858     0.1160     0.0122
  191.0000   -16.4629     9.4290     9.9176   126.1443     7.2695     2.4885     0.1138     0.0136
  191.5000   -16.3335     9.5606     9.9945   123.7360     7.3050     2.4926     0.1128     0.0150
  192.0000   -16.1924     9.6941    10.0721   120.1057     7.3556     2.4969     0.1119     0.0155
  192.5000   -16.0517     9.8294    10.1502   117.6013     7.3904     2.4969     0.1120     0.0155
  193.0000   -15.9113     9.9666    10.3238   120.1528     7.3899     2.4955     0.1132     0.0155
  193.5000   -15.7886    10.1055    10.5502   121.0229     7.3900     2.4940     0.1144     0.0155
  194.0000   -15.6750    10.2465    10.7816   118.0735     7.3900     2.4924     0.1111     0.0156
  194.5000   -15.5606    10.3658    11.0181   116.0363     7.3900     2.4946     0.0900     0.0175
  195.0000   -15.4677    10.2795    11.2598   115.1123     7.3900     2.5246     0.0741     0.0194
  195.5000   -15.5098    10.2060    11.3815   110.2899     7.3900     2.5567     0.0825     0.0185
  196.0000   -15.5514    10.1331    11.5049   103.6664     7.3900     2.5600     0.0914     0.0175
  196.5000   -15.5926    10.0606    11.6290   103.0564     7.3900     2.5383     0.1014     0.0164
  197.0000   -15.6338     9.9888    11.7888   109.7630     7.3900     2.5199     0.1108     0.0155
  197.5000   -15.6750     9.8995    11.6879   113.8561     7.3900     2.5038     0.1148     0.0156
  198.0000   -15.7162     9.9004    11.5508   114.4413     7.3900     2.4896     0.1178     0.0158
  198.5000   -15.7574     9.9000    11.4146   116.8838     7.3900     2.4889     0.1208     0.0159
  199.0000   -15.7986     9.9004    11.2801   119.3068     7.3900     2.4892     0.1230     0.0161
  199.5000   -15.8398     9.8820    11.1473   120.4925     7.3900     2.4811     0.1225     0.0162
  200.0000   -15.8810     9.8429    11.0161   121.4420     7.3900     2.4808     0.1128     0.0164
  200.5000   -15.9222     9.8039    10.9291   122.0554     7.3900     2.4922     0.1109     0.0165
  201.0000   -15.9634     9.7650    10.8547   122.7670     7.3900     2.4977     0.1136     0.0166
  201.5000   -16.0045     9.7263    10.7808   126.7752     7.3900     2.4938     0.1163     0.0168
  202.0000   -16.0462     9.6877    10.7086   131.0473     7.3900     2.4893     0.1186     0.0169
  202.5000   -16.0962     9.6493    10.6373   132.6749     7.3900     2.4859     0.1192     0.0171
  203.0000   -16.1582     9.6151    10.5667   131.7239     7.3900     2.4860     0.1183     0.0172
  203.5000   -16.2189     9.5856    10.4964   129.0673     7.3900     2.4860     0.1164     0.0174
  204.0000   -16.1975     9.5558    10.4267   127.6104     7.3900     2.4879     0.1130     0.0179
  204.5000   -15.7583     9.5262    10.3573   126.6223     7.3900     2.4930     0.1085     0.0203
  205.0000   -15.3268     9.4967    10.2885   124.3834     7.3900     2.5034     0.1040     0.0228
  205.5000   -15.2256     9.4673    10.2201   116.9931     7.3900     2.5138     0.1034     0.0253
  206.0000   -15.1769     9.4379    10.1769   115.2845     7.3900     2.5117     0.1056     0.0275
  206.5000   -15.1284     9.4087    10.1999   115.3077     7.3900     2.5079     0.1078     0.0265
  207.0000   -15.0801     9.3795    10.2167   118.5263     7.3900     2.5041     0.1089     0.0254
  207.5000   -15.0029     9.3505    10.2336   123.3174     7.3900     2.5046     0.1045     0.0243
  208.0000   -14.9202     9.3215    10.2506   123.2771     7.3900     2.5073     0.1002     0.0237
  208.5000   -14.8367     9.2926    10.2709   121.9650     7.3900     2.5111     0.0996     0.0251
  209.0000   -14.7504     9.2638    10.0874   120.6279     7.3900     2.5148     0.1020     0.0264
  209.5000   -14.6889     9.2352     9.8595   119.4624     7.3900     2.5173     0.1056     0.0277
  210.0000   -15.3014     9.2063     9.6366   120.6087     7.3900     2.5113     0.1092     0.0289
  210.5000   -15.7456     9.1742     9.4188   123.5512     7.3910     2.5054     0.1081     0.0302
  211.0000   -15.9169     9.1405     9.2832   126.5243     7.3927     2.5033     0.1070     0.0316
  211.5000   -16.0901     9.1070     9.2826   127.8408     7.3945     2.5074     0.1079     0.0344
  212.0000   -16.2636     9.0736     9.2829   128.3844     7.3962     2.5126     0.1092     0.0373
  212.5000   -16.3856     9.0403     9.2829   126.9643     7.3979     2.5177     0.1105     0.0375
  213.0000   -16.5065     9.0071     9.2832   122.6433     7.3996     2.5164     0.1119     0.0343
  213.5000   -16.6302     8.9740     9.3562   118.3938     7.4014     2.5068     0.1129     0.0287
  214.0000   -16.6296     8.9412     9.4887   118.2212     7.4031     2.4971     0.1138     0.0236
  214.5000   -16.5778     8.9086     9.6222   121.8430     7.4048     2.4948     0.1134     0.0237
  215.0000   -16.5245     8.8758     9.7183   125.4672     7.4065     2.4960     0.1137     0.0239
  215.5000   -16.4714     8.7332     9.3720   129.0390     7.4084     2.4965     0.1154     0.0242
  216.0000   -16.4184     8.5496     9.1114   131.7754     7.4096     2.4931     0.1173     0.0245
  216.5000   -16.3654     8.3699     8.8577   132.8349     7.3960     2.4896     0.1192     0.0247
  217.0000   -16.3124     8.2376     8.6250   131.8588     7.3817     2.4861     0.1140     0.0249
  217.5000   -16.2502     8.2539     8.6250   130.7979     7.3674     2.4879     0.1154     0.0252
  218.0000   -16.1398     8.2670     8.6250   131.8515     7.3531     2.4921     0.1174     0.0254
  218.5000   -16.0288     8.2803     8.6250   134.6518     7.3390     2.4912     0.1195     0.0227
  219.0000   -15.9180     8.2934     8.6250   132.8632     7.3367     2.4860     0.1216     0.0196
  219.5000   -15.8071     8.3058     8.6250   129.0962     7.3552     2.4838     0.1236     0.0166
  220.0000   -15.6919     8.3776     8.7127   124.7728     7.3735     2.4811     0.1260     0.0164
  220.5000   -15.7073     8.5121     8.8446   120.4428     7.3897     2.4770     0.1225     0.0185
  221.0000   -15.7586     8.6489     8.9784   116.6105     7.3853     2.4766     0.1211     0.0207
  221.5000   -15.8107     8.7878     9.1143   119.2974     7.3808     2.4843     0.1200     0.0228
