~VERSION INFORMATION
 VERS.                2.0:   CWLS LOG ASCII STANDARD - VERSION 2.0
 WRAP.                 NO:   ONE LINE PER DEPTH STEP
~WELL INFORMATION
#MNEM.UNIT      DATA TYPE    INFORMATION
#----------   ------------   ------------------------------
 STRT.F           28.5000:   START DEPTH
 STOP.F          516.0000:   STOP DEPTH
 STEP.F            0.5000:   STEP LENGTH
 NULL.          -999.2500:   NO VALUE
 COMP. FENIX & SCISSON INC:   COMPANY
 WELL.         SX 3 #54-3:   WELL
 FLD .            WILDCAT:   FIELD
 LOC .       S3 T38N R78W:   LOCATION
 CNTY.            NATRONA:   COUNTY
 STAT.            WYOMING:   STATE
 CTRY. UNITED STATES OF AMERICA:   COUNTRY
 SRVC.            Unknown:   SERVICE COMPANY
 DATE.        22-SEP-1978:   LOGDATE
 API .       490251069000:   API NUMBER
~CURVE INFORMATION
#MNEM.UNIT       API CODE    CURVE DESCRIPTION
#----------   ------------   ------------------------------
 DEPT.F                  :   
 SPR .MV     05 010 01 00:   SPONTANEOUS POTENTIAL FROM RES.
 ILD .OHMM   05 120 46 00:   INDUCTION LOG DEEP
 SN  .OHMM   05 040 16 00:   SHORT NORMAL 16"
 CALD.IN     45 280 60 00:   CALIPER
 GRD .GAPI   45 310 01 00:   GAMMA RAY FROM DENSITY LOG
 CORR.G/C3   45 356 01 00:   DENSITY CORRECTION
 DEN .G/C3   45 350 01 00:   COMPENSATED BULK DENSTIY
 DPHI.DEC    45 890 12 00:   DENSITY POROSITY SANDSTONE
~PARAMETER INFORMATION
#MNEM.UNIT          VALUE    DESCRIPTION
#----------   ------------   ------------------------------
 PD  .                 GL:   PERMANENT DATUM
 EPD .F              5168:   ELEVATION PERMANENT DATUM
 LMF .                 KB:   LOG MEASURED FROM
 DAPD.F                 4:   FEET ABOVE PERMANENT DATUM
 DMF .                 KB:   DRILLING MEASURED FROM
 EKB .F              5172:   KELLING BUSHING
 EGL .F              5168:   GROUND LEVEL
 DATE.            9-22-78:   RUN DATE
 RUN .                  1:   RUN NUMBER
 DD  .F               510:   DEPTH DRILLER
 DL  .F               517:   DEPTH LOGGER
 BLI .F               510:   BOTTOM LOG INTERVAL
 TLI .F                40:   TOP LOG INTERVAL
 CS  .IN            8.625:   CASING SIZE
 CBD .F                40:   CASING BOTTOM DRILLER
 CBL .F                48:   CASING BOTTOM LOGGER
 BS  .IN            7.875:   BIT SIZE
 BSD .F               510:   BIT SIZE AT DEPTH
 DFT .            KCL MUD:   DRILLING FLUID TYPE
 DFD .                8.7:   DRILLING FLUID DENSITY
 DFV .                 39:   DRILLING FLUID VISCOSITY
 DFPH.                  9:   DRILLING FLUID PH
 DFL .                8.9:   DRILLING FLUID LOSS
 MSS .          FLOW LINE:   MUD SAMPLE SOURCE
 RMS .OHMM            .32:   RESISTIVITY MUD SAMPLE
 MST .F                68:   MUD SAMPLE TEMPERATURE
 RMF .OHMM            .26:   RESISTIVITY MUD FILTRATE SAMPLE
 MFST.F                72:   MUD FILTRATE SAMPLE TEMPERATURE
 RMC .OHMM            .28:   RESISTIVITY MUD CAKE
 MCST.F                75:   MUD CAKE SAMPLE TEMPERATURE
 MFSS.               MEAS:   MUD FILTRATE SAMPLE SOURCE
 MCSS.               MEAS:   MUD CAKE SAMPLE SOURCE
 RMB .OHMM            .32:   RESISTIVITY MUD AT BHT
 BHT .F                69:   BOTTOM HOLE TEMPERATURE
 TCS .HRS               3:   TIME CURCULATED STOPPED
 MRT .F                69:   MAXIMUM RECORDED TEMPERATURE
 LUN .               2958:   LOGGING UNIT NUMBER
 LUL .               CASP:   LOGGING UNIT LOCATION
 ENGI.           REYNOLDS:   RECORDING ENGINEER
 WITN.              AMEND:   WITNESSED BY
 CLNT.            A2DTECH:   CLIENT CODE
 ORIG.           5" PRINT:   ORIGIN OF DATA
 UWI .       490251069000:   UNIQUE WELL ID
 DICO. A2D Technologies, Inc.:   DIGITIZING COMPANY
~OTHER INFORMATION
~A   DEPT      SPR        ILD         SN       CALD         GRD      CORR        DEN       DPHI   
# ...
  231.0000   -55.6787     6.9795     7.1510     7.8424   123.6024     0.0378     2.4493     0.1264
  231.5000   -55.6685     6.9752     7.4292     7.9132   123.2261     0.0388     2.4670     0.1202
  232.0000   -55.4653     7.0633     7.7181     7.9536   124.7216     0.0448     2.4717     0.1230
  232.5000   -55.2809     7.0840     8.0183     7.9943   129.9114     0.0592     2.4693     0.1259
  233.0000   -55.2774     7.1069     8.3155     7.9889   127.8923     0.0732     2.4671     0.1251
  233.5000   -55.2780     7.0834     8.5514     7.9844   124.6548     0.0678     2.4690     0.1201
  234.0000   -55.3059     7.0489     8.4836     7.9796   121.3887     0.0531     2.4813     0.1151
  234.5000   -55.5386     7.0149     8.3884     7.9749   118.0471     0.0385     2.4935     0.1086
  235.0000   -55.7588     6.9811     8.2954     7.9701   117.3091     0.0236     2.4982     0.1119
  235.5000   -56.1045     6.9474     8.2036     7.9653   121.5479     0.0192     2.4909     0.1166
  236.0000   -56.1454     6.9127     8.1421     7.9606   125.7039     0.0165     2.4855     0.1200
  236.5000   -56.2006     6.6607     8.0838     7.9558   126.8386     0.0156     2.4808     0.1266
  237.0000   -56.2531     6.4092     8.0259     7.9510   127.8086     0.0168     2.4730     0.1305
  237.5000   -56.2786     6.1672     7.9684     7.9463   131.1368     0.0181     2.4630     0.1333
  238.0000   -55.8881     5.9342     7.9113     7.9415   134.0789     0.0193     2.4528     0.1362
  238.5000   -55.2859     5.7099     7.8232     7.9366   134.0552     0.0206     2.4464     0.1378
  239.0000   -55.0345     5.4943     7.6280     7.9359   133.4769     0.0218     2.4465     0.1365
  239.5000   -54.7997     5.3363     7.4377     7.9375   130.6892     0.0233     2.4478     0.1346
  240.0000   -54.5586     5.3364     7.2521     7.9448   120.2154     0.0306     2.4494     0.1346
  240.5000   -54.3876     5.4274     7.0712     7.9520   112.9421     0.0379     2.4509     0.1346
  241.0000   -53.9590     5.5003     6.8947     7.9591   122.2936     0.0452     2.4524     0.1330
  241.5000   -53.5460     5.5744     6.7227     7.9662   131.6928     0.0507     2.4549     0.1263
  242.0000   -53.1303     5.6685     6.5359     7.9733   130.6165     0.0475     2.4717     0.1180
  242.5000   -52.7096     5.9295     6.4145     7.9804   128.7507     0.0445     2.4892     0.1098
  243.0000   -52.7373     6.2023     6.4202     7.9876   127.1217     0.0415     2.4989     0.1086
  243.5000   -52.7961     6.4881     6.6413     7.9947   126.8394     0.0385     2.4995     0.1086
  244.0000   -52.8523     6.7864     6.9486     8.0018   131.3723     0.0355     2.5002     0.1038
  244.5000   -52.8890     7.0992     7.2702     8.0089   137.1243     0.0321     2.5023     0.1014
  245.0000   -52.8884     7.2395     7.6066     8.0160   136.7484     0.0270     2.5075     0.1034
  245.5000   -52.8885     7.3067     7.9586     8.0232   133.6182     0.0218     2.5072     0.1068
  246.0000   -52.8885     7.2988     8.3264     8.0303   133.3610     0.0167     2.5018     0.1103
  246.5000   -52.8885     7.2857     8.6272     8.0374   136.7032     0.0115     2.4963     0.1118
  247.0000   -52.8885     7.2726     8.4659     8.0445   136.0598     0.0060     2.4907     0.1107
  247.5000   -52.8885     7.2595     8.3132     8.0516   138.1741     0.0069     2.4904     0.1090
  248.0000   -52.8885     7.2465     8.4980     8.0565   139.7287     0.0078     2.4906     0.1073
  248.5000   -52.8885     7.2334     8.7912     8.0583   139.0339     0.0087     2.4950     0.1070
  249.0000   -52.8885     7.2204     9.0364     8.0601   134.5267     0.0095     2.4985     0.1070
  249.5000   -52.8880     7.2074     8.9748     8.0619   131.1755     0.0104     2.4974     0.1070
  250.0000   -52.8885     7.1945     8.9051     8.0637   131.3575     0.0113     2.4963     0.1059
  250.5000   -52.8872     7.1816     8.8359     8.0656   132.2368     0.0121     2.4948     0.1043
  251.0000   -53.2616     7.1686     8.7894     8.0674   135.8563     0.0130     2.5014     0.1027
  251.5000   -53.9819     7.1557     8.8496     8.0692   138.9672     0.0120     2.5085     0.1034
  252.0000   -54.7227     7.1429     8.9634     8.0710   138.3530     0.0110     2.5024     0.1074
  252.5000   -54.9489     7.1301     9.0364     8.0729   132.3626     0.0100     2.4946     0.1109
  253.0000   -55.0431     7.1172     8.7742     8.0747   132.0021     0.0090     2.4935     0.1102
  253.5000   -55.1333     7.1067     8.5556     8.0765   132.3154     0.0080     2.4938     0.1094
  254.0000   -55.2217     7.1070     8.4705     8.0784   132.6866     0.0071     2.4956     0.1086
  254.5000   -55.1454     7.1069     8.4705     8.0802   129.7414     0.0094     2.4966     0.1078
  255.0000   -54.8061     7.1071     8.4705     8.0820   126.2652     0.0117     2.4929     0.1127
  255.5000   -54.4795     7.1069     8.4705     8.0838   122.7855     0.0140     2.4884     0.1186
  256.0000   -54.6367     7.1069     8.4703     8.0857   119.9564     0.0163     2.4728     0.1320
  256.5000   -55.4551     6.8078     8.4711     8.0875   120.0046     0.0187     2.4564     0.1453
  257.0000   -55.6256     6.4794     8.4718     8.0893   125.8270     0.0177     2.4400     0.1551
  257.5000   -53.4477     6.1669     8.3317     8.0912   129.7816     0.0160     2.4231     0.1496
  258.0000   -52.7346     5.9080     8.2264     8.0932   132.0461     0.0144     2.4201     0.1388
  258.5000   -52.4987     5.8974     8.1217     8.0944   134.6310     0.0128     2.4497     0.1281
  259.0000   -52.2723     5.8829     8.0138     8.0818   136.9736     0.0112     2.4759     0.1173
  259.5000   -52.0471     5.8684     7.7479     8.0477   136.4291     0.0110     2.4906     0.1138
  260.0000   -51.9188     5.8539     7.4150     8.0153   133.3242     0.0118     2.4866     0.1168
  260.5000   -52.0116     5.8541     7.0965     7.9815   132.4097     0.0127     2.4771     0.1220
  261.0000   -52.1000     5.8211     6.8491     7.9784   132.8982     0.0151     2.4676     0.1348
  261.5000   -52.1891     5.7666     6.8468     8.0518   135.6744     0.0203     2.4559     0.1476
  262.0000   -52.2782     5.7465     6.9652     8.1261   138.5694     0.0225     2.4353     0.1586
  262.5000   -52.3671     5.7945     7.0821     8.1770   139.3127     0.0205     2.4148     0.1533
  263.0000   -52.4558     5.9041     7.1996     8.1710   138.7292     0.0186     2.4141     0.1433
  263.5000   -52.4330     5.9628     7.2413     8.1657   138.4586     0.0166     2.4416     0.1333
  264.0000   -52.2985     5.9628     7.0855     8.1601   138.5793     0.0147     2.4701     0.1233
  264.5000   -52.1732     5.9629     6.9671     8.1546   137.4996     0.0130     2.4892     0.1132
  265.0000   -52.5481     5.9630     6.8506     8.1491   130.8587     0.0130     2.4932     0.1100
  265.5000   -53.5639     5.9630     6.7361     8.1437   132.1802     0.0130     2.4928     0.1093
  266.0000   -54.4715     5.9651     6.6619     8.1382   134.6725     0.0130     2.4947     0.1085
  266.5000   -54.4045     6.3158     6.8491     8.1327   134.6277     0.0130     2.4949     0.1077
  267.0000   -54.2274     6.6408     7.0740     8.1271   132.4266     0.0130     2.4964     0.1069
  267.5000   -54.0645     6.8862     7.4878     8.1216   130.3949     0.0130     2.4980     0.1061
  268.0000   -54.3289     6.9837     7.9288     8.1164   125.8323     0.0136     2.4995     0.1106
  268.5000   -54.7547     7.0416     8.0908     8.1162   121.0538     0.0152     2.4995     0.1189
  269.0000   -55.1861     6.6837     8.0527     8.1162   121.0313     0.0168     2.4955     0.1272
  269.5000   -55.4871     6.3464     7.9690     8.1162   122.0465     0.0184     2.4781     0.1354
  270.0000   -55.7654     6.0276     7.7948     8.1162   123.6691     0.0201     2.4615     0.1437
  270.5000   -55.8008     5.6925     7.7266     8.1162   124.9331     0.0213     2.4448     0.1486
  271.0000   -55.6776     5.6934     7.6484     8.1162   125.5693     0.0157     2.4314     0.1436
