~VERSION INFORMATION
 VERS.                2.0:   CWLS LOG ASCII STANDARD - VERSION 2.0
 WRAP.                 NO:   ONE LINE PER DEPTH STEP
~WELL INFORMATION
#MNEM.UNIT      DATA TYPE    INFORMATION
#----------   ------------   ------------------------------
 STRT.F            0.0000:   START DEPTH
 STOP.F          523.0000:   STOP DEPTH
 STEP.F            0.1000:   STEP LENGTH
 NULL.          -999.2500:   NO VALUE
 COMP.       F D SERV INC:   COMPANY
 WELL. NAVAL PETROLEUM RESERVE 3 SX-3 #87-3:   WELL
 FLD .             TEAPOT:   FIELD
 LOC .       S3 T38N R78W:   LOCATION
 CNTY.            NATRONA:   COUNTY
 STAT.            WYOMING:   STATE
 CTRY. UNITED STATES OF AMERICA:   COUNTRY
 SRVC.      Western Atlas:   SERVICE COMPANY
 DATE.        22-NOV-1992:   LOGDATE
 API .       490252254300:   API NUMBER
~CURVE INFORMATION
#MNEM.UNIT       API CODE    CURVE DESCRIPTION
#----------   ------------   ------------------------------
 DEPT.F                  :   
 GRR .GAPI   07 310 01 00:   GAMMA RAY
 RILD.OHMM   07 120 46 00:   INDUCTION LOG DEEP RESISTIVITY
 RILM.OHMM   07 120 44 00:   INDUCTION LOG MEDIUM RESISTIVITY
~PARAMETER INFORMATION
#MNEM.UNIT          VALUE    DESCRIPTION
#----------   ------------   ------------------------------
 PD  .                 GL:   PERMANENT DATUM
 EPD .F              5129:   ELEVATION PERMANENT DATUM
 LMF .                 KB:   LOG MEASURED FROM
 DAPD.F                10:   FEET ABOVE PERMANENT DATUM
 DMF .                 KB:   DRILLING MEASURED FROM
 EKB .F              5139:   KELLING BUSHING
 EDF .F              5138:   DRILLING FLOOR
 EGL .F              5129:   GROUND LEVEL
 DATE.        22-NOV-1992:   RUN DATE
 RUN .                  1:   RUN NUMBER
 DD  .F               530:   DEPTH DRILLER
 DL  .F               531:   DEPTH LOGGER
 BLI .F               530:   BOTTOM LOG INTERVAL
 TLI .F                58:   TOP LOG INTERVAL
 CS  .IN            8.625:   CASING SIZE
 CBD .F                58:   CASING BOTTOM DRILLER
 CBL .F                58:   CASING BOTTOM LOGGER
 BS  .IN            7.875:   BIT SIZE
 BSD .F               530:   BIT SIZE AT DEPTH
 DFT .           AIR FOAM:   DRILLING FLUID TYPE
 MRT .F                73:   MAXIMUM RECORDED TEMPERATURE
 LUN .            HL-6274:   LOGGING UNIT NUMBER
 LUL .             CASPER:   LOGGING UNIT LOCATION
 ENGI.       P. RASMUSSEN:   RECORDING ENGINEER
 WITN.          G. STRONG:   WITNESSED BY
 CLNT.            A2DTECH:   CLIENT CODE
 ORIG.           5" PRINT:   ORIGIN OF DATA
 UWI .       490252254300:   UNIQUE WELL ID
 DICO. A2D Technologies, Inc.:   DIGITIZING COMPANY
~OTHER INFORMATION
~A    DEPT      GRR      RILD       RILM   
# ...
  182.0000   127.0428     8.4231     8.5657
  182.1000   127.3554     8.4223     8.5647
  182.2000   128.4603     8.4214     8.5638
  182.3000   128.8823     8.4204     8.5628
  182.4000   129.3683     8.4195     8.5619
  182.5000   129.9548     8.4185     8.5609
  182.6000   130.5974     8.4175     8.5600
  182.7000   130.8498     8.3808     8.5590
  182.8000   130.8452     8.3573     8.5581
  182.9000   130.8404     8.3421     8.5571
  183.0000   130.7150     8.2974     8.5193
  183.1000   130.5291     8.2963     8.4958
  183.2000   130.5242     8.2955     8.4948
  183.3000   130.5185     8.2946     8.4938
  183.4000   130.5146     8.2937     8.4928
  183.5000   130.6506     8.2849     8.4920
  183.6000   130.8067     8.2342     8.4910
  183.7000   130.8018     8.2334     8.4713
  183.8000   130.7964     8.2325     8.4224
  183.9000   130.7921     8.2088     8.3706
  184.0000   130.7874     8.1735     8.3255
  184.1000   130.7825     8.1709     8.3106
  184.2000   130.8260     8.1147     8.3097
  184.3000   131.0743     8.0769     8.2971
  184.4000   131.3071     8.0568     8.2501
  184.5000   131.5475     8.0559     8.2492
  184.6000   131.7880     8.0550     8.2483
  184.7000   131.9602     8.0540     8.2474
  184.8000   131.9674     8.0532     8.2465
  184.9000   132.2513     8.0215     8.2455
  185.0000   132.4484     7.9955     8.2445
  185.1000   132.5442     7.9946     8.2028
  185.2000   132.5394     7.9937     8.1555
  185.3000   132.5667     7.9477     8.1084
  185.4000   132.8309     7.8674     8.0703
  185.5000   132.8266     7.8258     8.0694
  185.6000   132.9867     7.8249     8.0245
  185.7000   133.1186     7.8240     8.0116
  185.8000   133.1660     7.8230     7.9878
  185.9000   133.4105     7.8222     7.9542
  186.0000   133.8884     7.8214     7.9533
  186.1000   134.1893     7.8205     7.9522
  186.2000   134.5586     7.8196     7.9515
  186.3000   135.3341     7.8187     7.9506
  186.4000   136.8018     7.8179     7.9497
  186.5000   138.5090     7.8170     7.9489
  186.6000   138.9154     7.8161     7.9479
  186.7000   139.5501     7.8153     7.9471
  186.8000   140.0961     7.8145     7.9462
  186.9000   140.3012     7.8134     7.9453
  187.0000   140.2952     7.8127     7.9544
  187.1000   140.2908     7.8118     7.9991
  187.2000   140.1170     7.8110     7.9982
  187.3000   139.9795     7.8101     7.9973
  187.4000   139.9183     7.8091     7.9964
  187.5000   139.6682     7.8084     7.9955
  187.6000   139.1728     7.8075     7.9946
  187.7000   138.2992     7.8274     7.9936
  187.8000   137.1803     7.8603     7.9928
  187.9000   135.4909     7.8594     7.9919
  188.0000   132.8265     7.9039     7.9910
  188.1000   130.2871     7.9126     7.9902
  188.2000   129.6554     7.9117     7.9892
  188.3000   128.7620     7.9259     8.0310
  188.4000   128.1617     7.9653     8.0434
  188.5000   128.1569     7.9643     8.0425
  188.6000   128.1517     7.9635     8.0416
  188.7000   128.3764     7.9626     8.0407
  188.8000   128.7901     7.9811     8.0398
  188.9000   129.3927     8.0164     8.0753
  189.0000   130.0634     8.0156     8.1466
  189.1000   130.5569     8.0147     8.2070
  189.2000   131.5339     8.0480     8.2112
  189.3000   132.1242     8.0929     8.2625
  189.4000   132.6101     8.1381     8.2616
  189.5000   132.9351     8.1804     8.2607
  189.6000   132.9303     8.1793     8.2797
  189.7000   132.9249     8.1785     8.3168
  189.8000   132.7076     8.1775     8.2579
  189.9000   132.4574     8.1767     8.2570
  190.0000   132.1066     8.1682     8.2561
  190.1000   131.6112     8.1180     8.2315
  190.2000   131.0912     8.0741     8.1969
  190.3000   130.8534     8.0600     8.1936
  190.4000   130.6031     8.0591     8.1380
  190.5000   130.4736     8.0582     8.1373
  190.6000   130.5331     8.0559     8.1364
  190.7000   130.7737     8.0002     8.1354
  190.8000   131.0615     7.9995     8.1345
  190.9000   131.0576     7.9986     8.1335
  191.0000   131.1936     7.9977     8.1327
  191.1000   131.3497     7.9968     8.1318
  191.2000   131.3730     7.9959     8.1101
  191.3000   131.6411     7.9951     8.0633
  191.4000   131.6368     7.9638     8.0165
  191.5000   131.7928     7.8781     8.0156
  191.6000   132.1379     7.7727     7.9800
  191.7000   132.5756     7.7718     7.9581
  191.8000   132.8240     7.7710     7.9572
  191.9000   132.8193     7.7701     7.9563
  192.0000   133.1765     7.7693     7.9554
  192.1000   133.6623     7.7684     7.9546
  192.2000   134.4904     7.7675     7.9537
  192.3000   136.1663     7.7665     7.9528
  192.4000   137.3192     7.7658     7.9520
  192.5000   138.1197     7.7649     7.9510
  192.6000   139.0963     7.7641     7.9502
  192.7000   139.7189     7.7632     7.9493
  192.8000   139.7141     7.7623     7.9484
  192.9000   139.7087     7.7614     7.9475
  193.0000   139.7044     7.7606     7.9466
  193.1000   139.3697     7.7598     7.9457
  193.2000   138.8741     7.7589     7.9449
  193.3000   138.3264     7.7580     7.9440
  193.4000   137.5734     7.7570     7.9431
  193.5000   137.3273     7.7563     7.9373
  193.6000   136.7070     7.7554     7.8860
  193.7000   135.5798     7.7384     7.8459
  193.8000   133.9582     7.6999     7.8007
  193.9000   132.0386     7.6989     7.7743
  194.0000   130.6055     7.6186     7.7734
  194.1000   130.3963     7.5908     7.7726
  194.2000   130.1462     7.5700     7.7292
  194.3000   129.8960     7.5364     7.7168
  194.4000   129.6095     7.5356     7.7160
  194.5000   129.0735     7.5347     7.7028
  194.6000   128.6185     7.5339     7.6607
  194.7000   128.1230     7.5330     7.6597
  194.8000   127.6275     7.5322     7.6232
  194.9000   127.0754     7.5313     7.6049
  195.0000   126.3348     7.5304     7.5882
  195.1000   126.0847     7.4923     7.5504
  195.2000   126.0235     7.4766     7.5495
  195.3000   126.0187     7.4758     7.6086
  195.4000   126.0139     7.4749     7.6083
  195.5000   126.0090     7.4740     7.6080
  195.6000   126.0035     7.4732     7.6077
  195.7000   126.2085     7.4409     7.6073
  195.8000   126.7546     7.3979     7.5714
  195.9000   127.3893     7.3674     7.5539
  196.0000   127.9558     7.3638     7.5382
  196.1000   128.9964     7.3144     7.4955
  196.2000   128.9918     7.3137     7.4484
  196.3000   129.5057     7.2876     7.4109
  196.4000   130.0038     7.2614     7.3689
  196.5000   130.4253     7.2540     7.3272
  196.6000   131.3976     7.2093     7.2857
  196.7000   132.1291     7.1327     7.2422
  196.8000   132.4742     7.1080     7.2034
  196.9000   133.5351     7.0879     7.1339
  197.0000   135.0871     7.0470     7.0725
  197.1000   136.2364     7.0051     7.0229
  197.2000   136.7861     6.9094     6.9440
  197.3000   137.2081     6.9088     6.9047
  197.4000   137.3804     6.8856     6.8656
  197.5000   137.3755     6.8324     6.8063
  197.6000   137.3707     6.7590     6.7296
  197.7000   137.3657     6.7158     6.6562
  197.8000   137.3611     6.6812     6.6121
  197.9000   137.0023     6.5927     6.5810
  198.0000   135.6623     6.5129     6.5438
  198.1000   133.4497     6.4674     6.5067
  198.2000   131.2925     6.3927     6.4698
  198.3000   130.6995     6.3562     6.4290
  198.4000   130.3015     6.3195     6.3967
  198.5000   130.0875     6.2452     6.3605
  198.6000   130.0827     6.1284     6.3245
  198.7000   130.0778     5.9980     6.2887
  198.8000   130.0724     5.9584     6.2510
  198.9000   130.2854     5.9578     6.2176
  199.0000   130.5259     5.9572     6.2071
  199.1000   130.7664     5.9565     6.1904
  199.2000   131.0070     5.9558     6.1635
  199.3000   131.2554     5.9551     6.1633
  199.4000   131.7254     5.9545     6.1630
  199.5000   132.2112     5.9538     6.1627
  199.6000   132.9464     5.9532     6.1441
  199.7000   133.8547     5.9525     6.1194
  199.8000   134.5499     5.9534     6.1192
  199.9000   134.5439     5.9927     6.1189
  200.0000   134.5400     5.9921     6.1187
  200.1000   133.5214     5.9914     6.1185
