~VERSION INFORMATION
 VERS.                2.0:   CWLS LOG ASCII STANDARD - VERSION 2.0
 WRAP.                 NO:   ONE LINE PER DEPTH STEP
~WELL INFORMATION
#MNEM.UNIT      DATA TYPE    INFORMATION
#----------   ------------   ------------------------------
 STRT.F           93.0000:   START DEPTH
 STOP.F         1921.0000:   STOP DEPTH
 STEP.F            0.5000:   STEP LENGTH
 NULL.          -999.2500:   NO VALUE
 COMP. LAWRENCE-ALLISON &AS:   COMPANY
 WELL.  NPR 3 #15-1SHX2/T:   WELL
 FLD .             NPR #3:   :   FIELD
 LOC .       S2 T38N R78W:   LOCATION
 CNTY.            NATRONA:   COUNTY
 STAT.            WYOMING:   STATE
 CTRY. UNITED STATES OF AMERICA:   COUNTRY
 SRVC.       Schlumberger:   SERVICE COMPANY
 DATE.        10-JUN-1982:   LOGDATE
 API .       490251077600:   API NUMBER
~CURVE INFORMATION
#MNEM.UNIT       API CODE    CURVE DESCRIPTION
#----------   ------------   ------------------------------
 DEPT.F                  :   
 GR  .GAPI   70 310 01 00:   GAMMA RAY
 CALI.IN     70 280 01 00:   CALIPER
~PARAMETER INFORMATION
#MNEM.UNIT          VALUE    DESCRIPTION
#----------   ------------   ------------------------------
 PD  .                 GL:   PERMANENT DATUM
 EPD .F              5116:   ELEVATION PERMANENT DATUM
 LMF .                 KB:   LOG MEASURED FROM
 DAPD.F                10:   FEET ABOVE PERMANENT DATUM
 DMF .                 KB:   DRILLING MEASURED FROM
 EKB .F              5126:   KELLING BUSHING
 EGL .F              5116:   GROUND LEVEL
 DATE.        10-JUN-1982:   RUN DATE
 RUN .                  1:   RUN NUMBER
 DD  .F              2100:   DEPTH DRILLER
 DL  .F              1924:   DEPTH LOGGER
 BLI .F              1921:   BOTTOM LOG INTERVAL
 TLI .F               100:   TOP LOG INTERVAL
 CS  .IN            10.75:   CASING SIZE
 BS  .IN             8.75:   BIT SIZE
 BSD .F              2100:   BIT SIZE AT DEPTH
 DFT .                AIR:   DRILLING FLUID TYPE
 ENGI.        C. MARRINER:   RECORDING ENGINEER
 WITN.             SCOTTY:   WITNESSED BY
 CLNT.            A2DTECH:   CLIENT CODE
 ORIG.           5" PRINT:   ORIGIN OF DATA
 UWI .       490251077600:   UNIQUE WELL ID
 DICO. A2D Technologies, Inc.:   DIGITIZING COMPANY
~OTHER INFORMATION
~A   DEPT       GR       CALI   
   93.0000  -999.2500  -999.2500
   93.5000    85.3546    10.3590
   94.0000    83.4210    10.3600
   94.5000    88.1212    10.3610
   95.0000    92.3634    10.3620
   95.5000    93.7327    10.3630
   96.0000    92.1123    10.3640
   96.5000    79.8040    10.3651
   97.0000    75.3989    10.3661
   97.5000    73.2095    10.3523
   98.0000    71.2350    10.3238
   98.5000    74.1481    10.3100
   99.0000    78.3841    10.3111
   99.5000    82.6200    10.3123
  100.0000    83.5259    10.3133
  100.5000    80.4567    10.3143
  101.0000    79.1535    10.3153
  101.5000    81.1738    10.3164
  102.0000    82.9725    10.3174
  102.5000    83.2203    10.3184
  103.0000    84.5997    10.3194
  103.5000    87.7813    10.3204
  104.0000    90.4550    10.3214
  104.5000    90.8583    10.3225
  105.0000    88.0107    10.3235
  105.5000    86.0428    10.3247
  106.0000    84.0749    10.3257
  106.5000    80.7776    10.3267
  107.0000    78.1450    10.3278
  107.5000    80.1653    10.3288
  108.0000    87.2816    10.3148
  108.5000    93.7332    10.3160
  109.0000    94.6457    10.3020
  109.5000    91.3484    10.3033
  110.0000    83.8413    10.3043
  110.5000    79.6578    10.3053
  111.0000    76.8036    10.3064
  111.5000    79.9837    10.3074
  112.0000    84.7297    10.3086
  112.5000    88.6632    10.3096
  113.0000    89.5442    10.3106
  113.5000    88.6841    10.3116
  114.0000    84.9437    10.3127
  114.5000    82.5327    10.3284
  115.0000    84.3314    10.3295
  115.5000    88.1242    10.3305
  116.0000    90.5876    10.3315
  116.5000    90.1707    10.3325
  117.0000    86.4303    10.3335
  117.5000    86.0068    10.3345
  118.0000    90.2493    10.3208
  118.5000    93.1558    10.3220
  119.0000    94.0683    10.3231
  119.5000    91.4225    10.3241
  120.0000    87.2378    10.3251
  120.5000    87.5569    10.3261
  121.0000    89.1610    10.3271
  121.5000    90.2176    10.3281
  122.0000    90.0223    10.3439
  122.5000    89.8203    10.3449
  123.0000    90.0747    10.3459
  123.5000    91.8734    10.3470
  124.0000    94.7799    10.3480
  124.5000    96.8002    10.3492
  125.0000    96.3833    10.3502
  125.5000    92.6429    10.3513
  126.0000    89.7887    10.3523
  126.5000    90.4796    10.3533
  127.0000    90.9489    10.3543
  127.5000    89.2026    10.3701
  128.0000    87.8994    10.3859
  128.5000    88.6100    10.3869
  129.0000    89.0596    10.3879
  129.5000    87.5414    10.3889
  130.0000    82.9147    10.3752
  130.5000    80.2821    10.3764
  131.0000    80.5299    10.3774
  131.5000    82.5501    10.3784
  132.0000    85.4567    10.3795
  132.5000    87.2554    10.3805
  133.0000    87.9398    10.3815
  133.5000    86.4215    10.3825
  134.0000    86.4477    10.3835
  134.5000    86.6955    10.3697
  135.0000    86.7217    10.3708
  135.5000    84.7538    10.3570
  136.0000    77.4683    10.3581
  136.5000    75.2789    10.3591
  137.0000    80.5670    10.3453
  137.5000    87.9617    10.3465
  138.0000    91.0952    10.3476
  138.5000    91.3364    10.3486
  139.0000    90.6979    10.3496
  139.5000    91.8385    10.3506
  140.0000    92.5293    10.3516
  140.5000    92.7771    10.3526
  141.0000    90.5876    10.3389
  141.5000    86.1825    10.3399
  142.0000    83.3284    10.3409
  142.5000    82.2402    10.3419
  143.0000    84.0454    10.3282
  143.5000    83.8493    10.3294
  144.0000    85.6488    10.3304
  144.5000    88.7814    10.3315
  145.0000    89.9261    10.3325
  145.5000    89.8538    10.3335
  146.0000    86.5997    10.3345
  146.5000    86.8941    10.3355
  147.0000    87.5850    10.3365
  147.5000    86.2818    10.3375
  148.0000    83.3089    10.3386
  148.5000    80.1107    10.3544
  149.0000    82.1427    10.3554
  149.5000    85.4966    10.3566
  150.0000    90.4013    10.3574
  150.5000    94.1983    10.3568
  151.0000    94.9261    10.3562
  151.5000    94.2585    10.3557
  152.0000    93.3973    10.3551
  152.5000    92.7437    10.3546
  153.0000    92.1419    10.3541
  153.5000    91.9431    10.3535
  154.0000    91.7519    10.3530
  154.5000    92.0114    10.3524
  155.0000    93.3711    10.3519
  155.5000    96.2818    10.3513
  156.0000    98.9709    10.3508
  156.5000    95.8993    10.3502
  157.0000    88.3964    10.3497
  157.5000    86.2075    10.3492
  158.0000    87.8878    10.3486
  158.5000    90.4891    10.3480
  159.0000    91.4057    10.3492
  159.5000    92.1007    10.3504
  160.0000    92.3526    10.3516
  160.5000    91.4967    10.3530
  161.0000    88.4251    10.3541
  161.5000    84.2457    10.3553
  162.0000    82.0604    10.3564
  162.5000    78.3241    10.3428
  163.0000    77.4682    10.3440
  163.5000    83.0740    10.3451
  164.0000    91.4951    10.3315
  164.5000    94.6273    10.3327
  165.0000    96.2086    10.3338
  165.5000    97.3468    10.3350
  166.0000    98.4850    10.3364
  166.5000    98.7293    10.3376
  167.0000    91.2340    10.3387
  167.5000    83.0664    10.3399
  168.0000    83.0967    10.3410
  168.5000    84.8996    10.3422
  169.0000    87.2230    10.3434
  169.5000    89.9534    10.3445
  170.0000    92.0883    10.3457
  170.5000    92.5617    10.3320
  171.0000    93.2568    10.3332
  171.5000    93.5011    10.3196
  172.0000    90.6587    10.3210
  172.5000    87.8086    10.3222
  173.0000    86.7236    10.3233
  173.5000    89.8634    10.3245
  174.0000    92.3310    10.3257
  174.5000    93.9128    10.3268
  175.0000    93.4638    10.3280
  175.5000    90.6570    10.3291
  176.0000    86.4776    10.3303
  176.5000    85.3926    10.3315
  177.0000    88.0893    10.3329
  177.5000    91.6646    10.3340
  178.0000    93.4675    10.3352
  178.5000    93.7194    10.3363
  179.0000    93.5273    10.3375
  179.5000    92.8938    10.3387
  180.0000    92.4810    10.3398
  180.5000    93.2120    10.3410
  181.0000    94.7649    10.3421
  181.5000    96.3462    10.3433
  182.0000    96.8197    10.3445
  182.5000    96.4069    10.3459
  183.0000    95.7726    10.3470
  183.5000    94.9166    10.3482
  184.0000    95.6117    10.3493
  184.5000    94.9773    10.3505
  185.0000    92.1273    10.3517
  185.5000    88.3663    10.3528
  186.0000    88.1998    10.3540
  186.5000    91.3396    10.3551
  187.0000    92.4778    10.3563
  187.5000    92.2866    10.3575
  188.0000    90.5444    10.3586
  188.5000    88.3590    10.3600
  189.0000    87.0600    10.3612
  189.5000    86.2041    10.3623
  190.0000    86.1920    10.3635
  190.5000    86.6568    10.3647
  191.0000    87.5648    10.3658
  191.5000    90.6885    10.3670
  192.0000    97.3572    10.3681
  192.5000   100.0377    10.3693
  193.0000   101.1691    10.3705
  193.5000    99.6399    10.3716
  194.0000    94.7872    10.3730
  194.5000    87.7188    10.3742
  195.0000    83.9740    10.3753
  195.5000    80.0074    10.3765
  196.0000    80.9513    10.3777
  196.5000    85.5709    10.3788
  197.0000    94.2584    10.3800
  197.5000   100.7055    10.3811
  198.0000   104.2723    10.3823
  198.5000   104.9587    10.3835
  199.0000   102.9864    10.3846
  199.5000    99.0200    10.3860
  200.0000    94.3888    10.3869
  200.5000    92.4110    10.3865
  201.0000    95.5401    10.3862
  201.5000   100.2147    10.3859
  202.0000   101.7874    10.3855
  202.5000   102.0307    10.3852
  203.0000   101.1662    10.3849
  203.5000   101.6365    10.3845
  204.0000   103.4308    10.3842
  204.5000   105.0035    10.3838
  205.0000   105.4629    10.3835
  205.5000    99.2863    10.3832
  206.0000    94.4336    10.3828
  206.5000    93.1205    10.3839
  207.0000    95.1417    10.3848
  207.5000    98.0438    10.3857
  208.0000   100.5028    10.3865
  208.5000   101.1892    10.3874
  209.0000    99.5672    10.3883
  209.5000    92.6500    10.3892
  210.0000    89.0683    10.3900
  210.5000    93.9700    10.3909
  211.0000   100.4171    10.3768
  211.5000   105.0917    10.3779
  212.0000   107.3291    10.3787
  212.5000   106.9077    10.3796
  213.0000   105.1569    10.3657
  213.5000   104.7301    10.3666
  214.0000   103.4279    10.3677
