~VERSION INFORMATION
 VERS.                2.0:   CWLS LOG ASCII STANDARD - VERSION 2.0
 WRAP.                 NO:   ONE LINE PER DEPTH STEP
~WELL INFORMATION
#MNEM.UNIT      DATA TYPE    INFORMATION
#----------   ------------   ------------------------------
 STRT.F           14.5000:   START DEPTH
 STOP.F          750.0000:   STOP DEPTH
 STEP.F            0.5000:   STEP LENGTH
 NULL.          -999.2500:   NO VALUE
 COMP. FENIX & SCISSON INC:   COMPANY
 WELL.       NPR 3 #24-14:   WELL
 FLD .             TEAPOT:   FIELD
 LOC .      S14 T38N R78W:   LOCATION
 CNTY.            NATRONA:   COUNTY
 STAT.            WYOMING:   STATE
 CTRY. UNITED STATES OF AMERICA:   COUNTRY
 SRVC.           BIRDWELL:   SERVICE COMPANY
 DATE.        27-DEC-1978:   LOGDATE
 API .       490251075900:   API NUMBER
~CURVE INFORMATION
#MNEM.UNIT       API CODE    CURVE DESCRIPTION
#----------   ------------   ------------------------------
 DEPT.F                  :   
 SPR .MV     05 010 01 00:   SPONTANEOUS POTENTIAL FROM RES.
 SN  .OHMM   05 040 16 00:   SHORT NORMAL 16"
 IL  .OHMM   05 120 00 00:   INDUCTION LOG
 GRD .GAPI   45 310 01 00:   GAMMA RAY FROM DENSITY LOG
 CALD.IN     45 280 60 00:   CALIPER
 RHOB.G/C3   45 350 01 00:   BULK DENSITY
 DPHI.DEC    45 890 12 00:   DENSITY POROSITY SANDSTONE
 CORR.G/C3   45 356 01 00:   DENSITY CORRECTION
~PARAMETER INFORMATION
#MNEM.UNIT          VALUE    DESCRIPTION
#----------   ------------   ------------------------------
 PD  .                 GL:   PERMANENT DATUM
 EPD .F              5209:   ELEVATION PERMANENT DATUM
 LMF .                 KB:   LOG MEASURED FROM
 DAPD.F                 4:   FEET ABOVE PERMANENT DATUM
 DMF .                 KB:   DRILLING MEASURED FROM
 EKB .F              5212:   KELLING BUSHING
 EGL .F              5209:   GROUND LEVEL
 DATE.           12-27-78:   RUN DATE
 RUN .                  1:   RUN NUMBER
 DD  .F               750:   DEPTH DRILLER
 DL  .F               742:   DEPTH LOGGER
 BLI .F               735:   BOTTOM LOG INTERVAL
 TLI .F                35:   TOP LOG INTERVAL
 CS  .IN            8.625:   CASING SIZE
 CBD .F                40:   CASING BOTTOM DRILLER
 CBL .F                32:   CASING BOTTOM LOGGER
 BS  .IN            7.875:   BIT SIZE
 BSD .F               750:   BIT SIZE AT DEPTH
 DFT .                KCL:   DRILLING FLUID TYPE
 DFD .                8.6:   DRILLING FLUID DENSITY
 DFV .                 35:   DRILLING FLUID VISCOSITY
 DFPH.                9.4:   DRILLING FLUID PH
 DFL .               12.4:   DRILLING FLUID LOSS
 MSS .           FLOWLINE:   MUD SAMPLE SOURCE
 RMS .OHMM            .38:   RESISTIVITY MUD SAMPLE
 MST .F                58:   MUD SAMPLE TEMPERATURE
 RMF .OHMM            .38:   RESISTIVITY MUD FILTRATE SAMPLE
 MFST.F                58:   MUD FILTRATE SAMPLE TEMPERATURE
 RMC .OHMM            .36:   RESISTIVITY MUD CAKE
 MCST.F                60:   MUD CAKE SAMPLE TEMPERATURE
 MFSS.           MEASURED:   MUD FILTRATE SAMPLE SOURCE
 MCSS.           MEASURED:   MUD CAKE SAMPLE SOURCE
 RMB .OHMM            .37:   RESISTIVITY MUD AT BHT
 BHT .F                59:   BOTTOM HOLE TEMPERATURE
 TCS .HRS               2:   TIME CURCULATED STOPPED
 MRT .F                59:   MAXIMUM RECORDED TEMPERATURE
 LUN .               2958:   LOGGING UNIT NUMBER
 LUL .             CASPER:   LOGGING UNIT LOCATION
 ENGI.         B. ROLLINS:   RECORDING ENGINEER
 WITN.           DINSMORE:   WITNESSED BY
 CLNT.            A2DTECH:   CLIENT CODE
 ORIG.           5" PRINT:   ORIGIN OF DATA
 UWI .       490251075900:   UNIQUE WELL ID
 DICO. A2D Technologies, Inc.:   DIGITIZING COMPANY
~OTHER INFORMATION
~A   DEPT      SPR         SN         IL         GRD      CALD       RHOB       DPHI       CORR   
# ...
  136.0000   -51.7850     3.3250     3.2760   114.1360     7.3050     2.3700     0.1760     0.0360
  136.5000   -52.8870     3.0890     3.0050   113.5070     7.2990     2.4270     0.1370     0.0350
  137.0000   -52.7940     3.0780     2.9960   110.4330     7.3080     2.4490     0.1370     0.0350
  137.5000   -52.3630     3.0680     2.9880    99.9020     7.3380     2.4530     0.1380     0.0340
  138.0000   -51.6290     3.0610     2.9780    86.3990     7.5480     2.4540     0.1380     0.0340
  138.5000   -50.8920     3.3380     3.2140    80.4810     7.7650     2.4530     0.1360     0.0330
  139.0000   -50.1280     3.7900     3.7010    79.5150     7.8680     2.4540     0.1320     0.0320
  139.5000   -49.9210     4.4230     4.5380    79.1780     7.9650     2.4580     0.1360     0.0310
  140.0000   -50.1200     6.1550     5.5140    79.2620     8.0390     2.4630     0.1410     0.0220
  140.5000   -51.0470     7.3120     6.8130    79.4530     8.0610     2.4470     0.1500     0.0200
  141.0000   -51.8830     8.0520     7.6470    79.6270     8.0520     2.4290     0.1610     0.0210
  141.5000   -51.9170     8.6450     8.3450    79.8040     8.0350     2.4120     0.1760     0.0210
  142.0000   -51.9290     9.0920     8.3450    80.0160     8.0190     2.3850     0.1920     0.0220
  142.5000   -51.9440     9.4180     8.1420    82.8310     8.0020     2.3520     0.2250     0.0270
  143.0000   -51.9590     9.4610     7.8240    85.1780     7.9800     2.3180     0.2260     0.0340
  143.5000   -51.9740     9.4920     7.2580    86.9390     7.8580     2.2930     0.2190     0.0370
  144.0000   -51.9880     9.0620     6.6910    91.6690     7.7520     2.3090     0.2050     0.0400
  144.5000   -52.0030     8.7310     5.6180    95.9680     7.7820     2.3380     0.1780     0.0420
  145.0000   -52.0170     8.2540     5.5620    96.9400     7.8070     2.3670     0.1790     0.0450
  145.5000   -52.0320     7.4370     5.5160    97.2700     7.7970     2.3790     0.1760     0.0590
  146.0000   -52.0460     6.6190     5.6370    95.8900     7.7850     2.3850     0.1580     0.0950
  146.5000   -52.0600     6.0470     5.7070    92.1030     7.9130     2.4040     0.1380     0.1380
  147.0000   -52.0740     6.1280     5.7590    88.0450     8.0050     2.4490     0.1170     0.1800
  147.5000   -52.0840     6.3040     6.0250    83.9420     7.9990     2.4930     0.1120     0.2080
  148.0000   -52.0210     6.8150     6.5960    81.2130     7.9950     2.4960     0.1120     0.2050
  148.5000   -51.6980     8.0550     7.6690    79.5060     7.9900     2.4970     0.1230     0.2000
  149.0000   -50.7300     9.1830     8.7430    77.9850     7.9940     2.4900     0.1320     0.1950
  149.5000   -49.2140    10.3100     9.6880    79.6640     8.0510     2.4660     0.1360     0.2050
  150.0000   -47.5760    11.3390    10.5310    82.0360     8.1090     2.4560     0.1370     0.2190
  150.5000   -45.9300    12.0570    10.9250    83.8130     8.1670     2.4560     0.1260     0.2340
  151.0000   -44.6920    12.2990    10.9810    83.8680     8.2280     2.4660     0.1170     0.2330
  151.5000   -44.0140    12.5190    11.0370    83.9610     8.2150     2.4850     0.1130     0.2230
  152.0000   -43.7200    12.7390    11.0990    84.0650     8.1750     2.4940     0.1200     0.1860
  152.5000   -43.4230    12.9590    11.2790    84.0770     8.1340     2.4850     0.1290     0.1510
  153.0000   -43.1100    13.1790    11.4780    82.1650     8.0940     2.4690     0.1390     0.1270
  153.5000   -42.6140    13.3990    11.6780    80.9990     8.0230     2.4530     0.1480     0.1210
  154.0000   -42.0810    13.6540    11.8780    84.2710     7.9120     2.4400     0.1450     0.1240
  154.5000   -41.6930    13.9250    12.0570    84.7020     7.6830     2.4360     0.1390     0.1270
  155.0000   -41.7010    14.1960    12.1800    85.0330     7.7550     2.4520     0.1480     0.1140
  155.5000   -41.7010    14.4930    12.2910    85.3740     7.3990     2.4420     0.1630     0.0840
  156.0000   -41.7000    14.5400    12.4030    85.7380     7.2490     2.4170     0.1780     0.0560
  156.5000   -41.7010    14.5920    12.5140    85.1690     7.1820     2.3870     0.1760     0.0530
  157.0000   -41.6930    14.6440    12.6250    82.8410     7.1390     2.3890     0.1770     0.0500
  157.5000   -41.1400    14.6960    12.7370    81.7160     7.0950     2.3860     0.1830     0.0520
  158.0000   -40.6510    14.7480    12.8590    82.0420     7.0940     2.3710     0.1830     0.0530
  158.5000   -40.5050    14.8000    12.9730    82.7320     7.1330     2.3780     0.1730     0.0510
  159.0000   -40.3550    14.8520    13.0990    83.2590     7.1710     2.3890     0.1700     0.0450
  159.5000   -40.2000    14.8990    13.2250    83.7980     7.1590     2.3950     0.1700     0.0380
  160.0000   -39.9540    15.0010    13.3510    84.9340     7.1450     2.3980     0.1780     0.0380
  160.5000   -39.4080    15.0950    13.4770    85.5250     7.1550     2.3890     0.1900     0.0380
  161.0000   -38.8770    15.1880    13.6020    86.6580     7.4860     2.3800     0.2010     0.0550
  161.5000   -38.4860    15.2810    13.7280    87.0910     7.9210     2.3500     0.2140     0.0900
  162.0000   -38.4700    15.3740    13.8420    85.3420     8.0020     2.3220     0.1980     0.1360
  162.5000   -38.4460    15.4580    14.0610    81.2390     8.0280     2.3610     0.1690     0.1450
  163.0000   -38.4220    16.0370    14.2610    78.4440     8.0400     2.4220     0.1430     0.1020
  163.5000   -38.3980    16.0370    14.3900    76.7160     8.0250     2.4410     0.1550     0.0640
  164.0000   -38.3740    16.0370    14.4480    73.9220     8.0110     2.4310     0.1760     0.0560
  164.5000   -38.3500    16.0370    14.5060    72.7900     7.9960     2.4010     0.1850     0.0710
  165.0000   -38.3260    16.0370    14.5640    73.5940     7.9820     2.3700     0.1890     0.1300
  165.5000   -38.3030    16.0370    14.6270    75.0980     7.9670     2.3630     0.1810     0.1840
  166.0000   -38.4020    16.0370    14.3300    76.0370     7.9620     2.4300     0.1750     0.1500
  166.5000   -38.5150    16.0370    13.9890    76.4490     7.9110     2.4450     0.1730     0.0630
  167.0000   -38.6280    15.6940    13.6250    78.1680     7.5370     2.3970     0.1750     0.0480
  167.5000   -38.7420    15.2060    13.2600    79.7890     7.3390     2.3930     0.1770     0.0440
  168.0000   -38.8550    14.6990    12.8590    80.7670     7.3520     2.3860     0.1790     0.0480
  168.5000   -38.9680    14.2170    12.8010    83.5370     7.4360     2.3810     0.1730     0.0550
  169.0000   -39.0810    13.7340    12.7420    83.5420     7.5810     2.3870     0.1630     0.0560
  169.5000   -39.1950    13.5320    12.4290    84.5170     7.7220     2.4040     0.1580     0.0570
  170.0000   -39.3090    13.4490    12.0810    86.7810     7.7980     2.4190     0.1510     0.0610
  170.5000   -39.4280    13.3660    11.7730    88.5610     7.8500     2.4280     0.1380     0.0690
  171.0000   -39.6620    13.1990    11.5590    89.6220     7.8560     2.4460     0.1270     0.0730
  171.5000   -40.2680    12.9950    11.2720    91.5900     7.8640     2.4630     0.1160     0.0760
  172.0000   -40.8610    12.7910    10.8120    96.6650     7.8770     2.4810     0.1150     0.0780
  172.5000   -41.4540    12.5870    10.3520    99.3170     7.9880     2.4870     0.1260     0.0810
  173.0000   -42.0720    12.3830     9.8730   101.3060     8.1640     2.4840     0.1310     0.0900
  173.5000   -42.4230    11.9400     9.3470   103.3000     8.2150     2.4710     0.1290     0.1270
  174.0000   -42.7760    11.2590     8.8210   103.7120     8.2960     2.4660     0.1150     0.1700
  174.5000   -43.1530    10.5780     8.2950   103.7580     8.3070     2.4770     0.0930     0.2140
  175.0000   -44.1980     9.8960     7.7690   102.1090     8.2380     2.5090     0.0700     0.2490
  175.5000   -45.2670     9.2150     7.4450   100.2790     8.1350     2.5470     0.0710     0.2460
  176.0000   -46.7580     8.7290     7.1140    98.4330     8.0060     2.5660     0.0840     0.2270
