~VERSION INFORMATION
 VERS.                2.0:   CWLS LOG ASCII STANDARD - VERSION 2.0
 WRAP.                 NO:   ONE LINE PER DEPTH STEP
~WELL INFORMATION
#MNEM.UNIT      DATA TYPE    INFORMATION
#----------   ------------   ------------------------------
 STRT.F          442.0000:   START DEPTH
 STOP.F         2636.0000:   STOP DEPTH
 STEP.F            0.5000:   STEP LENGTH
 NULL.          -999.2500:   NO VALUE
 COMP. FENIX & SCISSON INC:   COMPANY
 WELL.     25 SHX 2 #25-2:   WELL
 FLD .             TEAPOT:   FIELD
 LOC .       S2 T38N R78W:   LOCATION
 CNTY.            NATRONA:   COUNTY
 STAT.            WYOMING:   STATE
 CTRY. UNITED STATES OF AMERICA:   COUNTRY
 SRVC.              Welex:   SERVICE COMPANY
 DATE.        07-JUN-1980:   LOGDATE
 API .       490251080200:   API NUMBER
~CURVE INFORMATION
#MNEM.UNIT       API CODE    CURVE DESCRIPTION
#----------   ------------   ------------------------------
 DEPT.F                  :   
 CALD.IN     45 280 60 00:   CALIPER
 GRD .GAPI   45 310 01 00:   GAMMA RAY FROM DENSITY LOG
 DPHI.DEC    45 890 12 00:   DENSITY POROSITY SANDSTONE
 CORR.G/C3   45 356 01 00:   DENSITY CORRECTION
 RHOB.G/C3   45 350 01 00:   BULK DENSITY
~PARAMETER INFORMATION
#MNEM.UNIT          VALUE    DESCRIPTION
#----------   ------------   ------------------------------
 PD  .                 GL:   PERMANENT DATUM
 EPD .F              5120:   ELEVATION PERMANENT DATUM
 LMF .                 KB:   LOG MEASURED FROM
 DAPD.F                10:   FEET ABOVE PERMANENT DATUM
 DMF .                 KB:   DRILLING MEASURED FROM
 EKB .F              5130:   KELLING BUSHING
 EGL .F              5120:   GROUND LEVEL
 DATE.             6-7-80:   RUN DATE
 RUN .                  1:   RUN NUMBER
 DD  .F              2652:   DEPTH DRILLER
 DL  .F              2638:   DEPTH LOGGER
 BLI .F              2636:   BOTTOM LOG INTERVAL
 TLI .F              1224:   TOP LOG INTERVAL
 BS  .IN             6.75:   BIT SIZE
 BSD .F              2652:   BIT SIZE AT DEPTH
 DFT .        AIR DRILLED:   DRILLING FLUID TYPE
 TCS .HRS               2:   TIME CURCULATED STOPPED
 MRT .F               125:   MAXIMUM RECORDED TEMPERATURE
 ENGI.               REIN:   RECORDING ENGINEER
 WITN.           DINSMORE:   WITNESSED BY
 CLNT.            A2DTECH:   CLIENT CODE
 ORIG.           5" PRINT:   ORIGIN OF DATA
 UWI .       490251080200:   UNIQUE WELL ID
 DICO. A2D Technologies, Inc.:   DIGITIZING COMPANY
~OTHER INFORMATION
~A   DEPT     CALD         GRD      DPHI       CORR       RHOB   
# ...
 1357.0000     9.0087    77.5214     0.1200     0.0609     2.4452
 1357.5000     9.0051    76.9443     0.1159     0.0720     2.4601
 1358.0000     9.0015    76.2370     0.1151     0.0736     2.4499
 1358.5000     8.9979    75.5404     0.1216     0.0620     2.4376
 1359.0000     8.9943    75.1386     0.1268     0.0507     2.4254
 1359.5000     8.9907    74.7502     0.1307     0.0441     2.4199
 1360.0000     8.9871    74.3605     0.1226     0.0578     2.4372
 1360.5000     8.9846    73.9701     0.1150     0.0771     2.4545
 1361.0000     8.9862    73.5801     0.1140     0.0749     2.4604
 1361.5000     8.9878    73.1921     0.1207     0.0610     2.4397
 1362.0000     8.9894    73.0041     0.1273     0.0474     2.4252
 1362.5000     8.9909    73.0821     0.1319     0.0461     2.4137
 1363.0000     8.9925    73.1537     0.1256     0.0580     2.4349
 1363.5000     8.9941    73.3387     0.1267     0.0483     2.4283
 1364.0000     8.9956    73.5366     0.1223     0.0579     2.4406
 1364.5000     8.9972    73.7352     0.1191     0.0614     2.4487
 1365.0000     8.9988    73.9344     0.1232     0.0528     2.4332
 1365.5000     9.0003    74.1345     0.1182     0.0545     2.4467
 1366.0000     9.0019    74.0349     0.1104     0.0614     2.4629
 1366.5000     9.0034    73.8994     0.1070     0.0585     2.4762
 1367.0000     9.0050    73.7640     0.1094     0.0438     2.4655
 1367.5000     9.0066    73.6277     0.1154     0.0210     2.4525
 1368.0000     9.0081    73.6639     0.1182     0.0291     2.4459
 1368.5000     9.0097    73.9770     0.1133     0.0399     2.4562
 1369.0000     9.0113    74.5272     0.1211     0.0358     2.4381
 1369.5000     9.0128    75.8235     0.1260     0.0248     2.4279
 1370.0000     9.0144    76.8335     0.1287     0.0293     2.4191
 1370.5000     9.0159    77.1545     0.1242     0.0413     2.4373
 1371.0000     9.0175    77.1329     0.1219     0.0419     2.4427
 1371.5000     9.0191    76.8297     0.1250     0.0302     2.4304
 1372.0000     9.0206    76.5284     0.1267     0.0328     2.4302
 1372.5000     9.0222    76.5109     0.1294     0.0291     2.4210
 1373.0000     9.0232    76.3344     0.1293     0.0366     2.4176
 1373.5000     9.0210    75.8382     0.1256     0.0484     2.4304
 1374.0000     9.0189    75.4360     0.1220     0.0605     2.4368
 1374.5000     9.0168    75.1324     0.1175     0.0726     2.4500
 1375.0000     9.0147    74.3797     0.1129     0.0846     2.4627
 1375.5000     9.0125    72.9937     0.1079     0.0967     2.4718
 1376.0000     9.0104    72.5244     0.1081     0.0838     2.4679
 1376.5000     9.0083    72.3402     0.1076     0.0863     2.4744
 1377.0000     9.0062    73.2233     0.1083     0.0844     2.4674
 1377.5000     9.0041    73.4691     0.1116     0.0798     2.4651
 1378.0000     9.0019    73.6627     0.1072     0.0881     2.4668
 1378.5000     8.9998    74.1381     0.1131     0.0760     2.4564
 1379.0000     8.9977    74.6056     0.1195     0.0620     2.4465
 1379.5000     8.9956    75.0711     0.1195     0.0650     2.4498
 1380.0000     8.9935    75.2242     0.1123     0.0745     2.4606
 1380.5000     8.9914    75.3268     0.1088     0.0875     2.4688
 1381.0000     8.9892    75.1921     0.1137     0.0769     2.4568
 1381.5000     8.9871    75.0256     0.1185     0.0653     2.4425
 1382.0000     8.9851    74.8630     0.1207     0.0586     2.4437
 1382.5000     8.9882    74.8546     0.1216     0.0606     2.4417
 1383.0000     8.9962    75.3265     0.1236     0.0485     2.4361
 1383.5000     9.0042    75.6978     0.1222     0.0505     2.4389
 1384.0000     9.0122    75.2947     0.1182     0.0501     2.4462
 1384.5000     9.0202    74.9304     0.1144     0.0505     2.4534
 1385.0000     9.0282    74.8943     0.1023     0.0644     2.4767
 1385.5000     9.0362    74.8459     0.0908     0.0782     2.5075
 1386.0000     9.0426    74.7950     0.0817     0.0901     2.5267
 1386.5000     9.0372    74.7488     0.0797     0.0905     2.5242
 1387.0000     9.0320    74.9486     0.0864     0.0831     2.5129
 1387.5000     9.0268    75.2125     0.0891     0.0812     2.5152
 1388.0000     9.0217    75.7057     0.0930     0.0788     2.5002
 1388.5000     9.0165    76.2018     0.0992     0.0715     2.4876
 1389.0000     9.0113    76.6991     0.0926     0.0828     2.5078
 1389.5000     9.0061    77.2159     0.0872     0.0926     2.5192
 1390.0000     9.0009    76.8643     0.0919     0.0830     2.5030
 1390.5000     8.9957    76.3013     0.0966     0.0717     2.4956
 1391.0000     8.9906    75.7331     0.0972     0.0766     2.4957
 1391.5000     8.9853    75.1658     0.1055     0.0525     2.4790
 1392.0000     8.9849    74.6011     0.1087     0.0504     2.4711
 1392.5000     8.9855    74.1314     0.0968     0.0669     2.4977
 1393.0000     8.9862    74.0819     0.0897     0.0804     2.5064
 1393.5000     8.9869    74.0243     0.0984     0.0703     2.4929
 1394.0000     8.9875    73.9640     0.1059     0.0552     2.4704
 1394.5000     8.9882    74.0307     0.1144     0.0408     2.4547
 1395.0000     8.9888    74.1243     0.1186     0.0383     2.4494
 1395.5000     8.9895    73.9868     0.1223     0.0360     2.4376
 1396.0000     8.9902    73.7344     0.1263     0.0336     2.4285
 1396.5000     8.9908    73.4787     0.1286     0.0312     2.4246
 1397.0000     8.9915    73.2225     0.1307     0.0313     2.4180
 1397.5000     8.9922    72.9672     0.1283     0.0422     2.4255
 1398.0000     8.9928    72.7145     0.1216     0.0537     2.4376
 1398.5000     8.9935    72.7174     0.1152     0.0652     2.4536
 1399.0000     8.9941    73.0114     0.1088     0.0767     2.4696
 1399.5000     8.9948    73.3020     0.1049     0.0856     2.4843
 1400.0000     8.9955    73.5234     0.0972     0.0933     2.4802
 1400.5000     8.9961    73.1915     0.0976     0.1005     2.4857
 1401.0000     8.9968    73.3497     0.1036     0.0976     2.4790
 1401.5000     8.9974    73.9472     0.1054     0.0889     2.4722
 1402.0000     8.9981    74.2959     0.1040     0.1022     2.4857
 1402.5000     8.9988    74.0985     0.1071     0.0868     2.4755
 1403.0000     8.9994    73.9141     0.1092     0.0762     2.4684
 1403.5000     9.0001    73.8450     0.1053     0.0863     2.4816
 1404.0000     9.0008    74.4340     0.1035     0.0832     2.4830
 1404.5000     9.0014    74.5467     0.1083     0.0750     2.4725
 1405.0000     9.0021    74.6452     0.1119     0.0669     2.4638
 1405.5000     9.0027    75.1957     0.1144     0.0587     2.4552
 1406.0000     9.0034    75.7392     0.1169     0.0512     2.4480
 1406.5000     9.0042    76.2829     0.1200     0.0461     2.4429
 1407.0000     9.0054    76.8271     0.1199     0.0427     2.4397
 1407.5000     9.0065    77.0144     0.1148     0.0540     2.4566
 1408.0000     9.0077    77.0602     0.1074     0.0653     2.4736
 1408.5000     9.0089    76.8286     0.0973     0.0767     2.4906
 1409.0000     9.0101    76.6339     0.0960     0.0802     2.5027
 1409.5000     9.0112    76.4440     0.0969     0.0780     2.4986
 1410.0000     9.0124    76.1340     0.1014     0.0624     2.4867
 1410.5000     9.0136    75.4800     0.1074     0.0483     2.4722
 1411.0000     9.0148    74.7708     0.1135     0.0420     2.4576
 1411.5000     9.0160    74.1439     0.1195     0.0362     2.4430
 1412.0000     9.0171    74.2294     0.1233     0.0363     2.4324
 1412.5000     9.0183    74.3097     0.1204     0.0357     2.4429
 1413.0000     9.0195    74.7040     0.1156     0.0459     2.4594
 1413.5000     9.0206    75.6879     0.1142     0.0559     2.4626
 1414.0000     9.0218    75.5407     0.1185     0.0579     2.4494
 1414.5000     9.0230    75.3363     0.1226     0.0452     2.4387
 1415.0000     9.0222    75.1482     0.1247     0.0450     2.4356
 1415.5000     9.0201    75.2460     0.1155     0.0524     2.4539
 1416.0000     9.0179    75.2509     0.1189     0.0558     2.4458
 1416.5000     9.0158    74.7993     0.1243     0.0415     2.4330
 1417.0000     9.0136    74.5453     0.1295     0.0284     2.4191
 1417.5000     9.0115    74.5464     0.1244     0.0381     2.4314
