~VERSION INFORMATION
 VERS.                2.0:   CWLS LOG ASCII STANDARD - VERSION 2.0
 WRAP.                 NO:   ONE LINE PER DEPTH STEP
~WELL INFORMATION
#MNEM.UNIT      DATA TYPE    INFORMATION
#----------   ------------   ------------------------------
 STRT.F          484.0000:   START DEPTH
 STOP.F         2291.5000:   STOP DEPTH
 STEP.F            0.5000:   STEP LENGTH
 NULL.          -999.2500:   NO VALUE
 COMP. FENIX & SCISSON INC:   COMPANY
 WELL.     45 SHX 3 #45-3:   WELL
 FLD .             TEAPOT:   FIELD
 LOC .       S3 T38N R78W:   LOCATION
 CNTY.            NATRONA:   COUNTY
 STAT.            WYOMING:   STATE
 CTRY. UNITED STATES OF AMERICA:   COUNTRY
 SRVC.              Welex:   SERVICE COMPANY
 DATE.        20-APR-1980:   LOGDATE
 API .       490251080400:   API NUMBER
~CURVE INFORMATION
#MNEM.UNIT       API CODE    CURVE DESCRIPTION
#----------   ------------   ------------------------------
 DEPT.F                  :   
 CALD.IN     45 280 60 00:   CALIPER
 GRD .GAPI   45 310 01 00:   GAMMA RAY FROM DENSITY LOG
 CORR.G/C3   45 356 01 00:   DENSITY CORRECTION
 RHOB.G/C3   45 350 01 00:   BULK DENSITY
 DPHI.DEC    45 890 12 00:   DENSITY POROSITY SANDSTONE
~PARAMETER INFORMATION
#MNEM.UNIT          VALUE    DESCRIPTION
#----------   ------------   ------------------------------
 PD  .                 GL:   PERMANENT DATUM
 EPD .F              5186:   ELEVATION PERMANENT DATUM
 LMF .                 KB:   LOG MEASURED FROM
 DAPD.F                10:   FEET ABOVE PERMANENT DATUM
 DMF .                 KB:   DRILLING MEASURED FROM
 EKB .F              5196:   KELLING BUSHING
 EGL .F              5186:   GROUND LEVEL
 DATE.            4-20-80:   RUN DATE
 RUN .                  1:   RUN NUMBER
 DD  .F              2341:   DEPTH DRILLER
 DL  .F              2293:   DEPTH LOGGER
 BLI .F              2291:   BOTTOM LOG INTERVAL
 TLI .F               500:   TOP LOG INTERVAL
 CS  .IN            9.625:   CASING SIZE
 BS  .IN             8.75:   BIT SIZE
 BSD .F              2341:   BIT SIZE AT DEPTH
 DFT .                OIL:   DRILLING FLUID TYPE
 TCS .HRS               2:   TIME CURCULATED STOPPED
 MRT .F               218:   MAXIMUM RECORDED TEMPERATURE
 ENGI.            TOTHILL:   RECORDING ENGINEER
 WITN.           DINSMORE:   WITNESSED BY
 CLNT.            A2DTECH:   CLIENT CODE
 ORIG.           5" PRINT:   ORIGIN OF DATA
 UWI .       490251080400:   UNIQUE WELL ID
 DICO. A2D Technologies, Inc.:   DIGITIZING COMPANY
~OTHER INFORMATION
~A   DEPT     CALD         GRD      CORR       RHOB       DPHI   
# ...
 1399.0000     8.8661    70.8061     0.0085     2.5194     0.0712
 1399.5000     8.8615    70.9635     0.0082     2.5175     0.0702
 1400.0000     8.8569    70.9814     0.0183     2.5316     0.0563
 1400.5000     8.8539    70.5656     0.0286     2.5443     0.0582
 1401.0000     8.8644    70.3937     0.0265     2.5396     0.0603
 1401.5000     8.8726    70.2390     0.0234     2.5364     0.0602
 1402.0000     8.8318    70.0870     0.0215     2.5407     0.0576
 1402.5000     8.7879    69.9337     0.0294     2.5523     0.0504
 1403.0000     8.7513    69.7818     0.0425     2.5659     0.0417
 1403.5000     8.7670    69.6228     0.0385     2.5686     0.0425
 1404.0000     8.7211    69.9213     0.0318     2.5629     0.0450
 1404.5000     8.7269    70.4951     0.0253     2.5632     0.0442
 1405.0000     8.7815    71.0743     0.0177     2.5520     0.0510
 1405.5000     8.8169    71.6538     0.0096     2.5391     0.0587
 1406.0000     8.8266    72.2333     0.0014     2.5299     0.0647
 1406.5000     8.8362    72.8132     0.0010     2.5251     0.0686
 1407.0000     8.8453    73.3845    -0.0015     2.5211     0.0698
 1407.5000     8.8304    73.7778    -0.0062     2.5169     0.0729
 1408.0000     8.8219    73.5664    -0.0036     2.5133     0.0756
 1408.5000     8.8127    73.3630    -0.0066     2.5140     0.0750
 1409.0000     8.8251    73.1585    -0.0034     2.5175     0.0724
 1409.5000     8.8422    72.9545    -0.0004     2.5211     0.0713
 1410.0000     8.8592    72.7505     0.0027     2.5244     0.0671
 1410.5000     8.8724    72.5463     0.0011     2.5217     0.0700
 1411.0000     8.8663    72.3413    -0.0014     2.5180     0.0727
 1411.5000     8.8605    72.1386    -0.0088     2.5110     0.0752
 1412.0000     8.8549    72.0262    -0.0046     2.5177     0.0700
 1412.5000     8.8492    72.2712     0.0092     2.5400     0.0600
 1413.0000     8.8435    72.5075     0.0257     2.5550     0.0494
 1413.5000     8.8378    72.7440     0.0234     2.5440     0.0551
 1414.0000     8.8324    72.9798     0.0079     2.5296     0.0653
 1414.5000     8.8268    73.1761    -0.0068     2.5160     0.0752
 1415.0000     8.8214    72.9920    -0.0095     2.5127     0.0767
 1415.5000     8.8161    72.8096    -0.0102     2.5087     0.0776
 1416.0000     8.8123    72.6191    -0.0110     2.5087     0.0763
 1416.5000     8.8129    72.8160    -0.0066     2.5135     0.0748
 1417.0000     8.8298    73.1204    -0.0015     2.5181     0.0740
 1417.5000     8.8478    73.4278    -0.0076     2.5134     0.0767
 1418.0000     8.8664    73.7337    -0.0137     2.5055     0.0800
 1418.5000     8.8504    74.0505    -0.0197     2.4963     0.0850
 1419.0000     8.8141    73.6404    -0.0282     2.4871     0.0901
 1419.5000     8.7768    72.9260    -0.0371     2.4787     0.0962
 1420.0000     8.7969    72.2069    -0.0306     2.4874     0.0871
 1420.5000     8.8262    71.6731    -0.0225     2.5002     0.0820
 1421.0000     8.8530    71.4305    -0.0163     2.5025     0.0799
 1421.5000     8.8378    71.0754    -0.0106     2.5051     0.0779
 1422.0000     8.8207    70.7201    -0.0049     2.5144     0.0738
 1422.5000     8.8036    70.4863     0.0007     2.5221     0.0696
 1423.0000     8.7925    70.5485    -0.0012     2.5150     0.0730
 1423.5000     8.8138    70.6044    -0.0036     2.5153     0.0728
 1424.0000     8.8366    70.6616    -0.0061     2.5123     0.0758
 1424.5000     8.8591    70.7194    -0.0087     2.5088     0.0762
 1425.0000     8.8664    70.7681    -0.0041     2.5175     0.0722
 1425.5000     8.8269    70.6058     0.0022     2.5258     0.0682
 1426.0000     8.8128    70.4336     0.0065     2.5288     0.0663
 1426.5000     8.8124    70.2655     0.0030     2.5201     0.0724
 1427.0000     8.8042    70.2617     0.0070     2.5225     0.0689
 1427.5000     8.7654    70.6931     0.0119     2.5282     0.0660
 1428.0000     8.7354    71.1113     0.0127     2.5238     0.0676
 1428.5000     8.7978    71.5323     0.0092     2.5184     0.0720
 1429.0000     8.8543    71.9631     0.0124     2.5154     0.0722
 1429.5000     8.8475    71.8754     0.0171     2.5216     0.0688
 1430.0000     8.8410    71.7202     0.0191     2.5178     0.0740
 1430.5000     8.8348    71.5654     0.0202     2.5191     0.0694
 1431.0000     8.8286    71.4027     0.0234     2.5283     0.0647
 1431.5000     8.8223    71.6408     0.0267     2.5290     0.0659
 1432.0000     8.8164    71.9805     0.0274     2.5307     0.0639
 1432.5000     8.8250    72.3196     0.0175     2.5240     0.0682
 1433.0000     8.8567    72.5972     0.0062     2.5137     0.0748
 1433.5000     8.8892    72.2103     0.0083     2.5163     0.0726
 1434.0000     8.8390    71.6252     0.0122     2.5201     0.0705
 1434.5000     8.8135    71.0822     0.0035     2.5228     0.0690
 1435.0000     8.8422    71.2079     0.0049     2.5239     0.0681
 1435.5000     8.9060    71.4054     0.0071     2.5259     0.0671
 1436.0000     8.9702    71.6036     0.0030     2.5199     0.0706
 1436.5000     8.9358    71.8014    -0.0024     2.5198     0.0707
 1437.0000     8.8925    71.9985     0.0019     2.5232     0.0687
 1437.5000     8.8835    72.1962     0.0034     2.5244     0.0700
 1438.0000     8.9014    72.2322    -0.0045     2.5171     0.0733
 1438.5000     8.9104    72.0888    -0.0053     2.5153     0.0730
 1439.0000     8.9021    71.9455    -0.0082     2.5178     0.0739
 1439.5000     8.8939    71.8018    -0.0089     2.5101     0.0751
 1440.0000     8.8857    71.6580    -0.0041     2.5157     0.0721
 1440.5000     8.8776    71.5134    -0.0088     2.5174     0.0739
 1441.0000     8.8731    71.3851    -0.0163     2.5079     0.0796
 1441.5000     8.8769    71.4872    -0.0211     2.5014     0.0825
 1442.0000     8.8807    71.5941    -0.0211     2.5059     0.0818
 1442.5000     8.8845    71.7000    -0.0211     2.5019     0.0807
 1443.0000     8.8883    71.8062    -0.0208     2.5101     0.0778
 1443.5000     8.8927    71.9106    -0.0150     2.5203     0.0701
 1444.0000     8.8734    71.9429    -0.0092     2.5305     0.0655
 1444.5000     8.8462    71.6252    -0.0046     2.5330     0.0635
 1445.0000     8.8181    71.3077    -0.0008     2.5337     0.0626
 1445.5000     8.8190    70.9903     0.0020     2.5343     0.0611
 1446.0000     8.8302    70.6736     0.0047     2.5319     0.0614
 1446.5000     8.8418    70.3625    -0.0058     2.5234     0.0668
 1447.0000     8.8529    70.3677    -0.0169     2.5163     0.0720
 1447.5000     8.8378    70.8655    -0.0098     2.5234     0.0724
 1448.0000     8.8186    71.3560    -0.0006     2.5319     0.0583
 1448.5000     8.8371    71.8487     0.0046     2.5364     0.0620
 1449.0000     8.8736    72.3428    -0.0028     2.5281     0.0678
 1449.5000     8.8851    72.8352    -0.0071     2.5205     0.0720
 1450.0000     8.8680    72.7665    -0.0060     2.5244     0.0667
 1450.5000     8.8461    72.6243    -0.0080     2.5155     0.0738
 1451.0000     8.7913    72.4422    -0.0100     2.5216     0.0714
 1451.5000     8.7554    72.2395    -0.0143     2.5081     0.0776
 1452.0000     8.7896    72.0296    -0.0192     2.4987     0.0839
 1452.5000     8.8247    71.9822    -0.0236     2.4955     0.0848
 1453.0000     8.8066    71.9813    -0.0256     2.4965     0.0838
 1453.5000     8.8120    71.9818    -0.0264     2.4981     0.0836
 1454.0000     8.9340    71.9827    -0.0279     2.4929     0.0873
 1454.5000     8.9939    71.9859    -0.0349     2.4889     0.0891
 1455.0000     8.9293    71.9682    -0.0303     2.4944     0.0859
 1455.5000     8.8670    71.2991    -0.0291     2.4997     0.0831
 1456.0000     8.8312    70.5836    -0.0291     2.5039     0.0814
 1456.5000     8.8229    69.8622    -0.0291     2.5047     0.0803
 1457.0000     8.8126    69.6656    -0.0281     2.5057     0.0787
 1457.5000     8.8022    69.8195    -0.0199     2.5094     0.0755
 1458.0000     8.7939    69.9813    -0.0173     2.5166     0.0723
 1458.5000     8.8340    70.1564    -0.0185     2.5154     0.0735
 1459.0000     8.8776    69.6184    -0.0191     2.5147     0.0736
 1459.5000     8.8368    68.9183    -0.0190     2.5180     0.0710
