~VERSION INFORMATION
 VERS.                2.0:   CWLS LOG ASCII STANDARD - VERSION 2.0
 WRAP.                 NO:   ONE LINE PER DEPTH STEP
~WELL INFORMATION
#MNEM.UNIT      DATA TYPE    INFORMATION
#----------   ------------   ------------------------------
 STRT.F            0.0000:   START DEPTH
 STOP.F          404.0000:   STOP DEPTH
 STEP.F            0.1000:   STEP LENGTH
 NULL.          -999.2500:   NO VALUE
 COMP.   FLUOR DANIEL INC:   COMPANY
 WELL.   62-1 X 10 #62-10:   WELL
 FLD .             TEAPOT:   FIELD
 LOC .      S10 T38N R78W:   LOCATION
 CNTY.            NATRONA:   COUNTY
 STAT.            WYOMING:   STATE
 CTRY. UNITED STATES OF AMERICA:   COUNTRY
 SRVC.      Western Atlas:   SERVICE COMPANY
 DATE.        29-MAR-1995:   LOGDATE
 API .       490252270300:   API NUMBER
~CURVE INFORMATION
#MNEM.UNIT       API CODE    CURVE DESCRIPTION
#----------   ------------   ------------------------------
 DEPT.F                  :   
 GRR .GAPI   07 310 01 00:   GAMMA RAY
 RILD.OHMM   07 120 46 00:   INDUCTION LOG DEEP RESISTIVITY
 RILM.OHMM   07 120 44 00:   RESITIVITY LONG MEDIUM
~PARAMETER INFORMATION
#MNEM.UNIT          VALUE    DESCRIPTION
#----------   ------------   ------------------------------
 PD  .                 GL:   PERMANENT DATUM
 EPD .F              5160:   ELEVATION PERMANENT DATUM
 LMF .                 KB:   LOG MEASURED FROM
 DAPD.F                10:   FEET ABOVE PERMANENT DATUM
 DMF .                 KB:   DRILLING MEASURED FROM
 EKB .F              5170:   KELLING BUSHING
 EDF .F              5169:   DRILLING FLOOR
 EGL .F              5160:   GROUND LEVEL
 DATE.        29-MAR-1995:   RUN DATE
 RUN .                  1:   RUN NUMBER
 DD  .F               455:   DEPTH DRILLER
 DL  .F               416:   DEPTH LOGGER
 BLI .F               408:   BOTTOM LOG INTERVAL
 TLI .F                95:   TOP LOG INTERVAL
 CS  .IN            9.625:   CASING SIZE
 CBD .F                95:   CASING BOTTOM DRILLER
 CBL .F                95:   CASING BOTTOM LOGGER
 BS  .IN             8.75:   BIT SIZE
 BSD .F               455:   BIT SIZE AT DEPTH
 DFT .                AIR:   DRILLING FLUID TYPE
 MRT .F               204:   MAXIMUM RECORDED TEMPERATURE
 LUN .            HL 6530:   LOGGING UNIT NUMBER
 LUL .             CASPER:   LOGGING UNIT LOCATION
 ENGI.        VERN RAUTIO:   RECORDING ENGINEER
 WITN.        GARY STRONG:   WITNESSED BY
 CLNT.            A2DTECH:   CLIENT CODE
 ORIG.           5" PRINT:   ORIGIN OF DATA
 UWI .       490252270300:   UNIQUE WELL ID
 DICO. A2D Technologies, Inc.:   DIGITIZING COMPANY
~OTHER INFORMATION
~A    DEPT      GRR      RILD       RILM   
# ...
  200.2000   142.2919     2.8999     2.7765
  200.3000   142.5484     2.8997     2.7955
  200.4000   142.8046     2.8996     2.7954
  200.5000   143.0608     2.8995     2.7954
  200.6000   143.3170     2.8994     2.7953
  200.7000   143.6026     2.8993     2.7953
  200.8000   143.8295     2.9008     2.7953
  200.9000   144.2636     2.9192     2.7952
  201.0000   144.6435     2.9191     2.8099
  201.1000   144.8997     2.9190     2.8146
  201.2000   145.1560     2.9097     2.8061
  201.3000   145.4233     2.8986     2.7951
  201.4000   145.6684     2.8984     2.7950
  201.5000   145.7285     2.8983     2.7950
  201.6000   145.8792     2.8982     2.7950
  201.7000   146.0338     2.8981     2.7949
  201.8000   146.0356     2.8980     2.7949
  201.9000   146.0374     2.8978     2.7948
  202.0000   146.0395     2.8977     2.7948
  202.1000   145.8268     2.8976     2.7945
  202.2000   145.2404     2.8975     2.7754
  202.3000   144.3594     2.8974     2.7754
  202.4000   143.3436     2.8972     2.7649
  202.5000   142.3277     2.8888     2.7561
  202.6000   141.2237     2.8769     2.7517
  202.7000   140.5286     2.8748     2.7369
  202.8000   139.9521     2.8568     2.7369
  202.9000   139.3074     2.8410     2.7369
  203.0000   138.6365     2.8243     2.7368
  203.1000   138.1728     2.8077     2.7285
  203.2000   137.9162     2.7912     2.7178
  203.3000   137.9179     2.7748     2.7178
  203.4000   137.9198     2.7585     2.7177
  203.5000   138.0774     2.7394     2.7026
  203.6000   138.4422     2.7393     2.6989
  203.7000   138.9528     2.7290     2.6807
  203.8000   139.4776     2.7201     2.6555
  203.9000   140.3423     2.7158     2.6400
  204.0000   141.2287     2.7010     2.6246
  204.1000   142.0742     2.7009     2.6066
  204.2000   142.9660     2.6867     2.5940
  204.3000   143.9853     2.6709     2.5789
  204.4000   144.9403     2.6552     2.5706
  204.5000   145.4813     2.6448     2.5666
  204.6000   145.9616     2.6447     2.5516
  204.7000   146.2801     2.6445     2.5350
  204.8000   146.3916     2.6296     2.5219
  204.9000   146.3934     2.6141     2.5072
  205.0000   146.3952     2.5987     2.5000
  205.1000   146.3970     2.5896     2.4905
  205.2000   146.0975     2.5861     2.4655
  205.3000   146.0990     2.5714     2.4654
  205.4000   145.9379     2.5713     2.4517
  205.5000   145.5696     2.5585     2.4483
  205.6000   145.1310     2.5434     2.4401
  205.7000   144.8573     2.5355     2.4313
  205.8000   144.2982     2.5311     2.4313
  205.9000   143.8433     2.5162     2.4312
  206.0000   143.5173     2.5002     2.4312
  206.1000   143.1310     2.4867     2.4195
  206.2000   142.7105     2.4721     2.4054
  206.3000   142.4579     2.4575     2.3976
  206.4000   142.1973     2.4483     2.3939
  206.5000   142.1991     2.4456     2.3799
  206.6000   142.2009     2.4311     2.3644
  206.7000   142.3546     2.4310     2.3644
  206.8000   142.6108     2.4309     2.3644
  206.9000   142.9816     2.4220     2.3643
  207.0000   143.7265     2.4139     2.3598
  207.1000   144.0202     2.4138     2.3479
  207.2000   144.4561     2.4137     2.3479
  207.3000   144.7968     2.4136     2.3349
  207.4000   144.9303     2.4135     2.3316
  207.5000   145.0076     2.4037     2.3238
  207.6000   145.2356     2.3966     2.3102
  207.7000   145.2375     2.3965     2.2994
  207.8000   145.2392     2.3964     2.2992
  207.9000   145.0530     2.3963     2.2834
  208.0000   144.9412     2.3962     2.2724
  208.1000   144.8495     2.3961     2.2591
  208.2000   144.5969     2.3960     2.2518
  208.3000   144.3433     2.3904     2.2518
  208.4000   144.0438     2.3792     2.2508
  208.5000   143.8391     2.3791     2.2361
  208.6000   143.4277     2.3790     2.2361
  208.7000   143.0323     2.3789     2.2361
  208.8000   142.8440     2.3698     2.2294
  208.9000   142.8459     2.3622     2.2206
  209.0000   142.8479     2.3622     2.2188
  209.1000   142.8495     2.3621     2.2051
  209.2000   143.0282     2.3619     2.2051
  209.3000   143.2845     2.3619     2.2051
  209.4000   143.5407     2.3518     2.1977
  209.5000   143.7617     2.3453     2.1898
  209.6000   143.7636     2.3405     2.1872
  209.7000   144.0076     2.3267     2.1746
  209.8000   144.2639     2.3127     2.1745
  209.9000   144.5201     2.2994     2.1745
  210.0000   144.7763     2.2753     2.1664
  210.1000   144.9792     2.2488     2.1538
  210.2000   144.9810     2.2171     2.1412
  210.3000   144.9831     2.1783     2.1287
  210.4000   144.9846     2.1397     2.1148
  210.5000   144.9864     2.0832     2.1039
  210.6000   144.8696     2.0417     2.0916
  210.7000   144.6884     1.9943     2.0733
  210.8000   144.6902     1.9481     2.0492
  210.9000   144.6922     1.9062     2.0253
  211.0000   144.9251     1.8728     2.0004
  211.1000   144.9973     1.8379     1.9676
  211.2000   145.1359     1.8080     1.9334
  211.3000   145.5711     1.7920     1.8998
  211.4000   146.2516     1.7815     1.8626
  211.5000   146.5128     1.7710     1.8175
  211.6000   146.5146     1.7606     1.7651
  211.7000   146.5164     1.7502     1.7170
  211.8000   146.3634     1.7260     1.6926
  211.9000   146.2184     1.7096     1.6631
  212.0000   146.2202     1.6958     1.6342
  212.1000   146.2220     1.6858     1.6081
  212.2000   146.2241     1.6734     1.5900
  212.3000   146.2256     1.6545     1.5796
  212.4000   146.4004     1.6437     1.5796
  212.5000   146.7823     1.6437     1.5796
  212.6000   147.2929     1.6368     1.5749
  212.7000   147.8035     1.6272     1.5686
  212.8000   148.3464     1.6176     1.5686
  212.9000   149.3014     1.6081     1.5686
  213.0000   150.5118     1.5983     1.5599
  213.1000   151.7855     1.5982     1.5577
  213.2000   153.0594     1.5909     1.5577
  213.3000   154.2840     1.5816     1.5576
  213.4000   155.3053     1.5760     1.5576
  213.5000   156.8057     1.5739     1.5576
  213.6000   157.0164     1.5646     1.5468
  213.7000   157.2726     1.5540     1.5394
  213.8000   157.4142     1.5387     1.5361
  213.9000   157.4160     1.5149     1.5282
  214.0000   157.4178     1.4925     1.5104
  214.1000   157.4198     1.4751     1.4928
  214.2000   157.4214     1.4570     1.4733
  214.3000   157.0632     1.4294     1.4583
  214.4000   156.4236     1.4141     1.4413
  214.5000   155.4059     1.3916     1.4246
  214.6000   153.8811     1.3673     1.4080
  214.7000   152.3023     1.3407     1.3906
  214.8000   151.0774     1.3108     1.3649
  214.9000   149.2130     1.2876     1.3500
  215.0000   147.1795     1.2610     1.3285
  215.1000   145.3532     1.2492     1.2969
  215.2000   143.9413     1.2302     1.2650
  215.3000   142.9165     1.2087     1.2416
  215.4000   141.4555     1.1876     1.2129
  215.5000   140.3761     1.1668     1.1962
  215.6000   139.2748     1.1439     1.1792
  215.7000   138.6240     1.1380     1.1587
  215.8000   138.5203     1.1223     1.1386
  215.9000   138.7765     1.1059     1.1188
  216.0000   139.0529     1.0930     1.0997
  216.1000   139.7575     1.0786     1.0853
  216.2000   140.5225     1.0522     1.0688
  216.3000   141.1477     1.0348     1.0587
  216.4000   141.5658     1.0258     1.0494
  216.5000   141.7768     1.0164     1.0372
  216.6000   141.7786     1.0068     1.0259
  216.7000   140.8758     1.0008     1.0195
  216.8000   139.6463     0.9950     1.0084
  216.9000   137.9640     0.9950     1.0010
  217.0000   136.1851     0.9950     0.9952
  217.1000   134.3427     0.9949     0.9894
  217.2000   132.3413     0.9949     0.9836
  217.3000   130.6301     0.9948     0.9778
  217.4000   129.5156     0.9953     0.9711
  217.5000   128.0693     1.0017     0.9665
  217.6000   126.9309     1.0016     0.9678
  217.7000   126.3324     1.0016     0.9710
  217.8000   126.1138     1.0047     0.9724
  217.9000   126.1159     1.0085     0.9781
  218.0000   126.3590     1.0103     0.9845
  218.1000   127.5856     1.0225     0.9947
  218.2000   129.5541     1.0225     1.0063
  218.3000   131.5468     1.0272     1.0212
