~VERSION INFORMATION
 VERS.                2.0:   CWLS LOG ASCII STANDARD - VERSION 2.0
 WRAP.                 NO:   ONE LINE PER DEPTH STEP
~WELL INFORMATION
#MNEM.UNIT      DATA TYPE    INFORMATION
#----------   ------------   ------------------------------
 STRT.F         1460.0000:   START DEPTH
 STOP.F         2374.5000:   STOP DEPTH
 STEP.F            0.5000:   STEP LENGTH
 NULL.          -999.2500:   NO VALUE
 COMP. BROWN JOHN E&C INC:   COMPANY
 WELL. 15-1 STX-14 #15-14:   WELL
 FLD .             TEAPOT:   FIELD
 LOC .      S14 T38N R78W:   LOCATION
 CNTY.            NATRONA:   COUNTY
 STAT.            WYOMING:   STATE
 CTRY. UNITED STATES OF AMERICA:   COUNTRY
 SRVC.            Unknown:   SERVICE COMPANY
 DATE.        20-OCT-1991:   LOGDATE
 API .       490251098600:   API NUMBER
~CURVE INFORMATION
#MNEM.UNIT       API CODE    CURVE DESCRIPTION
#----------   ------------   ------------------------------
 DEPT.F                  :   
 ROP .MIN/FT 91 810 01 00:   RATE OF DRILLING PENETRATION
 TGAS.UNITS  91 830 01 00:   TOTAL GAS FROM HOTWIRE
~PARAMETER INFORMATION
#MNEM.UNIT          VALUE    DESCRIPTION
#----------   ------------   ------------------------------
 EKB .F              5247:   KELLING BUSHING
 EGL .F              5237:   GROUND LEVEL
 DATE.           10-20-91:   RUN DATE
 DD  .F              2379:   DEPTH DRILLER
 BLI .F              2392:   BOTTOM LOG INTERVAL
 TLI .F              1460:   TOP LOG INTERVAL
 CS  .IN            8.625:   CASING SIZE
 CBD .F               815:   CASING BOTTOM DRILLER
 ENGI.               HUSK:   RECORDING ENGINEER
 WITN.              TOWER:   WITNESSED BY
 CLNT.            A2DTECH:   CLIENT CODE
 ORIG.         2.5" PRINT:   ORIGIN OF DATA
 UWI .       490251098600:   UNIQUE WELL ID
 DICO. A2D Technologies, Inc.:   DIGITIZING COMPANY
~OTHER INFORMATION
~A  DEPT       ROP       TGAS   
# ...
 1824.5000     0.5518   208.6402
 1825.0000     0.5718   265.0032
 1825.5000     0.6111   321.3662
 1826.0000     0.6504   377.7292
 1826.5000     0.5735   410.1301
 1827.0000     0.5741   410.2151
 1827.5000     0.5747   410.3001
 1828.0000     0.6140   410.3852
 1828.5000     0.6728   410.4702
 1829.0000     0.6927   410.5553
 1829.5000     0.7320   410.6404
 1830.0000     0.7132   410.7254
 1830.5000     0.7138   410.8105
 1831.0000     0.7144   410.8955
 1831.5000     0.6955   410.9805
 1832.0000     0.7156   411.0656
 1832.5000     0.7355   411.1506
 1833.0000     0.8137   411.2357
 1833.5000     0.8530   411.3207
 1834.0000     0.8147   411.4058
 1834.5000     0.7572   411.4908
 1835.0000     0.6997   411.5759
 1835.5000     0.6615   411.6609
 1836.0000     0.6427   411.7460
 1836.5000     0.6238   411.8310
 1837.0000     0.6633   411.9161
 1837.5000     0.7413   412.0011
 1838.0000     0.8195   412.0862
 1838.5000     0.8588   412.1712
 1839.0000     0.8981   412.2563
 1839.5000     0.9569   412.3413
 1840.0000     0.9962   412.4264
 1840.5000     1.0162   412.5114
 1841.0000     1.0555   412.5965
 1841.5000     1.0173   412.6815
 1842.0000     0.9404   412.7666
 1842.5000     0.8634   412.8516
 1843.0000     0.7865   412.9367
 1843.5000     0.7482   413.0217
 1844.0000     0.7100   413.1068
 1844.5000     0.6331   413.1918
 1845.0000     0.5949   413.2769
 1845.5000     0.5956   413.3619
 1846.0000     0.6156   413.4470
 1846.5000     0.6355   413.5320
 1847.0000     0.6361   413.6171
 1847.5000     0.6367   413.7021
 1848.0000     0.5985   413.7872
 1848.5000     0.5602   413.8722
 1849.0000     0.5220   413.9573
 1849.5000     0.5228   414.0423
 1850.0000     0.5427   414.1273
 1850.5000     0.5627   414.2124
 1851.0000     0.6020   414.2975
 1851.5000     0.6801   414.3825
 1852.0000     0.7195   414.4676
 1852.5000     0.6812   414.5526
 1853.0000     0.6430   414.6377
 1853.5000     0.6242   414.7227
 1854.0000     0.6054   414.8077
 1854.5000     0.6255   414.8928
 1855.0000     0.6260   414.9778
 1855.5000     0.6460   415.0629
 1856.0000     0.6466   415.1479
 1856.5000     0.6276   415.2330
 1857.0000     0.6284   415.3181
 1857.5000     0.6289   415.4031
 1858.0000     0.6489   415.4881
 1858.5000     0.6495   411.5813
 1859.0000     0.6501   403.0516
 1859.5000     0.6507   397.1887
 1860.0000     0.6706   398.2074
 1860.5000     0.6906   399.2260
 1861.0000     0.6911   400.2447
 1861.5000     0.6918   401.2634
 1862.0000     0.7117   402.2821
 1862.5000     0.8479   403.3008
 1863.0000     1.0036   404.3194
 1863.5000     1.1592   405.3381
 1864.0000     1.2800   406.3568
 1864.5000     1.2559   407.3755
 1865.0000     1.1500   408.3941
 1865.5000     1.0452   409.4128
 1866.0000     0.7745   410.4315
 1866.5000     0.6974   411.4502
 1867.0000     0.6592   412.4689
 1867.5000     0.6599   413.4875
 1868.0000     0.6605   414.5062
 1868.5000     0.6611   415.5249
 1869.0000     0.6617   416.5436
 1869.5000     0.6817   417.5623
 1870.0000     0.7210   418.5809
 1870.5000     0.7604   419.5996
 1871.0000     0.7803   420.6183
 1871.5000     0.7228   421.6370
 1872.0000     0.6845   422.6556
 1872.5000     0.7627   423.6743
 1873.0000     0.8408   424.6930
 1873.5000     0.8995   425.7117
 1874.0000     0.9389   426.7303
 1874.5000     0.8618   427.7490
 1875.0000     0.8043   428.7677
 1875.5000     0.7467   429.7864
 1876.0000     0.6892   430.8051
 1876.5000     0.6703   431.8238
 1877.0000     0.6710   432.8424
 1877.5000     0.6716   433.8611
 1878.0000     0.6722   434.8798
 1878.5000     0.7115   435.8985
 1879.0000     0.7315   436.9171
 1879.5000     0.7514   437.9358
 1880.0000     0.7520   438.9545
 1880.5000     0.7526   439.9732
 1881.0000     0.6562   440.9919
 1881.5000     0.5794   442.0105
 1882.0000     0.5411   443.0292
 1882.5000     0.5030   444.0479
 1883.0000     0.4840   445.0666
 1883.5000     0.4653   446.0852
 1884.0000     0.4464   447.1039
 1884.5000     0.4665   448.1226
 1885.0000     0.5253   449.1413
 1885.5000     0.5646   450.1599
 1886.0000     0.6039   451.1786
 1886.5000     0.6433   452.1973
 1887.0000     0.6438   453.2160
 1887.5000     0.6445   454.2347
 1888.0000     0.6450   455.2534
 1888.5000     0.6843   456.2720
 1889.0000     0.7237   457.2907
 1889.5000     0.7630   458.3094
 1890.0000     0.7830   459.3281
 1890.5000     0.7836   473.3748
 1891.0000     0.7647   512.1862
 1891.5000     0.7654   550.9974
 1892.0000     0.7271   589.8087
 1892.5000     0.6889   617.5325
 1893.0000     0.6508   617.9221
 1893.5000     0.6515   618.3117
 1894.0000     0.6520   618.7013
 1894.5000     0.6526   619.0909
 1895.0000     0.6920   619.4805
 1895.5000     0.7313   619.8701
 1896.0000     0.7900   620.2598
 1896.5000     0.7711   620.6494
 1897.0000     0.7523   621.0389
 1897.5000     0.7334   621.4286
 1898.0000     0.7342   621.8182
 1898.5000     0.7153   622.2078
 1899.0000     0.7160   622.5974
 1899.5000     0.6970   622.9870
 1900.0000     0.6978   623.3766
 1900.5000     0.6987   623.7662
 1901.0000     0.6998   624.1558
 1901.5000     0.7200   624.5454
 1902.0000     0.7405   624.9351
 1902.5000     0.7801   625.3246
 1903.0000     0.8199   625.7142
 1903.5000     0.8402   626.1039
 1904.0000     0.8412   626.4935
 1904.5000     0.8421   626.8831
 1905.0000     0.8626   627.2727
 1905.5000     0.8635   627.6623
 1906.0000     0.8645   628.0519
 1906.5000     0.7685   628.4415
 1907.0000     0.6727   628.8311
 1907.5000     0.5766   629.2208
 1908.0000     0.5580   629.6104
 1908.5000     0.5980   629.9999
 1909.0000     0.5990   630.3896
 1909.5000     0.5999   630.7792
 1910.0000     0.5619   651.0818
 1910.5000     0.5436   691.3753
 1911.0000     0.5058   731.6688
 1911.5000     0.4872   771.9623
 1912.0000     0.5661   801.5471
 1912.5000     0.6251   803.4655
 1913.0000     0.6649   805.3839
 1913.5000     0.6852   807.3023
 1914.0000     0.7250   809.2207
 1914.5000     0.6868   811.1391
 1915.0000     0.6491   813.0575
 1915.5000     0.6113   814.9759
 1916.0000     0.6512   816.8943
 1916.5000     0.7492   818.8127
 1917.0000     0.7694   820.7311
 1917.5000     0.7705   802.8090
 1918.0000     0.7714   770.5960
 1918.5000     0.7724   738.3830
 1919.0000     0.7927   706.1700
 1919.5000     0.9100   673.9571
 1920.0000     0.8722   646.7381
 1920.5000     0.7957   647.2397
 1921.0000     0.7770   647.6740
 1921.5000     0.7006   648.1082
 1922.0000     0.6627   648.5425
 1922.5000     0.6639   648.9767
 1923.0000     0.6648   649.4110
 1923.5000     0.6658   649.8453
 1924.0000     0.6667   650.2795
 1924.5000     0.6678   650.7138
 1925.0000     0.6299   651.1481
 1925.5000     0.6116   651.5823
 1926.0000     0.6125   652.0166
 1926.5000     0.5938   652.4509
 1927.0000     0.5950   652.8851
 1927.5000     0.5961   653.3194
 1928.0000     0.5970   653.7537
 1928.5000     0.5980   654.1879
 1929.0000     0.5989   654.6222
 1929.5000     0.6387   655.0565
 1930.0000     0.6396   655.4907
 1930.5000     0.6794   655.9250
 1931.0000     0.6803   656.3593
 1931.5000     0.6814   656.7935
 1932.0000     0.6823   657.2278
 1932.5000     0.7221   657.6620
 1933.0000     0.7423   658.0963
 1933.5000     0.7822   658.5306
 1934.0000     0.8024   658.9648
 1934.5000     0.8035   659.3991
 1935.0000     0.8237   659.8334
 1935.5000     0.8248   660.2676
 1936.0000     0.8060   660.7019
 1936.5000     0.7684   661.1362
 1937.0000     0.7306   661.5704
 1937.5000     0.6930   662.0047
 1938.0000     0.6744   662.4390
 1938.5000     0.6559   662.8732
 1939.0000     0.6571   663.3075
 1939.5000     0.6581   663.7418
 1940.0000     0.6201   664.1760
 1940.5000     0.5823   664.6103
 1941.0000     0.5835   665.0446
 1941.5000     0.5844   665.4788
 1942.0000     0.5854   665.9131
 1942.5000     0.6251   666.3474
 1943.0000     0.6649   666.7816
 1943.5000     0.7045   667.2159
 1944.0000     0.7249   667.6501
 1944.5000     0.6871   668.0844
 1945.0000     0.6684   668.5187
 1945.5000     0.6307   668.9529
