~VERSION INFORMATION
 VERS.                2.0:   CWLS LOG ASCII STANDARD - VERSION 2.0
 WRAP.                 NO:   ONE LINE PER DEPTH STEP
~WELL INFORMATION
#MNEM.UNIT      DATA TYPE    INFORMATION
#----------   ------------   ------------------------------
 STRT.F            0.0000:   START DEPTH
 STOP.F          663.0000:   STOP DEPTH
 STEP.F            0.1000:   STEP LENGTH
 NULL.          -999.2500:   NO VALUE
 COMP.   FLUOR DANIEL INC:   COMPANY
 WELL.     62-6 X 3 #62-3:   WELL
 FLD .             TEAPOT:   FIELD
 LOC .       S3 T38N R78W:   LOCATION
 CNTY.            NATRONA:   COUNTY
 STAT.            WYOMING:   STATE
 CTRY. UNITED STATES OF AMERICA:   COUNTRY
 SRVC.      Western Atlas:   SERVICE COMPANY
 DATE.        11-APR-1995:   LOGDATE
 API .       490252270400:   API NUMBER
~CURVE INFORMATION
#MNEM.UNIT       API CODE    CURVE DESCRIPTION
#----------   ------------   ------------------------------
 DEPT.F                  :   
 GRR .GAPI   07 310 01 00:   GAMMA RAY
 RILD.OHMM   07 120 46 00:   INDUCTION LOG DEEP RESISTIVITY
 RILM.OHMM   07 120 44 00:   INDUCTION LOG MEDIUM RESISTIVITY
~PARAMETER INFORMATION
#MNEM.UNIT          VALUE    DESCRIPTION
#----------   ------------   ------------------------------
 PD  .                 GL:   PERMANENT DATUM
 EPD .F              5157:   ELEVATION PERMANENT DATUM
 LMF .                 KB:   LOG MEASURED FROM
 DAPD.F                10:   FEET ABOVE PERMANENT DATUM
 DMF .                 KB:   DRILLING MEASURED FROM
 EKB .F              5167:   KELLING BUSHING
 EDF .F              5166:   DRILLING FLOOR
 EGL .F              5157:   GROUND LEVEL
 DATE.        11-APR-1995:   RUN DATE
 RUN .                  1:   RUN NUMBER
 DD  .F               671:   DEPTH DRILLER
 DL  .F               671:   DEPTH LOGGER
 BLI .F               663:   BOTTOM LOG INTERVAL
 TLI .F                95:   TOP LOG INTERVAL
 CS  .IN            9.625:   CASING SIZE
 CBD .F                95:   CASING BOTTOM DRILLER
 CBL .F                95:   CASING BOTTOM LOGGER
 BS  .IN             8.75:   BIT SIZE
 BSD .F               671:   BIT SIZE AT DEPTH
 DFT .                AIR:   DRILLING FLUID TYPE
 MRT .F                90:   MAXIMUM RECORDED TEMPERATURE
 LUN .            HL 6530:   LOGGING UNIT NUMBER
 LUL .             CASPER:   LOGGING UNIT LOCATION
 ENGI.      PAT RASMUSSEN:   RECORDING ENGINEER
 WITN.        GARY STRONG:   WITNESSED BY
 CLNT.            A2DTECH:   CLIENT CODE
 ORIG.           5" PRINT:   ORIGIN OF DATA
 UWI .       490252270400:   UNIQUE WELL ID
 DICO. A2D Technologies, Inc.:   DIGITIZING COMPANY
~OTHER INFORMATION
~A    DEPT      GRR      RILD       RILM   
# ...
  564.2000    86.4876     7.3064     8.1245
  564.3000    86.9091     7.5072     8.2606
  564.4000    87.0974     7.6650     8.3614
  564.5000    87.1011     7.8840     8.4697
  564.6000    87.0239     8.0705     8.6157
  564.7000    86.7305     8.1982     8.6911
  564.8000    86.2070     8.2971     8.8108
  564.9000    85.6079     8.3971     8.9216
  565.0000    85.1885     8.5104     8.9930
  565.1000    84.6745     8.6013     9.0944
  565.2000    84.1604     8.6678     9.1504
  565.3000    83.8118     8.7494     9.2153
  565.4000    83.8949     8.8135     9.2625
  565.5000    84.4224     8.8263     9.3192
  565.6000    85.0299     8.8764     9.3762
  565.7000    85.6718     8.8772     9.4129
  565.8000    86.4519     8.9739     9.4253
  565.9000    87.2318     9.0423     9.4801
  566.0000    88.0120     9.0971     9.4809
  566.1000    88.7925     9.1299     9.4815
  566.2000    89.5759     9.1306     9.4821
  566.3000    90.1834     9.1359     9.4828
  566.4000    90.4013     9.1957     9.4834
  566.5000    90.4917     9.2470     9.4992
  566.6000    90.4953     9.3031     9.5512
  566.7000    90.4989     9.3265     9.5519
  566.8000    90.5026     9.3272     9.6074
  566.9000    90.5062     9.3280     9.6662
  567.0000    90.5104     9.3288     9.6883
  567.1000    90.5134     9.3296     9.7168
  567.2000    90.5170     9.3826     9.7575
  567.3000    90.5207     9.3961     9.7582
  567.4000    90.5243     9.3968     9.7590
  567.5000    90.5279     9.3976     9.8281
  567.6000    90.5315     9.3984     9.8578
  567.7000    90.5357     9.3992     9.8930
  567.8000    90.5388     9.4000     9.9282
  567.9000    90.5424     9.4545     9.9633
  568.0000    90.5460     9.4670     9.9985
  568.1000    90.5496     9.5033    10.0337
  568.2000    90.5532     9.5609    10.0689
  568.3000    90.5568     9.6016    10.1041
  568.4000    90.2594     9.6024    10.1595
  568.5000    90.0423     9.6032    10.2214
  568.6000    89.9644     9.6710    10.2835
  568.7000    89.6990     9.6716    10.3289
  568.8000    89.1850     9.6724    10.3366
  568.9000    88.7197     9.6732    10.4028
  569.0000    88.4583     9.6740    10.4035
  569.1000    87.8714     9.6838    10.4042
  569.2000    87.4305     9.7430    10.4049
  569.3000    86.9164     9.7439    10.4057
  569.4000    86.5387     9.7928    10.4064
  569.5000    86.2836     9.8522    10.4071
  569.6000    85.9778     9.8824    10.4079
  569.7000    85.4715     9.8832    10.4086
  569.8000    85.1818     9.8942    10.4093
  569.9000    84.9612     9.9536    10.4100
  570.0000    84.5250     9.9546    10.4399
  570.1000    84.1491     9.9553    10.4844
  570.2000    83.7032     9.9561    10.4852
  570.3000    83.0352     9.9570    10.4859
  570.4000    82.7703     9.9578    10.5602
  570.5000    82.1905     9.9699    10.6122
  570.6000    81.7422    10.0288    10.6356
  570.7000    81.0454    10.0297    10.6363
  570.8000    80.4127    10.0304    10.6572
  570.9000    79.8987    10.0732    10.7124
  571.0000    79.4932    10.1019    10.7131
  571.1000    79.5197    10.1252    10.7140
  571.2000    80.1042    10.1739    10.7146
  571.3000    80.3348    10.1748    10.7576
  571.4000    80.7818    10.1757    10.7912
  571.5000    81.3266    10.2300    10.8131
  571.6000    81.8911    10.2481    10.8789
  571.7000    82.4555    10.2490    10.9452
  571.8000    83.0199    10.2498    10.9461
  571.9000    83.5843    10.2645    11.0016
  572.0000    84.1487    10.3267    11.0243
  572.1000    84.7132    10.3957    11.0250
  572.2000    85.1101    10.4523    11.0258
  572.3000    85.4734    10.4697    11.0381
  572.4000    85.9366    10.5063    11.1046
  572.5000    86.1840    10.5443    11.1055
  572.6000    86.1880    10.5606    11.1626
  572.7000    86.4223    10.6245    11.2306
  572.8000    86.4965    10.6943    11.2639
  572.9000    86.5001    10.7537    11.2885
  573.0000    86.5038    10.7705    11.3496
  573.1000    86.4476    10.7714    11.3780
  573.2000    86.1923    10.7997    11.4064
  573.3000    85.9117    10.8481    11.4348
  573.4000    85.6820    10.8490    11.4632
  573.5000    85.4268    10.8500    11.4916
  573.6000    85.1716    10.9115    11.5200
  573.7000    85.0208    10.9273    11.5484
  573.8000    84.9014    10.9282    11.5768
  573.9000    84.4060    10.9581    11.6052
  574.0000    84.1270    11.0061    11.6336
  574.1000    84.1303    11.0146    11.6621
  574.2000    84.1339    11.0846    11.7517
  574.3000    84.1376    11.0854    11.8673
  574.4000    84.1412    11.0864    11.9244
  574.5000    84.1448    11.1287    11.9285
  574.6000    84.1690    11.1654    12.0097
  574.7000    84.4540    11.1663    12.0104
  574.8000    84.6939    11.1672    12.0113
  574.9000    84.9563    11.1682    12.0121
  575.0000    85.0679    11.1693    12.0130
  575.1000    85.1795    11.2239    12.0138
  575.2000    85.3768    11.2487    12.0146
  575.3000    85.4027    11.2818    12.0156
  575.4000    85.6860    11.3502    12.0810
  575.5000    85.6893    11.4087    12.0486
  575.6000    85.6929    11.4096    12.0180
  575.7000    85.5440    11.4107    12.0188
  575.8000    85.1790    11.4677    12.0197
  575.9000    84.6647    11.4919    12.0154
  576.0000    84.1507    11.4928    11.9378
  576.1000    83.5997    11.4938    11.9385
  576.2000    83.1226    11.4948    11.8864
  576.3000    82.8060    11.4957    11.8571
  576.4000    82.2418    11.4968    11.8287
  576.5000    81.6923    11.4976    11.7763
  576.6000    81.3684    11.4986    11.7771
  576.7000    80.8803    11.4995    11.7780
  576.8000    80.6084    11.5005    11.7787
  576.9000    80.6118    11.5015    11.7795
  577.0000    80.6154    11.5024    11.7804
  577.1000    80.6190    11.5035    11.7812
  577.2000    80.7361    11.5043    11.7820
  577.3000    81.0692    11.5053    11.7828
  577.4000    81.5626    11.5062    11.7837
  577.5000    81.8403    11.5072    11.8505
  577.6000    82.3313    11.5082    11.8679
  577.7000    83.0536    11.5091    11.8687
  577.8000    83.8337    11.5102    11.8695
  577.9000    84.6136    11.5110    11.8704
  578.0000    85.4660    11.5120    11.8635
  578.1000    86.4459    11.5129    11.7895
  578.2000    86.9939    11.5139    11.7902
  578.3000    87.7337    11.4996    11.7911
  578.4000    88.7166    11.4362    11.7919
  578.5000    89.4358    11.4373    11.7927
  578.6000    89.9571    11.4381    11.7734
  578.7000    90.4043    11.3894    11.7122
  578.8000    90.6982    11.3610    11.7131
  578.9000    91.2424    11.3346    11.7139
  579.0000    91.2458    11.2843    11.7147
  579.1000    91.4540    11.2801    11.7156
  579.2000    91.5547    11.2083    11.7164
  579.3000    91.5584    11.2091    11.7172
  579.4000    91.5620    11.2101    11.7180
  579.5000    91.5324    11.2110    11.7189
  579.6000    91.2677    11.2081    11.6383
  579.7000    91.0220    11.1999    11.6389
  579.8000    90.7668    11.1918    11.6397
  579.9000    90.5117    11.1836    11.6075
  580.0000    90.3771    11.1755    11.5603
  580.1000    90.3807    11.1673    11.5511
  580.2000    90.3843    11.1592    11.4815
  580.3000    90.3880    11.1510    11.4026
  580.4000    90.3923    11.1420    11.4032
  580.5000    90.3952    11.1428    11.4040
  580.6000    90.3988    11.1437    11.4048
  580.7000    90.5249    11.1446    11.4056
  580.8000    90.7077    11.1456    11.4064
  580.9000    90.7113    11.1465    11.4072
  581.0000    90.7150    11.1474    11.4081
  581.1000    90.4176    11.1484    11.4088
  581.2000    90.4205    11.1493    11.4096
  581.3000    90.2571    11.1502    11.4104
  581.4000    89.7532    11.1511    11.4112
  581.5000    89.2247    11.1521    11.4237
  581.6000    89.1897    11.1530    11.4927
  581.7000    88.9304    11.1539    11.4937
  581.8000    88.9346    11.1549    11.4943
  581.9000    89.1493    11.2174    11.5420
  582.0000    89.4118    11.2344    11.5411
  582.1000    89.8003    11.2353    11.4968
  582.2000    90.2383    11.2362    11.4976
  582.3000    90.5008    11.2192    11.4983
