~VERSION INFORMATION
 VERS.                2.0:   CWLS LOG ASCII STANDARD - VERSION 2.0
 WRAP.                 NO:   ONE LINE PER DEPTH STEP
~WELL INFORMATION
#MNEM.UNIT      DATA TYPE    INFORMATION
#----------   ------------   ------------------------------
 STRT.F           17.0000:   START DEPTH
 STOP.F          634.0000:   STOP DEPTH
 STEP.F            0.5000:   STEP LENGTH
 NULL.          -999.2500:   NO VALUE
 COMP. FENIX & SCISSON INC:   COMPANY
 WELL.        NPR 3 #72-3:   WELL
 FLD .             TEAPOT:   FIELD
 LOC .       S3 T38N R78W:   LOCATION
 CNTY.            NATRONA:   COUNTY
 STAT.            WYOMING:   STATE
 CTRY. UNITED STATES OF AMERICA:   COUNTRY
 SRVC.           BIRDWELL:   SERVICE COMPANY
 DATE.        24-SEP-1978:   LOGDATE
 API .       490251069100:   API NUMBER
~CURVE INFORMATION
#MNEM.UNIT       API CODE    CURVE DESCRIPTION
#----------   ------------   ------------------------------
 DEPT.F                  :   
 SPR .MV     05 010 01 00:   SPONTANEOUS POTENTIAL FROM RES.
 SN  .OHMM   05 040 16 00:   SHORT NORMAL 16"
 ILD .OHMM   05 120 46 00:   INDUCTION LOG DEEP
 GRD .GAPI   45 310 01 00:   GAMMA RAY FROM DENSITY LOG
 CALD.IN     45 280 60 00:   CALIPER
 DEN .G/C3   45 350 01 00:   COMPENSATED BULK DENSTIY
 DPHI.DEC    45 890 12 00:   DENSITY POROSITY SANDSTONE
 CORR.G/C3   45 356 01 00:   DENSITY CORRECTION
~PARAMETER INFORMATION
#MNEM.UNIT          VALUE    DESCRIPTION
#----------   ------------   ------------------------------
 PD  .                 GL:   PERMANENT DATUM
 EPD .F              5155:   ELEVATION PERMANENT DATUM
 LMF .                 KB:   LOG MEASURED FROM
 DAPD.F                 4:   FEET ABOVE PERMANENT DATUM
 DMF .                 KB:   DRILLING MEASURED FROM
 EKB .F              5159:   KELLING BUSHING
 EGL .F              5155:   GROUND LEVEL
 DATE.            9-24-78:   RUN DATE
 RUN .                  1:   RUN NUMBER
 DD  .F               635:   DEPTH DRILLER
 DL  .F               634:   DEPTH LOGGER
 BLI .F               627:   BOTTOM LOG INTERVAL
 TLI .F                30:   TOP LOG INTERVAL
 CS  .IN            8.625:   CASING SIZE
 CBD .F                34:   CASING BOTTOM DRILLER
 CBL .F                34:   CASING BOTTOM LOGGER
 BS  .IN            7.875:   BIT SIZE
 BSD .F               635:   BIT SIZE AT DEPTH
 DFT .                KCL:   DRILLING FLUID TYPE
 DFD .                8.7:   DRILLING FLUID DENSITY
 DFV .                 36:   DRILLING FLUID VISCOSITY
 DFPH.                9.5:   DRILLING FLUID PH
 DFL .                8.2:   DRILLING FLUID LOSS
 MSS .          FLOW LINE:   MUD SAMPLE SOURCE
 RMS .OHMM             .2:   RESISTIVITY MUD SAMPLE
 MST .F                68:   MUD SAMPLE TEMPERATURE
 RMF .OHMM            .18:   RESISTIVITY MUD FILTRATE SAMPLE
 MFST.F                76:   MUD FILTRATE SAMPLE TEMPERATURE
 RMC .OHMM            .32:   RESISTIVITY MUD CAKE
 MCST.F                76:   MUD CAKE SAMPLE TEMPERATURE
 MFSS.               MEAS:   MUD FILTRATE SAMPLE SOURCE
 RMB .OHMM             .2:   RESISTIVITY MUD AT BHT
 BHT .F                70:   BOTTOM HOLE TEMPERATURE
 TCS .HRS               3:   TIME CURCULATED STOPPED
 MRT .F                70:   MAXIMUM RECORDED TEMPERATURE
 LUN .               2958:   LOGGING UNIT NUMBER
 LUL .               CASP:   LOGGING UNIT LOCATION
 ENGI.           REYNOLDS:   RECORDING ENGINEER
 WITN.              AMEND:   WITNESSED BY
 CLNT.            A2DTECH:   CLIENT CODE
 ORIG.           5" PRINT:   ORIGIN OF DATA
 UWI .       490251069100:   UNIQUE WELL ID
 DICO. A2D Technologies, Inc.:   DIGITIZING COMPANY
~OTHER INFORMATION
~A   DEPT      SPR         SN        ILD         GRD      CALD        DEN       DPHI       CORR   
# ...
  260.0000   -58.4858     8.8953     7.9263   118.9548     7.6800     2.4756     0.1233     0.0161
  260.5000   -58.7262     8.8667     7.9388   116.5564     7.6712     2.4727     0.1260     0.0164
  261.0000   -58.8343     8.8382     7.9529   112.3766     7.6624     2.4720     0.1260     0.0168
  261.5000   -58.9373     8.8098     7.9670   110.5437     7.6536     2.4731     0.1231     0.0171
  262.0000   -59.0412     8.7815     7.9812   113.2681     7.6449     2.4799     0.1194     0.0174
  262.5000   -59.1458     8.7533     7.9989   117.6569     7.6436     2.4851     0.1164     0.0178
  263.0000   -59.2497     8.7252     7.9398   115.2076     7.6544     2.4813     0.1186     0.0181
  263.5000   -59.3190     8.6973     7.8616   115.5817     7.6651     2.4750     0.1212     0.0185
  264.0000   -59.1724     8.6150     7.7809   110.9434     7.6758     2.4736     0.1215     0.0188
  264.5000   -59.0277     8.5159     7.7716   125.9730     7.6865     2.4717     0.1248     0.0192
  265.0000   -58.8825     8.4184     7.7619   109.6644     7.6969     2.4710     0.1247     0.0195
  265.5000   -58.7422     8.3568     7.7523   110.9681     7.7189     2.4709     0.1245     0.0199
  266.0000   -58.8176     8.3228     7.7426   110.7905     7.7429     2.4684     0.1265     0.0202
  266.5000   -58.9063     8.2890     7.7330   113.0919     7.7669     2.4624     0.1312     0.0204
  267.0000   -58.9945     8.2553     7.7235   116.8677     7.7910     2.4589     0.1333     0.0189
  267.5000   -59.0811     8.2218     7.7136   120.1141     7.8154     2.4581     0.1333     0.0173
  268.0000   -59.1122     8.1884     7.6543   119.9143     7.8087     2.4586     0.1327     0.0156
  268.5000   -58.9507     8.1557     7.5574   117.9983     7.7967     2.4593     0.1323     0.0140
  269.0000   -58.7912     8.0320     7.4621   116.1262     7.7846     2.4600     0.1314     0.0126
  269.5000   -58.6338     7.8852     7.3680   115.9271     7.7726     2.4607     0.1304     0.0128
  270.0000   -58.5548     7.7409     7.2751   117.8776     7.7610     2.4610     0.1320     0.0132
  270.5000   -58.6922     7.5993     7.1834   119.2772     7.7440     2.4610     0.1318     0.0135
  271.0000   -58.8264     7.5234     7.0928   120.0873     7.7652     2.4610     0.1316     0.0138
  271.5000   -58.9607     7.4658     6.9668   120.7273     7.8032     2.4588     0.1334     0.0141
  272.0000   -59.0952     7.4307     6.9793   119.0852     7.8383     2.4570     0.1352     0.0144
  272.5000   -59.2290     7.4307     7.0008   114.7701     7.8360     2.4611     0.1336     0.0147
  273.0000   -59.3310     7.4376     7.0224   113.4994     7.8326     2.4697     0.1277     0.0150
  273.5000   -59.2748     7.4734     7.0440   113.5959     7.8294     2.4739     0.1208     0.0154
  274.0000   -59.2214     7.5094     7.0658   115.6449     7.8261     2.4726     0.1204     0.0157
  274.5000   -59.1684     7.5456     7.0875   116.6220     7.8229     2.4719     0.1274     0.0160
  275.0000   -59.1154     7.5819     7.1094   120.3968     7.8194     2.4710     0.1266     0.0163
  275.5000   -59.0624     7.6185     7.1312   125.0574     7.8242     2.4710     0.1258     0.0164
  276.0000   -59.0095     7.6552     7.1532   122.9222     7.8318     2.4713     0.1252     0.0157
  276.5000   -58.9562     7.6921     7.1743   119.2051     7.8395     2.4723     0.1262     0.0149
  277.0000   -58.9409     7.7291     7.2347   117.8882     7.8472     2.4734     0.1284     0.0142
  277.5000   -58.9676     7.7662     7.2957   118.7029     7.8549     2.4747     0.1192     0.0134
  278.0000   -58.9941     7.7880     7.3572   119.8377     7.8585     2.4749     0.1259     0.0127
  278.5000   -59.0207     7.8045     7.4191   119.4856     7.8586     2.4744     0.1288     0.0119
  279.0000   -59.0471     7.8213     7.4469   118.1143     7.8586     2.4741     0.1224     0.0112
  279.5000   -59.0735     7.8381     7.4734   116.7617     7.8586     2.4779     0.1200     0.0106
  280.0000   -59.0999     7.8549     7.5000   116.6843     7.8596     2.4822     0.1189     0.0111
  280.5000   -59.1281     7.8718     7.5267   117.6342     7.8677     2.4858     0.1157     0.0116
  281.0000   -59.2153     7.8886     7.5536   119.3541     7.8757     2.4881     0.1124     0.0121
  281.5000   -59.4057     7.9056     7.5688   121.0765     7.8837     2.4901     0.1133     0.0131
  282.0000   -59.5934     7.9256     7.5689   122.7958     7.8917     2.4862     0.1183     0.0167
  282.5000   -59.7424     7.8910     7.5689   124.0368     7.8995     2.4778     0.1226     0.0204
  283.0000   -59.7393     7.8495     7.5696   122.4491     7.9054     2.4750     0.1208     0.0203
  283.5000   -59.7390     7.8082     7.5518   121.6953     7.9115     2.4778     0.1190     0.0199
  284.0000   -59.7390     7.7672     7.5134   121.5236     7.9176     2.4814     0.1172     0.0194
  284.5000   -59.7389     7.7263     7.4750   122.3368     7.9236     2.4829     0.1169     0.0191
  285.0000   -59.7388     7.6857     7.4368   123.6853     7.9297     2.4797     0.1172     0.0187
  285.5000   -59.7390     7.6452     7.3988   123.4043     7.9358     2.4732     0.1176     0.0196
  286.0000   -59.7499     7.6389     7.3626   121.0018     7.9347     2.4720     0.1230     0.0214
  286.5000   -59.8030     7.6389     7.3626   121.6221     7.9289     2.4720     0.1234     0.0223
  287.0000   -59.8547     7.6389     7.3626   124.6893     7.9230     2.4704     0.1244     0.0218
  287.5000   -59.9063     7.6391     7.3626   127.6953     7.9172     2.4685     0.1264     0.0213
  288.0000   -59.9579     7.6400     7.3625   129.9421     7.9113     2.4668     0.1284     0.0208
  288.5000   -60.0096     7.5989     7.3631   127.5007     7.9054     2.4664     0.1292     0.0206
  289.0000   -60.0611     7.5523     7.3635   123.2229     7.8994     2.4689     0.1256     0.0209
  289.5000   -60.1118     7.5060     7.2795   122.5385     7.8984     2.4758     0.1220     0.0211
  290.0000   -60.0970     7.4499     7.1846   122.8882     7.8984     2.4761     0.1220     0.0214
  290.5000   -60.0005     7.3928     7.0963   123.9208     7.8986     2.4763     0.1220     0.0216
  291.0000   -59.9047     7.3568     7.0963   124.9346     7.9083     2.4765     0.1220     0.0219
  291.5000   -59.8094     7.3340     7.0964   125.5162     7.9320     2.4767     0.1220     0.0221
  292.0000   -59.7519     7.3115     7.0963   125.8416     7.9557     2.4769     0.1219     0.0224
  292.5000   -59.8184     7.2890     7.0962   125.5562     7.9780     2.4792     0.1216     0.0223
  293.0000   -59.8815     7.2667     7.0964   121.1311     7.9636     2.4842     0.1164     0.0218
  293.5000   -59.9444     7.2442     7.0968   115.4190     7.9461     2.4893     0.1116     0.0212
  294.0000   -60.0073     7.2194     7.0970   116.8169     7.9287     2.4920     0.1140     0.0207
  294.5000   -60.0708     7.1853     7.0214   120.1681     7.9113     2.4812     0.1223     0.0208
  295.0000   -60.1358     7.1358     6.9657   123.2494     7.8982     2.4696     0.1270     0.0221
  295.5000   -60.0478     7.0384     6.8042   123.3168     7.8940     2.4670     0.1272     0.0296
  296.0000   -59.9417     6.9438     6.6555   123.3037     7.8890     2.4660     0.1293     0.0379
  296.5000   -59.8350     6.8502     6.5109   123.3584     7.8839     2.4649     0.1304     0.0405
  297.0000   -59.7412     6.7578     6.3694   123.6190     7.8789     2.4662     0.1292     0.0405
  297.5000   -59.7696     6.6666     6.3191   123.8816     7.8738     2.4677     0.1274     0.0402
  298.0000   -59.7991     6.5778     6.2804   123.6873     7.8688     2.4672     0.1260     0.0527
  298.5000   -59.8281     6.4715     6.2418   122.7559     7.8637     2.4512     0.1413     0.0626
  299.0000   -59.8570     6.3541     6.1880   121.2573     7.8586     2.4357     0.1489     0.0609
  299.5000   -59.8858     6.2380     6.1170   119.8932     7.8536     2.4336     0.1492     0.0593
  300.0000   -59.9147     6.1806     6.0678   120.7484     7.8485     2.4472     0.1402     0.0586
