~VERSION INFORMATION
 VERS.                2.0:   CWLS LOG ASCII STANDARD - VERSION 2.0
 WRAP.                 NO:   ONE LINE PER DEPTH STEP
~WELL INFORMATION
#MNEM.UNIT      DATA TYPE    INFORMATION
#----------   ------------   ------------------------------
 STRT.F          432.0000:   START DEPTH
 STOP.F         1258.0000:   STOP DEPTH
 STEP.F            0.5000:   STEP LENGTH
 NULL.          -999.2500:   NO VALUE
 COMP. FENIX & SCISSON INC:   COMPANY
 WELL.   12 SHX 34 #12-34:   WELL
 FLD .            WILDCAT:   FIELD
 LOC .      S34 T39N R78W:   LOCATION
 CNTY.            NATRONA:   COUNTY
 STAT.            WYOMING:   STATE
 CTRY. UNITED STATES OF AMERICA:   COUNTRY
 SRVC.              Welex:   SERVICE COMPANY
 DATE.        23-APR-1979:   LOGDATE
 API .       490251078200:   API NUMBER
~CURVE INFORMATION
#MNEM.UNIT       API CODE    CURVE DESCRIPTION
#----------   ------------   ------------------------------
 DEPT.F                  :   
 CALD.IN     45 280 60 00:   CALIPER
 GRD .GAPI   45 310 01 00:   GAMMA RAY FROM DENSITY LOG
 RHOB.G/C3   45 350 01 00:   BULK DENSITY
 DPHI.DEC    45 890 12 00:   DENSITY POROSITY SANDSTONE
 CORR.G/C3   45 356 01 00:   DENSITY CORRECTION
~PARAMETER INFORMATION
#MNEM.UNIT          VALUE    DESCRIPTION
#----------   ------------   ------------------------------
 PD  .                 GL:   PERMANENT DATUM
 EPD .F              5092:   ELEVATION PERMANENT DATUM
 LMF .                 KB:   LOG MEASURED FROM
 DAPD.F                10:   FEET ABOVE PERMANENT DATUM
 DMF .                 KB:   DRILLING MEASURED FROM
 EKB .F              5102:   KELLING BUSHING
 EGL .F              5092:   GROUND LEVEL
 DATE.            4-23-79:   RUN DATE
 RUN .                  1:   RUN NUMBER
 DD  .F              1260:   DEPTH DRILLER
 DL  .F              1260:   DEPTH LOGGER
 BLI .F              1258:   BOTTOM LOG INTERVAL
 TLI .F               446:   TOP LOG INTERVAL
 CS  .IN            9.625:   CASING SIZE
 CBD .F               440:   CASING BOTTOM DRILLER
 BS  .IN            8.375:   BIT SIZE
 BSD .F              1260:   BIT SIZE AT DEPTH
 DFT .                OIL:   DRILLING FLUID TYPE
 DFD .                8.7:   DRILLING FLUID DENSITY
 TCS .HRS               1:   TIME CURCULATED STOPPED
 ENGI.               REIN:   RECORDING ENGINEER
 WITN.              AMEND:   WITNESSED BY
 CLNT.            A2DTECH:   CLIENT CODE
 ORIG.           5" PRINT:   ORIGIN OF DATA
 UWI .       490251078200:   UNIQUE WELL ID
 DICO. A2D Technologies, Inc.:   DIGITIZING COMPANY
~OTHER INFORMATION
~A   DEPT     CALD         GRD      RHOB       DPHI       CORR   
# ...
 1164.0000     8.4552    87.8620     2.5038     0.0302     0.0059
 1164.5000     8.4541    88.5978     2.5031     0.0303     0.0050
 1165.0000     8.4529    86.2904     2.5040     0.0306     0.0052
 1165.5000     8.4517    84.4020     2.5054     0.0306     0.0012
 1166.0000     8.4505    85.9220     2.5090     0.0271    -0.0065
 1166.5000     8.4493    88.5882     2.5166     0.0235    -0.0108
 1167.0000     8.4482    89.5286     2.5242     0.0197    -0.0039
 1167.5000     8.4470    83.7649     2.5317     0.0197     0.0043
 1168.0000     8.4458    81.9133     2.5392     0.0189     0.0107
 1168.5000     8.4446    84.2916     2.5442     0.0153     0.0096
 1169.0000     8.4434    86.5837     2.5464     0.0117     0.0100
 1169.5000     8.4423    88.8879     2.5373     0.0083     0.0153
 1170.0000     8.4411    91.2033     2.5220     0.0125     0.0118
 1170.5000     8.4399    93.4137     2.5066     0.0221     0.0065
 1171.0000     8.4387    92.8583     2.4912     0.0323     0.0011
 1171.5000     8.4376    89.6826     2.4840     0.0426    -0.0045
 1172.0000     8.4364    86.5699     2.4889     0.0443    -0.0109
 1172.5000     8.4352    84.6227     2.4999     0.0269    -0.0037
 1173.0000     8.4340    84.6965     2.5109     0.0223     0.0049
 1173.5000     8.4328    87.4841     2.5219     0.0173     0.0135
 1174.0000     8.4317    93.2719     2.5334     0.0124     0.0211
 1174.5000     8.4305    99.0564     2.5371     0.0072     0.0211
 1175.0000     8.4293   104.2134     2.5342     0.0072     0.0171
 1175.5000     8.4281   103.5419     2.5259     0.0138     0.0127
 1176.0000     8.4270    89.9757     2.5177     0.0205     0.0084
 1176.5000     8.4258    85.7360     2.5094     0.0273     0.0041
 1177.0000     8.4246    86.6001     2.5043     0.0274    -0.0003
 1177.5000     8.4234    88.1428     2.5033     0.0274     0.0003
 1178.0000     8.4222    89.7467     2.5112     0.0255     0.0019
 1178.5000     8.4211    88.5907     2.5191     0.0225     0.0034
 1179.0000     8.4199    86.2972     2.5224     0.0208     0.0050
 1179.5000     8.4187    85.0680     2.5154     0.0228     0.0066
 1180.0000     8.4175    88.9459     2.5096     0.0277     0.0063
 1180.5000     8.4164    90.7142     2.5037     0.0326     0.0052
 1181.0000     8.4152    88.9882     2.4978     0.0330     0.0040
 1181.5000     8.4140    87.4096     2.4952     0.0330     0.0029
 1182.0000     8.4128    89.7923     2.4952     0.0333     0.0018
 1182.5000     8.4116    92.1871     2.4957     0.0350     0.0007
 1183.0000     8.4104    94.5612     2.4961     0.0368    -0.0004
 1183.5000     8.4093    96.7120     2.4923     0.0386    -0.0016
 1184.0000     8.4081    96.3614     2.4883     0.0404    -0.0027
 1184.5000     8.4074    93.7478     2.4843     0.0421    -0.0038
 1185.0000     8.4074    91.0819     2.4818     0.0439    -0.0049
 1185.5000     8.4074    88.4161     2.4821     0.0451    -0.0050
 1186.0000     8.4074    85.8060     2.4867     0.0432    -0.0050
 1186.5000     8.4074    85.4904     2.4918     0.0396    -0.0050
 1187.0000     8.4074    86.3621     2.4969     0.0370    -0.0050
 1187.5000     8.4074    87.3226     2.5020     0.0342    -0.0029
 1188.0000     8.4074    88.2800     2.5070     0.0308    -0.0017
 1188.5000     8.4074    89.2342     2.5027     0.0305    -0.0004
 1189.0000     8.4074    90.2388     2.4992     0.0314     0.0010
 1189.5000     8.4074    90.1101     2.5004     0.0314     0.0024
 1190.0000     8.4074    89.1647     2.5104     0.0297     0.0037
 1190.5000     8.4074    88.2194     2.5115     0.0276     0.0051
 1191.0000     8.4074    87.2775     2.5046     0.0255     0.0065
 1191.5000     8.4074    86.3401     2.5036     0.0233     0.0078
 1192.0000     8.4074    86.0833     2.5160     0.0234     0.0092
 1192.5000     8.4074    87.4002     2.5101     0.0240     0.0106
 1193.0000     8.4074    89.1163     2.4987     0.0226     0.0119
 1193.5000     8.4074    90.8368     2.5135     0.0205     0.0133
 1194.0000     8.4074    92.3478     2.5297     0.0184     0.0147
 1194.5000     8.4074    92.4510     2.5259     0.0165     0.0151
 1195.0000     8.4074    90.3958     2.5199     0.0199     0.0137
 1195.5000     8.4074    88.3969     2.5136     0.0237     0.0111
 1196.0000     8.4070    87.5852     2.5089     0.0275     0.0084
 1196.5000     8.4064    87.2168     2.5096     0.0294     0.0057
 1197.0000     8.4411    85.6033     2.5141     0.0290     0.0031
 1197.5000     8.4397    84.9481     2.5187     0.0259     0.0005
 1198.0000     8.4300    85.5882     2.5232     0.0207     0.0018
 1198.5000     8.4205    88.4493     2.5277     0.0155     0.0079
 1199.0000     8.4111    91.2370     2.5324     0.0136     0.0139
 1199.5000     8.4075    93.9699     2.5293     0.0157     0.0199
 1200.0000     8.4074    94.7029     2.5232     0.0178     0.0189
 1200.5000     8.4074    90.3926     2.5170     0.0200     0.0099
 1201.0000     8.4074    86.9255     2.5145     0.0209     0.0007
 1201.5000     8.4074    85.6189     2.5243     0.0202     0.0053
 1202.0000     8.4074    87.7333     2.5339     0.0172     0.0148
 1202.5000     8.4074    89.2101     2.5335     0.0141     0.0150
 1203.0000     8.4074    86.0821     2.5264     0.0137     0.0107
 1203.5000     8.4074    83.9594     2.5195     0.0195     0.0064
 1204.0000     8.4077    86.7009     2.5168     0.0236     0.0020
 1204.5000     8.4063    90.1754     2.5131     0.0278    -0.0023
 1205.0000     8.4280    89.9977     2.5036     0.0319    -0.0069
 1205.5000     8.4266    87.8214     2.4924     0.0360    -0.0093
 1206.0000     8.4254    86.8231     2.4871     0.0399    -0.0090
 1206.5000     8.4239    89.9629     2.4852     0.0399    -0.0057
 1207.0000     8.4224    93.5616     2.4937     0.0368    -0.0022
 1207.5000     8.4210    95.0891     2.5025     0.0331     0.0014
 1208.0000     8.4195    94.8016     2.5113     0.0294     0.0049
 1208.5000     8.4181    93.0391     2.5188     0.0257     0.0051
 1209.0000     8.4167    91.3466     2.5113     0.0219     0.0050
 1209.5000     8.4152    89.6538     2.5022     0.0219     0.0050
 1210.0000     8.4138    87.9469     2.5003     0.0232     0.0050
 1210.5000     8.4123    86.5183     2.5075     0.0241     0.0069
 1211.0000     8.4109    88.2317     2.5145     0.0234     0.0094
 1211.5000     8.4095    90.1646     2.5207     0.0216     0.0120
 1212.0000     8.4080    86.0514     2.5119     0.0205     0.0145
 1212.5000     8.4074    87.8926     2.5025     0.0229     0.0171
 1213.0000     8.4074    89.3970     2.5019     0.0246     0.0196
 1213.5000     8.4074    85.2861     2.5096     0.0263     0.0221
 1214.0000     8.4074    86.5476     2.5231     0.0256     0.0211
 1214.5000     8.4074    88.0668     2.5286     0.0192     0.0158
 1215.0000     8.4074    88.4719     2.5094     0.0169     0.0106
 1215.5000     8.4074    84.8232     2.5009     0.0266     0.0053
 1216.0000     8.4074    81.4580     2.5088     0.0310    -0.0002
 1216.5000     8.4074    81.7364     2.5218     0.0237     0.0054
 1217.0000     8.4074    83.4962     2.5303     0.0184     0.0134
 1217.5000     8.4074    85.6023     2.5256     0.0148     0.0191
 1218.0000     8.4074    87.6721     2.5191     0.0156     0.0154
 1218.5000     8.4074    89.7367     2.5124     0.0205     0.0118
 1219.0000     8.4074    91.8030     2.5058     0.0257     0.0083
 1219.5000     8.4074    93.8854     2.4991     0.0309     0.0048
 1220.0000     8.4074    95.9752     2.4952     0.0330     0.0012
 1220.5000     8.4074    95.9924     2.4949     0.0328     0.0033
 1221.0000     8.4074    95.3659     2.5001     0.0312     0.0060
 1221.5000     8.4080    95.2848     2.5090     0.0296     0.0087
 1222.0000     8.4086    97.8981     2.5161     0.0280     0.0081
 1222.5000     8.4092    98.6814     2.5085     0.0293     0.0069
 1223.0000     8.4098    96.0295     2.4975     0.0333     0.0057
 1223.5000     8.4104    93.3607     2.4860     0.0374     0.0044
 1224.0000     8.4110    90.7645     2.4839     0.0391     0.0032
 1224.5000     8.4115    90.1645     2.4869     0.0365     0.0048
