~VERSION INFORMATION
 VERS.                2.0:   CWLS LOG ASCII STANDARD - VERSION 2.0
 WRAP.                 NO:   ONE LINE PER DEPTH STEP
~WELL INFORMATION
#MNEM.UNIT      DATA TYPE    INFORMATION
#----------   ------------   ------------------------------
 STRT.F            8.0000:   START DEPTH
 STOP.F          970.0000:   STOP DEPTH
 STEP.F            0.1000:   STEP LENGTH
 NULL.          -999.2500:   NO VALUE
 COMP.       F D SERV INC:   COMPANY
 WELL. N P R 3 STX-35 #15-35:   WELL
 FLD .             TEAPOT:   FIELD
 LOC .      S35 T39N R78W:   LOCATION
 CNTY.            NATRONA:   COUNTY
 STAT.            WYOMING:   STATE
 CTRY. UNITED STATES OF AMERICA:   COUNTRY
 SRVC.     Atlas Wireline:   SERVICE COMPANY
 DATE.        02-FEB-1992:   LOGDATE
 API .       490252250100:   API NUMBER
~CURVE INFORMATION
#MNEM.UNIT       API CODE    CURVE DESCRIPTION
#----------   ------------   ------------------------------
 DEPT.F                  :   
 GRR .GAPI   07 310 01 00:   GAMMA RAY
 RILD.OHMM   07 120 46 00:   INDUCTION LOG DEEP RESISTIVITY
 RILM.OHMM   07 120 44 00:   INDUCTION LOG MEDIUM RESISTIVITY
~PARAMETER INFORMATION
#MNEM.UNIT          VALUE    DESCRIPTION
#----------   ------------   ------------------------------
 PD  .                 GL:   PERMANENT DATUM
 EPD .F              5084:   ELEVATION PERMANENT DATUM
 LMF .                 KB:   LOG MEASURED FROM
 DAPD.F                10:   FEET ABOVE PERMANENT DATUM
 DMF .                 KB:   DRILLING MEASURED FROM
 EKB .F              5094:   KELLING BUSHING
 EDF .F              5093:   DRILLING FLOOR
 EGL .F              5084:   GROUND LEVEL
 DATE.        02-FEB-1982:   RUN DATE
 RUN .                  1:   RUN NUMBER
 DD  .F               980:   DEPTH DRILLER
 CS  .IN            8.625:   CASING SIZE
 BSD .F               980:   BIT SIZE AT DEPTH
 DFT .                AIR:   DRILLING FLUID TYPE
 LUN .            HL-6272:   LOGGING UNIT NUMBER
 LUL .             CASPER:   LOGGING UNIT LOCATION
 ENGI.       R. RASMLSSEN:   RECORDING ENGINEER
 WITN.          G. STRONG:   WITNESSED BY
 CLNT.            A2DTECH:   CLIENT CODE
 ORIG.           5" PRINT:   ORIGIN OF DATA
 UWI .       490252250100:   UNIQUE WELL ID
 DICO. A2D Technologies, Inc.:   DIGITIZING COMPANY
~OTHER INFORMATION
~A    DEPT      GRR      RILD       RILM   
# ...
  390.2000   130.9766     7.3460     6.7237
  390.3000   130.9748     7.3103     6.6798
  390.4000   130.7273     7.2954     6.5995
  390.5000   130.4798     7.2766     6.5641
  390.6000   130.2077     7.2450     6.5547
  390.7000   129.9848     7.2430     6.5349
  390.8000   129.5619     7.1951     6.5102
  390.9000   129.1868     7.1597     6.5059
  391.0000   128.9394     7.1184     6.4661
  391.1000   128.6705     7.0961     6.4665
  391.2000   128.1120     7.0856     6.4401
  391.3000   127.8940     7.0447     6.4225
  391.4000   127.6465     6.9985     6.4229
  391.5000   127.3989     6.9986     6.4233
  391.6000   127.2194     6.9718     6.4238
  391.7000   127.2237     6.9316     6.4242
  391.8000   127.2285     6.9023     6.4505
  391.9000   127.4491     6.8996     6.4697
  392.0000   127.8706     6.8548     6.4809
  392.1000   128.4926     6.8549     6.5155
  392.2000   129.1261     6.8550     6.5160
  392.3000   129.4059     6.8362     6.5164
  392.4000   130.2843     6.8077     6.5167
  392.5000   130.5000     6.8078     6.5171
  392.6000   130.7560     6.8079     6.5175
  392.7000   131.1214     6.8080     6.5179
  392.8000   131.5709     6.8081     6.5184
  392.9000   131.8342     6.8081     6.5188
  393.0000   132.4311     6.8082     6.5192
  393.1000   132.6417     6.8083     6.5196
  393.2000   132.8978     6.8085     6.5200
  393.3000   133.1538     6.8086     6.5204
  393.4000   133.4630     6.8087     6.5209
  393.5000   133.9686     6.8087     6.5212
  393.6000   134.2748     6.8088     6.5217
  393.7000   134.4806     6.8089     6.5220
  393.8000   134.7365     6.8090     6.5224
  393.9000   134.9925     6.8091     6.5228
  394.0000   135.2486     6.8092     6.5233
  394.1000   135.5073     6.8093     6.5544
  394.2000   135.5115     6.8094     6.5695
  394.3000   135.5157     6.8095     6.5699
  394.4000   135.6662     6.8096     6.5703
  394.5000   135.8273     6.8097     6.5707
  394.6000   135.7880     6.8098     6.5711
  394.7000   135.5329     6.8098     6.6016
  394.8000   135.2928     6.8099     6.6176
  394.9000   134.6597     6.8100     6.6181
  395.0000   134.0504     6.8102     6.6254
  395.1000   133.4612     6.8103     6.6650
  395.2000   132.7491     6.8104     6.7030
  395.3000   132.2251     6.8104     6.7122
  395.4000   131.7509     6.8105     6.7126
  395.5000   131.0635     6.8106     6.7271
  395.6000   130.5857     6.8107     6.7602
  395.7000   130.1677     6.8108     6.7606
  395.8000   129.4848     6.8109     6.7610
  395.9000   129.2203     6.8110     6.7907
  396.0000   129.2242     6.8111     6.8089
  396.1000   129.2285     6.8112     6.8093
  396.2000   129.2327     6.8113     6.8152
  396.3000   129.2370     6.8114     6.8576
  396.4000   129.2412     6.8115     6.8580
  396.5000   129.2458     6.8115     6.8585
  396.6000   129.4792     6.8116     6.8797
  396.7000   129.5570     6.8117     6.9070
  396.8000   129.5612     6.8119     6.9074
  396.9000   129.6410     6.8120     6.9079
  397.0000   129.8727     6.8121     6.9084
  397.1000   129.8774     6.8121     6.9370
  397.2000   130.1060     6.8122     6.9573
  397.3000   130.3619     6.8123     6.9577
  397.4000   130.4958     6.8124     6.9581
  397.5000   130.5707     6.8125     6.9586
  397.6000   130.8266     6.8427     6.9590
  397.7000   131.1151     6.8602     6.9595
  397.8000   131.3385     6.8603     6.9599
  397.9000   131.7628     6.8604     6.9603
  398.0000   132.0364     6.8605     6.9607
  398.1000   132.1066     6.8606     6.9612
  398.2000   132.3770     6.8607     6.9616
  398.3000   132.9588     6.8607     6.9621
  398.4000   132.9624     6.8608     6.9625
  398.5000   133.1302     6.8609     6.9629
  398.6000   133.2739     6.8611     6.9633
  398.7000   133.3392     6.8612     6.9639
  398.8000   133.5855     6.8924     6.9643
  398.9000   133.5904     6.9091     6.9647
  399.0000   133.3838     6.9092     6.9651
  399.1000   133.2952     6.9168     6.9655
  399.2000   133.2994     6.9576     6.9660
  399.3000   133.2475     6.9577     6.9665
  399.4000   132.9953     6.9578     6.9668
  399.5000   132.4038     6.9818     6.9673
  399.6000   132.2021     7.0065     6.9677
  399.7000   131.9546     7.0066     6.9682
  399.8000   131.6043     7.0067     6.9686
  399.9000   131.1565     7.0474     6.9691
  400.0000   130.9091     7.0688     6.9694
  400.1000   130.5626     7.0852     6.9698
  400.2000   130.3128     7.1017     6.9702
  400.3000   130.3176     7.1181     6.9706
  400.4000   130.3225     7.1346     6.9710
  400.5000   130.3273     7.1511     6.9714
  400.6000   130.4197     7.1675     6.9717
  400.7000   130.6400     7.1840     6.9721
  400.8000   130.6452     7.2004     6.9882
  400.9000   130.8822     7.2169     7.0215
  401.0000   131.1373     7.2334     7.0219
  401.1000   131.3925     7.2498     7.0222
  401.2000   131.7220     7.2533     7.0226
  401.3000   132.2057     7.2776     7.0230
  401.4000   132.4927     7.3197     7.0234
  401.5000   132.9354     7.3545     7.0238
  401.6000   133.2744     7.3543     7.0242
  401.7000   133.6434     7.3958     7.0246
  401.8000   134.1488     7.4386     7.0250
  401.9000   134.6541     7.4570     7.0023
  402.0000   135.2493     7.4568     6.9772
  402.1000   135.6651     7.4567     6.9776
  402.2000   136.0174     7.4566     6.9780
  402.3000   136.3728     7.4565     6.9396
  402.4000   136.8306     7.4894     6.9305
  402.5000   137.0910     7.5083     6.9309
  402.6000   137.3410     7.5082     6.9312
  402.7000   137.7887     7.5081     6.9380
  402.8000   138.1544     7.5080     6.9803
  402.9000   138.4095     7.5078     6.9807
  403.0000   138.6646     7.5077     6.9811
  403.1000   138.9385     7.5077     6.9814
  403.2000   139.1749     7.5075     6.9960
  403.3000   139.2509     7.5074     7.0308
  403.4000   139.1292     7.5073     7.0312
  403.5000   138.8837     7.5072     7.0701
  403.6000   138.6174     7.5071     7.1114
  403.7000   138.0588     7.5306     7.1306
  403.8000   137.4072     7.5592     7.1451
  403.9000   136.8270     7.5651     7.1811
  404.0000   136.4445     7.6117     7.1815
  404.1000   136.1990     7.6116     7.2208
  404.2000   135.9535     7.6115     7.2322
  404.3000   135.6639     7.6349     7.2773
  404.4000   135.4626     7.6644     7.3340
  404.5000   135.2173     7.6643     7.3399
  404.6000   135.0715     7.6641     7.3859
  404.7000   135.0293     7.7052     7.3863
  404.8000   134.7783     7.7498     7.4177
  404.9000   134.7831     7.7710     7.4385
  405.0000   134.5960     7.7853     7.4528
  405.1000   134.3506     7.8250     7.4963
  405.2000   134.1051     7.8248     7.5437
  405.3000   133.8927     7.8664     7.5441
  405.4000   133.8986     7.8792     7.5445
  405.5000   133.6718     7.9025     7.5449
  405.6000   133.6049     7.9339     7.5453
  405.7000   133.3580     7.9338     7.5457
  405.8000   132.8623     7.9336     7.5462
  405.9000   132.3868     7.9753     7.5863
  406.0000   132.1097     7.9887     7.5996
  406.1000   131.4601     7.9886     7.6000
  406.2000   131.0444     8.0024     7.6004
  406.3000   130.5737     8.0441     7.6008
  406.4000   129.9475     8.0440     7.6013
  406.5000   129.7090     8.0439     7.6017
  406.6000   129.7148     8.0437     7.6021
  406.7000   129.5142     8.0437     7.6025
  406.8000   129.7244     8.0436     7.6029
  406.9000   130.3289     8.0434     7.6033
  407.0000   131.1780     8.0433     7.6038
  407.1000   132.4656     8.0432     7.5654
  407.2000   133.6901     8.0431     7.5521
  407.3000   134.5643     8.0430     7.5525
  407.4000   135.3201     8.0429     7.5529
  407.5000   135.9040     8.0427     7.5533
  407.6000   136.1260     8.0426     7.5538
  407.7000   136.1313     8.0425     7.5542
  407.8000   136.1357     8.0424     7.5546
  407.9000   136.1406     8.0423     7.5550
  408.0000   136.2706     8.0422     7.5554
  408.1000   136.4533     8.0421     7.5558
  408.2000   136.4977     8.0419     7.5563
  408.3000   137.0697     8.0418     7.5567
