~VERSION INFORMATION
 VERS.                2.0:   CWLS LOG ASCII STANDARD - VERSION 2.0
 WRAP.                 NO:   ONE LINE PER DEPTH STEP
~WELL INFORMATION
#MNEM.UNIT      DATA TYPE    INFORMATION
#----------   ------------   ------------------------------
 STRT.F          458.0000:   START DEPTH
 STOP.F         2155.0000:   STOP DEPTH
 STEP.F            0.5000:   STEP LENGTH
 NULL.          -999.2500:   NO VALUE
 COMP.   FLUOR DANIEL INC:   COMPANY
 WELL. NAVAL PETROLEUM RESERVE 3 SHX- 1 #33-29:   WELL
 FLD .             TEAPOT:   FIELD
 LOC .      S29 T39N R78W:   LOCATION
 CNTY.            NATRONA:   COUNTY
 STAT.            WYOMING:   STATE
 CTRY. UNITED STATES OF AMERICA:   COUNTRY
 SRVC.            Unknown:   SERVICE COMPANY
 DATE.        29-JUN-1995:   LOGDATE
 API .       490252272500:   API NUMBER
~CURVE INFORMATION
#MNEM.UNIT       API CODE    CURVE DESCRIPTION
#----------   ------------   ------------------------------
 DEPT.F                  :   
 C1  .VF     91 831 01 00:   METHANE
 C2  .VF     91 832 01 00:   ETHANE
 C3  .VF     91 833 01 00:   PROPANE
 C4  .VF     91 834 01 00:   BUTANE
 ROP .FT/HR  91 810 01 00:   RAT OF DRILLING PENETRATION
 TGAS.TC/CC  91 830 01 00:   TOTAL GAS UNIT
~PARAMETER INFORMATION
#MNEM.UNIT          VALUE    DESCRIPTION
#----------   ------------   ------------------------------
 EKB .F              5020:   KELLING BUSHING
 EGL .F              5010:   GROUND LEVEL
 DATE.        29-JUN-1995:   RUN DATE
 RUN .                  1:   RUN NUMBER
 BLI .F              2155:   BOTTOM LOG INTERVAL
 TLI .F               460:   TOP LOG INTERVAL
 ENGI.     C.TOWER/R.HUSK:   RECORDING ENGINEER
 CLNT.            A2DTECH:   CLIENT CODE
 ORIG.           5" PRINT:   ORIGIN OF DATA
 UWI .       490252272500:   UNIQUE WELL ID
 DICO. A2D Technologies, Inc.:   DIGITIZING COMPANY
~OTHER INFORMATION
~A   DEPT       C1         C2         C3         C4          ROP       TGAS 
# ...
 1550.0000     4.1245     0.2804     0.0129     0.0000     0.6466    16.0034
 1550.5000     4.1190     0.2850     0.0128     0.0000     0.6468    15.9942
 1551.0000     4.1135     0.2897     0.0126     0.0000     0.6469    15.9849
 1551.5000     4.1080     0.2944     0.0125     0.0000     0.6471    16.9174
 1552.0000     4.1025     0.2991     0.0124     0.0000     0.8826    16.9078
 1552.5000     4.4442     0.3046     0.0122     0.0000     0.9864    17.8400
 1553.0000     4.4304     0.3091     0.0121     0.0000     0.9865    17.9120
 1553.5000     4.4194     0.3137     0.0120     0.0000     0.9867    17.8211
 1554.0000     4.5987     0.3183     0.0119     0.0000     1.1657    18.7537
 1554.5000     4.5850     0.3229     0.0117     0.0000     1.2506    19.6858
 1555.0000     4.5740     0.3275     0.0116     0.0000     1.2414    19.6743
 1555.5000     4.7533     0.3321     0.0115     0.0000     1.2416    20.6088
 1556.0000     4.7395     0.3364     0.0113     0.0000     1.4771    20.5972
 1556.5000     4.7285     0.3413     0.0112     0.0000     1.5243    20.5879
 1557.0000     4.7175     0.3459     0.0111     0.0000     1.5433    20.5787
 1557.5000     4.7063     0.3505     0.0110     0.0000     1.5435    21.5132
 1558.0000     4.6928     0.4486     0.0108     0.0000     1.3742    21.5016
 1558.5000     4.6819     0.4533     0.0107     0.0000     0.7999    20.5509
 1559.0000     4.6709     0.4589     0.0106     0.0000     0.8001    20.5417
 1559.5000     4.6612     0.4635     0.0104     0.0000     0.8010    20.5324
 1560.0000     4.4614     0.4681     0.0103     0.0000     0.8004    19.5816
 1560.5000     4.5471     0.3780     0.0102     0.0000     0.8001    18.6308
 1561.0000     4.6297     0.3838     0.0101     0.0000     0.7999    19.5632
 1561.5000     4.6159     0.3879     0.0099     0.0000     0.7997    20.4954
 1562.0000     4.6050     0.3930     0.0098     0.0000     0.8089    20.4838
 1562.5000     4.5937     0.3976     0.0097     0.0000     0.8086    20.4746
 1563.0000     4.5825     0.4161     0.0095     0.0000     0.8083    20.4653
 1563.5000     4.5693     0.4981     0.0094     0.0000     0.7987    21.3998
 1564.0000     4.5583     0.5847     0.0093     0.0000     0.6855    21.3883
 1564.5000     4.5487     0.5837     0.0092     0.0000     0.6664    21.3790
 1565.0000     4.5375     0.5826     0.0090     0.0000     0.6568    21.3698
 1565.5000     4.5253     0.6663     0.0089     0.0000     0.6471    22.3023
 1566.0000     4.5143     0.5805     0.0088     0.0000     0.6469    23.2343
 1566.5000     4.5038     0.5793     0.0086     0.0000     0.6372    23.2248
 1567.0000     4.4924     0.4935     0.0085     0.0000     0.6370    23.2155
 1567.5000     4.4813     0.4077     0.0084     0.0000     0.6462    23.2061
 1568.0000     4.4700     0.4067     0.0083     0.0000     0.6460    23.1948
 1568.5000     4.4567     0.4056     0.0081     0.0000     0.6457    23.1855
 1569.0000     4.4457     0.4354     0.0080     0.0000     0.6454    23.1763
 1569.5000     4.4347     0.4883     0.0079     0.0000     0.6452    23.1670
 1570.0000     4.4237     0.4873     0.0077     0.0000     0.6450    23.1578
 1570.5000     4.4127     0.4862     0.0076     0.0000     0.6447    23.1485
 1571.0000     4.4018     0.4852     0.0075     0.0000     0.6540    23.1393
 1571.5000     4.3908     0.4841     0.0073     0.0000     0.6537    23.1300
 1572.0000     4.3798     0.4829     0.0072     0.0000     0.8889    21.2379
 1572.5000     4.3688     0.5668     0.0071     0.0000     1.0205    21.2287
 1573.0000     4.3575     0.5657     0.0070     0.0000     1.0202    20.2780
 1573.5000     4.3441     0.5646     0.0068     0.0000     1.0200    19.3273
 1574.0000     4.5233     0.5635     0.0067     0.0000     0.9961    19.3180
 1574.5000     4.6999     0.5625     0.0066     0.0000     0.7841    17.4257
 1575.0000     4.6861     0.5614     0.0064     0.0000     0.7839    16.4749
 1575.5000     4.6751     0.5604     0.0063     0.0000     0.7836    16.4637
 1576.0000     4.6642     0.5593     0.0062     0.0000     0.7740    16.4545
 1576.5000     4.6538     0.5583     0.0061     0.0000     0.7738    17.3889
 1577.0000     4.6425     0.4723     0.0059     0.0000     0.7735    19.2602
 1577.5000     4.6312     0.4712     0.0058     0.0000     0.7733    19.2510
 1578.0000     4.6200     0.4702     0.0057     0.0000     0.7731    20.1855
 1578.5000     4.6088     0.4692     0.0055     0.0000     0.6222    20.1739
 1579.0000     4.5975     0.4681     0.0054     0.0000     0.6219    20.1646
 1579.5000     4.5845     0.4671     0.0053     0.0000     0.6217    21.0968
 1580.0000     4.5735     0.4661     0.0052     0.0000     0.6215    22.0293
 1580.5000     4.5637     0.4650     0.0050     0.0000     0.6212    22.9613
 1581.0000     4.5516     0.4640     0.0049     0.0000     0.6304    22.9519
 1581.5000     4.5406     0.5477     0.0048     0.0000     0.6301    22.0010
 1582.0000     4.5300     0.5466     0.0046     0.0000     0.6299    21.0502
 1582.5000     4.5188     0.5454     0.0045     0.0000     0.6392    21.0390
 1583.0000     4.5075     0.5443     0.0044     0.0000     0.6389    21.0297
 1583.5000     4.4963     0.6283     0.0043     0.0000     0.6386    21.0205
 1584.0000     4.4850     0.7120     0.0041     0.0000     0.6384    20.0698
 1584.5000     4.4738     0.7107     0.0040     0.0000     0.6382    20.0606
 1585.0000     4.5766     0.7097     0.0039     0.0000     0.6474    20.0513
 1585.5000     4.6387     0.7087     0.0037     0.0000     0.6471    20.9858
 1586.0000     4.6275     0.7076     0.0036     0.0000     0.6468    21.9156
 1586.5000     4.6155     0.7066     0.0035     0.0000     0.6466    20.9650
 1587.0000     4.6045     0.7203     0.0034     0.0000     0.6464    20.0143
 1587.5000     4.5935     0.7893     0.0032     0.0000     0.6462    19.0636
 1588.0000     4.3950     0.7034     0.0031     0.0000     0.6459    19.0544
 1588.5000     4.3838     0.7022     0.0030     0.0000     0.6457    19.0450
 1589.0000     4.3703     0.7012     0.0028     0.0000     0.6455    19.0356
 1589.5000     4.3593     0.7001     0.0027     0.0000     0.6452    19.9680
 1590.0000     4.3688     0.6143     0.0026     0.0000     0.5320    19.9565
 1590.5000     4.5276     0.5286     0.0024     0.0000     0.5318    19.9472
 1591.0000     4.5150     0.4428     0.0023     0.0000     0.5324    19.9380
 1591.5000     4.5029     0.3978     0.0022     0.0000     0.5407    19.9287
 1592.0000     4.4925     0.3559     0.0021     0.0000     0.5404    18.9780
 1592.5000     4.4809     0.2699     0.0019     0.0000     0.5402    19.9125
 1593.0000     4.4699     0.1841     0.0018     0.0000     0.5400    18.9595
 1593.5000     4.3914     0.1833     0.0017     0.0000     0.5398    18.9503
 1594.0000     4.2600     0.1822     0.0015     0.0000     0.5395    18.9410
 1594.5000     4.2467     0.1810     0.0014     0.0000     0.5393    18.9318
 1595.0000     4.2358     0.1800     0.0013     0.0000     0.5391    18.9225
 1595.5000     4.2248     0.0942     0.0012     0.0000     0.5388    17.9718
 1596.0000     4.2138     0.0932     0.0010     0.0000     0.5386    18.9040
 1596.5000     4.2028     0.1769     0.0009     0.0000     0.5384    18.8944
 1597.0000     4.1918     0.1758     0.0008     0.0000     0.5381    18.8832
 1597.5000     4.1808     0.1801     0.0006     0.0000     0.5379    18.8739
 1598.0000     4.1699     0.3430     0.0005     0.0000     0.5376    18.8647
 1598.5000     4.1588     0.4267     0.0004     0.0000     0.5374    19.7969
 1599.0000     4.1475     0.5105     0.0003     0.0000     0.5372    19.7876
 1599.5000     4.1342     0.5094     0.0001     0.0000     0.5275    19.7784
 1600.0000     4.1232     0.6779     0.0000     0.0000     0.5273    19.7691
 1600.5000     4.1122     0.7092     0.0847     0.0000     0.5273    22.5895
 1601.0000     4.1012     0.7606     0.2542     0.0000     0.5273    25.4092
 1601.5000     4.1707     0.8443     0.4237     0.0000     0.5273    26.3461
