~VERSION INFORMATION
 VERS.                2.0:   CWLS LOG ASCII STANDARD - VERSION 2.0
 WRAP.                 NO:   ONE LINE PER DEPTH STEP
~WELL INFORMATION
#MNEM.UNIT      DATA TYPE    INFORMATION
#----------   ------------   ------------------------------
 STRT.F           40.0000:   START DEPTH
 STOP.F         3444.0000:   STOP DEPTH
 STEP.F            0.5000:   STEP LENGTH
 NULL.          -999.2500:   NO VALUE
 COMP.    FENIX & SCISSON:   COMPANY
 WELL.     13-A-10 #13-10:   WELL
 FLD .            WILDCAT:   FIELD
 LOC .      S10 T38N R78W:   LOCATION
 CNTY.            NATRONA:   COUNTY
 STAT.            WYOMING:   STATE
 CTRY. UNITED STATES OF AMERICA:   COUNTRY
 SRVC.       Schlumberger:   SERVICE COMPANY
 DATE.        08-JUL-1970:   LOGDATE
 API .       490251090300:   API NUMBER
~CURVE INFORMATION
#MNEM.UNIT       API CODE    CURVE DESCRIPTION
#----------   ------------   ------------------------------
 DEPT.F                  :   
 ASN .OHMM   05 041 16 00:   AMPLIFIED SHORT NORMAL 16"
 CILD.MMHO   05 110 46 00:   CONDUCTIVITY INDUCTION LOG DEEP
 ILD .OHMM   05 120 46 00:   INDUCTION LOG DEEP
 SPR .MV     05 010 01 00:   SPONTANEOUS POTENTIAL FROM RES.
 CALD.IN     45 280 60 00:   CALIPER FROM DENSITY
 CORR.G/C3   45 356 01 00:   DENSITY CORRECTION
 DPHI.DEC    45 890 12 00:   DENSITY POROSITY SANDSTONE
 RHOB.G/C3   45 350 01 00:   BULK DENSITY
~PARAMETER INFORMATION
#MNEM.UNIT          VALUE    DESCRIPTION
#----------   ------------   ------------------------------
 PD  .                 GL:   PERMANENT DATUM
 EPD .F              5295:   ELEVATION PERMANENT DATUM
 LMF .                 KB:   LOG MEASURED FROM
 DAPD.F                10:   FEET ABOVE PERMANENT DATUM
 DMF .                 KB:   DRILLING MEASURED FROM
 EKB .F              5305:   KELLING BUSHING
 EGL .F              5295:   GROUND LEVEL
 DATE.        08-JUL-1970:   RUN DATE
 RUN .                  3:   RUN NUMBER
 DD  .F              3450:   DEPTH DRILLER
 DL  .F              3444:   DEPTH LOGGER
 BLI .F              3443:   BOTTOM LOG INTERVAL
 TLI .F              2950:   TOP LOG INTERVAL
 CS  .IN            10.75:   CASING SIZE
 CBD .F               842:   CASING BOTTOM DRILLER
 BS  .IN                9:   BIT SIZE
 BSD .F              3450:   BIT SIZE AT DEPTH
 DFT .      FRESH GEL MUD:   DRILLING FLUID TYPE
 DFD .               10.4:   DRILLING FLUID DENSITY
 DFV .                 43:   DRILLING FLUID VISCOSITY
 DFPH.                7.6:   DRILLING FLUID PH
 DFL .                  8:   DRILLING FLUID LOSS
 MSS .           FLOWLINE:   MUD SAMPLE SOURCE
 RMS .OHMM              2:   RESISTIVITY MUD SAMPLE
 MST .F                85:   MUD SAMPLE TEMPERATURE
 RMF .OHMM            1.6:   RESISTIVITY MUD FILTRATE SAMPLE
 MFST.F                85:   MUD FILTRATE SAMPLE TEMPERATURE
 MFSS.               MEAS:   MUD FILTRATE SAMPLE SOURCE
 RMB .OHMM           1.49:   RESISTIVITY MUD AT BHT
 BHT .F               114:   BOTTOM HOLE TEMPERATURE
 TCS .HRS               3:   TIME CURCULATED STOPPED
 MRT .F               114:   MAXIMUM RECORDED TEMPERATURE
 LUN .               4507:   LOGGING UNIT NUMBER
 LUL .               CSPR:   LOGGING UNIT LOCATION
 ENGI.             TURNER:   RECORDING ENGINEER
 WITN.                MAY:   WITNESSED BY
 CLNT.            A2DTECH:   CLIENT CODE
 ORIG.     2.5", 5" PRINT:   ORIGIN OF DATA
 UWI .       490251090300:   UNIQUE WELL ID
 DICO. A2D Technologies, Inc.:   DIGITIZING COMPANY
~OTHER INFORMATION
~A   DEPT        ASN      CILD         ILD      SPR       CALD       CORR       DPHI       RHOB   
# ...
 1660.0000     8.5584   122.6191     8.2985   -49.7910  -999.2500  -999.2500  -999.2500  -999.2500
 1660.5000     8.5966   122.6488     8.2955   -49.7955  -999.2500  -999.2500  -999.2500  -999.2500
 1661.0000     8.5870   124.1667     8.2926   -49.8000  -999.2500  -999.2500  -999.2500  -999.2500
 1661.5000     8.5562   124.4960     8.2896   -49.8045  -999.2500  -999.2500  -999.2500  -999.2500
 1662.0000     8.4954   125.7143     8.2866   -49.6497  -999.2500  -999.2500  -999.2500  -999.2500
 1662.5000     8.4046   123.8216     8.2836   -49.5149  -999.2500  -999.2500  -999.2500  -999.2500
 1663.0000     8.3438   122.2964     8.2806   -49.5202  -999.2500  -999.2500  -999.2500  -999.2500
 1663.5000     8.4332   122.8274     8.2776   -49.5246  -999.2500  -999.2500  -999.2500  -999.2500
 1664.0000     8.4925   123.4923     8.4245   -49.5289  -999.2500  -999.2500  -999.2500  -999.2500
 1664.5000     8.5218   125.0771     8.4209   -49.5333  -999.2500  -999.2500  -999.2500  -999.2500
 1665.0000     8.5511   125.8928     8.4179   -49.5377  -999.2500  -999.2500  -999.2500  -999.2500
 1665.5000     8.5804   125.9226     8.4970   -49.5420  -999.2500  -999.2500  -999.2500  -999.2500
 1666.0000     8.6146   122.9762     8.5612   -49.5464  -999.2500  -999.2500  -999.2500  -999.2500
 1666.5000     8.6752   121.5179     8.5577   -49.2523  -999.2500  -999.2500  -999.2500  -999.2500
 1667.0000     8.7057   120.0639     8.5548   -49.2667  -999.2500  -999.2500  -999.2500  -999.2500
 1667.5000     8.7663   121.5811     8.5519   -49.5597  -999.2500  -999.2500  -999.2500  -999.2500
 1668.0000     8.8169   123.0984     8.5490   -49.5642  -999.2500  -999.2500  -999.2500  -999.2500
 1668.5000     8.7447   121.6394     8.5461   -49.5687  -999.2500  -999.2500  -999.2500  -999.2500
 1669.0000     8.7377   121.6685     8.5431   -49.5731  -999.2500  -999.2500  -999.2500  -999.2500
 1669.5000     8.8696   120.2084     8.6896   -49.6622  -999.2500  -999.2500  -999.2500  -999.2500
 1670.0000     9.0841   117.2624     8.6866   -49.8806  -999.2500  -999.2500  -999.2500  -999.2500
 1670.5000     9.1296   117.2917     8.8329   -49.8850  -999.2500  -999.2500  -999.2500  -999.2500
 1671.0000     9.1427   117.3214     8.8299   -49.8896  -999.2500  -999.2500  -999.2500  -999.2500
 1671.5000     9.1418   117.3512     8.8493   -49.8941  -999.2500  -999.2500  -999.2500  -999.2500
 1672.0000     9.1110   117.3809     8.9734   -49.8985  -999.2500  -999.2500  -999.2500  -999.2500
 1672.5000     9.1103   117.4107     8.9701   -49.9030  -999.2500  -999.2500  -999.2500  -999.2500
 1673.0000     9.1095   118.9286     8.9671   -49.9083  -999.2500  -999.2500  -999.2500  -999.2500
 1673.5000     9.0788   118.9583     8.9642   -49.6141  -999.2500  -999.2500  -999.2500  -999.2500
 1674.0000     9.0780   118.9881     9.0209   -49.6185  -999.2500  -999.2500  -999.2500  -999.2500
 1674.5000     9.1074   120.5059     9.1075   -49.6229  -999.2500  -999.2500  -999.2500  -999.2500
 1675.0000     9.1066   120.5357     9.1045   -49.6272  -999.2500  -999.2500  -999.2500  -999.2500
 1675.5000     9.1359   120.5655     9.1015   -49.6316  -999.2500  -999.2500  -999.2500  -999.2500
 1676.0000     9.1652   120.5952     9.0979   -49.6360  -999.2500  -999.2500  -999.2500  -999.2500
 1676.5000     9.1631   120.6250     9.0950   -49.6403  -999.2500  -999.2500  -999.2500  -999.2500
 1677.0000     9.1011   120.6606     8.9428   -49.3462  -999.2500  -999.2500  -999.2500  -999.2500
 1677.5000     9.0353   122.1778     8.9399   -49.3508  -999.2500  -999.2500  -999.2500  -999.2500
 1678.0000     8.9119   122.2069     8.7878   -49.3552  -999.2500  -999.2500  -999.2500  -999.2500
 1678.5000     8.7885   123.7241     8.6356   -49.3597  -999.2500  -999.2500  -999.2500  -999.2500
 1679.0000     8.7027   123.7533     8.4834   -49.3642  -999.2500  -999.2500  -999.2500  -999.2500
 1679.5000     8.6406   123.7824     8.3313   -49.3686  -999.2500  -999.2500  -999.2500  -999.2500
 1680.0000     8.6687   123.8115     8.3284   -49.3731  -999.2500  -999.2500  -999.2500  -999.2500
 1680.5000     8.8318   123.8406     8.4747   -49.3776  -999.2500  -999.2500  -999.2500  -999.2500
 1681.0000     8.9299   123.8697     8.4866   -49.3821  -999.2500  -999.2500  -999.2500  -999.2500
 1681.5000     8.9029   123.8988     8.6403   -49.3866  -999.2500  -999.2500  -999.2500  -999.2500
 1682.0000     8.8559   122.4398     8.7941   -49.3911  -999.2500  -999.2500  -999.2500  -999.2500
 1682.5000     8.9014   122.4702     8.9477   -49.3955  -999.2500  -999.2500  -999.2500  -999.2500
 1683.0000     8.9319   122.5000     9.0572   -49.4008  -999.2500  -999.2500  -999.2500  -999.2500
 1683.5000     9.0637   121.0390     9.0537   -49.4052  -999.2500  -999.2500  -999.2500  -999.2500
 1684.0000     9.1530   121.0714     9.0507   -49.4095  -999.2500  -999.2500  -999.2500  -999.2500
 1684.5000     9.1223   121.1012     9.1970   -49.4139  -999.2500  -999.2500  -999.2500  -999.2500
 1685.0000     8.9714   121.1309     9.1940   -49.4183  -999.2500  -999.2500  -999.2500  -999.2500
 1685.5000     8.9106   121.1607     9.1910   -49.4226  -999.2500  -999.2500  -999.2500  -999.2500
 1686.0000     8.9098   121.1905     9.0382   -49.4270  -999.2500  -999.2500  -999.2500  -999.2500
 1686.5000     8.9391   121.2203     9.0353   -49.4314  -999.2500  -999.2500  -999.2500  -999.2500
 1687.0000     8.9684   121.2500     9.0324   -49.4358  -999.2500  -999.2500  -999.2500  -999.2500
 1687.5000     8.9677   121.2798     9.0295   -49.4403  -999.2500  -999.2500  -999.2500  -999.2500
 1688.0000     8.9069   121.3095     9.0266   -49.4448  -999.2500  -999.2500  -999.2500  -999.2500
 1688.5000     8.8448   121.3446     9.0237   -49.4493  -999.2500  -999.2500  -999.2500  -999.2500
 1689.0000     8.7853   119.8857     9.0207   -49.4537  -999.2500  -999.2500  -999.2500  -999.2500
 1689.5000     8.7883   119.9148     8.8686   -49.3736  -999.2500  -999.2500  -999.2500  -999.2500
 1690.0000     8.8488   119.9439     8.8657   -49.1634  -999.2500  -999.2500  -999.2500  -999.2500
 1690.5000     8.9094   119.9730     8.7134   -49.0542  -999.2500  -999.2500  -999.2500  -999.2500
 1691.0000     8.9325   120.0021     8.6955   -48.8747  -999.2500  -999.2500  -999.2500  -999.2500
 1691.5000     8.8241   120.0312     8.5582   -48.8791  -999.2500  -999.2500  -999.2500  -999.2500
 1692.0000     8.7207   120.0603     8.5254   -48.8836  -999.2500  -999.2500  -999.2500  -999.2500
 1692.5000     8.7087   121.5775     8.4030   -48.8881  -999.2500  -999.2500  -999.2500  -999.2500
 1693.0000     8.7192   123.0952     8.4000   -48.8933  -999.2500  -999.2500  -999.2500  -999.2500
 1693.5000     8.7923   124.6131     8.3970   -48.8977  -999.2500  -999.2500  -999.2500  -999.2500
 1694.0000     8.8379   124.8315     8.3940   -49.2006  -999.2500  -999.2500  -999.2500  -999.2500
 1694.5000     8.8508   126.1607     8.3910   -49.2049  -999.2500  -999.2500  -999.2500  -999.2500
 1695.0000     8.7888   126.1905     8.3134   -49.5078  -999.2500  -999.2500  -999.2500  -999.2500
 1695.5000     8.6252   126.2202     8.2358   -49.5122  -999.2500  -999.2500  -999.2500  -999.2500
 1696.0000     8.5644   124.7574     8.2323   -49.5166  -999.2500  -999.2500  -999.2500  -999.2500
 1696.5000     8.5337   124.7917     8.2293   -49.5209  -999.2500  -999.2500  -999.2500  -999.2500
 1697.0000     8.5329   124.8214     8.3757   -49.5254  -999.2500  -999.2500  -999.2500  -999.2500
 1697.5000     8.5622   124.1941     8.3728   -49.5299  -999.2500  -999.2500  -999.2500  -999.2500
 1698.0000     8.5915   123.3929     8.3699   -49.5740  -999.2500  -999.2500  -999.2500  -999.2500
 1698.5000     8.6509   122.6314     8.5162   -49.8373  -999.2500  -999.2500  -999.2500  -999.2500
 1699.0000     8.7402   121.9643     8.5133   -49.8418  -999.2500  -999.2500  -999.2500  -999.2500
 1699.5000     8.8296   120.5060     8.6597   -49.8462  -999.2500  -999.2500  -999.2500  -999.2500
 1700.0000     8.8889   120.3982     8.6567   -49.8507  -999.2500  -999.2500  -999.2500  -999.2500
