~VERSION INFORMATION
 VERS.                2.0:   CWLS LOG ASCII STANDARD - VERSION 2.0
 WRAP.                 NO:   ONE LINE PER DEPTH STEP
~WELL INFORMATION
#MNEM.UNIT      DATA TYPE    INFORMATION
#----------   ------------   ------------------------------
 STRT.F            8.0000:   START DEPTH
 STOP.F          598.0000:   STOP DEPTH
 STEP.F            0.5000:   STEP LENGTH
 NULL.          -999.2500:   NO VALUE
 COMP. FENIX & SCISSON INC:   COMPANY
 WELL.    16-SX-11 #16-11:   WELL
 FLD .             TEAPOT:   FIELD
 LOC .      S11 T38N R78W:   LOCATION
 CNTY.            NATRONA:   COUNTY
 STAT.            WYOMING:   STATE
 CTRY. UNITED STATES OF AMERICA:   COUNTRY
 SRVC.            Unknown:   SERVICE COMPANY
 DATE.        13-DEC-1978:   LOGDATE
 API .       490251078400:   API NUMBER
~CURVE INFORMATION
#MNEM.UNIT       API CODE    CURVE DESCRIPTION
#----------   ------------   ------------------------------
 DEPT.F                  :   
 RHOB.G/C3   45 350 01 00:   BULK DENSITY
 CORR.G/C3   45 356 01 00:   DENSITY CORRECTION
 SN  .OHMM   05 040 16 00:   SHORT NORMAL 16"
 ILD .OHMM   05 120 46 00:   INDUCTION LOG DEEP
 SPR .MV     05 010 01 00:   SPONTANEOUS POTENTIAL FROM RES.
 DPHI.DEC    45 890 12 00:   DENSITY POROSITY SANDSTONE
 CALD.IN     45 280 60 00:   CALIPER
 GRD .GAPI   45 310 01 00:   GAMMA RAY FROM DENSITY LOG
~PARAMETER INFORMATION
#MNEM.UNIT          VALUE    DESCRIPTION
#----------   ------------   ------------------------------
 PD  .                 GL:   PERMANENT DATUM
 EPD .F              5209:   ELEVATION PERMANENT DATUM
 LMF .                 KB:   LOG MEASURED FROM
 DAPD.F                 4:   FEET ABOVE PERMANENT DATUM
 DMF .                 KB:   DRILLING MEASURED FROM
 EKB .F              5213:   KELLING BUSHING
 EGL .F              5209:   GROUND LEVEL
 DATE.           12-13-78:   RUN DATE
 RUN .                  1:   RUN NUMBER
 DD  .F               590:   DEPTH DRILLER
 DL  .F               598:   DEPTH LOGGER
 BLI .F               591:   BOTTOM LOG INTERVAL
 TLI .F                40:   TOP LOG INTERVAL
 CS  .IN            8.625:   CASING SIZE
 CBD .F                40:   CASING BOTTOM DRILLER
 CBL .F                25:   CASING BOTTOM LOGGER
 BS  .IN            7.875:   BIT SIZE
 BSD .F               590:   BIT SIZE AT DEPTH
 DFT .                KCL:   DRILLING FLUID TYPE
 DFD .                8.8:   DRILLING FLUID DENSITY
 DFV .                 37:   DRILLING FLUID VISCOSITY
 DFPH.                8.9:   DRILLING FLUID PH
 MSS .           FLOWLINE:   MUD SAMPLE SOURCE
 RMS .OHMM             .3:   RESISTIVITY MUD SAMPLE
 MST .F                56:   MUD SAMPLE TEMPERATURE
 RMF .OHMM            .26:   RESISTIVITY MUD FILTRATE SAMPLE
 MFST.F                66:   MUD FILTRATE SAMPLE TEMPERATURE
 RMC .OHMM            .24:   RESISTIVITY MUD CAKE
 MCST.F                66:   MUD CAKE SAMPLE TEMPERATURE
 MFSS.           MEASURED:   MUD FILTRATE SAMPLE SOURCE
 MCSS.           MEASURED:   MUD CAKE SAMPLE SOURCE
 RMB .OHMM            .29:   RESISTIVITY MUD AT BHT
 BHT .F                58:   BOTTOM HOLE TEMPERATURE
 TCS .HRS               3:   TIME CURCULATED STOPPED
 MRT .F                58:   MAXIMUM RECORDED TEMPERATURE
 LUN .               2958:   LOGGING UNIT NUMBER
 LUL .             CASPER:   LOGGING UNIT LOCATION
 ENGI.            ROLLINS:   RECORDING ENGINEER
 WITN.         RICHARDSON:   WITNESSED BY
 CLNT.            A2DTECH:   CLIENT CODE
 ORIG.       2", 5" PRINT:   ORIGIN OF DATA
 UWI .       490251078400:   UNIQUE WELL ID
 DICO. A2D Technologies, Inc.:   DIGITIZING COMPANY
~OTHER INFORMATION
~A    DEPT    RHOB       CORR         SN        ILD        SPR       DPHI       CALD         GRD  
# ...
  332.0000     2.4033     0.0105     3.5763     2.7593   -12.0892     0.1722     7.8696   103.8636
  332.5000     2.3879     0.0082     3.2901     2.7255   -11.4069     0.1788     7.8732   106.5064
  333.0000     2.3574     0.0098     3.1245     2.7476   -10.9950     0.2012     7.8767   109.0863
  333.5000     2.3228     0.0117     3.0462     2.7811   -10.9776     0.2244     7.8804   105.8346
  334.0000     2.2883     0.0135     3.1292     2.9278   -11.0154     0.2476     7.8828   102.9102
  334.5000     2.2534     0.0217     3.5077     3.2363   -11.0516     0.2708     7.8701   101.0815
  335.0000     2.2388     0.0317     3.9319     3.5773   -11.0864     0.2810     7.8576    99.2938
  335.5000     2.2439     0.0417     4.4075     3.9542   -11.1212     0.2781     7.8450    96.9577
  336.0000     2.2847     0.0408     4.9405     4.3708   -11.1561     0.2650     7.8529    94.8438
  336.5000     2.3439     0.0330     5.5380     4.8313   -11.1909     0.2339     7.8664    94.7217
  337.0000     2.3971     0.0204     5.9770     5.3415   -11.2257     0.2079     7.8801    98.2222
  337.5000     2.4076     0.0116     6.2158     5.8746   -11.2606     0.1777     7.8938   102.1217
  338.0000     2.4224     0.0110     6.3615     5.9849   -11.2954     0.1706     7.9075   106.0196
  338.5000     2.4385     0.0102     6.5334     5.9381   -11.3302     0.1581     7.9212   107.9728
  339.0000     2.4505     0.0082     6.5733     5.8736   -11.3651     0.1457     7.9238   109.5041
  339.5000     2.4515     0.0057     6.5855     5.7786   -11.3999     0.1441     7.9244   113.4588
  340.0000     2.4489     0.0032     6.5977     5.6371   -11.4347     0.1456     7.9249   117.1592
  340.5000     2.4503     0.0022     6.6099     5.3542   -11.4698     0.1474     7.9255   118.1132
  341.0000     2.4539     0.0026     6.6238     5.2083   -11.5047     0.1439     7.9261   118.4607
  341.5000     2.4557     0.0030     6.4004     5.3005   -11.5377     0.1423     7.9266   116.3866
  342.0000     2.4514     0.0034     6.1512     5.3548   -11.4012     0.1430     7.9272   114.7958
  342.5000     2.4422     0.0038     5.9281     5.1829   -11.0311     0.1485     7.9278   110.4623
  343.0000     2.4332     0.0051     5.9064     5.0989   -10.6643     0.1539     7.9283   108.4160
  343.5000     2.4241     0.0072     5.8816     5.0658   -10.2968     0.1594     7.9289   108.6173
  344.0000     2.4154     0.0093     5.8736     5.1255    -9.9293     0.1649     7.9295   109.0045
  344.5000     2.4120     0.0115     6.0720     5.2083    -9.5610     0.1707     7.9300   114.6317
  345.0000     2.4119     0.0110     6.2625     5.4863    -9.1916     0.1711     7.9306   121.7854
  345.5000     2.4230     0.0097     6.4589     5.7576    -9.1594     0.1642     7.9312   122.9056
  346.0000     2.4380     0.0083     6.6615     6.0423    -9.2126     0.1551     7.9317   116.4604
  346.5000     2.4530     0.0069     6.8705     6.3410    -9.2663     0.1459     7.9323   111.5044
  347.0000     2.4686     0.0056     7.0860     6.6107    -9.3196     0.1351     7.9329   108.8457
  347.5000     2.4742     0.0042     7.3083     6.7799    -9.3728     0.1285     7.9334   106.2416
  348.0000     2.4754     0.0029     7.5378     6.9391    -9.4259     0.1296     7.9340   104.4152
  348.5000     2.4695     0.0015     7.7732     7.1407    -9.4786     0.1341     7.9346   104.8232
  349.0000     2.4627     0.0001     7.9758     7.2410    -9.5275     0.1386     7.9351   105.2654
  349.5000     2.4623     0.0003     8.1183     7.3022    -9.6946     0.1407     7.9357   105.7177
  350.0000     2.4622     0.0007     8.0889     7.3331    -9.8710     0.1390     7.9363   106.1894
  350.5000     2.4659     0.0011     8.0563     7.2333   -10.0479     0.1366     7.9368   105.7798
  351.0000     2.4696     0.0014     8.0239     7.1574   -10.2245     0.1341     7.9374   105.1280
  351.5000     2.4714     0.0018     7.9916     7.0822   -10.4009     0.1317     7.9380   104.4429
  352.0000     2.4706     0.0022     7.9308     7.0079   -10.5774     0.1315     7.9385   104.9045
  352.5000     2.4634     0.0025     7.8090     6.9344   -10.7542     0.1365     7.9391   107.2976
  353.0000     2.4561     0.0029     7.6891     6.8616   -10.9380     0.1414     7.9397   109.7362
  353.5000     2.4546     0.0033     7.5711     6.7896   -11.1765     0.1430     7.9402   112.2445
  354.0000     2.4539     0.0036     7.4546     6.7183   -11.4291     0.1442     7.9408   113.4985
  354.5000     2.4534     0.0040     7.3338     6.5487   -11.5768     0.1454     7.9414   112.2525
  355.0000     2.4540     0.0044     7.1685     6.3002   -11.6399     0.1445     7.9419   111.2704
  355.5000     2.4546     0.0047     6.9973     6.0359   -11.7011     0.1431     7.9425   110.8429
  356.0000     2.4553     0.0051     6.8299     5.6399   -11.7621     0.1419     7.9431   109.0009
  356.5000     2.4544     0.0055     6.6663     5.2700   -11.8232     0.1415     7.9424   107.8571
  357.0000     2.4534     0.0058     6.4562     5.1059   -11.8849     0.1425     7.9412   108.3987
  357.5000     2.4524     0.0060     6.1623     5.0935   -11.9452     0.1436     7.9401   107.8745
  358.0000     2.4470     0.0060     5.8843     5.0810   -11.9497     0.1446     7.9389   107.2462
  358.5000     2.4436     0.0060     5.6907     5.0686   -11.7682     0.1470     7.9377   108.6255
  359.0000     2.4387     0.0060     5.6603     5.0658   -11.4544     0.1496     7.9366   114.5802
  359.5000     2.4267     0.0060     5.8844     5.3049   -11.1421     0.1581     7.9354   120.5915
  360.0000     2.4116     0.0080     6.2201     5.6567   -10.9407     0.1671     7.9343   123.1138
  360.5000     2.3964     0.0110     6.6173     6.0326   -10.9607     0.1762     7.9331   123.8511
  361.0000     2.3921     0.0181     7.0398     6.4333   -10.9814     0.1847     7.9319   122.1473
  361.5000     2.4029     0.0155     7.4589     6.8602   -11.0028     0.1793     7.9308   118.9555
  362.0000     2.4247     0.0090     7.8962     7.1488   -11.0240     0.1683     7.9296   117.5558
  362.5000     2.4452     0.0043     8.1183     7.1904   -11.0452     0.1574     7.9285   113.4622
  363.0000     2.4550     0.0055     8.1409     7.2113   -11.0665     0.1469     7.9273   111.1516
  363.5000     2.4648     0.0067     8.1694     7.2736   -11.0877     0.1404     7.9261   109.0400
  364.0000     2.4744     0.0078     8.1978     7.3364   -11.1089     0.1339     7.9250   107.5463
  364.5000     2.4763     0.0090     8.2264     7.3997   -11.1301     0.1297     7.9238   108.9149
  365.0000     2.4748     0.0099     8.2551     7.4636   -11.1513     0.1309     7.9227   113.2076
  365.5000     2.4734     0.0092     8.2839     7.5394   -11.1726     0.1327     7.9215   117.5598
  366.0000     2.4761     0.0084     8.3128     7.5090   -11.1938     0.1304     7.9203   119.6290
  366.5000     2.4819     0.0077     8.3465     7.4726   -11.2150     0.1272     7.9192   118.3513
  367.0000     2.4876     0.0069     8.3259     7.4360   -11.2362     0.1240     7.9180   116.6003
  367.5000     2.4904     0.0062     8.3013     7.3998   -11.2575     0.1208     7.9169   116.0144
  368.0000     2.4892     0.0055     8.2766     7.3637   -11.2787     0.1194     7.9157   116.7662
  368.5000     2.4847     0.0047     8.2520     7.3278   -11.2999     0.1214     7.9145   114.7105
  369.0000     2.4802     0.0040     8.2275     7.2921   -11.3208     0.1243     7.9134   113.9134
  369.5000     2.4757     0.0032     8.2030     7.2656   -11.3396     0.1271     7.9122   112.7996
  370.0000     2.4734     0.0025     8.1786     7.2898   -11.4488     0.1300     7.9110   109.5988
  370.5000     2.4718     0.0017     8.1544     7.3092   -11.5696     0.1328     7.9099   106.7547
  371.0000     2.4703     0.0010     8.1301     7.3286   -11.6909     0.1347     7.9087   107.8520
  371.5000     2.4688     0.0002     8.1060     7.3481   -11.8111     0.1355     7.9076   111.5761
  372.0000     2.4694     0.0014     8.0819     7.3676   -11.9245     0.1362     7.9064   114.4112
