~VERSION INFORMATION
 VERS.                2.0:   CWLS LOG ASCII STANDARD - VERSION 2.0
 WRAP.                 NO:   ONE LINE PER DEPTH STEP
~WELL INFORMATION
#MNEM.UNIT      DATA TYPE    INFORMATION
#----------   ------------   ------------------------------
 STRT.F          974.5000:   START DEPTH
 STOP.F         2805.0000:   STOP DEPTH
 STEP.F            0.5000:   STEP LENGTH
 NULL.          -999.2500:   NO VALUE
 COMP.   FLUOR DANIEL INC:   COMPANY
 WELL. NAVAL PETROLEUM RESERVE 3 SHX- #38-14:   WELL
 FLD .             TEAPOT:   FIELD
 LOC .      S14 T38N R78W:   LOCATION
 CNTY.            NATRONA:   COUNTY
 STAT.            WYOMING:   STATE
 CTRY. UNITED STATES OF AMERICA:   COUNTRY
 SRVC.            Unknown:   SERVICE COMPANY
 DATE.        20-AUG-1995:   LOGDATE
 API .       490252273400:   API NUMBER
~CURVE INFORMATION
#MNEM.UNIT       API CODE    CURVE DESCRIPTION
#----------   ------------   ------------------------------
 DEPT.F                  :   
 ROP .MIN/FT 91 810 01 00:   RAT OF DRILLING PENETRATION
 TGAS.UNITS  91 830 01 00:   TOTAL GAS FROM HOTWIRE
~PARAMETER INFORMATION
#MNEM.UNIT          VALUE    DESCRIPTION
#----------   ------------   ------------------------------
 EKB .F              5264:   KELLING BUSHING
 EGL .F              5254:   GROUND LEVEL
 DATE.            8-20-95:   RUN DATE
 DD  .F              2805:   DEPTH DRILLER
 CBD .F               980:   CASING BOTTOM DRILLER
 ENGI.              TOWER:   RECORDING ENGINEER
 WITN.               HUSK:   WITNESSED BY
 CLNT.            A2DTECH:   CLIENT CODE
 ORIG.           5" PRINT:   ORIGIN OF DATA
 UWI .       490252273400:   UNIQUE WELL ID
 DICO. A2D Technologies, Inc.:   DIGITIZING COMPANY
~OTHER INFORMATION
~A   DEPT      ROP         TGAS 
  974.5000  -999.2500     0.8745
  975.0000  -999.2500     0.8637
  975.5000  -999.2500     0.8528
  976.0000  -999.2500     0.8420
  976.5000  -999.2500     0.8311
  977.0000  -999.2500     0.8203
  977.5000  -999.2500     0.8094
  978.0000  -999.2500     0.7986
  978.5000  -999.2500     0.7877
  979.0000  -999.2500     0.7769
  979.5000  -999.2500     0.7660
  980.0000  -999.2500     0.7552
  980.5000  -999.2500     0.7443
  981.0000  -999.2500     0.7335
  981.5000  -999.2500     0.7226
  982.0000  -999.2500     0.7118
  982.5000  -999.2500     0.7009
  983.0000  -999.2500     0.6901
  983.5000  -999.2500     0.6792
  984.0000  -999.2500     0.6684
  984.5000  -999.2500     0.6602
  985.0000     0.5300     0.6531
  985.5000     0.5308     0.6461
  986.0000     0.5207     0.6390
  986.5000     0.5215     0.6320
  987.0000     0.5114     0.6249
  987.5000     0.5122     0.6179
  988.0000     0.6652     0.6108
  988.5000     0.6660     0.6038
  989.0000     0.6779     0.5967
  989.5000     0.6676     0.5897
  990.0000     0.6686     0.5826
  990.5000     0.6694     0.5756
  991.0000     0.6702     0.5685
  991.5000     0.6710     0.5615
  992.0000     0.6607     0.5544
  992.5000     0.6618     0.5474
  993.0000     0.6734     0.5403
  993.5000     0.6742     0.5333
  994.0000     0.6533     0.5262
  994.5000     0.5019     0.5192
  995.0000     0.4918     0.5121
  995.5000     0.4927     0.5051
  996.0000     0.4935     0.4980
  996.5000     0.4945     0.4910
  997.0000     0.4953     0.4839
  997.5000     0.5069     0.4769
  998.0000     0.5077     0.4698
  998.5000     1.0194     0.4628
  999.0000     1.0311     0.4557
  999.5000     1.0427     0.4487
 1000.0000     1.0544     0.4433
 1000.5000     0.9139     0.4433
 1001.0000     0.7841     0.4433
 1001.5000     0.7851     0.4433
 1002.0000     0.7859     0.4433
 1002.5000     0.7867     0.4433
 1003.0000     0.7875     0.4433
 1003.5000     0.7883     0.4433
 1004.0000     0.7893     0.4433
 1004.5000     0.8010     0.4433
 1005.0000     0.8018     0.4433
 1005.5000     0.8026     0.4433
 1006.0000     0.8034     0.4433
 1006.5000     0.8042     0.4433
 1007.0000     0.8050     0.4433
 1007.5000     0.8058     0.4433
 1008.0000     0.8066     0.4433
 1008.5000     0.8074     0.4433
 1009.0000     0.8082     0.4433
 1009.5000     0.8090     0.4433
 1010.0000     0.8207     0.4433
 1010.5000     0.8215     0.4433
 1011.0000     0.8223     0.4433
 1011.5000     0.8233     0.4433
 1012.0000     0.8241     0.4433
 1012.5000     1.0423     0.4433
 1013.0000     1.0320     0.4433
 1013.5000     1.0330     0.4433
 1014.0000     1.0338     0.4433
 1014.5000     1.0346     0.4433
 1015.0000     1.0354     0.4433
 1015.5000     1.0362     0.4433
 1016.0000     1.0370     0.4433
 1016.5000     1.0378     0.4433
 1017.0000     1.0495     0.4433
 1017.5000     1.0503     0.4433
 1018.0000     1.0511     0.4433
 1018.5000     1.3186     0.4433
 1019.0000     1.3681     0.4433
 1019.5000     1.3578     0.4433
 1020.0000     1.3588     0.4433
 1020.5000     1.0660     0.4330
 1021.0000     1.0670     0.4219
 1021.5000     1.0678     0.4107
 1022.0000     1.0686     0.3996
 1022.5000     0.9172     0.3885
 1023.0000     0.8417     0.3774
 1023.5000     0.8210     0.3663
 1024.0000     0.8218     0.3552
 1024.5000     0.8769     0.3441
 1025.0000     1.0082     0.3330
 1025.5000     1.0198     0.3219
 1026.0000     1.0315     0.3107
 1026.5000     1.0325     0.2996
 1027.0000     1.0333     0.2885
 1027.5000     1.0341     0.2774
 1028.0000     1.0458     0.2663
 1028.5000     1.0466     0.2552
 1029.0000     1.0474     0.2441
 1029.5000     1.0590     0.2330
 1030.0000     0.5598     0.2217
 1030.5000     0.5496     0.2437
 1031.0000     0.5397     0.2661
 1031.5000     0.5405     0.2885
 1032.0000     0.5304     0.3109
 1032.5000     0.5312     0.3333
 1033.0000     0.5321     0.3557
 1033.5000     0.5329     0.3782
 1034.0000     0.5228     0.4006
 1034.5000     0.5238     0.4230
 1035.0000     0.5246     0.4454
 1035.5000     0.5254     0.4678
 1036.0000     0.5262     0.4902
 1036.5000     0.5270     0.5126
 1037.0000     0.5278     0.5350
 1037.5000     0.5175     0.5574
 1038.0000     0.5294     0.5798
 1038.5000     0.5302     0.6022
 1039.0000     0.5419     0.6246
 1039.5000     0.5535     0.6470
 1040.0000     0.5652     0.6650
 1040.5000     0.5641     0.6125
 1041.0000     0.5737     0.5686
 1041.5000     0.5726     0.5247
 1042.0000     0.5716     0.4808
 1042.5000     0.5705     0.4369
 1043.0000     0.5695     0.3930
 1043.5000     0.5684     0.3491
 1044.0000     0.5673     0.3052
 1044.5000     0.5663     0.2613
 1045.0000     0.5652     0.2174
 1045.5000     0.5630     0.1734
 1046.0000     0.5411     0.1295
 1046.5000     0.6490     0.0856
 1047.0000     0.6477     0.0417
 1047.5000     0.6466    -0.0022
 1048.0000     0.6455    -0.0461
 1048.5000     0.6445    -0.0900
 1049.0000     0.6546    -0.1339
 1049.5000     0.6641    -0.1778
 1050.0000     0.6630    -0.2217
 1050.5000     0.6609    -0.1996
 1051.0000     0.6498    -0.1776
 1051.5000     0.6487    -0.1555
 1052.0000     0.7564    -0.1335
 1052.5000     0.7553    -0.1114
 1053.0000     0.7542    -0.0894
 1053.5000     0.7532    -0.0673
 1054.0000     0.7521    -0.0453
 1054.5000     0.7511    -0.0232
 1055.0000     0.7500    -0.0012
 1055.5000     0.7489     0.0208
 1056.0000     0.7476     0.0429
 1056.5000     0.6379     0.0649
 1057.0000     0.6259     0.0870
 1057.5000     0.6249     0.1090
 1058.0000     0.6129     0.1311
 1058.5000     0.6119     0.1531
 1059.0000     0.6108     0.1752
 1059.5000     0.6098     0.1972
 1060.0000     0.6087     0.2193
 1060.5000     0.6076     0.2413
 1061.0000     0.6063     0.2634
 1061.5000     0.6052     0.2854
 1062.0000     0.6042     0.3075
 1062.5000     0.6031     0.3295
 1063.0000     0.6021     0.3516
 1063.5000     0.6010     0.3736
 1064.0000     0.5999     0.3957
 1064.5000     0.7087     0.4177
 1065.0000     0.6957     0.4398
 1065.5000     0.6946     0.4618
 1066.0000     0.6933     0.4838
 1066.5000     0.6922     0.5059
 1067.0000     0.7131     0.5279
 1067.5000     0.7230     0.5500
 1068.0000     0.5802     0.5720
 1068.5000     0.5574     0.5941
 1069.0000     0.5564     0.6161
 1069.5000     0.5771     0.6382
 1070.0000     0.5760     0.6602
 1070.5000     0.4554     0.6572
 1071.0000     0.4543     0.6346
 1071.5000     0.4533     0.6121
 1072.0000     0.4522     0.5895
 1072.5000     0.4511     0.5670
 1073.0000     0.4498     0.5444
 1073.5000     0.4487     0.5219
 1074.0000     0.4586     0.4993
 1074.5000     0.4575     0.4768
 1075.0000     0.4564     0.4543
 1075.5000     0.4554     0.4317
 1076.0000     0.4543     0.4092
 1076.5000     0.4533     0.3866
 1077.0000     0.4522     0.3641
 1077.5000     0.4511     0.3415
 1078.0000     0.4498     0.3190
 1078.5000     0.7207     0.2964
 1079.0000     0.7086     0.2739
 1079.5000     0.6966     0.2513
 1080.0000     0.6956     0.2288
 1080.5000     0.6945     0.2065
 1081.0000     0.6934     0.1844
 1081.5000     0.6924     0.1623
 1082.0000     0.7022     0.1401
 1082.5000     0.9409     0.1180
 1083.0000     0.9421     0.0958
 1083.5000     0.9433     0.0737
 1084.0000     0.9447     0.0515
 1084.5000     0.9459     0.0294
 1085.0000     0.9471     0.0073
 1085.5000     0.9483    -0.0149
 1086.0000     0.9495    -0.0370
 1086.5000     0.9616    -0.0592
 1087.0000     0.9628    -0.0813
 1087.5000     0.9640    -0.1034
 1088.0000     1.2154    -0.1256
 1088.5000     1.2166    -0.1477
 1089.0000     1.2178    -0.1699
 1089.5000     1.2190    -0.1920
 1090.0000     1.2311    -0.2141
 1090.5000     0.8950    -0.1933
 1091.0000     0.9074    -0.1597
 1091.5000     0.9303    -0.1262
 1092.0000     0.6829    -0.0927
 1092.5000     0.4653    -0.0592
 1093.0000     0.4668    -0.0257
 1093.5000     0.4680     0.0078
 1094.0000     0.4692     0.0413
 1094.5000     0.4812     0.0748
 1095.0000     0.4824     0.1083
 1095.5000     0.4836     0.1418
