~VERSION INFORMATION
 VERS.                2.0:   CWLS LOG ASCII STANDARD - VERSION 2.0
 WRAP.                 NO:   ONE LINE PER DEPTH STEP
~WELL INFORMATION
#MNEM.UNIT      DATA TYPE    INFORMATION
#----------   ------------   ------------------------------
 STRT.F           12.0000:   START DEPTH
 STOP.F          754.0000:   STOP DEPTH
 STEP.F            0.5000:   STEP LENGTH
 NULL.          -999.2500:   NO VALUE
 COMP. FENIX & SCISSON INC:   COMPANY
 WELL.    62 SX 34 #62-34:   WELL
 FLD .             TEAPOT:   FIELD
 LOC .      S34 T39N R78W:   LOCATION
 CNTY.            NATRONA:   COUNTY
 STAT.            WYOMING:   STATE
 CTRY. UNITED STATES OF AMERICA:   COUNTRY
 SRVC.            Unknown:   SERVICE COMPANY
 DATE.        20-AUG-1978:   LOGDATE
 API .       490251070200:   API NUMBER
~CURVE INFORMATION
#MNEM.UNIT       API CODE    CURVE DESCRIPTION
#----------   ------------   ------------------------------
 DEPT.F                  :   
 SPR .MV     05 010 01 00:   SPONTANEOUS POTENTIAL FROM RES.
 SN  .OHMM   05 040 16 00:   SHORT NORMAL 16"
 ILD .OHMM   05 120 46 00:   INDUCTION LOG DEEP
 GRD .GAPI   45 310 01 00:   GAMMA RAY FROM DENSITY LOG
 CALD.IN     45 280 60 00:   CALIPER
 RHOB.G/C3   45 350 01 00:   BULK DENSITY
 DPHI.DEC    45 890 12 00:   DENSITY POROSITY SANDSTONE
 CORR.G/C3   45 356 01 00:   DENSITY CORRECTION
~PARAMETER INFORMATION
#MNEM.UNIT          VALUE    DESCRIPTION
#----------   ------------   ------------------------------
 PD  .                 GL:   PERMANENT DATUM
 EPD .F              5039:   ELEVATION PERMANENT DATUM
 LMF .                 KB:   LOG MEASURED FROM
 DAPD.F                 4:   FEET ABOVE PERMANENT DATUM
 DMF .                 KB:   DRILLING MEASURED FROM
 EKB .F              5043:   KELLING BUSHING
 EGL .F              5039:   GROUND LEVEL
 DATE.            8-20-78:   RUN DATE
 RUN .                  1:   RUN NUMBER
 DD  .F               750:   DEPTH DRILLER
 DL  .F               755:   DEPTH LOGGER
 BLI .F               749:   BOTTOM LOG INTERVAL
 TLI .F                30:   TOP LOG INTERVAL
 CS  .IN            8.625:   CASING SIZE
 CBD .F                30:   CASING BOTTOM DRILLER
 CBL .F                34:   CASING BOTTOM LOGGER
 BS  .IN            7.875:   BIT SIZE
 BSD .F               750:   BIT SIZE AT DEPTH
 DFT .            KCL MUD:   DRILLING FLUID TYPE
 DFD .                8.6:   DRILLING FLUID DENSITY
 DFV .                 30:   DRILLING FLUID VISCOSITY
 DFPH.                9.5:   DRILLING FLUID PH
 DFL .               10.4:   DRILLING FLUID LOSS
 MSS .          FLOW LINE:   MUD SAMPLE SOURCE
 RMS .OHMM            .28:   RESISTIVITY MUD SAMPLE
 MST .F                76:   MUD SAMPLE TEMPERATURE
 RMF .OHMM            .24:   RESISTIVITY MUD FILTRATE SAMPLE
 MFST.F                80:   MUD FILTRATE SAMPLE TEMPERATURE
 RMC .OHMM            .34:   RESISTIVITY MUD CAKE
 MCST.F                82:   MUD CAKE SAMPLE TEMPERATURE
 MFSS.               MEAS:   MUD FILTRATE SAMPLE SOURCE
 MCSS.               MEAS:   MUD CAKE SAMPLE SOURCE
 BHT .F                72:   BOTTOM HOLE TEMPERATURE
 TCS .HRS               3:   TIME CURCULATED STOPPED
 MRT .F                72:   MAXIMUM RECORDED TEMPERATURE
 LUN .               2958:   LOGGING UNIT NUMBER
 LUL .               CASP:   LOGGING UNIT LOCATION
 ENGI.           REYNOLDS:   RECORDING ENGINEER
 WITN.              AMEND:   WITNESSED BY
 CLNT.            A2DTECH:   CLIENT CODE
 ORIG.           5" PRINT:   ORIGIN OF DATA
 UWI .       490251070200:   UNIQUE WELL ID
 DICO. A2D Technologies, Inc.:   DIGITIZING COMPANY
~OTHER INFORMATION
~A   DEPT      SPR         SN        ILD         GRD      CALD       RHOB       DPHI       CORR   
# ...
  700.5000   -55.1759    10.7466    11.6948    89.6926     7.1751     2.4884     0.1206     0.2097
  701.0000   -56.8613    10.7954    11.6221    90.0367     7.1396     2.4937     0.0991     0.2640
  701.5000   -54.8473    10.8445    11.6329    90.3837     7.1775     2.5201     0.0779     0.3147
  702.0000   -54.0245    10.8967    11.6562    90.5322     7.2370     2.5527     0.0649     0.3408
  702.5000   -52.7161    10.8967    11.6785    89.1463     7.2501     2.5739     0.0528     0.3387
  703.0000   -50.9014    10.8967    11.7010    87.6501     7.2372     2.5899     0.0441     0.3274
  703.5000   -50.0284    10.8967    11.7290    86.8011     7.2235     2.6058     0.0718     0.2839
  704.0000   -49.9187    10.7668    11.6133    90.2832     7.2147     2.6111     0.0975     0.2078
  704.5000   -50.0512    10.6013    11.4152    93.2132     7.2375     2.5325     0.1164     0.1313
  705.0000   -50.1815    10.4777    11.2204    90.6649     7.2821     2.4885     0.1143     0.0859
  705.5000   -50.3108    10.4217    11.0289    88.1017     7.3281     2.4906     0.1136     0.0762
  706.0000   -50.4393    10.3069    10.8407    86.7078     7.3708     2.4855     0.1244     0.0758
  706.5000   -50.5690    10.3454    10.6923    86.1842     7.3902     2.4754     0.1240     0.0802
  707.0000   -50.7616    10.3695    10.6674    85.6470     7.4064     2.4765     0.1168     0.0836
  707.5000   -51.2654    10.3936    10.6426    85.7777     7.4226     2.4841     0.1118     0.0869
  708.0000   -51.7604    10.4061    10.6179    87.5011     7.4620     2.4916     0.1106     0.0902
  708.5000   -52.3081    10.3745    10.5998    89.9937     7.4900     2.4960     0.1113     0.0912
  709.0000   -54.0256    10.3435    10.5990    91.4709     7.5174     2.4960     0.1120     0.0909
  709.5000   -55.7928    10.3090    10.6031    90.8921     7.5452     2.4956     0.1120     0.0905
  710.0000   -55.9148    10.3114    10.4421    90.8572     7.5724     2.4958     0.1096     0.0901
  710.5000   -53.1915    10.0344    10.2980    95.1882     7.6020     2.5001     0.1048     0.0897
  711.0000   -51.0830     9.8365    10.1565    92.2709     7.6677     2.5044     0.1040     0.0908
  711.5000   -50.7023     9.6426    10.0172  -999.2500     7.7505     2.5087     0.1033     0.0947
  712.0000   -50.7896     9.4524     9.8797  -999.2500     7.8333     2.5129     0.1019     0.0981
  712.5000   -50.8699     9.3399     9.7442  -999.2500     7.9163     2.5124     0.1003     0.1012
  713.0000   -50.9502     9.2697     9.6104  -999.2500     7.9574     2.5114     0.0980     0.1057
  713.5000   -51.0278     9.2053     9.5315  -999.2500     7.9459     2.5103     0.0940     0.1190
  714.0000   -50.9804     9.1414     9.4475  -999.2500     7.9348     2.5140     0.0899     0.1318
  714.5000   -50.9350     9.0770     9.3642  -999.2500     7.9238     2.5208     0.0857     0.1448
  715.0000   -51.2081     8.9634     9.2817  -999.2500     7.9184     2.5277     0.0844     0.1420
  715.5000   -51.4700     8.7935     9.1841  -999.2500     7.9507     2.5260     0.0923     0.1227
  716.0000   -51.7321     8.6279     9.0655  -999.2500     8.0232     2.5221     0.0947     0.1037
  716.5000   -51.9941     8.4654     8.9481  -999.2500     8.0795     2.5191     0.0873     0.0905
  717.0000   -52.2560     8.3447     8.8324  -999.2500     8.0728     2.5282     0.0808     0.0887
  717.5000   -52.5180     8.3447     8.7178  -999.2500     8.0660     2.5380     0.0769     0.0866
  718.0000   -52.7800     8.3447     8.6507  -999.2500     8.0594     2.5476     0.0796     0.0800
  718.5000   -53.0420     8.3447     8.6234  -999.2500     8.0527     2.5440     0.0894     0.0643
  719.0000   -53.3039     8.3440     8.5970  -999.2500     8.0461     2.5312     0.0992     0.0488
  719.5000   -53.5660     8.3459     8.5782  -999.2500     8.0393     2.5183     0.1096     0.0342
  720.0000   -53.8281     8.1921     8.4611  -999.2500     8.0380     2.5056     0.1100     0.0325
  720.5000   -54.0882     8.0908     8.3850  -999.2500     8.0429     2.4958     0.1102     0.0354
  721.0000   -54.3051     7.9911     8.3096  -999.2500     8.0511     2.4960     0.1089     0.0340
  721.5000   -54.4351     7.8927     8.2348  -999.2500     8.0594     2.4960     0.1074     0.0320
  722.0000   -54.3293     7.7955     8.1607  -999.2500     8.0677     2.4955     0.1147     0.0299
  722.5000   -54.2605     7.7241     8.0873  -999.2500     8.0760     2.4915     0.1162     0.0303
  723.0000   -54.2556     7.6729     8.0146  -999.2500     8.0843     2.4876     0.1182     0.0314
  723.5000   -54.3422     7.6222     7.9472  -999.2500     8.0925     2.4832     0.1202     0.0358
  724.0000   -54.6525     7.5682     7.8883  -999.2500     8.0983     2.4773     0.1250     0.0406
  724.5000   -55.7675     7.5137     7.8299  -999.2500     8.0982     2.4713     0.1325     0.0454
  725.0000   -56.8336     7.4596     7.7718  -999.2500     8.0984     2.4652     0.1344     0.0502
  725.5000   -56.1474     7.4059     7.7143  -999.2500     8.0876     2.4604     0.1227     0.0549
  726.0000   -55.4351     7.3525     7.5902  -999.2500     8.0728     2.4780     0.1138     0.0569
  726.5000   -55.4198     7.2996     7.4993  -999.2500     8.0578     2.4970     0.1017     0.0585
  727.0000   -55.3949     7.2470     7.4095  -999.2500     8.0429     2.5161     0.0908     0.0601
  727.5000   -55.3687     7.1948     7.3208  -999.2500     8.0279     2.5208     0.0992     0.0616
  728.0000   -55.3424     7.1429     7.2331  -999.2500     8.0129     2.5097     0.1052     0.0631
  728.5000   -55.3159     7.1203     7.1465  -999.2500     7.9980     2.5050     0.1052     0.0698
  729.0000   -55.2858     7.1020     6.9760  -999.2500     7.9830     2.5065     0.0974     0.0772
  729.5000   -55.2423     7.0836     6.7482  -999.2500     7.9681     2.5200     0.0864     0.0846
  730.0000   -55.6669     7.0393     6.5051  -999.2500     7.9531     2.5392     0.0754     0.0912
  730.5000   -58.6945     6.9378     6.3862  -999.2500     7.9381     2.5585     0.0676     0.0884
  731.0000   -54.8313     6.8378     6.3921  -999.2500     7.9232     2.5635     0.0731     0.0848
  731.5000   -53.8734     6.6912     6.3911  -999.2500     7.9082     2.5416     0.0795     0.0704
  732.0000   -54.1106     6.7339     6.3913  -999.2500     7.8932     2.5165     0.0860     0.0601
  732.5000   -53.8147     6.8155     6.4511  -999.2500     7.8783     2.4974     0.0924     0.0647
  733.0000   -51.9163     7.1277     6.6212  -999.2500     7.8633     2.5133     0.0960     0.0689
  733.5000   -51.2006     7.4724     6.9004  -999.2500     7.8483     2.5293     0.0821     0.0680
  734.0000   -50.8078     7.7330     7.2601  -999.2500     7.8333     2.5327     0.0900     0.0598
  734.5000   -50.4653     8.0073     7.6646  -999.2500     7.8183     2.5236     0.1029     0.0518
  735.0000   -50.5023     8.2914     8.0961  -999.2500     7.8211     2.5125     0.1063     0.0453
  735.5000   -50.5345     8.5449     8.2881  -999.2500     7.8249     2.5038     0.1062     0.0454
  736.0000   -50.5653     8.7967     8.3148  -999.2500     7.8287     2.5068     0.1036     0.0454
  736.5000   -50.5960     9.0560     8.3433  -999.2500     7.8324     2.5115     0.1009     0.0454
  737.0000   -50.6266     9.1489     8.3719  -999.2500     7.8362     2.5162     0.1007     0.0454
  737.5000   -50.6573     9.0638     8.4007  -999.2500     7.8399     2.5159     0.1020     0.0454
  738.0000   -50.6879     9.0731     8.4218  -999.2500     7.8437     2.5098     0.1044     0.0454
  738.5000   -50.7186     9.0839     8.3953  -999.2500     7.8474     2.5042     0.1076     0.0455
  739.0000   -50.7493     9.0932     8.3745  -999.2500     7.8512     2.5032     0.1059     0.0455
  739.5000   -50.7799     9.1024     8.3538  -999.2500     7.8549     2.5052     0.1038     0.0443
  740.0000   -50.8106     9.1116     8.3331  -999.2500     7.8560     2.5073     0.1017     0.0428
  740.5000   -50.8413     9.1208     8.3125  -999.2500     7.8479     2.5093     0.1026     0.0414
