~VERSION INFORMATION
 VERS.                2.0:   CWLS LOG ASCII STANDARD - VERSION 2.0
 WRAP.                 NO:   ONE LINE PER DEPTH STEP
~WELL INFORMATION
#MNEM.UNIT      DATA TYPE    INFORMATION
#----------   ------------   ------------------------------
 STRT.F         1050.0000:   START DEPTH
 STOP.F         2592.5000:   STOP DEPTH
 STEP.F            0.5000:   STEP LENGTH
 NULL.          -999.2500:   NO VALUE
 COMP. LAWRENCE/ALLISON INC:   COMPANY
 WELL. NAVAL PETROLEUM RESERVE 3 X15 #34-15:   WELL
 FLD .            WILDCAT:   FIELD
 LOC .      S15 T38N R78W:   LOCATION
 CNTY.            NATRONA:   COUNTY
 STAT.            WYOMING:   STATE
 CTRY. UNITED STATES OF AMERICA:   COUNTRY
 SRVC.            Unknown:   SERVICE COMPANY
 DATE.        07-AUG-1988:   LOGDATE
 API .       490251125500:   API NUMBER
~CURVE INFORMATION
#MNEM.UNIT       API CODE    CURVE DESCRIPTION
#----------   ------------   ------------------------------
 DEPT.F                  :   
 ROP .MIN/FT 91 810 01 00:   RATE OF DRILLING PENETRATION
 TGAS.UNITS  91 830 01 00:   TOTAL GAS FROM HOTWIRE
~PARAMETER INFORMATION
#MNEM.UNIT          VALUE    DESCRIPTION
#----------   ------------   ------------------------------
 EKB .F              5286:   KELLING BUSHING
 EGL .F              5276:   GROUND LEVEL
 DATE.           9-7-1988:   RUN DATE
 RUN .                  1:   RUN NUMBER
 DD  .F              2592:   DEPTH DRILLER
 CBD .F              1044:   CASING BOTTOM DRILLER
 ENGI.               HUSK:   RECORDING ENGINEER
 CLNT.            A2DTECH:   CLIENT CODE
 ORIG.           5" PRINT:   ORIGIN OF DATA
 UWI .       490251125500:   UNIQUE WELL ID
 DICO. A2D Technologies, Inc.:   DIGITIZING COMPANY
~OTHER INFORMATION
~A  DEPT         ROP     TGAS   
 1050.0000     0.2956  -999.2500
 1050.5000     0.2956  -999.2500
 1051.0000     0.2956  -999.2500
 1051.5000     0.2956  -999.2500
 1052.0000     0.2956  -999.2500
 1052.5000     0.2956  -999.2500
 1053.0000     0.2955  -999.2500
 1053.5000     0.2957  -999.2500
 1054.0000     0.3069  -999.2500
 1054.5000     0.3332  -999.2500
 1055.0000     0.3297  -999.2500
 1055.5000     0.3250  -999.2500
 1056.0000     0.3234  -999.2500
 1056.5000     0.3578  -999.2500
 1057.0000     0.4077  -999.2500
 1057.5000     0.4566  -999.2500
 1058.0000     0.4982  -999.2500
 1058.5000     0.4864  -999.2500
 1059.0000     0.4199  -999.2500
 1059.5000     0.3535  -999.2500
 1060.0000     0.3236  -999.2500
 1060.5000     0.3331     2.2626
 1061.0000     0.3424     2.2626
 1061.5000     0.3516     2.2626
 1062.0000     0.3553     2.2626
 1062.5000     0.3413     2.2626
 1063.0000     0.3280     2.2626
 1063.5000     0.3209     2.2626
 1064.0000     0.3203     2.2626
 1064.5000     0.3368     2.2626
 1065.0000     0.3945     2.2626
 1065.5000     0.4524     2.2626
 1066.0000     0.4980     2.2626
 1066.5000     0.4757     2.2626
 1067.0000     0.4266     2.2626
 1067.5000     0.3932     2.2626
 1068.0000     0.3838     2.2626
 1068.5000     0.3975     2.2626
 1069.0000     0.3964     2.2626
 1069.5000     0.3961     2.2626
 1070.0000     0.3939     2.2626
 1070.5000     0.4640     2.2626
 1071.0000     0.5479     2.2626
 1071.5000     0.6329     2.2626
 1072.0000     0.7185     2.2625
 1072.5000     0.7236     2.2626
 1073.0000     0.6522     2.2627
 1073.5000     0.5801     2.2771
 1074.0000     0.5083     2.3020
 1074.5000     0.4380     2.3270
 1075.0000     0.4185     2.3521
 1075.5000     0.4096     2.3772
 1076.0000     0.4084     2.4023
 1076.5000     0.3878     2.4274
 1077.0000     0.3654     2.4525
 1077.5000     0.3459     2.4776
 1078.0000     0.3486     2.5027
 1078.5000     0.3713     2.5278
 1079.0000     0.3941     2.5529
 1079.5000     0.4169     2.5780
 1080.0000     0.4404     2.6031
 1080.5000     0.4464     2.6281
 1081.0000     0.4467     2.6532
 1081.5000     0.4464     2.6783
 1082.0000     0.4269     2.7034
 1082.5000     0.4050     2.7286
 1083.0000     0.3831     2.7538
 1083.5000     0.3613     2.7956
 1084.0000     0.3456     2.8515
 1084.5000     0.3459     2.9075
 1085.0000     0.3460     2.9637
 1085.5000     0.3459     3.0198
 1086.0000     0.3336     3.0759
 1086.5000     0.3185     3.1321
 1087.0000     0.3084     3.1885
 1087.5000     0.3084     3.2450
 1088.0000     0.3510     3.3231
 1088.5000     0.3989     3.4159
 1089.0000     0.4468     3.5092
 1089.5000     0.4951     3.6029
 1090.0000     0.5452     3.6965
 1090.5000     0.5470     3.7900
 1091.0000     0.5333     3.8836
 1091.5000     0.5234     3.9773
 1092.0000     0.5546     4.0706
 1092.5000     0.5849     4.1649
 1093.0000     0.6153     4.2649
 1093.5000     0.6462     4.0983
 1094.0000     0.6358     3.8902
 1094.5000     0.5884     3.6268
 1095.0000     0.5424     3.2956
 1095.5000     0.4965     2.9658
 1096.0000     0.4499     2.6348
 1096.5000     0.4336     2.3068
 1097.0000     0.4386     2.3635
 1097.5000     0.4439     2.4804
 1098.0000     0.4329     2.5984
 1098.5000     0.4200     2.7159
 1099.0000     0.4006     2.8332
 1099.5000     0.3807     2.9507
 1100.0000     0.3736     3.0683
 1100.5000     0.3951     3.1842
 1101.0000     0.4192     3.2468
 1101.5000     0.4427     3.1528
 1102.0000     0.4586     3.0632
 1102.5000     0.4381     2.9743
 1103.0000     0.4186     2.8850
 1103.5000     0.4089     2.7891
 1104.0000     0.4088     2.9177
 1104.5000     0.4088     3.1432
 1105.0000     0.4088     3.3711
 1105.5000     0.4087     3.5978
 1106.0000     0.4089     3.7934
 1106.5000     0.4201     3.8681
 1107.0000     0.4329     3.9460
 1107.5000     0.4459     4.0245
 1108.0000     0.4409     4.1020
 1108.5000     0.4343     4.1814
 1109.0000     0.4278     4.2744
 1109.5000     0.4214     3.8182
 1110.0000     0.4149     3.2846
 1110.5000     0.4085     3.2649
 1111.0000     0.4020     3.2673
 1111.5000     0.3962     3.2681
 1112.0000     0.3962     3.2677
 1112.5000     0.4019     3.2658
 1113.0000     0.4085     3.2755
 1113.5000     0.4087     3.6299
 1114.0000     0.4091     4.0071
 1114.5000     0.4212     4.3858
 1115.0000     0.4685     4.7634
 1115.5000     0.5094     4.7797
 1116.0000     0.5093     4.7797
 1116.5000     0.4719     4.6881
 1117.0000     0.4300     4.5696
 1117.5000     0.4089     4.4506
 1118.0000     0.4111     4.3315
 1118.5000     0.4141     4.2742
 1119.0000     0.4173     4.2739
 1119.5000     0.4197     4.2736
 1120.0000     0.4550     4.2737
 1120.5000     0.5025     4.2737
 1121.0000     0.5501     4.2737
 1121.5000     0.5976     4.2737
 1122.0000     0.6231     4.2737
 1122.5000     0.5933     4.2737
 1123.0000     0.5509     4.2737
 1123.5000     0.5076     4.2737
 1124.0000     0.4650     4.2737
 1124.5000     0.4452     4.2737
 1125.0000     0.4484     4.2737
 1125.5000     0.4578     4.2737
 1126.0000     0.4667     4.2737
 1126.5000     0.4758     4.2737
 1127.0000     0.4836     4.2737
 1127.5000     0.4683     4.2737
 1128.0000     0.4524     4.2737
 1128.5000     0.4480     4.2737
 1129.0000     0.4514     4.2737
 1129.5000     0.4550     4.2737
 1130.0000     0.4593     4.2737
 1130.5000     0.4341     4.2737
 1131.0000     0.4031     4.2737
 1131.5000     0.3695     4.2737
 1132.0000     0.3575     4.2737
 1132.5000     0.3755     4.2737
 1133.0000     0.3832     4.2737
 1133.5000     0.3912     4.2737
 1134.0000     0.3963     4.2737
 1134.5000     0.3958     4.2737
 1135.0000     0.3929     4.2779
 1135.5000     0.3901     4.3064
 1136.0000     0.3873     4.3350
 1136.5000     0.3843     4.3635
 1137.0000     0.3846     4.3920
 1137.5000     0.3862     4.4205
 1138.0000     0.3879     4.4489
 1138.5000     0.3896     4.4774
 1139.0000     0.3913     4.5059
 1139.5000     0.3929     4.5344
 1140.0000     0.3944     4.5629
 1140.5000     0.3977     4.5914
 1141.0000     0.4327     4.6199
 1141.5000     0.4665     4.6483
 1142.0000     0.4703     4.6769
 1142.5000     0.4421     4.7056
 1143.0000     0.4212     4.7333
 1143.5000     0.4233     4.7610
 1144.0000     0.4248     4.6272
 1144.5000     0.4263     4.3319
 1145.0000     0.4277     4.0372
 1145.5000     0.4292     3.7706
 1146.0000     0.4307     3.7101
 1146.5000     0.4322     3.6560
 1147.0000     0.4339     3.6015
 1147.5000     0.4296     3.5469
 1148.0000     0.4244     3.4922
 1148.5000     0.4067     3.4376
 1149.0000     0.3705     3.3829
 1149.5000     0.3347     3.3283
 1150.0000     0.3070     3.2736
 1150.5000     0.3081     3.2190
 1151.0000     0.3082     3.1643
 1151.5000     0.3081     3.1097
 1152.0000     0.3079     3.0550
 1152.5000     0.3092     3.0004
 1153.0000     0.3561     2.9457
 1153.5000     0.4052     2.8908
 1154.0000     0.4474     2.8357
 1154.5000     0.4144     2.7814
 1155.0000     0.3806     2.8300
 1155.5000     0.3581     3.0767
 1156.0000     0.3585     3.3177
 1156.5000     0.3585     3.5598
 1157.0000     0.3585     3.7467
 1157.5000     0.3585     3.2917
 1158.0000     0.3585     3.1620
 1158.5000     0.3585     3.0501
 1159.0000     0.3584     2.9372
 1159.5000     0.3587     2.8234
 1160.0000     0.3666     2.8203
 1160.5000     0.3977     2.9277
 1161.0000     0.4278     3.0351
 1161.5000     0.4578     3.1432
 1162.0000     0.4846     3.2513
 1162.5000     0.4882     3.3593
 1163.0000     0.4915     3.4665
 1163.5000     0.4943     3.5727
 1164.0000     0.4842     3.6841
 1164.5000     0.4403     3.9892
 1165.0000     0.3984     5.2052
 1165.5000     0.3711     6.4185
 1166.0000     0.3729     7.6321
 1166.5000     0.3742     8.7752
 1167.0000     0.3755     8.8139
 1167.5000     0.3768     8.6056
 1168.0000     0.3781     8.3661
 1168.5000     0.3794     8.2980
 1169.0000     0.3808     8.2953
 1169.5000     0.3820     8.2958
 1170.0000     0.3823     8.2961
 1170.5000     0.4154     8.2961
 1171.0000     0.4547     8.2961
