~VERSION INFORMATION
 VERS.                2.0:   CWLS LOG ASCII STANDARD - VERSION 2.0
 WRAP.                 NO:   ONE LINE PER DEPTH STEP
~WELL INFORMATION
#MNEM.UNIT      DATA TYPE    INFORMATION
#----------   ------------   ------------------------------
 STRT.F            1.0000:   START DEPTH
 STOP.F          755.5000:   STOP DEPTH
 STEP.F            0.5000:   STEP LENGTH
 NULL.          -999.2500:   NO VALUE
 COMP. FENIX & SCISSON INC:   COMPANY
 WELL.       25-SX #25-14:   WELL
 FLD .        TEAPOT DOME:   FIELD
 LOC .      S14 T38N R78W:   LOCATION
 CNTY.            NATRONA:   COUNTY
 STAT.            WYOMING:   STATE
 CTRY. UNITED STATES OF AMERICA:   COUNTRY
 SRVC.           BIRDWELL:   SERVICE COMPANY
 DATE.        29-DEC-1978:   LOGDATE
 API .       490251076000:   API NUMBER
~CURVE INFORMATION
#MNEM.UNIT       API CODE    CURVE DESCRIPTION
#----------   ------------   ------------------------------
 DEPT.F                  :   
 SPR .MV     05 010 01 00:   SPONTANEOUS POTENTIAL FROM RES.
 SN  .OHMM   05 040 16 00:   SHORT NORMAL 16"
 IL  .OHMM   05 120 00 00:   INDUCTION LOG
 CALD.IN     45 280 60 00:   CALIPER
 GRD .GAPI   45 310 01 00:   GAMMA RAY FROM DENSITY LOG
 CORR.G/C3   45 356 01 00:   DENSITY CORRECTION
 DPHI.DEC    45 890 12 00:   DENSITY POROSITY SANDSTONE
 RHOB.G/C3   45 350 01 00:   BULK DENSITY
~PARAMETER INFORMATION
#MNEM.UNIT          VALUE    DESCRIPTION
#----------   ------------   ------------------------------
 PD  .                 GL:   PERMANENT DATUM
 EPD .F              5214:   ELEVATION PERMANENT DATUM
 LMF .                 KB:   LOG MEASURED FROM
 DAPD.F                 4:   FEET ABOVE PERMANENT DATUM
 DMF .                 KB:   DRILLING MEASURED FROM
 EKB .F              5218:   KELLING BUSHING
 EGL .F              5214:   GROUND LEVEL
 DATE.           12-29-79:   RUN DATE
 RUN .                  1:   RUN NUMBER
 DD  .F               765:   DEPTH DRILLER
 DL  .F               747:   DEPTH LOGGER
 BLI .F               740:   BOTTOM LOG INTERVAL
 TLI .F                40:   TOP LOG INTERVAL
 CS  .IN            8.625:   CASING SIZE
 CBD .F                40:   CASING BOTTOM DRILLER
 CBL .F                40:   CASING BOTTOM LOGGER
 BS  .IN            7.875:   BIT SIZE
 BSD .F               765:   BIT SIZE AT DEPTH
 DFT .                KCL:   DRILLING FLUID TYPE
 DFD .                8.8:   DRILLING FLUID DENSITY
 DFV .                 48:   DRILLING FLUID VISCOSITY
 DFPH.                9.2:   DRILLING FLUID PH
 MSS .           FLOWLINE:   MUD SAMPLE SOURCE
 RMS .OHMM            .17:   RESISTIVITY MUD SAMPLE
 MST .F                56:   MUD SAMPLE TEMPERATURE
 RMF .OHMM            .15:   RESISTIVITY MUD FILTRATE SAMPLE
 MFST.F                56:   MUD FILTRATE SAMPLE TEMPERATURE
 RMC .OHMM            .23:   RESISTIVITY MUD CAKE
 MCST.F                64:   MUD CAKE SAMPLE TEMPERATURE
 MFSS.           MEASURED:   MUD FILTRATE SAMPLE SOURCE
 MCSS.           MEASURED:   MUD CAKE SAMPLE SOURCE
 RMB .OHMM            .16:   RESISTIVITY MUD AT BHT
 BHT .F                59:   BOTTOM HOLE TEMPERATURE
 TCS .HRS              12:   TIME CURCULATED STOPPED
 MRT .F                59:   MAXIMUM RECORDED TEMPERATURE
 LUN .               2958:   LOGGING UNIT NUMBER
 LUL .             CASPER:   LOGGING UNIT LOCATION
 ENGI.            ROLLINS:   RECORDING ENGINEER
 WITN.         RICHARDSON:   WITNESSED BY
 CLNT.            A2DTECH:   CLIENT CODE
 ORIG.           5" PRINT:   ORIGIN OF DATA
 UWI .       490251076000:   UNIQUE WELL ID
 DICO. A2D Technologies, Inc.:   DIGITIZING COMPANY
~OTHER INFORMATION
~A    DEPT     SPR         SN         IL       CALD         GRD      CORR       DPHI       RHOB   
# ...
  163.0000   -63.3620     5.5150     4.5360     7.4970   113.7870     0.0460     0.1580     2.4100
  163.5000   -61.1100     5.9470     5.0590     7.4970   100.9110     0.0350     0.1540     2.4200
  164.0000   -58.3850     6.1960     5.5830     7.4970    89.6860     0.0280     0.1540     2.4180
  164.5000   -56.6230     6.3360     6.1060     7.4970    88.0410     0.0250     0.1490     2.4240
  165.0000   -55.8250     6.4770     6.4100     7.4970    87.9870     0.0230     0.1470     2.4320
  165.5000   -55.1350     6.6170     6.4950     7.4960    87.9640     0.0210     0.1460     2.4380
  166.0000   -54.5540     6.7580     6.5890     7.4910    89.2000     0.0200     0.1450     2.4400
  166.5000   -53.2140     6.8980     6.7200     7.4860    91.1220     0.0190     0.1440     2.4410
  167.0000   -51.5430     7.0390     6.8660     7.4820    92.0570     0.0230     0.1430     2.4410
  167.5000   -50.2250     7.1790     7.0120     7.4750    92.0950     0.0230     0.1440     2.4400
  168.0000   -48.9010     7.3200     7.1150     7.4250    91.5360     0.0220     0.1450     2.4380
  168.5000   -47.5810     7.4450     7.2000     7.4020    89.3820     0.0220     0.1490     2.4350
  169.0000   -46.2580     7.5530     7.2950     7.4130    88.1330     0.0220     0.1500     2.4320
  169.5000   -45.4180     7.6120     7.3770     7.4240    88.0000     0.0210     0.1510     2.4290
  170.0000   -45.0600     7.6650     7.4270     7.4350    87.8570     0.0210     0.1520     2.4280
  170.5000   -44.6970     7.7190     7.4770     7.4460    87.7210     0.0190     0.1490     2.4260
  171.0000   -44.1680     7.7720     7.5270     7.4570    87.5280     0.0170     0.1450     2.4270
  171.5000   -43.5520     7.8260     7.5770     7.4690    86.0070     0.0170     0.1460     2.4330
  172.0000   -43.2650     7.8800     7.6270     7.4780    83.9110     0.0220     0.1470     2.4380
  172.5000   -43.0780     7.9330     7.6830     7.4840    86.1410     0.0310     0.1480     2.4420
  173.0000   -42.8940     7.9600     7.7000     7.4890    91.0430     0.0320     0.1500     2.4390
  173.5000   -42.7060     7.9750     7.7180     7.4940    95.9440     0.0320     0.1510     2.4310
  174.0000   -42.4040     7.9900     7.7370     7.5000    99.3450     0.0300     0.1520     2.4230
  174.5000   -41.7760     8.0040     7.7560     7.5050    99.8170     0.0260     0.1510     2.4230
  175.0000   -41.4620     8.0190     7.7750     7.5100    99.5710     0.0220     0.1470     2.4320
  175.5000   -41.1700     8.0340     7.7940     7.5160    98.7470     0.0180     0.1480     2.4440
  176.0000   -40.8790     8.0490     7.8120     7.5100    97.2890     0.0140     0.1490     2.4380
  176.5000   -40.5880     8.0640     7.8310     7.5000    95.5330     0.0100     0.1510     2.4300
  177.0000   -40.3770     8.0790     7.8500     7.4900    94.3660     0.0090     0.1490     2.4270
  177.5000   -40.3810     8.1040     7.8690     7.4810    93.7480     0.0100     0.1490     2.4290
  178.0000   -40.3810     8.1380     7.9170     7.4710    92.9860     0.0110     0.1490     2.4320
  178.5000   -40.3810     8.1730     8.0330     7.4610    91.8900     0.0160     0.1500     2.4310
  179.0000   -40.3810     8.2090     8.1500     7.4510    90.6640     0.0180     0.1510     2.4290
  179.5000   -40.3810     8.2440     8.2660     7.4410    90.6010     0.0200     0.1520     2.4270
  180.0000   -40.3810     8.2790     8.3830     7.4440    90.6030     0.0230     0.1530     2.4260
  180.5000   -40.3810     8.3150     8.5110     7.4570    90.6040     0.0250     0.1530     2.4250
  181.0000   -40.3800     8.3500     8.5210     7.4700    90.6040     0.0260     0.1540     2.4240
  181.5000   -40.3580     8.3860     8.5320     7.4830    90.6030     0.0260     0.1550     2.4240
  182.0000   -40.3370     8.4390     8.5430     7.4960    90.6030     0.0270     0.1540     2.4230
  182.5000   -40.3160     8.4350     8.5540     7.5090    90.6010     0.0280     0.1580     2.4240
  183.0000   -40.2950     8.4270     8.5650     7.5160    90.5690     0.0280     0.1620     2.4210
  183.5000   -40.2740     8.4180     8.5760     7.5140    90.2830     0.0290     0.1660     2.4150
  184.0000   -40.2530     8.4100     8.5850     7.5120    89.5940     0.0300     0.1690     2.4080
  184.5000   -40.2330     8.4020     8.5520     7.5090    88.9000     0.0310     0.1730     2.4010
  185.0000   -40.2130     8.3940     8.5050     7.5070    88.6490     0.0310     0.1740     2.3940
  185.5000   -40.1920     8.3860     8.4590     7.5050    90.3690     0.0320     0.1700     2.3900
  186.0000   -40.2770     8.3780     8.4120     7.5020    92.9500     0.0330     0.1650     2.3910
  186.5000   -40.4680     8.3690     8.3660     7.5000    93.1680     0.0340     0.1580     2.4030
  187.0000   -40.6570     8.2890     8.3190     7.4980    91.3770     0.0360     0.1520     2.4190
  187.5000   -40.8470     8.1770     8.2480     7.4940    89.6700     0.0380     0.1490     2.4280
  188.0000   -40.9850     8.0650     8.1520     7.4900    89.2210     0.0390     0.1490     2.4280
  188.5000   -41.0250     7.9530     8.0560     7.4860    89.3250     0.0410     0.1500     2.4310
  189.0000   -41.0730     7.8410     7.9590     7.4820    89.6410     0.0430     0.1540     2.4330
  189.5000   -41.1210     7.7300     7.8630     7.4780    91.3130     0.0450     0.1590     2.4310
  190.0000   -41.1640     7.6180     7.7670     7.4640    93.0140     0.0460     0.1610     2.4220
  190.5000   -41.4800     7.5060     7.6710     7.4440    94.0750     0.0480     0.1620     2.4120
  191.0000   -41.9040     7.3940     7.5750     7.4240    94.2070     0.0500     0.1630     2.4080
  191.5000   -42.5170     7.2820     7.4880     7.4300    93.8690     0.0510     0.1670     2.4050
  192.0000   -43.7520     7.1710     7.2180     7.4490    93.1600     0.0500     0.1730     2.3990
  192.5000   -44.9420     7.1150     6.9720     7.4860    93.0330     0.0500     0.1780     2.3910
  193.0000   -46.1920     7.0570     6.7020     7.5310    94.4640     0.0500     0.1710     2.3830
  193.5000   -47.4270     6.9930     6.5260     7.5560    95.4030     0.0490     0.1660     2.3780
  194.0000   -48.6570     6.9350     6.2760     7.5520    95.5820     0.0460     0.1610     2.3830
  194.5000   -49.8840     6.7790     6.0250     7.5490    96.5350     0.0420     0.1540     2.3970
  195.0000   -51.0770     6.5850     5.7740     7.5460    97.6160     0.0380     0.1480     2.4100
  195.5000   -52.8270     6.3920     5.5230     7.5430    98.9790     0.0340     0.1390     2.4210
  196.0000   -54.5020     6.1980     5.2720     7.5400   101.1700     0.0300     0.1310     2.4330
  196.5000   -56.1740     6.0660     5.0210     7.5370   105.7210     0.0270     0.1230     2.4470
  197.0000   -57.4630     5.9950     4.8070     7.5330   109.0490     0.0260     0.1190     2.4610
  197.5000   -58.3720     5.9240     4.6800     7.5300   110.4460     0.0260     0.1180     2.4760
  198.0000   -59.1290     5.8470     4.5650     7.5270   112.9490     0.0260     0.1170     2.4900
  198.5000   -59.5000     5.8420     4.5690     7.5240   116.1720     0.0250     0.1180     2.4890
  199.0000   -59.8710     5.8370     4.5720     7.5210   117.3460     0.0250     0.1200     2.4870
  199.5000   -60.2440     5.8320     4.5750     7.5170   117.4360     0.0240     0.1220     2.4850
  200.0000   -60.6180     5.8270     4.5790     7.5170   117.5010     0.0240     0.1240     2.4810
  200.5000   -61.0020     5.8220     4.5820     7.5170   117.5530     0.0230     0.1260     2.4760
  201.0000   -61.0290     5.8170     4.5860     7.5170   117.4350     0.0230     0.1280     2.4710
  201.5000   -61.0350     5.8120     4.5890     7.5170   117.1910     0.0220     0.1210     2.4690
  202.0000   -61.0400     5.8070     4.5930     7.4890   115.3660     0.0220     0.1160     2.4770
  202.5000   -61.0470     5.8020     4.5960     7.4840   113.7900     0.0220     0.1150     2.4860
  203.0000   -61.0540     5.7970     4.5990     7.4920   113.5380     0.0210     0.1170     2.4940
