~VERSION INFORMATION
 VERS.                2.0:   CWLS LOG ASCII STANDARD - VERSION 2.0
 WRAP.                 NO:   ONE LINE PER DEPTH STEP
~WELL INFORMATION
#MNEM.UNIT      DATA TYPE    INFORMATION
#----------   ------------   ------------------------------
 STRT.F          974.5000:   START DEPTH
 STOP.F         2805.0000:   STOP DEPTH
 STEP.F            0.5000:   STEP LENGTH
 NULL.          -999.2500:   NO VALUE
 COMP.   FLUOR DANIEL INC:   COMPANY
 WELL. NAVAL PETROLEUM RESERVE 3 SHX- #38-14:   WELL
 FLD .             TEAPOT:   FIELD
 LOC .      S14 T38N R78W:   LOCATION
 CNTY.            NATRONA:   COUNTY
 STAT.            WYOMING:   STATE
 CTRY. UNITED STATES OF AMERICA:   COUNTRY
 SRVC.            Unknown:   SERVICE COMPANY
 DATE.        20-AUG-1995:   LOGDATE
 API .       490252273400:   API NUMBER
~CURVE INFORMATION
#MNEM.UNIT       API CODE    CURVE DESCRIPTION
#----------   ------------   ------------------------------
 DEPT.F                  :   
 ROP .MIN/FT 91 810 01 00:   RAT OF DRILLING PENETRATION
 TGAS.UNITS  91 830 01 00:   TOTAL GAS FROM HOTWIRE
~PARAMETER INFORMATION
#MNEM.UNIT          VALUE    DESCRIPTION
#----------   ------------   ------------------------------
 EKB .F              5264:   KELLING BUSHING
 EGL .F              5254:   GROUND LEVEL
 DATE.            8-20-95:   RUN DATE
 DD  .F              2805:   DEPTH DRILLER
 CBD .F               980:   CASING BOTTOM DRILLER
 ENGI.              TOWER:   RECORDING ENGINEER
 WITN.               HUSK:   WITNESSED BY
 CLNT.            A2DTECH:   CLIENT CODE
 ORIG.           5" PRINT:   ORIGIN OF DATA
 UWI .       490252273400:   UNIQUE WELL ID
 DICO. A2D Technologies, Inc.:   DIGITIZING COMPANY
~OTHER INFORMATION
~A   DEPT      ROP         TGAS 
# ...
 2311.0000     0.7030    10.1089
 2311.5000     0.6916    10.1127
 2312.0000     0.6695    10.1165
 2312.5000     0.6256    10.1203
 2313.0000     0.6252    10.1241
 2313.5000     0.6358    10.1279
 2314.0000     0.6353    10.1317
 2314.5000     0.6349    10.1355
 2315.0000     0.6454    10.1392
 2315.5000     0.6558    10.1430
 2316.0000     0.6663    10.1468
 2316.5000     0.6659    10.1506
 2317.0000     0.6655    10.1544
 2317.5000     0.6650    10.1582
 2318.0000     0.6646    10.1620
 2318.5000     0.6642    10.1658
 2319.0000     0.6529    10.1696
 2319.5000     0.6525    10.1734
 2320.0000     0.6521    10.1772
 2320.5000     0.6417    10.1809
 2321.0000     0.6422    10.1847
 2321.5000     0.6316    10.1885
 2322.0000     0.6321    10.1923
 2322.5000     0.6325    10.1961
 2323.0000     0.6329    10.1999
 2323.5000     0.6334    10.2037
 2324.0000     0.6338    10.2075
 2324.5000     0.6342    10.2113
 2325.0000     0.6346    10.2151
 2325.5000     0.6350    10.2189
 2326.0000     0.6353    10.2226
 2326.5000     0.6357    10.2264
 2327.0000     0.6361    10.2302
 2327.5000     0.6365    10.2340
 2328.0000     0.6370    10.2378
 2328.5000     0.6374    10.2416
 2329.0000     0.6378    10.2454
 2329.5000     0.6382    10.2492
 2330.0000     0.6386    10.2530
 2330.5000     0.6390    10.2568
 2331.0000     0.6394    10.2606
 2331.5000     0.6398    10.2644
 2332.0000     0.6403    10.2681
 2332.5000     0.6407    10.2719
 2333.0000     0.6411    10.2757
 2333.5000     0.6415    10.2795
 2334.0000     0.6527    10.2833
 2334.5000     0.6423    10.2871
 2335.0000     0.6427    10.2909
 2335.5000     0.6431    10.2947
 2336.0000     0.6436    10.2985
 2336.5000     0.6440    10.3023
 2337.0000     0.6443    10.3061
 2337.5000     0.6556    10.3098
 2338.0000     0.6560    10.3136
 2338.5000     0.6454    10.3174
 2339.0000     0.6459    10.3212
 2339.5000     0.6463    10.3250
 2340.0000     0.6467    10.3293
 2340.5000     0.6472    10.3358
 2341.0000     0.6476    10.3424
 2341.5000     0.6480    10.3489
 2342.0000     0.6484    10.3554
 2342.5000     0.6488    10.3620
 2343.0000     0.6492    10.3685
 2343.5000     0.6496    10.3751
 2344.0000     0.6391    10.3816
 2344.5000     0.6396    10.3881
 2345.0000     0.6400    10.3947
 2345.5000     0.6404    10.4012
 2346.0000     0.6408    10.4077
 2346.5000     0.6412    10.4143
 2347.0000     0.6416    10.4208
 2347.5000     0.6420    10.4274
 2348.0000     0.6424    10.4339
 2348.5000     0.6429    10.4404
 2349.0000     0.6541    10.4470
 2349.5000     0.6545    10.4535
 2350.0000     0.6549    10.4606
 2350.5000     0.6553    10.4627
 2351.0000     0.6448    10.4649
 2351.5000     0.6452    10.4672
 2352.0000     0.6457    10.4695
 2352.5000     0.6461    10.4718
 2353.0000     0.6465    10.4741
 2353.5000     0.6469    10.4763
 2354.0000     0.6364    10.4786
 2354.5000     0.6369    10.4809
 2355.0000     0.6481    10.4832
 2355.5000     0.6485    10.4854
 2356.0000     0.6489    10.4877
 2356.5000     0.6493    10.4900
 2357.0000     0.6498    10.4923
 2357.5000     0.6502    10.4945
 2358.0000     0.6506    10.4968
 2358.5000     0.6510    10.4991
 2359.0000     0.6514    10.5014
 2359.5000     0.6518    10.5036
 2360.0000     0.6522    10.5059
 2360.5000     0.6626    10.5039
 2361.0000     0.6621    10.5007
 2361.5000     0.6618    10.4975
 2362.0000     0.6614    10.4943
 2362.5000     0.6610    10.4911
 2363.0000     0.6497    10.4879
 2363.5000     0.6493    10.4847
 2364.0000     0.6489    10.4815
 2364.5000     0.6485    10.4783
 2365.0000     0.6481    10.4751
 2365.5000     0.6477    10.4719
 2366.0000     0.6472    10.4687
 2366.5000     0.6468    10.4655
 2367.0000     0.6464    10.4623
 2367.5000     0.6460    10.4591
 2368.0000     0.6456    10.4559
 2368.5000     0.6452    10.4527
 2369.0000     0.6448    10.4496
 2369.5000     0.6444    10.4464
 2370.0000     0.6440    10.4432
 2370.5000     0.6436    10.4400
 2371.0000     0.6431    10.4368
 2371.5000     0.6427    10.4336
 2372.0000     0.6423    10.4304
 2372.5000     0.6419    10.4272
 2373.0000     0.6415    10.4240
 2373.5000     0.6303    10.4208
 2374.0000     0.6299    10.4176
 2374.5000     0.6186    10.4144
 2375.0000     0.6182    10.4112
 2375.5000     0.6069    10.4080
 2376.0000     0.6064    10.4048
 2376.5000     0.6060    10.4016
 2377.0000     0.5948    10.3984
 2377.5000     0.5944    10.3952
 2378.0000     0.5940    10.3920
 2378.5000     0.5936    10.3888
 2379.0000     0.5932    10.3856
 2379.5000     0.5928    10.3824
 2380.0000     0.5924    10.3792
 2380.5000     0.5920    10.3893
 2381.0000     0.5915    10.4078
 2381.5000     0.5911    10.4264
 2382.0000     0.5907    10.4449
 2382.5000     0.5903    10.4635
 2383.0000     0.5899    10.4820
 2383.5000     0.6005    10.5005
 2384.0000     0.6109    10.5191
 2384.5000     0.6213    10.5376
 2385.0000     0.6318    10.5562
 2385.5000     0.6314    10.5747
 2386.0000     0.6309    10.5933
 2386.5000     0.6305    10.6118
 2387.0000     0.6410    10.6303
 2387.5000     0.6406    10.6489
 2388.0000     0.6402    10.6674
 2388.5000     0.6398    10.6860
 2389.0000     0.6394    10.7045
 2389.5000     0.6390    10.7231
 2390.0000     0.9212    10.7416
 2390.5000     0.9317    10.7601
 2391.0000     0.9312    10.7787
 2391.5000     0.9417    10.7972
 2392.0000     0.7239    10.8158
 2392.5000     0.7235    10.8343
 2393.0000     0.7231    10.8529
 2393.5000     0.7227    10.8714
 2394.0000     0.6353    10.8899
 2394.5000     0.6349    10.9085
 2395.0000     0.6345    10.9270
 2395.5000     0.6341    10.9456
 2396.0000     0.6446    10.9641
 2396.5000     0.6441    10.9827
 2397.0000     0.6547    11.0012
 2397.5000     0.6542    11.0197
 2398.0000     0.9256    11.0383
 2398.5000     0.9361    11.0568
 2399.0000     0.9356    11.0754
 2399.5000     0.9461    11.0939
 2400.0000     0.9022    11.1125
 2400.5000     0.6626    11.1063
 2401.0000     0.6621    11.0920
 2401.5000     0.6079    11.0778
 2402.0000     0.6076    11.0636
 2402.5000     0.6073    11.0494
 2403.0000     0.6071    11.0352
 2403.5000     0.6068    11.0209
 2404.0000     0.6065    11.0067
 2404.5000     0.6062    10.9925
 2405.0000     0.6059    10.9783
 2405.5000     0.6057    10.9640
 2406.0000     0.6054    10.9498
 2406.5000     0.6051    10.9356
 2407.0000     0.6158    10.9214
 2407.5000     0.6155    10.9072
 2408.0000     0.6152    10.8929
 2408.5000     0.6149    10.8787
 2409.0000     0.6146    10.8645
 2409.5000     0.6144    10.8503
 2410.0000     0.6141    10.8361
 2410.5000     0.6138    10.8218
 2411.0000     0.6136    10.8076
 2411.5000     0.6133    10.7934
 2412.0000     0.6239    10.7792
 2412.5000     0.6345    10.7650
 2413.0000     0.6451    10.7507
 2413.5000     0.6448    10.7365
 2414.0000     0.6555    10.7223
 2414.5000     0.6551    10.7081
 2415.0000     0.6658    10.6938
 2415.5000     0.6764    10.6796
 2416.0000     0.6761    10.6654
 2416.5000     0.6758    10.6512
 2417.0000     0.6864    10.6370
 2417.5000     0.6861    10.6227
 2418.0000     0.6859    10.6085
 2418.5000     0.6855    10.5943
 2419.0000     0.6853    10.5801
 2419.5000     0.6850    10.5659
 2420.0000     0.6847    10.5493
 2420.5000     0.6736    10.5438
 2421.0000     0.6734    10.5325
 2421.5000     0.6731    10.5213
 2422.0000     0.6728    10.5100
 2422.5000     0.6834    10.4987
 2423.0000     0.6818    10.4874
 2423.5000     0.6720    10.4761
 2424.0000     0.6717    10.4649
 2424.5000     0.6824    10.4536
 2425.0000     0.6820    10.4423
 2425.5000     0.6818    10.4310
 2426.0000     0.6815    10.4197
 2426.5000     0.6812    10.4085
 2427.0000     0.6810    10.3972
 2427.5000     0.6807    10.3859
 2428.0000     0.6804    10.3746
 2428.5000     0.6801    10.3633
 2429.0000     0.6798    10.3521
 2429.5000     0.6796    10.3408
 2430.0000     0.6793    10.3295
 2430.5000     0.6682    10.3182
 2431.0000     0.6571    10.3069
 2431.5000     0.6568    10.2957
 2432.0000     0.6565    10.2844
