~VERSION INFORMATION
 VERS.                2.0:   CWLS LOG ASCII STANDARD - VERSION 2.0
 WRAP.                 NO:   ONE LINE PER DEPTH STEP
~WELL INFORMATION
#MNEM.UNIT      DATA TYPE    INFORMATION
#----------   ------------   ------------------------------
 STRT.F           34.0000:   START DEPTH
 STOP.F          555.0000:   STOP DEPTH
 STEP.F            0.5000:   STEP LENGTH
 NULL.          -999.2500:   NO VALUE
 COMP. FENIX & SCISSON-U.S. NAVY:   COMPANY
 WELL.    NPR #3 #17-S-11:   WELL
 FLD .             TEAPOT:   FIELD
 LOC .      S11 T38N R78W:   LOCATION
 CNTY.            NATRONA:   COUNTY
 STAT.            WYOMING:   STATE
 CTRY. UNITED STATES OF AMERICA:   COUNTRY
 SRVC.       Schlumberger:   SERVICE COMPANY
 DATE.        20-FEB-1977:   LOGDATE
 API .       490251028100:   API NUMBER
~CURVE INFORMATION
#MNEM.UNIT       API CODE    CURVE DESCRIPTION
#----------   ------------   ------------------------------
 DEPT.F                  :   
 SPR .MV     07 010 01 00:   SPONTANEOUS POTENTIAL
 ILD .OHMM   07 120 46 00:   INDUCTION LOG DEEP
 ILM .OHMM   07 120 44 00:   INDUCTION LOG MEDIUM
 LL8 .OHMM   07 220 08 00:   LATEROLOG-8 RES.
 CALD.IN     45 280 60 00:   CALIPER FROM DENSITY LOG
 GRD .GAPI   45 310 01 00:   GAMMA RAY FROM DENSITY LOG
 CORR.G/C3   45 356 01 00:   DENSITY CORRECTION
 RHOB.G/C3   45 350 01 00:   BULK DENSITY
 DPHI.DEC    45 890 12 00:   DENSITY POROSITY SANDSTONE
~PARAMETER INFORMATION
#MNEM.UNIT          VALUE    DESCRIPTION
#----------   ------------   ------------------------------
 PD  .                 GL:   PERMANENT DATUM
 EPD .F              5204:   ELEVATION PERMANENT DATUM
 LMF .                 GL:   LOG MEASURED FROM
 DMF .                 GL:   DRILLING MEASURED FROM
 EKB .F              5209:   KELLING BUSHING
 EGL .F              5204:   GROUND LEVEL
 DATE.        20-FEB-1977:   RUN DATE
 RUN .                  1:   RUN NUMBER
 DD  .F               556:   DEPTH DRILLER
 DL  .F               556:   DEPTH LOGGER
 BLI .F               555:   BOTTOM LOG INTERVAL
 TLI .F                42:   TOP LOG INTERVAL
 CS  .IN            8.625:   CASING SIZE
 CBD .F                42:   CASING BOTTOM DRILLER
 CBL .F                42:   CASING BOTTOM LOGGER
 BS  .IN            7.875:   BIT SIZE
 BSD .F               556:   BIT SIZE AT DEPTH
 DFT .            KCL MUD:   DRILLING FLUID TYPE
 DFD .                8.8:   DRILLING FLUID DENSITY
 DFV .                 33:   DRILLING FLUID VISCOSITY
 DFPH.                8.0:   DRILLING FLUID PH
 DFL .                7.6:   DRILLING FLUID LOSS
 MSS .           FLOWLINE:   MUD SAMPLE SOURCE
 RMS .OHMM            .44:   RESISTIVITY MUD SAMPLE
 MST .F                66:   MUD SAMPLE TEMPERATURE
 RMF .OHMM            .41:   RESISTIVITY MUD FILTRATE SAMPLE
 MFST.F                66:   MUD FILTRATE SAMPLE TEMPERATURE
 MFSS.               MEAS:   MUD FILTRATE SAMPLE SOURCE
 TCS .HRS               3:   TIME CURCULATED STOPPED
 LUN .               7680:   LOGGING UNIT NUMBER
 LUL .               CSPR:   LOGGING UNIT LOCATION
 ENGI.             TAYLOR:   RECORDING ENGINEER
 WITN.               JAPP:   WITNESSED BY
 CLNT.            A2DTECH:   CLIENT CODE
 ORIG.           5" PRINT:   ORIGIN OF DATA
 UWI .       490251028100:   UNIQUE WELL ID
 DICO. A2D Technologies, Inc.:   DIGITIZING COMPANY
~OTHER INFORMATION
~A   DEPT      SPR        ILD        ILM        LL8       CALD        GRD       CORR       RHOB       DPHI   
   34.0000  -999.2500  -999.2500  -999.2500  -999.2500  -999.2500  -999.2500  -999.2500  -999.2500  -999.2500
   34.5000  -999.2500  -999.2500  -999.2500  -999.2500  -999.2500    62.9501  -999.2500  -999.2500  -999.2500
   35.0000  -999.2500  -999.2500  -999.2500  -999.2500  -999.2500    69.2911  -999.2500  -999.2500  -999.2500
   35.5000  -999.2500  -999.2500  -999.2500  -999.2500  -999.2500    70.8756  -999.2500  -999.2500  -999.2500
   36.0000  -999.2500  -999.2500  -999.2500  -999.2500  -999.2500    72.1973  -999.2500  -999.2500  -999.2500
   36.5000  -999.2500  -999.2500  -999.2500  -999.2500  -999.2500    72.8671  -999.2500  -999.2500  -999.2500
   37.0000  -999.2500  -999.2500  -999.2500  -999.2500  -999.2500    72.6320  -999.2500  -999.2500  -999.2500
   37.5000  -999.2500  -999.2500  -999.2500  -999.2500  -999.2500    71.7182  -999.2500  -999.2500  -999.2500
   38.0000  -999.2500  -999.2500  -999.2500  -999.2500  -999.2500    69.4468  -999.2500  -999.2500  -999.2500
   38.5000  -999.2500  -999.2500  -999.2500  -999.2500  -999.2500    68.9855  -999.2500  -999.2500  -999.2500
   39.0000  -999.2500  -999.2500  -999.2500  -999.2500  -999.2500    70.3341  -999.2500  -999.2500  -999.2500
   39.5000  -999.2500  -999.2500  -999.2500  -999.2500  -999.2500    71.6826  -999.2500  -999.2500  -999.2500
   40.0000  -999.2500  -999.2500  -999.2500  -999.2500  -999.2500    72.5787  -999.2500  -999.2500  -999.2500
   40.5000  -999.2500  -999.2500  -999.2500  -999.2500  -999.2500    73.9273  -999.2500  -999.2500  -999.2500
   41.0000  -999.2500  -999.2500  -999.2500  -999.2500  -999.2500    74.8234  -999.2500  -999.2500  -999.2500
   41.5000  -999.2500  -999.2500  -999.2500  -999.2500  -999.2500    74.8077  -999.2500  -999.2500  -999.2500
   42.0000  -999.2500  -999.2500  -999.2500  -999.2500  -999.2500    73.8763  -999.2500  -999.2500     0.3000
   42.5000   -59.2477     4.8761     5.3003     7.8337     8.6285    72.4925    -0.1519     1.7705     0.3000
   43.0000   -60.4924     1.6596     2.8675     8.8095     8.6431    73.4282    -0.0656     1.6017     0.3000
   43.5000   -61.1216     5.0861     1.6251     7.8848     8.6270    78.8492     0.0341     1.4955     0.3000
   44.0000   -61.7508   139.8149     2.9267     8.0484     8.5658    92.8675     0.0381     1.5376     0.3000
   44.5000   -62.3470   597.0322     5.6488     8.4459     8.4284   100.0984     0.0016     1.8325     0.2998
   45.0000   -62.5094  1136.5663     5.9282     9.0487     8.2587   101.2230     0.0303     2.2585     0.1505
   45.5000   -62.6719  1288.1388     5.8853     9.4999     8.2306   100.7594     0.0550     2.4526     0.1166
   46.0000   -62.8343    11.0494     6.5277     9.8275     8.2601    99.6193     0.0468     2.4617     0.1346
   46.5000   -62.8447    10.3789     6.6174     9.4257     8.2745    96.8955     0.0265     2.4249     0.1446
   47.0000   -62.8552     9.8169     6.4345     8.9785     8.2890    93.0404     0.0250     2.3986     0.1407
   47.5000   -62.8657     7.2364     6.3005     9.2285     8.3186    92.3528     0.0378     2.4197     0.1281
   48.0000   -62.8761     6.9400     6.2121     9.2266     8.3328    95.0950     0.0475     2.4453     0.1169
   48.5000   -62.8866     7.3991     6.1676     9.0353     8.3472    98.6931     0.0490     2.4664     0.1118
   49.0000   -63.0490    15.7037     6.7311     8.7870     8.3464    99.1135     0.0497     2.4514     0.1272
   49.5000   -63.2114    13.7333     7.7469     8.5456     8.3457    98.6499     0.0370     2.4281     0.1215
   50.0000   -63.2219     8.8054     6.4236     8.3684     8.3601    96.3804     0.0317     2.4560     0.1161
   50.5000   -63.2325     6.6943     5.9508     8.1950     8.3593    92.3025     0.0355     2.4613     0.1219
   51.0000   -63.2432     6.6925     5.9492     8.0808     8.3585    92.5243     0.0475     2.4493     0.1276
   51.5000   -63.5598     6.6906     5.9476     8.0234     8.3425    93.1986     0.0227     2.4237     0.1324
   52.0000   -63.8742     6.7821     6.0289     8.0218     8.3418    93.8729     0.0287     2.4125     0.1264
   52.5000   -64.3406     6.8278     6.0696     8.0202     8.3259    94.3221     0.0467     2.4554     0.1204
   53.0000   -64.6550     6.8255     6.1521     8.1339     8.3101    94.9964     0.0391     2.4412     0.1325
   53.5000   -64.8174     6.8237     6.2363     8.6993     8.3094    95.4433     0.0347     2.4103     0.1346
   54.0000   -64.8279     6.8693     6.3690     9.4621     8.3086    95.4389     0.0309     2.4358     0.1241
   54.5000   -64.8384     6.9151     6.5051     8.9507     8.3079    95.2082     0.0272     2.4477     0.1199
   55.0000   -64.8488     7.0128     6.6319     8.7047     8.3071    94.9774     0.0242     2.4322     0.1199
   55.5000   -64.8593     7.1617     6.6762     8.6430     8.3064    94.2542     0.0227     2.4138     0.1314
   56.0000   -64.8697     7.4044     6.7208     8.7016     8.3056    93.6100     0.0287     2.4385     0.1260
   56.5000   -64.8802     7.6103     6.7656     8.7597     8.3048    94.0581     0.0347     2.4534     0.1187
   57.0000   -64.8906     7.7679     6.8577     8.7580     8.3041    97.8998     0.0392     2.4314     0.1263
   57.5000   -64.9012     7.8741     6.9514     8.7562     8.3033   100.3840     0.0406     2.4575     0.1173
   58.0000   -64.7596     7.9818     7.0954     8.8151     8.3026    99.4746     0.0324     2.4467     0.1230
   58.5000   -64.7726     8.0356     7.1925     8.8745     8.3018    96.9815     0.0204     2.4216     0.1363
   59.0000   -64.7831     8.1454     7.3415     8.9343     8.3011    95.8458     0.0136     2.4101     0.1459
   59.5000   -64.7935     8.2562     7.4935     8.9324     8.3003    96.5201     0.0076     2.4167     0.1348
   60.0000   -64.6494     8.4272     7.6483     8.9306     8.2995    97.4207     0.0091     2.4365     0.1258
   60.5000   -64.8145     8.5425     7.8067     8.9287     8.2988    98.5474     0.0166     2.4568     0.1188
   61.0000   -64.8249     8.6593     7.9140     8.9269     8.2980    98.0860     0.0204     2.4658     0.1138
   61.5000   -64.9873     8.7170     8.0222     8.9866     8.2973    95.2617     0.0211     2.4618     0.1168
   62.0000   -64.9978     8.6545     8.0195     9.4958     8.2965    92.3469     0.0226     2.4651     0.1214
   62.5000   -65.0083     8.5924     8.0173    13.9833     8.2958    91.2888     0.0263     2.4674     0.1120
   63.0000   -65.1707     8.4129     7.9049    14.7764     8.2950    91.2843     0.0353     2.4764     0.1094
   63.5000   -65.1811     8.1809     7.7403     8.7949     8.2943    90.3749     0.0436     2.4830     0.1009
   64.0000   -65.1916     8.1222     7.5267     8.4358     8.2935    86.9768     0.0600     2.5164     0.0844
   64.5000   -65.0501     8.0640     7.2666     8.2609     8.2927    80.4113     0.0797     2.5315     0.0739
   65.0000   -65.0608     8.0061     7.0128     8.0339     8.2920    77.9181     0.0675     2.5277     0.0760
   65.5000   -65.0714     7.8939     6.8727     7.8674     8.2912    80.6286     0.0368     2.5412     0.0657
   66.0000   -64.9295     7.7832     6.8234     7.8658     8.2905    86.9590     0.0488     2.5307     0.0794
   66.5000   -64.7879     7.6211     6.7745     8.0847     8.2897    91.0270     0.0323     2.4907     0.1071
   67.0000   -64.6464     7.5142     6.7727     8.4839     8.2890    93.5112     0.0293     2.4666     0.1167
   67.5000   -64.5075     7.5121     6.7708     8.3080     8.2882    95.3243     0.0345     2.4522     0.1234
   68.0000   -64.5180     7.5101     6.8634     8.1320     8.2874    95.7648     0.0203     2.4447     0.1291
   68.5000   -64.5284     7.5602     6.9097     7.9671     8.2867    94.7398     0.0158     2.4477     0.1321
   69.0000   -64.5389     7.5644     6.9554     7.9651     8.2859    90.7774     0.0248     2.4639     0.1162
   69.5000   -64.5493     7.6610     7.0018     8.0748     8.2852    89.4155     0.0382     2.4793     0.1084
   70.0000   -64.2558     7.6589     6.9999     8.2991     8.2844    91.2211     0.0367     2.5118     0.0964
