~VERSION INFORMATION
 VERS.                2.0:   CWLS LOG ASCII STANDARD - VERSION 2.0
 WRAP.                 NO:   ONE LINE PER DEPTH STEP
~WELL INFORMATION
#MNEM.UNIT      DATA TYPE    INFORMATION
#----------   ------------   ------------------------------
 STRT.F           20.0000:   START DEPTH
 STOP.F          930.0000:   STOP DEPTH
 STEP.F            0.5000:   STEP LENGTH
 NULL.          -999.2500:   NO VALUE
 COMP. FENIX & SCISSON INC:   COMPANY
 WELL.     NPR 3 #45-S-14:   WELL
 FLD .        TEAPOT DOME:   FIELD
 LOC .      S14 T38N R78W:   LOCATION
 CNTY.            NATRONA:   COUNTY
 STAT.            WYOMING:   STATE
 CTRY. UNITED STATES OF AMERICA:   COUNTRY
 SRVC.           BIRDWELL:   SERVICE COMPANY
 DATE.        02-JAN-1979:   LOGDATE
 API .       490251076200:   API NUMBER
~CURVE INFORMATION
#MNEM.UNIT       API CODE    CURVE DESCRIPTION
#----------   ------------   ------------------------------
 DEPT.F                  :   
 GRD .GAPI   45 310 01 00:   GAMMA RAY FROM DENSITY LOG
 CALD.IN     45 280 60 00:   CALIPER
 RHOB.G/C3   45 350 01 00:   BULK DENSITY
 DPHI.DEC    45 890 12 00:   DENSITY POROSITY SANDSTONE
 CORR.G/C3   45 356 01 00:   DENSITY CORRECTION
~PARAMETER INFORMATION
#MNEM.UNIT          VALUE    DESCRIPTION
#----------   ------------   ------------------------------
 PD  .                 GL:   PERMANENT DATUM
 EPD .F              5261:   ELEVATION PERMANENT DATUM
 LMF .                 KB:   LOG MEASURED FROM
 DAPD.F                 4:   FEET ABOVE PERMANENT DATUM
 DMF .                 KB:   DRILLING MEASURED FROM
 EKB .F              5265:   KELLING BUSHING
 EGL .F              5261:   GROUND LEVEL
 DATE.             1-7-79:   RUN DATE
 RUN .                  1:   RUN NUMBER
 DD  .F               969:   DEPTH DRILLER
 DL  .F               928:   DEPTH LOGGER
 BLI .F               928:   BOTTOM LOG INTERVAL
 TLI .F                20:   TOP LOG INTERVAL
 CS  .IN            8.625:   CASING SIZE
 CBD .F                40:   CASING BOTTOM DRILLER
 CBL .F                46:   CASING BOTTOM LOGGER
 BS  .IN            7.875:   BIT SIZE
 BSD .F               969:   BIT SIZE AT DEPTH
 DFT .                KCL:   DRILLING FLUID TYPE
 DFD .                8.8:   DRILLING FLUID DENSITY
 DFV .                 42:   DRILLING FLUID VISCOSITY
 DFPH.                9.2:   DRILLING FLUID PH
 DFL .                 10:   DRILLING FLUID LOSS
 MSS .           FLOWLINE:   MUD SAMPLE SOURCE
 RMS .OHMM            .95:   RESISTIVITY MUD SAMPLE
 MST .F                60:   MUD SAMPLE TEMPERATURE
 RMF .OHMM            1.7:   RESISTIVITY MUD FILTRATE SAMPLE
 MFST.F                60:   MUD FILTRATE SAMPLE TEMPERATURE
 RMC .OHMM            1.6:   RESISTIVITY MUD CAKE
 MCST.F                60:   MUD CAKE SAMPLE TEMPERATURE
 MFSS.           MEASURED:   MUD FILTRATE SAMPLE SOURCE
 MCSS.           MEASURED:   MUD CAKE SAMPLE SOURCE
 RMB .OHMM            .98:   RESISTIVITY MUD AT BHT
 BHT .F                58:   BOTTOM HOLE TEMPERATURE
 TCS .HRS               4:   TIME CURCULATED STOPPED
 MRT .F                58:   MAXIMUM RECORDED TEMPERATURE
 LUN .               3006:   LOGGING UNIT NUMBER
 LUL .             CASPER:   LOGGING UNIT LOCATION
 ENGI.            ROLLINS:   RECORDING ENGINEER
 WITN.           DINSMORE:   WITNESSED BY
 CLNT.            A2DTECH:   CLIENT CODE
 ORIG.           5" PRINT:   ORIGIN OF DATA
 UWI .       490251076200:   UNIQUE WELL ID
 DICO. A2D Technologies, Inc.:   DIGITIZING COMPANY
~OTHER INFORMATION
~A   DEPT      GRD         CALD     RHOB       DPHI       CORR   
# ...
  874.0000    88.3790     7.7080     2.4250     0.1470     0.0460
  874.5000    85.9050     7.7260     2.4250     0.1520     0.0350
  875.0000    83.9810     7.7450     2.4230     0.1530     0.0230
  875.5000    84.4260     7.7630     2.4190     0.1550     0.0100
  876.0000    84.8830     7.7820     2.4180     0.1620     0.0050
  876.5000    85.3390     7.8000     2.4120     0.1720     0.0050
  877.0000    84.1630     7.8180     2.4030     0.1650     0.0090
  877.5000    83.7930     7.8260     2.4070     0.1510     0.0160
  878.0000    86.3150     7.8120     2.4160     0.1560     0.0090
  878.5000    88.9400     7.7980     2.4180     0.1600    -0.0010
  879.0000    90.6300     7.7900     2.4200     0.1560     0.0000
  879.5000    91.0770     7.7910     2.4230     0.1530     0.0010
  880.0000    90.3700     7.8210     2.4260     0.1500     0.0020
  880.5000    84.4980     7.8700     2.4270     0.1490     0.0030
  881.0000    84.1050     7.8570     2.4280     0.1480     0.0030
  881.5000    83.4370     7.8450     2.4280     0.1450     0.0040
  882.0000    82.6200     7.8330     2.4280     0.1520     0.0060
  882.5000    83.8490     7.8480     2.4270     0.1610     0.0130
  883.0000    88.7000     7.8700     2.4220     0.1540     0.0280
  883.5000    90.8210     7.8710     2.4210     0.1430     0.0410
  884.0000    91.8800     7.8740     2.4340     0.1350     0.0380
  884.5000    91.4790     7.8430     2.4440     0.1400     0.0280
  885.0000    92.6410     7.7180     2.4420     0.1430     0.0110
  885.5000    94.9810     7.8640     2.4370     0.1470     0.0040
  886.0000    93.5360     7.8490     2.4320     0.1500     0.0010
  886.5000    90.8160     7.8360     2.4300     0.1520     0.0000
  887.0000    88.1020     7.8450     2.4290     0.1530    -0.0010
  887.5000    86.4080     7.8690     2.4290     0.1500    -0.0010
  888.0000    86.5460     7.8900     2.4320     0.1450     0.0000
  888.5000    88.9300     7.8820     2.4350     0.1440     0.0000
  889.0000    92.4040     7.8730     2.4380     0.1430     0.0010
  889.5000    93.2580     7.8650     2.4380     0.1420     0.0030
  890.0000    92.3460     7.8560     2.4380     0.1410     0.0050
  890.5000    92.3890     7.8480     2.4380     0.1410     0.0070
  891.0000    92.5940     7.8390     2.4380     0.1410     0.0070
  891.5000    92.3310     7.8310     2.4380     0.1420     0.0070
  892.0000    91.2270     7.8620     2.4380     0.1440     0.0060
  892.5000    94.2600     7.8910     2.4380     0.1450     0.0060
  893.0000    95.9130     7.8910     2.4380     0.1420     0.0060
  893.5000    97.1280     7.8910     2.4380     0.1400     0.0060
  894.0000    96.1840     7.8910     2.4380     0.1420     0.0060
  894.5000    94.2510     7.8910     2.4380     0.1420     0.0060
  895.0000    90.9050     7.8910     2.4370     0.1410     0.0050
  895.5000    87.3790     7.8910     2.4360     0.1440     0.0050
  896.0000    84.5630     7.8910     2.4350     0.1480     0.0050
  896.5000    87.8250     7.8910     2.4280     0.1520     0.0070
  897.0000    93.5260     7.8910     2.4200     0.1540     0.0150
  897.5000    97.6440     7.8910     2.4160     0.1640     0.0190
  898.0000   107.7970     7.8910     2.4000     0.1750     0.0210
  898.5000   116.9130     7.8910     2.3830     0.1850     0.0180
  899.0000   120.5590     7.8910     2.3770     0.1780     0.0150
  899.5000   121.4400     7.8910     2.3910     0.1560     0.0120
  900.0000   117.9260     7.8910     2.4240     0.1340     0.0090
  900.5000   106.3480     7.8910     2.4550     0.1270     0.0190
  901.0000    98.1830     7.8910     2.4600     0.1260     0.0210
  901.5000    97.9990     7.8910     2.4600     0.1330     0.0190
  902.0000    95.5930     7.8910     2.4560     0.1330     0.0130
  902.5000    93.2920     7.8910     2.4540     0.1400     0.0080
  903.0000    93.9810     7.8910     2.4540     0.1390     0.0070
  903.5000    95.9020     7.8910     2.4540     0.1370     0.0110
  904.0000    96.4080     7.8910     2.4560     0.1320     0.0220
  904.5000    97.5200     7.8910     2.4600     0.1240     0.0330
  905.0000    98.7820     7.8910     2.4690     0.1200     0.0440
  905.5000    99.9070     7.8910     2.4790     0.1210     0.0520
  906.0000   100.3270     7.8910     2.4830     0.1210     0.0540
  906.5000   100.8000     7.8910     2.4830     0.1180     0.0620
  907.0000   100.4660     7.8910     2.4840     0.1140     0.0690
  907.5000    99.1110     7.8910     2.4910     0.1020     0.0730
  908.0000    96.7060     7.8910     2.4980     0.1010     0.0730
  908.5000    94.2870     7.8910     2.4990     0.1110     0.0630
  909.0000    91.9000     7.8800     2.4860     0.1180     0.0530
  909.5000    91.6960     7.8680     2.4760     0.1220     0.0430
  910.0000    91.8380     7.8560     2.4710     0.1250     0.0330
  910.5000    93.0860     7.8440     2.4650     0.1340     0.0220
  911.0000    95.6120     7.8320     2.4570     0.1410     0.0210
  911.5000    98.8060     7.8200     2.4460     0.1430     0.0230
  912.0000    98.6040     7.8080     2.4420     0.1420     0.0250
  912.5000    96.3590     7.7960     2.4420     0.1430     0.0270
  913.0000    93.0600     7.7840     2.4430     0.1440     0.0300
  913.5000    91.5450     7.7720     2.4420     0.1450     0.0330
  914.0000    94.2140     7.7850     2.4430     0.1430     0.0450
  914.5000    97.2160     7.8030     2.4470     0.1340     0.0640
  915.0000    97.5560     7.7860     2.4570     0.1330     0.0690
  915.5000    95.7910     7.7420     2.4650     0.1330     0.0700
  916.0000    93.7670     7.7300     2.4650     0.1310     0.0710
  916.5000    91.7310     7.7300     2.4660     0.1280     0.0770
  917.0000    90.8120     7.7300     2.4670     0.1220     0.0800
  917.5000    95.0000     7.7300     2.4670     0.1230     0.0790
  918.0000    96.5100     7.7300     2.4670     0.1240     0.0740
  918.5000    93.1730     7.7300     2.4660     0.1330     0.0690
  919.0000    90.0290     7.7300     2.4650     0.1330     0.0640
  919.5000    92.5200     7.7300     2.4640     0.1330     0.0650
  920.0000    96.6040     7.7300     2.4640     0.1290     0.0670
  920.5000    98.6480     7.7300     2.4690     0.1210     0.0690
  921.0000    99.8900     7.7300     2.4740     0.1190     0.0710
  921.5000    98.4170     7.7300     2.4750     0.1170     0.0660
  922.0000    95.2440     7.7300     2.4740     0.1250     0.0590
  922.5000    99.7320     7.7220     2.4720     0.1330     0.0520
  923.0000  -999.2500     7.6860     2.4620     0.1380     0.0550
  923.5000  -999.2500     7.6510     2.4580     0.1330     0.0670
  924.0000  -999.2500     7.6770     2.4590     0.1200     0.1100
  924.5000  -999.2500     7.7070     2.4660     0.1060     0.1510
  925.0000  -999.2500     7.7240     2.5150     0.0950     0.1650
  925.5000  -999.2500     7.6970     2.5270     0.0940     0.1640
  926.0000  -999.2500     7.6710     2.5270     0.0960     0.1640
  926.5000  -999.2500     7.6480     2.5260     0.0950     0.1640
  927.0000  -999.2500     7.6440     2.5270     0.0890     0.1640
  927.5000  -999.2500     7.6400     2.5280     0.0850     0.1630
  928.0000  -999.2500     7.6360     2.5300     0.0830     0.1630
  928.5000  -999.2500     7.6310     2.5310     0.0920     0.1600
  929.0000  -999.2500     7.6300  -999.2500  -999.2500     0.1580
  929.5000  -999.2500     7.6300  -999.2500  -999.2500  -999.2500
  930.0000  -999.2500     7.6300  -999.2500  -999.2500  -999.2500
