~VERSION INFORMATION
 VERS.                2.0:   CWLS LOG ASCII STANDARD - VERSION 2.0
 WRAP.                 NO:   ONE LINE PER DEPTH STEP
~WELL INFORMATION
#MNEM.UNIT      DATA TYPE    INFORMATION
#----------   ------------   ------------------------------
 STRT.F          442.0000:   START DEPTH
 STOP.F         2636.0000:   STOP DEPTH
 STEP.F            0.5000:   STEP LENGTH
 NULL.          -999.2500:   NO VALUE
 COMP. FENIX & SCISSON INC:   COMPANY
 WELL.     25 SHX 2 #25-2:   WELL
 FLD .             TEAPOT:   FIELD
 LOC .       S2 T38N R78W:   LOCATION
 CNTY.            NATRONA:   COUNTY
 STAT.            WYOMING:   STATE
 CTRY. UNITED STATES OF AMERICA:   COUNTRY
 SRVC.              Welex:   SERVICE COMPANY
 DATE.        07-JUN-1980:   LOGDATE
 API .       490251080200:   API NUMBER
~CURVE INFORMATION
#MNEM.UNIT       API CODE    CURVE DESCRIPTION
#----------   ------------   ------------------------------
 DEPT.F                  :   
 CALD.IN     45 280 60 00:   CALIPER
 GRD .GAPI   45 310 01 00:   GAMMA RAY FROM DENSITY LOG
 DPHI.DEC    45 890 12 00:   DENSITY POROSITY SANDSTONE
 CORR.G/C3   45 356 01 00:   DENSITY CORRECTION
 RHOB.G/C3   45 350 01 00:   BULK DENSITY
~PARAMETER INFORMATION
#MNEM.UNIT          VALUE    DESCRIPTION
#----------   ------------   ------------------------------
 PD  .                 GL:   PERMANENT DATUM
 EPD .F              5120:   ELEVATION PERMANENT DATUM
 LMF .                 KB:   LOG MEASURED FROM
 DAPD.F                10:   FEET ABOVE PERMANENT DATUM
 DMF .                 KB:   DRILLING MEASURED FROM
 EKB .F              5130:   KELLING BUSHING
 EGL .F              5120:   GROUND LEVEL
 DATE.             6-7-80:   RUN DATE
 RUN .                  1:   RUN NUMBER
 DD  .F              2652:   DEPTH DRILLER
 DL  .F              2638:   DEPTH LOGGER
 BLI .F              2636:   BOTTOM LOG INTERVAL
 TLI .F              1224:   TOP LOG INTERVAL
 BS  .IN             6.75:   BIT SIZE
 BSD .F              2652:   BIT SIZE AT DEPTH
 DFT .        AIR DRILLED:   DRILLING FLUID TYPE
 TCS .HRS               2:   TIME CURCULATED STOPPED
 MRT .F               125:   MAXIMUM RECORDED TEMPERATURE
 ENGI.               REIN:   RECORDING ENGINEER
 WITN.           DINSMORE:   WITNESSED BY
 CLNT.            A2DTECH:   CLIENT CODE
 ORIG.           5" PRINT:   ORIGIN OF DATA
 UWI .       490251080200:   UNIQUE WELL ID
 DICO. A2D Technologies, Inc.:   DIGITIZING COMPANY
~OTHER INFORMATION
~A   DEPT     CALD         GRD      DPHI       CORR       RHOB   
# ...
  808.0000     8.6512    68.6939     0.0412     0.1836     2.5553
  808.5000     8.6616    68.1691     0.0666     0.1453     2.5240
  809.0000     8.6924    67.6511     0.0772     0.1350     2.5123
  809.5000     8.7299    67.3434     0.0790     0.1367     2.5116
  810.0000     8.6160    67.6562     0.0677     0.1564     2.5287
  810.5000     8.6042    67.8940     0.0594     0.1781     2.5466
  811.0000     8.5301    67.5465     0.0562     0.1798     2.5496
  811.5000     8.4717    67.5420     0.0685     0.1616     2.5257
  812.0000     8.4874    67.5125     0.0735     0.1444     2.5184
  812.5000     8.4213    67.4854     0.0715     0.1400     2.5236
  813.0000     8.2979    67.4586     0.0732     0.1326     2.5183
  813.5000     8.2227    67.4318     0.0715     0.1285     2.5219
  814.0000     8.4267    67.4051     0.0834     0.1041     2.4962
  814.5000     8.5112    67.3783     0.0979     0.0794     2.4707
  815.0000     8.6080    67.3514     0.1086     0.0750     2.4619
  815.5000     8.7097    67.3239     0.0970     0.0986     2.4867
  816.0000     8.6646    67.2980     0.0847     0.1186     2.5010
  816.5000     8.5663    67.3320     0.0822     0.1147     2.5049
  817.0000     8.4663    67.6129     0.0747     0.1253     2.5188
  817.5000     8.4575    67.8636     0.0741     0.1149     2.5172
  818.0000     8.4755    67.7568     0.0787     0.1028     2.5106
  818.5000     8.4105    67.5900     0.0719     0.1113     2.5294
  819.0000     8.5082    68.0295     0.0424     0.1365     2.5710
  819.5000     8.6492    68.4596     0.0480     0.1463     2.5579
  820.0000     8.8014    68.7684     0.0540     0.1373     2.5536
  820.5000     8.8626    68.7627     0.0472     0.1484     2.5623
  821.0000     8.8711    68.7627     0.0592     0.1351     2.5379
  821.5000     8.9622    68.7629     0.0651     0.1266     2.5341
  822.0000     8.9497    68.7683     0.0634     0.1387     2.5377
  822.5000     8.8492    68.4967     0.0666     0.1276     2.5284
  823.0000     8.7477    68.1406     0.0695     0.1155     2.5275
  823.5000     8.6979    67.7835     0.0619     0.1218     2.5444
  824.0000     8.6485    67.4236     0.0531     0.1251     2.5544
  824.5000     8.6406    67.2795     0.0528     0.1170     2.5542
  825.0000     8.6741    67.2769     0.0536     0.1090     2.5520
  825.5000     8.6960    67.2769     0.0575     0.1031     2.5457
  826.0000     8.7471    67.2770     0.0652     0.0892     2.5334
  826.5000     8.7514    67.2760     0.0729     0.0741     2.5162
  827.0000     8.7270    67.2838     0.0782     0.0661     2.5114
  827.5000     8.7574    67.4525     0.0823     0.0635     2.5053
  828.0000     8.7862    67.6234     0.0835     0.0702     2.5099
  828.5000     8.7420    67.7934     0.0723     0.0795     2.5185
  829.0000     8.7463    67.9632     0.0707     0.0809     2.5270
  829.5000     8.7764    68.1330     0.0683     0.0825     2.5276
  830.0000     8.7668    68.3028     0.0710     0.0859     2.5241
  830.5000     8.7863    68.4726     0.0653     0.1017     2.5356
  831.0000     8.7849    68.6421     0.0558     0.1195     2.5533
  831.5000     8.6548    68.8122     0.0464     0.1346     2.5697
  832.0000     8.5903    68.9803     0.0428     0.1309     2.5675
  832.5000     8.5450    69.4272     0.0479     0.1230     2.5606
  833.0000     8.5367    70.1011     0.0472     0.1204     2.5559
  833.5000     8.5675    70.7761     0.0588     0.1098     2.5400
  834.0000     8.5330    71.4727     0.0659     0.0996     2.5330
  834.5000     8.5084    72.2554     0.0647     0.0970     2.5364
  835.0000     8.5662    72.8781     0.0655     0.0982     2.5341
  835.5000     8.6058    73.5491     0.0588     0.1020     2.5455
  836.0000     8.5226    74.2316     0.0576     0.1067     2.5488
  836.5000     8.5276    74.9097     0.0500     0.1187     2.5590
  837.0000     8.6153    75.2310     0.0455     0.1305     2.5681
  837.5000     8.6391    74.8843     0.0400     0.1424     2.5770
  838.0000     8.6643    74.5514     0.0357     0.1541     2.5839
  838.5000     8.6673    74.2159     0.0377     0.1607     2.5770
  839.0000     8.6612    74.2284     0.0464     0.1552     2.5660
  839.5000     8.6342    74.4782     0.0559     0.1424     2.5484
  840.0000     8.6083    74.7324     0.0651     0.1325     2.5314
  840.5000     8.5823    74.9682     0.0679     0.1403     2.5281
  841.0000     8.5555    75.3184     0.0591     0.1514     2.5473
  841.5000     8.5144    75.3673     0.0532     0.1533     2.5526
  842.0000     8.4479    75.5267     0.0584     0.1476     2.5464
  842.5000     8.3811    75.0154     0.0576     0.1438     2.5423
  843.0000     8.3172    75.4537     0.0565     0.1525     2.5508
  843.5000     8.3935    75.8601     0.0556     0.1448     2.5493
  844.0000     8.3778    76.2596     0.0655     0.1339     2.5326
  844.5000     8.4108    76.6604     0.0686     0.1230     2.5250
  845.0000     8.4744    77.0599     0.0690     0.1209     2.5262
  845.5000     8.5373    77.3857     0.0654     0.1209     2.5342
  846.0000     8.5719    77.3699     0.0619     0.1204     2.5381
  846.5000     8.5024    77.1588     0.0634     0.1176     2.5354
  847.0000     8.4199    76.9417     0.0651     0.1149     2.5343
  847.5000     8.4524    76.7634     0.0640     0.1175     2.5361
  848.0000     8.3799    77.3129     0.0620     0.1209     2.5390
  848.5000     8.3571    77.9382     0.0688     0.1046     2.5275
  849.0000     8.3655    78.5653     0.0772     0.0875     2.5113
  849.5000     8.3746    79.1909     0.0783     0.0867     2.5169
  850.0000     8.3837    79.8162     0.0727     0.0930     2.5219
  850.5000     8.3928    80.4425     0.0715     0.0939     2.5206
  851.0000     8.4015    81.0929     0.0662     0.1014     2.5320
  851.5000     8.4098    81.1583     0.0685     0.1043     2.5255
  852.0000     8.4395    81.0536     0.0773     0.0926     2.5056
  852.5000     8.4682    80.9450     0.0887     0.0800     2.4861
  853.0000     8.5052    80.9408     0.0966     0.0751     2.4816
  853.5000     8.5588    80.8312     0.0995     0.0748     2.4740
  854.0000     8.6412    80.6445     0.1073     0.0637     2.4602
  854.5000     8.7108    80.4566     0.1084     0.0648     2.4629
  855.0000     8.6059    80.2686     0.1046     0.0733     2.4694
  855.5000     8.4824    80.0809     0.1021     0.0714     2.4718
  856.0000     8.4248    79.8928     0.1002     0.0673     2.4743
  856.5000     8.4700    79.7011     0.0991     0.0711     2.4757
  857.0000     8.5306    79.4769     0.0973     0.0805     2.4820
  857.5000     8.5991    79.2569     0.0911     0.0898     2.4966
  858.0000     8.5715    79.0370     0.0839     0.0947     2.5007
  858.5000     8.4940    78.8170     0.0866     0.0886     2.4988
  859.0000     8.4880    78.5971     0.0806     0.1018     2.5082
  859.5000     8.4853    78.3763     0.0737     0.1166     2.5262
  860.0000     8.4824    78.1562     0.0675     0.1208     2.5282
  860.5000     8.4792    77.9668     0.0681     0.1185     2.5227
  861.0000     8.4762    78.1048     0.0765     0.1101     2.5142
  861.5000     8.4730    78.4958     0.0838     0.1026     2.5027
  862.0000     8.4657    78.8821     0.0787     0.1008     2.5016
  862.5000     8.4380    79.2687     0.0861     0.0947     2.5000
  863.0000     8.4129    79.6555     0.0862     0.0827     2.4904
  863.5000     8.4363    80.0419     0.0990     0.0644     2.4731
  864.0000     8.4617    80.4272     0.1102     0.0509     2.4588
  864.5000     8.4703    80.6617     0.1052     0.0639     2.4726
  865.0000     8.4710    80.6976     0.0966     0.0700     2.4786
  865.5000     8.4810    80.7356     0.1015     0.0632     2.4705
  866.0000     8.4900    80.7729     0.1034     0.0610     2.4757
  866.5000     8.4945    80.8105     0.0920     0.0707     2.4897
  867.0000     8.5007    80.8484     0.0839     0.0802     2.5044
  867.5000     8.5069    80.8854     0.0759     0.0896     2.5167
  868.0000     8.5614    80.9249     0.0743     0.0842     2.5141
  868.5000     8.6298    80.6508     0.0851     0.0725     2.5031
