~VERSION INFORMATION
 VERS.                2.0:   CWLS LOG ASCII STANDARD - VERSION 2.0
 WRAP.                 NO:   ONE LINE PER DEPTH STEP
~WELL INFORMATION
#MNEM.UNIT      DATA TYPE    INFORMATION
#----------   ------------   ------------------------------
 STRT.F           28.0000:   START DEPTH
 STOP.F          856.0000:   STOP DEPTH
 STEP.F            0.5000:   STEP LENGTH
 NULL.          -999.2500:   NO VALUE
 COMP. FENIX & SCISSON INC:   COMPANY
 WELL. NPR 3  76 SX #76-27:   WELL
 FLD .             TEAPOT:   FIELD
 LOC .      S27 T39N R78W:   LOCATION
 CNTY.            NATRONA:   COUNTY
 STAT.            WYOMING:   STATE
 CTRY. UNITED STATES OF AMERICA:   COUNTRY
 SRVC.            Unknown:   SERVICE COMPANY
 DATE.        06-SEP-1978:   LOGDATE
 API .       490251069600:   API NUMBER
~CURVE INFORMATION
#MNEM.UNIT       API CODE    CURVE DESCRIPTION
#----------   ------------   ------------------------------
 DEPT.F                  :   
 SPR .MV     05 010 01 00:   SPONTANEOUS POTENTIAL FROM RES.
 SN  .OHMM   05 040 16 00:   SHORT NORMAL 16"
 ILD .OHMM   05 120 46 00:   INDUCTION LOG DEEP
 NPHI.DEC    42 890 03 00:   NEUTRON POROSITY SANDSTONE
 GRD .GAPI   45 310 01 00:   GAMMA RAY FROM DENSITY LOG
 CALD.IN     45 280 60 00:   CALIPER
 RHOB.G/C3   45 350 01 00:   BULK DENSITY
 DPHI.DEC    45 890 12 00:   DENSITY POROSITY SANDSTONE
 CORR.G/C3   45 356 01 00:   DENSITY CORRECTION
~PARAMETER INFORMATION
#MNEM.UNIT          VALUE    DESCRIPTION
#----------   ------------   ------------------------------
 PD  .                 GL:   PERMANENT DATUM
 EPD .F              5062:   ELEVATION PERMANENT DATUM
 LMF .                 KB:   LOG MEASURED FROM
 DAPD.F                 4:   FEET ABOVE PERMANENT DATUM
 DMF .                 KB:   DRILLING MEASURED FROM
 EKB .F              5066:   KELLING BUSHING
 EGL .F              5062:   GROUND LEVEL
 DATE.             9-6-78:   RUN DATE
 RUN .                  1:   RUN NUMBER
 DD  .F               865:   DEPTH DRILLER
 DL  .F               857:   DEPTH LOGGER
 BLI .F               851:   BOTTOM LOG INTERVAL
 TLI .F                40:   TOP LOG INTERVAL
 CS  .IN            8.625:   CASING SIZE
 CBD .F                43:   CASING BOTTOM DRILLER
 CBL .F                43:   CASING BOTTOM LOGGER
 BS  .IN            7.875:   BIT SIZE
 BSD .F               865:   BIT SIZE AT DEPTH
 DFT .                KCL:   DRILLING FLUID TYPE
 DFD .                8.4:   DRILLING FLUID DENSITY
 DFV .                 40:   DRILLING FLUID VISCOSITY
 DFPH.                  9:   DRILLING FLUID PH
 DFL .                  6:   DRILLING FLUID LOSS
 MSS .           FLOWLINE:   MUD SAMPLE SOURCE
 RMS .OHMM            .14:   RESISTIVITY MUD SAMPLE
 MST .F                84:   MUD SAMPLE TEMPERATURE
 RMF .OHMM             .1:   RESISTIVITY MUD FILTRATE SAMPLE
 MFST.F                94:   MUD FILTRATE SAMPLE TEMPERATURE
 RMC .OHMM            .18:   RESISTIVITY MUD CAKE
 MCST.F                92:   MUD CAKE SAMPLE TEMPERATURE
 MFSS.               MEAS:   MUD FILTRATE SAMPLE SOURCE
 MCSS.               MEAS:   MUD CAKE SAMPLE SOURCE
 RMB .OHMM           .145:   RESISTIVITY MUD AT BHT
 BHT .F                82:   BOTTOM HOLE TEMPERATURE
 TCS .HRS               3:   TIME CURCULATED STOPPED
 MRT .F                82:   MAXIMUM RECORDED TEMPERATURE
 LUN .               2958:   LOGGING UNIT NUMBER
 LUL .               CASP:   LOGGING UNIT LOCATION
 ENGI.           REYNOLDS:   RECORDING ENGINEER
 WITN.           MCGINLEY:   WITNESSED BY
 CLNT.            A2DTECH:   CLIENT CODE
 ORIG.           5" PRINT:   ORIGIN OF DATA
 UWI .       490251069600:   UNIQUE WELL ID
 DICO. A2D Technologies, Inc.:   DIGITIZING COMPANY
~OTHER INFORMATION
~A   DEPT      SPR         SN        ILD       NPHI         GRD      CALD       RHOB       DPHI       CORR   
# ...
  356.5000   -89.4652     6.9688     5.4997  -999.2500    84.1186     7.6371     2.4525     0.1260     0.0148
  357.0000   -89.4813     7.0100     5.5926  -999.2500    82.9908     7.6483     2.4634     0.0960     0.0226
  357.5000   -89.4973     7.0806     5.7063  -999.2500    81.5203     7.6844     2.4877     0.0959     0.0230
  358.0000   -89.5134     7.1510     5.8979  -999.2500    77.7235     7.7296     2.5119     0.1074     0.0229
  358.5000   -89.5294     7.2222     6.0959  -999.2500    73.7502     7.7502     2.5273     0.1157     0.0223
  359.0000   -89.5455     7.2941     6.3006  -999.2500    73.6054     7.7505     2.5142     0.1165     0.0212
  359.5000   -89.5616     7.3667     6.5010  -999.2500    76.5684     7.7507     2.5004     0.1173     0.0201
  360.0000   -89.5777     7.4401     6.6610  -999.2500    79.7241     7.7571     2.4898     0.1180     0.0189
  360.5000   -89.5937     7.5142     6.8168  -999.2500    82.8901     7.7771     2.4876     0.1209     0.0178
  361.0000   -89.6098     7.5981     6.9762  -999.2500    84.1316     7.7967     2.4857     0.1293     0.0169
  361.5000   -89.6258     7.5678     6.9970  -999.2500    82.9304     7.8101     2.4821     0.1302     0.0169
  362.0000   -89.6419     7.5335     6.9977  -999.2500    84.2532     7.8099     2.4757     0.1305     0.0148
  362.5000   -89.6580     7.4992     6.9097  -999.2500    87.0852     7.8099     2.4706     0.1273     0.0146
  363.0000   -89.6740     7.4651     6.7840  -999.2500    87.2108     7.8099     2.4716     0.1307     0.0138
  363.5000   -89.6901     7.4312     6.6619  -999.2500    87.9572     7.8099     2.4726     0.1349     0.0130
  364.0000   -89.7062     7.3974     6.5420  -999.2500    89.2433     7.8084     2.4689     0.1350     0.0122
  364.5000   -89.7222     7.3637     6.4243  -999.2500    88.2824     7.7958     2.4644     0.1352     0.0114
  365.0000   -89.7383     7.3302     6.3246  -999.2500    85.5217     7.7711     2.4619     0.1343     0.0094
  365.5000   -89.7544     7.2969     6.3212  -999.2500    84.1606     7.6426     2.4627     0.1335     0.0089
  366.0000   -89.7704     7.2637     6.3176  -999.2500    83.1261     7.5160     2.4634     0.1327     0.0089
  366.5000   -89.7865     7.2307     6.3140  -999.2500    83.5468     7.4331     2.4642     0.1321     0.0090
  367.0000   -89.8026     7.1978     6.3103  -999.2500    84.7119     7.4433     2.4650     0.1356     0.0097
  367.5000   -89.8186     7.1651     6.3067  -999.2500    83.5431     7.4526     2.4654     0.1392     0.0105
  368.0000   -89.8347     7.1325     6.3032  -999.2500    81.8154     7.4623     2.4602     0.1396     0.0151
  368.5000   -89.8508     7.1087     6.2996  -999.2500    81.7344     7.4704     2.4548     0.1391     0.0352
  369.0000   -89.8668     7.0873     6.2959  -999.2500    81.8122     7.4944     2.4492     0.1215     0.0543
  369.5000   -89.8829     7.0659     6.2924  -999.2500    83.3969     7.4945     2.4592     0.1240     0.0547
  370.0000   -89.8989     7.0447     6.2888  -999.2500    85.5652     7.5419     2.4715     0.1261     0.0351
  370.5000   -89.9150     7.0234     6.2852  -999.2500    87.7191     7.5905     2.4840     0.1263     0.0242
  371.0000   -89.9311     7.0023     6.2816  -999.2500    88.8820     7.5952     2.4813     0.1242     0.0213
  371.5000   -89.9472     6.9812     6.2780  -999.2500    86.8805     7.5983     2.4759     0.1220     0.0195
  372.0000   -89.9632     6.9601     6.2744  -999.2500    86.2851     7.6015     2.4794     0.1252     0.0169
  372.5000   -89.9794     6.9392     6.2708  -999.2500    85.1040     7.6050     2.4822     0.1301     0.0148
  373.0000   -89.9954     6.9322     6.2673  -999.2500    82.6010     7.6082     2.4756     0.1313     0.0147
  373.5000   -90.0105     6.9829     6.2668  -999.2500    82.9342     7.6150     2.4690     0.1311     0.0142
  374.0000   -89.9668     7.0177     6.2668  -999.2500    85.9933     7.3873     2.4662     0.1309     0.0136
  374.5000   -89.8557     7.0528     6.2667  -999.2500    88.1686     7.0433     2.4676     0.1361     0.0130
  375.0000   -89.7453     7.0880     6.2664  -999.2500    89.5788     6.9131     2.4686     0.1430     0.0171
  375.5000   -89.6343     7.1234     6.2655  -999.2500    87.3952     6.9019     2.4609     0.1436     0.0230
  376.0000   -89.5236     7.1589     6.3483  -999.2500    85.2844     7.1696     2.4519     0.1419     0.0420
  376.5000   -89.4246     7.1947     6.4393  -999.2500    83.1909     7.4890     2.4487     0.1392     0.0813
  377.0000   -89.4274     7.2306     6.5793  -999.2500    81.7647     7.6357     2.4512     0.1327     0.1208
  377.5000   -89.4213     7.2667     6.8234  -999.2500    83.7747     7.6513     2.4657     0.1245     0.1558
  378.0000   -89.1480     7.3030     7.0738  -999.2500    86.2939     7.6698     2.4837     0.1163     0.1497
  378.5000   -88.3984     7.3394     7.1918  -999.2500    88.2787     7.6887     2.5018     0.1140     0.1154
  379.0000   -88.2723     7.3760     7.1698  -999.2500    87.8875     7.7078     2.5186     0.1142     0.0755
  379.5000   -88.1334     7.3920     7.1560  -999.2500    86.6685     7.7110     2.5127     0.1309     0.0353
  380.0000   -88.0621     7.3920     7.1423  -999.2500    85.1648     7.7111     2.4946     0.1351     0.0111
  380.5000   -88.1178     7.3920     7.1282  -999.2500    83.7832     7.7111     2.4767     0.1384     0.0055
  381.0000   -88.1714     7.4518     7.1256  -999.2500    84.3861     7.7110     2.4644     0.1377     0.0030
  381.5000   -88.2253     7.5128     7.1273  -999.2500    85.0551     7.7042     2.4575     0.1371     0.0030
  382.0000   -88.2791     7.5980     7.1256  -999.2500    85.7313     7.6693     2.4579     0.1368     0.0044
  382.5000   -88.3331     7.5808     6.9675  -999.2500    86.8306     7.6352     2.4582     0.1379     0.0090
  383.0000   -88.3875     7.5511     6.8187  -999.2500    87.6609     7.6011     2.4584     0.1388     0.0139
  383.5000   -88.4354     7.5220     6.6732  -999.2500    87.4387     7.5670     2.4586     0.1357     0.0192
  384.0000   -88.3788     7.4931     6.5609  -999.2500    87.2359     7.5327     2.4593     0.1292     0.0248
  384.5000   -88.3194     7.4601     6.5888  -999.2500    87.1041     7.4998     2.4608     0.1228     0.0191
  385.0000   -88.2615     7.4966     6.7014  -999.2500    87.6011     7.4701     2.4681     0.1240     0.0150
  385.5000   -88.1733     7.5527     6.8160  -999.2500    88.0660     7.4608     2.4752     0.1275     0.0101
  386.0000   -88.0807     7.6092     6.9326  -999.2500    88.0884     7.4570     2.4787     0.1310     0.0068
  386.5000   -87.6598     7.6662     7.0511  -999.2500    87.4940     7.5493     2.4733     0.1345     0.0071
  387.0000   -87.1168     7.7236     7.1717  -999.2500    86.6071     7.6198     2.4679     0.1375     0.0048
  387.5000   -87.0540     7.7814     7.2621  -999.2500    85.9751     7.3903     2.4626     0.1403     0.0051
  388.0000   -87.0543     7.8240     7.2774  -999.2500    85.4737     7.2943     2.4572     0.1420     0.0028
  388.5000   -87.0552     7.8498     7.2927  -999.2500    84.9632     7.2539     2.4519     0.1435     0.0055
  389.0000   -87.0553     7.8763     7.3080  -999.2500    85.0219     7.2189     2.4475     0.1449     0.0205
  389.5000   -87.0553     7.9028     7.3245  -999.2500    87.4574     7.2949     2.4471     0.1378     0.0445
  390.0000   -87.0553     7.9294     7.3231  -999.2500    89.2365     7.6548     2.4500     0.1286     0.0680
  390.5000   -87.0553     7.9561     7.7379  -999.2500    87.7044     7.7463     2.4581     0.1197     0.0828
  391.0000   -87.0554     7.9829     8.0629  -999.2500    86.2033     7.3156     2.4662     0.1197     0.0829
  391.5000   -87.0555     8.0098     8.4012  -999.2500    84.7086     7.2561     2.4743     0.1288     0.0728
  392.0000   -87.0564     8.0368     8.5326  -999.2500    83.1838     7.2081     2.4826     0.1337     0.0641
  392.5000   -87.0125     8.0638     8.5957  -999.2500    82.9241     7.1555     2.4743     0.1318     0.0555
