~VERSION INFORMATION
 VERS.                2.0:   CWLS LOG ASCII STANDARD - VERSION 2.0
 WRAP.                 NO:   ONE LINE PER DEPTH STEP
~WELL INFORMATION
#MNEM.UNIT      DATA TYPE    INFORMATION
#----------   ------------   ------------------------------
 STRT.F            0.0000:   START DEPTH
 STOP.F         4535.0000:   STOP DEPTH
 STEP.F            0.5000:   STEP LENGTH
 NULL.          -999.2500:   NO VALUE
 COMP.   FLUOR DANIEL INC:   COMPANY
 WELL.     56 X 15 #56-15:   WELL
 FLD .             TEAPOT:   FIELD
 LOC .      S15 T38N R78W:   LOCATION
 CNTY.            NATRONA:   COUNTY
 STAT.            WYOMING:   STATE
 CTRY. UNITED STATES OF AMERICA:   COUNTRY
 SRVC.      Dresser Atlas:   SERVICE COMPANY
 DATE.        03-MAY-1984:   LOGDATE
 API .       490252268500:   API NUMBER
~CURVE INFORMATION
#MNEM.UNIT       API CODE    CURVE DESCRIPTION
#----------   ------------   ------------------------------
 DEPT.F                  :   
 CNC .DEC    42 890 03 00:   NEUTRON POROSITY SANDSTONE
 PORD.DEC    45 890 12 00:   POROSITY DENSITY SANDSTONE
 RHOB.G/C3   45 350 01 00:   BULK DENSITY
 CORR.G/C3   45 356 01 00:   DENSITY CORRECTION
 DT  .US/F   60 520 00 00:   INTERVAL TRANSIT TIME
 RILD.OHMM   07 120 46 00:   INDUCTION LOG DEEP RESISTIVITY
 RILM.OHMM   07 120 44 00:   INDUCTION LOG MEDIUM RESISTIVITY
 CALR.IN     07 280 01 00:   CALIPER FROM RESISTIVITY
 GRR .GAPI   07 310 01 00:   GAMMA RAY FROM RESISTIVITY LOG
 SPR .MV     07 010 01 00:   SPONTANEOUS POTENTIAL
 RFOC.OHMM   07 220 04 00:   RESISTIVITY FOCUSED LOG
~PARAMETER INFORMATION
#MNEM.UNIT          VALUE    DESCRIPTION
#----------   ------------   ------------------------------
 PD  .                 GL:   PERMANENT DATUM
 EPD .F              5326:   ELEVATION PERMANENT DATUM
 LMF .                 KB:   LOG MEASURED FROM
 DAPD.F                12:   FEET ABOVE PERMANENT DATUM
 DMF .                 KB:   DRILLING MEASURED FROM
 EKB .F              5338:   KELLING BUSHING
 EDF .F              5337:   DRILLING FLOOR
 EGL .F              5326:   GROUND LEVEL
 DATE.        03-MAY-1984:   RUN DATE
 RUN .                  1:   RUN NUMBER
 DD  .F              4547:   DEPTH DRILLER
 DL  .F              4539:   DEPTH LOGGER
 BLI .F              4536:   BOTTOM LOG INTERVAL
 TLI .F              1021:   TOP LOG INTERVAL
 CS  .IN            8.625:   CASING SIZE
 CBD .F              1027:   CASING BOTTOM DRILLER
 CBL .F              1021:   CASING BOTTOM LOGGER
 BS  .IN            7.875:   BIT SIZE
 BSD .F              4547:   BIT SIZE AT DEPTH
 DFT .            KCL GEL:   DRILLING FLUID TYPE
 DFD .                9.1:   DRILLING FLUID DENSITY
 DFV .                 44:   DRILLING FLUID VISCOSITY
 DFPH.                  8:   DRILLING FLUID PH
 DFL .               14.5:   DRILLING FLUID LOSS
 MSS .            MUDTANK:   MUD SAMPLE SOURCE
 RMS .OHMM           0.56:   RESISTIVITY MUD SAMPLE
 MST .F                73:   MUD SAMPLE TEMPERATURE
 RMF .OHMM           0.42:   RESISTIVITY MUD FILTRATE SAMPLE
 MFST.F                73:   MUD FILTRATE SAMPLE TEMPERATURE
 RMC .OHMM           0.71:   RESISTIVITY MUD CAKE
 MCST.F                73:   MUD CAKE SAMPLE TEMPERATURE
 MFSS.               MEAS:   MUD FILTRATE SAMPLE SOURCE
 MCSS.               CALC:   MUD CAKE SAMPLE SOURCE
 RMB .OHMM           0.29:   RESISTIVITY MUD AT BHT
 BHT .F               141:   BOTTOM HOLE TEMPERATURE
 TCS .HRS             3.5:   TIME CURCULATED STOPPED
 MRT .F               125:   MAXIMUM RECORDED TEMPERATURE
 LUN .               6302:   LOGGING UNIT NUMBER
 LUL .               CODY:   LOGGING UNIT LOCATION
 ENGI.              GETTY:   RECORDING ENGINEER
 WITN.           JENNINGS:   WITNESSED BY
 CLNT.            A2DTECH:   CLIENT CODE
 ORIG.           5" PRINT:   ORIGIN OF DATA
 UWI .       490252268500:   UNIQUE WELL ID
 DICO. A2D Technologies, Inc.:   DIGITIZING COMPANY
~OTHER INFORMATION
~A    DEPT     CNC       PORD       RHOB       CORR         DT       RILD       RILM       CALR         GRR       SPR       RFOC   
# ...
 2440.0000  -999.2500  -999.2500  -999.2500  -999.2500  -999.2500     8.4165     8.2546     8.1169   124.0835   -28.9355     9.4708
 2440.5000  -999.2500  -999.2500  -999.2500  -999.2500  -999.2500     8.5335     8.3687     8.1168   118.0746   -28.7756     9.4715
 2441.0000  -999.2500  -999.2500  -999.2500  -999.2500  -999.2500     8.6520     8.4845     8.1178   119.2729   -28.5021     9.4722
 2441.5000  -999.2500  -999.2500  -999.2500  -999.2500  -999.2500     8.6514     8.6018     8.1465   121.9727   -28.6594     9.4072
 2442.0000  -999.2500  -999.2500  -999.2500  -999.2500  -999.2500     8.6508     8.7205     8.1463   123.1717   -28.9665     9.3429
 2442.5000  -999.2500  -999.2500  -999.2500  -999.2500  -999.2500     8.5903     8.7193     8.1761   110.8557   -29.4235     9.3435
 2443.0000  -999.2500  -999.2500  -999.2500  -999.2500  -999.2500     8.5303     8.7182     8.1760   107.8498   -29.5808     9.4145
 2443.5000  -999.2500  -999.2500  -999.2500  -999.2500  -999.2500     8.4122     8.5969     8.1909   110.2492   -29.5880     9.6749
 2444.0000  -999.2500  -999.2500  -999.2500  -999.2500  -999.2500     8.2958     8.4773     8.1907   113.3325   -29.8952     9.8107
 2444.5000  -999.2500  -999.2500  -999.2500  -999.2500  -999.2500     8.1244     8.3016     8.1905   114.4476   -30.2024     9.3462
 2445.0000  -999.2500  -999.2500  -999.2500  -999.2500  -999.2500     8.0677     8.1859     8.1904   112.0415   -30.5097     8.9036
 2445.5000  -999.2500  -999.2500  -999.2500  -999.2500  -999.2500     8.1233     8.0721     8.1903   112.3389   -30.6685     8.4232
 2446.0000  -999.2500  -999.2500  -999.2500  -999.2500  -999.2500     8.1793     8.0710     8.1901   115.6393   -30.6758     8.0802
 2446.5000  -999.2500  -999.2500  -999.2500  -999.2500  -999.2500     8.1786     8.0699     8.1749   116.2377   -30.5331     8.1937
 2447.0000  -999.2500  -999.2500  -999.2500  -999.2500  -999.2500     8.1781     8.1252     8.1748   114.1319   -30.5404     8.4249
 2447.5000  -999.2500  -999.2500  -999.2500  -999.2500  -999.2500     8.1775     8.2373     8.1746   113.8294   -30.5477     8.7962
 2448.0000  -999.2500  -999.2500  -999.2500  -999.2500  -999.2500     8.1770     8.2362     8.1595   115.0270   -30.4048     9.2219
 2448.5000  -999.2500  -999.2500  -999.2500  -999.2500  -999.2500     8.1764     8.2351     8.1594   114.4234   -30.4123     9.0954
 2449.0000  -999.2500  -999.2500  -999.2500  -999.2500  -999.2500     8.1759     8.2340     8.1592   113.2192   -30.5697     8.7249
 2449.5000  -999.2500  -999.2500  -999.2500  -999.2500  -999.2500     8.1753     8.2326     8.1591   114.4169   -30.5786     8.4866
 2450.0000  -999.2500  -999.2500  -999.2500  -999.2500  -999.2500     8.1748     8.0622     8.1589   118.3205   -30.1352     8.4872
 2450.5000  -999.2500  -999.2500  -999.2500  -999.2500  -999.2500     8.1736     8.1172     8.1577   122.0274   -30.2880     9.0349
 2451.0000  -999.2500  -999.2500  -999.2500  -999.2500  -999.2500     8.2292     8.1158     8.1565   124.0073   -30.2909     9.1618
 2451.5000  -999.2500  -999.2500  -999.2500  -999.2500  -999.2500     8.2856     8.1715     8.1553   122.4949   -29.9940     9.0361
 2452.0000  -999.2500  -999.2500  -999.2500  -999.2500  -999.2500     8.2842     8.1701     8.1541   123.9876   -29.8470     8.9742
 2452.5000  -999.2500  -999.2500  -999.2500  -999.2500  -999.2500     8.2831     8.1690     8.1527   128.7837   -29.7000     8.9127
 2453.0000  -999.2500  -999.2500  -999.2500  -999.2500  -999.2500     8.2820     8.1679     8.1516   132.0783   -29.7036     8.9756
 2453.5000  -999.2500  -999.2500  -999.2500  -999.2500  -999.2500     8.2809     8.2809     8.1504   129.3647   -29.8565     9.0387
 2454.0000  -999.2500  -999.2500  -999.2500  -999.2500  -999.2500     8.3374     8.4547     8.1492   126.9535   -29.8594     9.1655
 2454.5000  -999.2500  -999.2500  -999.2500  -999.2500  -999.2500     8.3943     8.5115     8.1481   124.5424   -30.0122     9.0399
 2455.0000  -999.2500  -999.2500  -999.2500  -999.2500  -999.2500     8.4513     8.5101     8.1469   122.1313   -30.0151     9.0405
 2455.5000  -999.2500  -999.2500  -999.2500  -999.2500  -999.2500     8.4501     8.5090     8.1228   117.3177   -30.1680     9.1675
 2456.0000  -999.2500  -999.2500  -999.2500  -999.2500  -999.2500     8.4490     8.4490     8.1143   113.4051   -30.3208     9.4297
 2456.5000  -999.2500  -999.2500  -999.2500  -999.2500  -999.2500     8.4479     8.3895     8.1131   111.5891   -30.3244     9.8471
 2457.0000  -999.2500  -999.2500  -999.2500  -999.2500  -999.2500     8.4467     8.3884     8.1120   114.0843   -30.3273    10.0352
 2457.5000  -999.2500  -999.2500  -999.2500  -999.2500  -999.2500     8.4456     8.3293     8.1108   117.5809   -30.3303     9.5601
 2458.0000  -999.2500  -999.2500  -999.2500  -999.2500  -999.2500     8.4445     8.3861     8.0947   118.4753   -30.3332     8.7358
 2458.5000  -999.2500  -999.2500  -999.2500  -999.2500  -999.2500     8.4433     8.5021     8.0785   113.9598   -30.4860     8.5563
 2459.0000  -999.2500  -999.2500  -999.2500  -999.2500  -999.2500     8.4419     8.5601     8.0773   113.3527   -30.4889     8.7370
 2459.5000  -999.2500  -999.2500  -999.2500  -999.2500  -999.2500     8.4408     8.5587     8.0762   114.8433   -30.6418     9.2365
 2460.0000  -999.2500  -999.2500  -999.2500  -999.2500  -999.2500     8.4396     8.5575     8.0747   116.9367   -30.6447     9.5633
 2460.5000  -999.2500  -999.2500  -999.2500  -999.2500  -999.2500     8.4385     8.4972     8.0736   118.7297   -30.4803     9.6977
 2461.0000  -999.2500  -999.2500  -999.2500  -999.2500  -999.2500     8.4374     8.4961     8.0724   121.5322   -30.2007     9.5646
 2461.5000  -999.2500  -999.2500  -999.2500  -999.2500  -999.2500     8.4362     8.4362     8.0712   125.6170   -29.9045     9.4577
 2462.0000  -999.2500  -999.2500  -999.2500  -999.2500  -999.2500     8.4351     8.3745     8.0551   127.4100   -29.7568     9.2637
 2462.5000  -999.2500  -999.2500  -999.2500  -999.2500  -999.2500     8.3756     8.2507     8.0389   127.1010   -29.4598     9.0971
 2463.0000  -999.2500  -999.2500  -999.2500  -999.2500  -999.2500     8.2589     8.0889     8.0378   126.4917   -29.4635     8.9809
 2463.5000  -999.2500  -999.2500  -999.2500  -999.2500  -999.2500     8.1440     7.9764     8.0216   123.1796   -29.4664     8.9097
 2464.0000  -999.2500  -999.2500  -999.2500  -999.2500  -999.2500     8.0308     7.9202     8.0202   118.3661   -29.4693     8.7261
 2464.5000  -999.2500  -999.2500  -999.2500  -999.2500  -999.2500     7.9742     7.8100     8.0040   113.5507   -29.4723     8.6657
 2465.0000  -999.2500  -999.2500  -999.2500  -999.2500  -999.2500     7.9180     7.7550     8.0028   112.6429   -29.4753     8.8481
 2465.5000  -999.2500  -999.2500  -999.2500  -999.2500  -999.2500     7.9169     7.7004     8.0018   118.0374   -29.4788     8.9097
 2466.0000  -999.2500  -999.2500  -999.2500  -999.2500  -999.2500     7.8612     7.6993     8.0005   124.3350   -29.4817     8.8481
 2466.5000  -999.2500  -999.2500  -999.2500  -999.2500  -999.2500     7.8601     7.6980     7.9994   119.8218   -29.4846     8.8481
 2467.0000  -999.2500  -999.2500  -999.2500  -999.2500  -999.2500     7.8588     7.7508     7.9982   114.7079   -29.6375     8.7261
 2467.5000  -999.2500  -999.2500  -999.2500  -999.2500  -999.2500     7.9127     7.8580     7.9970   114.9995   -29.7903     8.5463
 2468.0000  -999.2500  -999.2500  -999.2500  -999.2500  -999.2500     7.9667     7.9664     7.9806   120.9968   -29.7932     8.4276
 2468.5000  -999.2500  -999.2500  -999.2500  -999.2500  -999.2500     8.0210     8.0211     7.9794   123.9910   -29.9460     8.2548
 2469.0000  -999.2500  -999.2500  -999.2500  -999.2500  -999.2500     8.1317     8.0758     7.9783   119.4720   -30.0990     8.5463
 2469.5000  -999.2500  -999.2500  -999.2500  -999.2500  -999.2500     8.2442     8.1307     7.9621   113.1606   -29.9519     8.9097
 2470.0000  -999.2500  -999.2500  -999.2500  -999.2500  -999.2500     8.3005     8.1899     7.9459   117.6563   -29.9555     8.9717
