~VERSION INFORMATION
 VERS.                2.0:   CWLS LOG ASCII STANDARD - VERSION 2.0
 WRAP.                 NO:   ONE LINE PER DEPTH STEP
~WELL INFORMATION
#MNEM.UNIT      DATA TYPE    INFORMATION
#----------   ------------   ------------------------------
 STRT.F           20.0000:   START DEPTH
 STOP.F          698.0000:   STOP DEPTH
 STEP.F            0.5000:   STEP LENGTH
 NULL.          -999.2500:   NO VALUE
 COMP. FENIX & SCISSON INC:   COMPANY
 WELL.    52 SX 34 #52-34:   WELL
 FLD .             TEAPOT:   FIELD
 LOC .      S34 T39N R78W:   LOCATION
 CNTY.            NATRONA:   COUNTY
 STAT.            WYOMING:   STATE
 CTRY. UNITED STATES OF AMERICA:   COUNTRY
 SRVC.            Unknown:   SERVICE COMPANY
 DATE.        26-JAN-1979:   LOGDATE
 API .       490251077100:   API NUMBER
~CURVE INFORMATION
#MNEM.UNIT       API CODE    CURVE DESCRIPTION
#----------   ------------   ------------------------------
 DEPT.F                  :   
 SPR .MV     05 010 01 00:   SPONTANEOUS POTENTIAL FROM RES.
 CALD.IN     45 280 60 00:   CALIPER
 GRD .GAPI   45 310 01 00:   GAMMA RAY FROM DENSITY LOG
 CORR.G/C3   45 356 01 00:   DENSITY CORRECTION
 RHOB.G/C3   45 350 01 00:   BULK DENSITY
 ILD .OHMM   05 120 46 00:   INDUCTION LOG DEEP
 SN  .OHMM   05 040 16 00:   SHORT NORMAL 16"
 DPHI.DEC    45 890 12 00:   DENSITY POROSITY SANDSTONE
~PARAMETER INFORMATION
#MNEM.UNIT          VALUE    DESCRIPTION
#----------   ------------   ------------------------------
 PD  .                 GL:   PERMANENT DATUM
 EPD .F              5072:   ELEVATION PERMANENT DATUM
 LMF .                 KB:   LOG MEASURED FROM
 DAPD.F                 4:   FEET ABOVE PERMANENT DATUM
 DMF .                 KB:   DRILLING MEASURED FROM
 EKB .F              5076:   KELLING BUSHING
 EGL .F              5072:   GROUND LEVEL
 DATE.            1-26-79:   RUN DATE
 RUN .                  1:   RUN NUMBER
 DD  .F               688:   DEPTH DRILLER
 DL  .F               698:   DEPTH LOGGER
 BLI .F               691:   BOTTOM LOG INTERVAL
 TLI .F                30:   TOP LOG INTERVAL
 CS  .IN            8.625:   CASING SIZE
 CBD .F                40:   CASING BOTTOM DRILLER
 CBL .F                20:   CASING BOTTOM LOGGER
 BS  .IN            7.875:   BIT SIZE
 BSD .F               688:   BIT SIZE AT DEPTH
 DFT .                KCL:   DRILLING FLUID TYPE
 DFD .                8.9:   DRILLING FLUID DENSITY
 DFV .                 39:   DRILLING FLUID VISCOSITY
 DFPH.                 10:   DRILLING FLUID PH
 DFL .                 10:   DRILLING FLUID LOSS
 MSS .           FLOWLINE:   MUD SAMPLE SOURCE
 RMS .OHMM             .3:   RESISTIVITY MUD SAMPLE
 MST .F                60:   MUD SAMPLE TEMPERATURE
 RMF .OHMM            .22:   RESISTIVITY MUD FILTRATE SAMPLE
 MFST.F                66:   MUD FILTRATE SAMPLE TEMPERATURE
 MFSS.           MEASURED:   MUD FILTRATE SAMPLE SOURCE
 MCSS.           MEASURED:   MUD CAKE SAMPLE SOURCE
 RMB .OHMM            .25:   RESISTIVITY MUD AT BHT
 BHT .F                70:   BOTTOM HOLE TEMPERATURE
 TCS .HRS               7:   TIME CURCULATED STOPPED
 MRT .F                70:   MAXIMUM RECORDED TEMPERATURE
 LUN .               3006:   LOGGING UNIT NUMBER
 LUL .             CASPER:   LOGGING UNIT LOCATION
 ENGI.            ROLLINS:   RECORDING ENGINEER
 WITN.              AMEND:   WITNESSED BY
 CLNT.            A2DTECH:   CLIENT CODE
 ORIG.       2", 5" PRINT:   ORIGIN OF DATA
 UWI .       490251077100:   UNIQUE WELL ID
 DICO. A2D Technologies, Inc.:   DIGITIZING COMPANY
~OTHER INFORMATION
~A   DEPT      SPR         CALD       GRD      CORR       RHOB        ILD         SN       DPHI   
# ...
  546.5000   -27.2728     8.1607    73.3364     0.0232     2.3702    17.9260    13.3090     0.1793
  547.0000   -27.7007     8.1739    70.7458     0.0234     2.3723    17.8156    13.3090     0.1799
  547.5000   -27.8312     8.1872    68.1185     0.0222     2.3720    17.7055    13.3090     0.1806
  548.0000   -28.0235     8.2002    65.5382     0.0172     2.3716    17.5685    13.3090     0.1809
  548.5000   -28.2184     8.2058    65.8255     0.0053     2.3712    17.5884    13.3090     0.1803
  549.0000   -28.3003     8.1667    68.9884    -0.0008     2.3709    17.6253    13.3090     0.1779
  549.5000   -28.2825     8.1300    68.4798     0.0195     2.3731    17.6620    13.3090     0.1738
  550.0000   -28.2646     8.1101    66.5346     0.0273     2.3927    17.6986    13.3090     0.1550
  550.5000   -28.2461     8.0599    64.5946     0.0273     2.4124    17.7321    13.3090     0.1553
  551.0000   -28.2276     8.0089    64.2963     0.0272     2.4122    17.6738    13.3090     0.1570
  551.5000   -28.2092     8.0016    67.5448     0.0271     2.4056    17.6208    13.3090     0.1610
  552.0000   -28.1907     8.0118    76.1189     0.0269     2.3807    17.5702    13.3090     0.1818
  552.5000   -28.1723     8.0226    79.2210     0.0268     2.3586    17.4858    13.3090     0.1882
  553.0000   -28.1542     8.0334    76.9915     0.0267     2.3572    17.3785    13.3090     0.1902
  553.5000   -28.1352     8.0442    73.0157     0.0266     2.3510    17.2465    13.3090     0.1962
  554.0000   -28.1092     8.0550    70.3524     0.0265     2.3440    17.1159    13.3091     0.1955
  554.5000   -28.3652     8.0653    70.3953     0.0264     2.3427    16.9862    13.3096     0.1945
  555.0000   -28.7050     8.0615    70.2822     0.0262     2.3487    16.8575    13.3090     0.1897
  555.5000   -29.2798     8.0169    70.1580     0.0261     2.3551    16.7297    13.1930     0.1867
  556.0000   -29.7299     7.9738    71.8250     0.0260     2.3599    16.5861    13.0649     0.1845
  556.5000   -29.7943     7.9309    73.4913     0.0259     2.3620    16.3357    13.0649     0.1849
  557.0000   -29.8651     7.8878    71.9802     0.0258     2.3644    16.1604    13.0647     0.1826
  557.5000   -30.1469     7.8443    74.4458     0.0257     2.3743    16.1465    13.0645     0.1768
  558.0000   -30.6752     7.8461    76.6034     0.0256     2.3836    16.1326    13.0642     0.1733
  558.5000   -31.2021     7.8790    76.3810     0.0263     2.3847    16.1187    13.0649     0.1735
  559.0000   -31.2869     7.9439    74.2366     0.0300     2.3843    16.1049    12.8110     0.1746
  559.5000   -31.3061     8.0085    73.7070     0.0395     2.3824    16.0910    12.5220     0.1756
  560.0000   -31.8460     8.0751    72.8807     0.0494     2.3806    16.0771    12.4571     0.1766
  560.5000   -32.0822     8.0938    72.0715     0.0511     2.3788    16.0633    12.4368     0.1777
  561.0000   -32.0878     8.0965    71.9686     0.0491     2.3768    16.0495    12.4165     0.1787
  561.5000   -32.1665     8.0985    73.7039     0.0470     2.3743    16.0357    12.3963     0.1805
  562.0000   -32.4435     8.1005    78.4014     0.0450     2.3733    16.0175    12.3761     0.1822
  562.5000   -32.6805     8.1026    78.1887     0.0430     2.3735    16.0439    12.3274     0.1837
  563.0000   -32.6830     8.1046    74.9303     0.0410     2.3713    16.0919    12.1183     0.1800
  563.5000   -32.6822     8.1067    73.1872     0.0396     2.3741    16.1409    12.0102     0.1695
  564.0000   -32.6821     8.1088    73.9767     0.0405     2.3888    16.1901    11.9897     0.1677
  564.5000   -32.6821     8.1108    76.7707     0.0414     2.3923    16.2394    11.9693     0.1684
  565.0000   -32.6821     8.1105    77.3576     0.0386     2.3902    16.2889    11.9491     0.1699
  565.5000   -32.6822     8.0914    74.9555     0.0352     2.3881    16.3150    11.9289     0.1709
  566.0000   -32.6828     8.0719    72.1635     0.0318     2.3932    16.3150    11.9098     0.1643
  566.5000   -32.7315     8.0526    71.6126     0.0284     2.4020    16.0132    11.6671     0.1597
  567.0000   -32.8659     8.0331    77.1130     0.0250     2.4076    15.6652    11.5836     0.1597
  567.5000   -32.9992     8.0140    78.4413     0.0235     2.4061    15.3247    11.5836     0.1598
  568.0000   -33.1336     8.0234    80.2451     0.0235     2.4048    14.9917    11.4930     0.1599
  568.5000   -33.2723     8.0357    79.8661     0.0235     2.4047    14.6659    11.2664     0.1599
  569.0000   -33.3045     8.0479    75.0940     0.0235     2.4047    14.4085    11.2961     0.1600
  569.5000   -33.3316     8.0794    72.6829     0.0235     2.4047    14.2576    11.3265     0.1600
  570.0000   -33.3593     8.1276    73.1204     0.0258     2.4058    14.1082    11.3711     0.1577
  570.5000   -33.3872     8.1757    71.6759     0.0306     2.4104    14.0017    11.3605     0.1556
  571.0000   -33.4152     8.2239    70.0031     0.0334     2.4158    13.8558    11.3406     0.1540
  571.5000   -33.4431     8.2511    68.4736     0.0326     2.4176    13.5949    11.3207     0.1528
  572.0000   -33.4709     8.2493    70.2587     0.0276     2.4189    13.3132    11.3008     0.1495
  572.5000   -33.4917     8.2019    73.1582     0.0175     2.4250    13.3372    11.2810     0.1452
  573.0000   -33.5105     8.1532    76.0912     0.0158     2.4314    13.3693    11.2458     0.1448
  573.5000   -33.5293     8.1047    77.7717     0.0160     2.4336    13.4015    11.1672     0.1468
  574.0000   -33.5481     8.0563    78.0624     0.0163     2.4277    13.4328    11.0890     0.1525
  574.5000   -33.5669     8.0140    77.1644     0.0166     2.4211    13.3461    11.0483     0.1532
  575.0000   -33.5857     8.0137    76.9973     0.0169     2.4197    13.2624    11.0300     0.1528
  575.5000   -33.6045     8.0138    76.5018     0.0172     2.4186    13.1791    11.0117     0.1524
  576.0000   -33.6233     8.0138    75.0940     0.0174     2.4165    13.0964    10.9934     0.1548
  576.5000   -33.6421     8.0138    76.2522     0.0175     2.4115    13.0143    10.9752     0.1568
  577.0000   -33.6608     8.0138    77.7813     0.0175     2.4127    12.9445    10.9570     0.1520
  577.5000   -33.6759     8.0139    78.4580     0.0175     2.4211    12.9445    10.9388     0.1484
  578.0000   -33.6755     8.0139    77.7498     0.0175     2.4293    12.8858    10.9207     0.1435
  578.5000   -33.6755     8.0182    80.8999     0.0169     2.4376    12.8230    10.9026     0.1380
  579.0000   -33.6755     8.0256    84.1764     0.0162     2.4444    12.7604    10.8846     0.1367
  579.5000   -33.6755     8.0330    86.0537     0.0156     2.4483    12.6982    10.8570     0.1354
  580.0000   -33.6755     8.0405    85.4126     0.0149     2.4521    12.6363    10.8724     0.1357
  580.5000   -33.6755     8.0478    83.2811     0.0143     2.4531    12.5746    10.9044     0.1386
  581.0000   -33.6755     8.0518    83.0479     0.0136     2.4465    12.5133    10.9369     0.1400
  581.5000   -33.6755     8.0443    82.8654     0.0152     2.4407    12.4522    10.9694     0.1389
  582.0000   -33.6755     8.0371    82.6480     0.0177     2.4476    12.3915    11.0021     0.1352
  582.5000   -33.6755     8.0301    81.7409     0.0193     2.4527    12.3311    11.0349     0.1343
  583.0000   -33.6755     8.0227    79.5443     0.0181     2.4524    12.2452    11.0678     0.1343
  583.5000   -33.6755     8.0135    77.0917     0.0170     2.4522    12.2943    11.1008     0.1343
  584.0000   -33.6755     8.0751    76.5568     0.0159     2.4518    12.3809    11.1339     0.1366
  584.5000   -33.6755     8.1121    77.3942     0.0148     2.4445    12.4740    11.1670     0.1452
  585.0000   -33.6755     8.1123    78.5432     0.0137     2.4235    12.5062    11.2000     0.1538
  585.5000   -33.6755     8.1128    78.4897     0.0141     2.4110    12.5408    11.2330     0.1593
  586.0000   -33.6755     8.1370    80.4350     0.0149     2.4077    12.5756    11.2661     0.1587
  586.5000   -33.6755     8.1647    78.9315     0.0157     2.4067    12.6105    11.2993     0.1581
