~VERSION INFORMATION
 VERS.                2.0:   CWLS LOG ASCII STANDARD - VERSION 2.0
 WRAP.                 NO:   ONE LINE PER DEPTH STEP
~WELL INFORMATION
#MNEM.UNIT      DATA TYPE    INFORMATION
#----------   ------------   ------------------------------
 STRT.F          276.0000:   START DEPTH
 STOP.F         2768.0000:   STOP DEPTH
 STEP.F            0.5000:   STEP LENGTH
 NULL.          -999.2500:   NO VALUE
 COMP.       TESORD PETRO:   COMPANY
 WELL. AX-20 NPR #3 #83-20:   WELL
 FLD .            WILDCAT:   FIELD
 LOC .      S20 T39N R78W:   LOCATION
 CNTY.            NATRONA:   COUNTY
 STAT.            WYOMING:   STATE
 CTRY. UNITED STATES OF AMERICA:   COUNTRY
 SRVC.       Schlumberger:   SERVICE COMPANY
 DATE.        20-JUL-1971:   LOGDATE
 API .       490251022000:   API NUMBER
~CURVE INFORMATION
#MNEM.UNIT       API CODE    CURVE DESCRIPTION
#----------   ------------   ------------------------------
 DEPT.F                  :   
 SPR .MV     05 010 01 00:   SPONTANEOUS POTENTIAL FROM RES.
 ASN .OHMM   05 041 16 00:   AMPLIFIED SHORT NORMAL 16"
 ILD .OHMM   05 120 46 00:   INDUCTION LOG DEEP
 CALD.IN     45 280 60 00:   CALIPER FROM DENSITY
 CORR.G/C3   45 356 01 00:   DENSITY CORRECTION
 DPHI.DEC    45 890 12 00:   DENSITY POROSITY SANDSTONE
 GRD .GAPI   45 310 01 00:   GAMMA RAY FROM DENSITY LOG
 RHOB.G/C3   45 350 01 00:   BULK DENSITY
 CILD.MMHO   05 110 46 00:   CONDUCTIVITY INDUCTION LOG DEEP
~PARAMETER INFORMATION
#MNEM.UNIT          VALUE    DESCRIPTION
#----------   ------------   ------------------------------
 PD  .                 GL:   PERMANENT DATUM
 EPD .F              4994:   ELEVATION PERMANENT DATUM
 LMF .                 KB:   LOG MEASURED FROM
 DAPD.F                11:   FEET ABOVE PERMANENT DATUM
 DMF .                 KB:   DRILLING MEASURED FROM
 EKB .F              5005:   KELLING BUSHING
 EGL .F              4994:   GROUND LEVEL
 DATE.        20-JUL-1971:   RUN DATE
 RUN .                  1:   RUN NUMBER
 DD  .F              2770:   DEPTH DRILLER
 DL  .F              2769:   DEPTH LOGGER
 BLI .F              2768:   BOTTOM LOG INTERVAL
 TLI .F               276:   TOP LOG INTERVAL
 CS  .IN            10.75:   CASING SIZE
 CBD .F               274:   CASING BOTTOM DRILLER
 CBL .F               276:   CASING BOTTOM LOGGER
 BS  .IN                9:   BIT SIZE
 BSD .F              2770:   BIT SIZE AT DEPTH
 DFT .      FRESH GEL MUD:   DRILLING FLUID TYPE
 DFD .                 10:   DRILLING FLUID DENSITY
 DFV .                 82:   DRILLING FLUID VISCOSITY
 DFPH.                  8:   DRILLING FLUID PH
 DFL .                4.8:   DRILLING FLUID LOSS
 MSS .           FLOWLINE:   MUD SAMPLE SOURCE
 RMS .OHMM            1.8:   RESISTIVITY MUD SAMPLE
 MST .F                73:   MUD SAMPLE TEMPERATURE
 RMF .OHMM            1.4:   RESISTIVITY MUD FILTRATE SAMPLE
 MFST.F                73:   MUD FILTRATE SAMPLE TEMPERATURE
 MFSS.               MEAS:   MUD FILTRATE SAMPLE SOURCE
 RMB .OHMM           1.15:   RESISTIVITY MUD AT BHT
 BHT .F               116:   BOTTOM HOLE TEMPERATURE
 TCS .HRS               2:   TIME CURCULATED STOPPED
 MRT .F               116:   MAXIMUM RECORDED TEMPERATURE
 LUN .               7037:   LOGGING UNIT NUMBER
 LUL .               CSPR:   LOGGING UNIT LOCATION
 ENGI.             JENSEN:   RECORDING ENGINEER
 WITN.                MAY:   WITNESSED BY
 CLNT.            A2DTECH:   CLIENT CODE
 ORIG.     1", 2.5" PRINT:   ORIGIN OF DATA
 UWI .       490251022000:   UNIQUE WELL ID
 DICO. A2D Technologies, Inc.:   DIGITIZING COMPANY
~OTHER INFORMATION
~A   DEPT      SPR          ASN        ILD     CALD       CORR       DPHI        GRD       RHOB       CILD   
# ...
 1444.0000   -31.6060     7.9307     6.8775     9.6919     0.0166     0.0655   105.5821     2.5306  -999.2500
 1444.5000   -31.9075     7.9602     6.8731     9.6915     0.0110     0.0733   107.6661     2.5272  -999.2500
 1445.0000   -32.2985     7.9895     6.8686     9.6910     0.0165     0.0720   110.9306     2.5351  -999.2500
 1445.5000   -32.5104     7.9592     6.8642     9.6906     0.0286     0.0671   112.2630     2.5415  -999.2500
 1446.0000   -32.8119     7.9587     6.8597     9.6890     0.0438     0.0574   107.3266     2.5487  -999.2500
 1446.5000   -32.9075     7.9583     6.8553     9.6599     0.0359     0.0554   108.6589     2.5476  -999.2500
 1447.0000   -33.1164     7.9280     6.8508     9.6594     0.0194     0.0726   114.0211     2.5372  -999.2500
 1447.5000   -33.4179     7.9275     6.8464     9.6590     0.0167     0.0770   118.0399     2.5210  -999.2500
 1448.0000   -33.4209     7.9271     6.8420     9.6585     0.0279     0.0768   110.4170     2.5165  -999.2500
 1448.5000   -33.7224     7.9266     6.8375     9.6581     0.0352     0.0732   107.2717     2.5255  -999.2500
 1449.0000   -33.7254     7.8963     6.8331     9.6576     0.0311     0.0704   109.0518     2.5344  -999.2500
 1449.5000   -33.7284     7.8660     6.8286     9.6571     0.0234     0.0795   110.8319     2.5278  -999.2500
 1450.0000   -33.7313     7.8357     6.8242     9.6567     0.0180     0.0753   113.0597     2.5224  -999.2500
 1450.5000   -33.7343     7.7457     6.8197     9.6563     0.0149     0.0706   113.9442     2.5263  -999.2500
 1451.0000   -33.4383     7.7154     6.8153     9.6558     0.0134     0.0698   109.6876     2.5402  -999.2500
 1451.5000   -33.3393     7.6553     6.6625     9.6554     0.0103     0.0636   104.8589     2.5537  -999.2500
 1452.0000   -33.1458     7.6250     6.6580     9.6549     0.0103     0.0673   103.6128     2.5388  -999.2500
 1452.5000   -32.8502     7.5947     6.3569     9.6545     0.0177     0.0732   109.2428     2.5283  -999.2500
 1453.0000   -32.4497     7.5943     6.3524     9.6540     0.0267     0.0616   111.0762     2.5432  -999.2500
 1453.5000   -32.1532     7.6535     6.3480     9.6536     0.0206     0.0615   112.6591     2.5537  -999.2500
 1454.0000   -31.9636     7.7426     6.3435     9.6531     0.0026     0.0657   113.8674     2.5462  -999.2500
 1454.5000   -31.6681     7.7720     6.3391     9.6228     0.0041     0.0668   110.8455     2.5327  -999.2500
 1455.0000   -31.6716     7.8014     6.3346     9.5925     0.0220     0.0650   109.3657     2.5356  -999.2500
 1455.5000   -31.6746     7.8010     6.3302     9.5323     0.0324     0.0642   110.3932     2.5461  -999.2500
 1456.0000   -31.7890     7.8005     6.4747     9.5319     0.0204     0.0716   112.9075     2.5463  -999.2500
 1456.5000   -31.9791     7.8300     6.4697     9.5315     0.0024     0.0842   113.8097     2.5102  -999.2500
 1457.0000   -31.9821     7.8892     6.4652     9.5310     0.0024     0.0849   111.2549     2.5042  -999.2500
 1457.5000   -31.9851     7.9484     6.6092     9.5306     0.0038     0.0836   114.2329     2.5056  -999.2500
 1458.0000   -31.9881     8.0375     6.6047     9.5600     0.0309     0.0722   117.8040     2.5177  -999.2500
 1458.5000   -32.2896     8.0669     6.6003     9.5894     0.0637     0.0572   117.7930     2.5619  -999.2500
 1459.0000   -32.2925     8.0665     6.5958     9.6188     0.0651     0.0381   114.6477     2.5894  -999.2500
 1459.5000   -32.4140     8.0362     6.7398     9.6482     0.0264     0.0350   111.0547     2.5860  -999.2500
 1460.0000   -32.5970     8.0357     6.7353     9.6478     0.0094     0.0674   110.1482     2.5349  -999.2500
 1460.5000   -32.8985     8.0353     6.7309     9.6473     0.0148     0.0746   110.5849     2.5264  -999.2500
 1461.0000   -32.6030     8.0647     6.7264     9.6469     0.0241     0.0674   112.3650     2.5419  -999.2500
 1461.5000   -32.6060     8.0942     6.7220     9.6464     0.0356     0.0594   114.5928     2.5602  -999.2500
 1462.0000   -32.6090     8.1535     6.7175     9.6460     0.0243     0.0604   113.6863     2.5697  -999.2500
 1462.5000   -32.6119     8.1829     6.7131     9.6455     0.0198     0.0599   112.7799     2.5458  -999.2500
 1463.0000   -32.6149     8.1823     6.7087     9.6450     0.0452     0.0478   113.2166     2.5571  -999.2500
 1463.5000   -32.4916     8.1520     6.7042     9.6446     0.0542     0.0429   112.2027     2.5746  -999.2500
 1464.0000   -32.3224     8.1516     6.6998     9.6442     0.0183     0.0529   110.0597     2.5527  -999.2500
 1464.5000   -32.1970     8.1511     6.6953     9.6139     0.0109     0.0716   110.1201     2.5244  -999.2500
 1465.0000   -31.9005     8.1507     6.8397     9.6134     0.0076     0.0818   112.2772     2.5144  -999.2500
 1465.5000   -31.7343     8.1801     6.8348     9.5691     0.0157     0.0806   109.1319     2.5150  -999.2500
 1466.0000   -31.7373     8.2095     6.9787     9.5528     0.0195     0.0764   115.0478     2.5210  -999.2500
 1466.5000   -31.4418     8.2389     6.9743     9.5225     0.0094     0.0782   118.0652     2.5209  -999.2500
 1467.0000   -31.5781     8.2981     7.1187     9.5221    -0.0003     0.0824   113.1288     2.5107  -999.2500
 1467.5000   -31.7463     8.3276     7.1138     9.5216     0.0014     0.0867   111.9511     2.4977  -999.2500
 1468.0000   -31.8846     8.3868     7.2582     9.5211     0.0074     0.0884   108.6808     2.5022  -999.2500
 1468.5000   -32.3493     8.4759     7.2532     9.5207     0.0118     0.0858   108.1679     2.5141  -999.2500
 1469.0000   -32.6507     8.6247     7.2488     9.5202     0.0148     0.0796   108.1567     2.5261  -999.2500
 1469.5000   -32.6537     8.8332     7.3927     9.5496     0.0162     0.0711   108.3962     2.5365  -999.2500
 1470.0000   -32.6567     8.9223     7.3883     9.5492     0.0162     0.0669   110.3709     2.5476  -999.2500
 1470.5000   -32.6597     8.8920     7.3838     9.6085     0.0131     0.0697   114.3898     2.5260  -999.2500
 1471.0000   -32.6627     8.8617     7.5278     9.6080     0.0116     0.0723   117.5132     2.5215  -999.2500
 1471.5000   -32.6657     8.8016     7.5233     9.6374     0.0175     0.0718   110.3380     2.5349  -999.2500
 1472.0000   -32.6687     8.7414     7.3705     9.6370     0.0250     0.0687   108.5360     2.5442  -999.2500
 1472.5000   -32.6716     8.6216     7.2177     9.6366     0.0250     0.0713   108.9728     2.5259  -999.2500
 1473.0000   -32.6746     8.5017     7.2132     9.6361     0.0189     0.0752   112.0961     2.5333  -999.2500
 1473.5000   -32.6776     8.3819     7.2088     9.6655     0.0174     0.0751   114.7717     2.5348  -999.2500
 1474.0000   -32.6806     8.2620     7.0560     9.6651     0.0188     0.0744   116.1040     2.5223  -999.2500
 1474.5000   -32.3851     8.2019     7.0516     9.6647     0.0250     0.0768   117.4363     2.5213  -999.2500
 1475.0000   -32.3881     8.1716     7.0471     9.6642     0.0377     0.0759   116.9776     2.5213  -999.2500
 1475.5000   -32.0925     8.0816     7.0427     9.6638     0.0546     0.0680   116.0528     2.5446  -999.2500
 1476.0000   -32.0955     8.0513     7.0382     9.6633     0.0272     0.0576   112.0303     2.5623  -999.2500
 1476.5000   -31.8000     8.0210     7.0338     9.6628     0.0231     0.0655   113.8635     2.5443  -999.2500
 1477.0000   -31.8030     8.0205     7.0293     9.6923     0.0339     0.0585   114.6949     2.5357  -999.2500
 1477.5000   -31.8060     8.0201     7.0249     9.6918     0.0484     0.0532   113.7884     2.5539  -999.2500
 1478.0000   -31.8090     8.0196     6.8721     9.7213    -0.0040     0.0693   119.5792     2.5325  -999.2500
 1478.5000   -31.8119     7.9595     6.8676     9.7207     0.0110     0.0598   121.3784     2.5495  -999.2500
 1479.0000   -31.8149     7.8993     6.7148     9.7203     0.0288     0.0544   119.1269     2.5615  -999.2500
 1479.5000   -32.1164     7.8690     6.7104     9.7199     0.0237     0.0580   119.5654     2.5480  -999.2500
 1480.0000   -32.4179     7.8089     6.5576     9.7194     0.0192     0.0729   116.4177     2.5151  -999.2500
