~VERSION INFORMATION
 VERS.                2.0:   CWLS LOG ASCII STANDARD - VERSION 2.0
 WRAP.                 NO:   ONE LINE PER DEPTH STEP
~WELL INFORMATION
#MNEM.UNIT      DATA TYPE    INFORMATION
#----------   ------------   ------------------------------
 STRT.F         1460.0000:   START DEPTH
 STOP.F         2374.5000:   STOP DEPTH
 STEP.F            0.5000:   STEP LENGTH
 NULL.          -999.2500:   NO VALUE
 COMP. BROWN JOHN E&C INC:   COMPANY
 WELL. 15-1 STX-14 #15-14:   WELL
 FLD .             TEAPOT:   FIELD
 LOC .      S14 T38N R78W:   LOCATION
 CNTY.            NATRONA:   COUNTY
 STAT.            WYOMING:   STATE
 CTRY. UNITED STATES OF AMERICA:   COUNTRY
 SRVC.            Unknown:   SERVICE COMPANY
 DATE.        20-OCT-1991:   LOGDATE
 API .       490251098600:   API NUMBER
~CURVE INFORMATION
#MNEM.UNIT       API CODE    CURVE DESCRIPTION
#----------   ------------   ------------------------------
 DEPT.F                  :   
 ROP .MIN/FT 91 810 01 00:   RATE OF DRILLING PENETRATION
 TGAS.UNITS  91 830 01 00:   TOTAL GAS FROM HOTWIRE
~PARAMETER INFORMATION
#MNEM.UNIT          VALUE    DESCRIPTION
#----------   ------------   ------------------------------
 EKB .F              5247:   KELLING BUSHING
 EGL .F              5237:   GROUND LEVEL
 DATE.           10-20-91:   RUN DATE
 DD  .F              2379:   DEPTH DRILLER
 BLI .F              2392:   BOTTOM LOG INTERVAL
 TLI .F              1460:   TOP LOG INTERVAL
 CS  .IN            8.625:   CASING SIZE
 CBD .F               815:   CASING BOTTOM DRILLER
 ENGI.               HUSK:   RECORDING ENGINEER
 WITN.              TOWER:   WITNESSED BY
 CLNT.            A2DTECH:   CLIENT CODE
 ORIG.         2.5" PRINT:   ORIGIN OF DATA
 UWI .       490251098600:   UNIQUE WELL ID
 DICO. A2D Technologies, Inc.:   DIGITIZING COMPANY
~OTHER INFORMATION
~A  DEPT       ROP       TGAS   
# ...
 2310.5000     0.8007   516.9239
 2311.0000     0.7913   517.3044
 2311.5000     0.7799   517.6957
 2312.0000     0.7733   518.0870
 2312.5000     0.7737   518.4783
 2313.0000     0.7741   518.9036
 2313.5000     0.8117   546.0674
 2314.0000     0.8505   562.9550
 2314.5000     0.9075   578.7747
 2315.0000     0.9246   591.8040
 2315.5000     0.9064   609.0715
 2316.0000     0.9005   626.3389
 2316.5000     0.8731   639.0001
 2317.0000     0.8514   639.3914
 2317.5000     0.8836   639.7827
 2318.0000     0.9563   640.1740
 2318.5000     0.9696   640.5652
 2319.0000     0.9275   640.9566
 2319.5000     0.9092   641.3479
 2320.0000     0.8909   641.7392
 2320.5000     0.8539   642.1305
 2321.0000     0.8521   642.5218
 2321.5000     0.8359   642.9131
 2322.0000     0.8413   643.3044
 2322.5000     0.8683   643.6957
 2323.0000     0.9009   644.0870
 2323.5000     0.9214   644.4783
 2324.0000     0.9527   644.8696
 2324.5000     0.9933   645.2609
 2325.0000     1.0477   645.6522
 2325.5000     1.0254   646.0435
 2326.0000     0.9884   646.4348
 2326.5000     0.9887   646.8261
 2327.0000     1.0901   647.2175
 2327.5000     1.2610   647.6088
 2328.0000     1.4912   648.0001
 2328.5000     1.6565   648.3914
 2329.0000     1.6006   648.7827
 2329.5000     1.2648   649.1740
 2330.0000     1.0432   649.5652
 2330.5000     0.8983   649.9565
 2331.0000     0.8486   650.3479
 2331.5000     0.7866   650.7392
 2332.0000     0.7127   651.1305
 2332.5000     0.6384   651.5218
 2333.0000     0.6761   651.9131
 2333.5000     0.7760   652.3044
 2334.0000     0.8797   652.6957
 2334.5000     0.9924   653.0870
 2335.0000     1.0562   653.4783
 2335.5000     1.0767   653.8696
 2336.0000     1.0801   654.2609
 2336.5000     1.0303   654.6522
 2337.0000     0.9616   655.0435
 2337.5000     0.9275   655.4348
 2338.0000     0.9221   655.8261
 2338.5000     0.9412   656.2174
 2339.0000     0.9788   656.6088
 2339.5000     0.9979   657.0001
 2340.0000     1.0199   657.3914
 2340.5000     1.0575   657.7827
 2341.0000     1.0690   658.1740
 2341.5000     1.0433   658.5653
 2342.0000     1.0108   658.9566
 2342.5000     0.9734   659.3479
 2343.0000     0.9340   659.7392
 2343.5000     0.8907   642.1988
 2344.0000     0.8043   616.0744
 2344.5000     0.7028   589.9501
 2345.0000     0.6285   563.8257
 2345.5000     0.5542   544.2687
 2346.0000     0.5359   518.0372
 2346.5000     0.5568   505.8808
 2347.0000     0.5838   506.3479
 2347.5000     0.6445   506.7392
 2348.0000     0.6741   507.1305
 2348.5000     0.6419   507.5218
 2349.0000     0.5947   507.9131
 2349.5000     0.5464   508.3044
 2350.0000     0.5387   508.6957
 2350.5000     0.5796   509.0870
 2351.0000     0.6514   509.4784
 2351.5000     0.7264   509.8697
 2352.0000     0.7827   510.2610
 2352.5000     0.8030   510.6523
 2353.0000     0.8415   511.0436
 2353.5000     0.8583   511.4349
 2354.0000     0.8587   511.8262
 2354.5000     0.8655   512.2175
 2355.0000     0.9099   512.6088
 2355.5000     1.0190   513.0001
 2356.0000     1.2254   513.3914
 2356.5000     1.4132   513.7827
 2357.0000     1.5682   514.1740
 2357.5000     1.8313   514.5653
 2358.0000     1.5331   514.9566
 2358.5000     1.2350   515.3479
 2359.0000     1.1037   515.7392
 2359.5000     1.0864   516.1305
 2360.0000     1.1800   516.5218
 2360.5000     1.1457   516.9131
 2361.0000     1.1537   517.3044
 2361.5000     1.3114   517.6957
 2362.0000     1.5025   518.0870
 2362.5000     1.7263   518.4783
 2363.0000     1.9302   518.8696
 2363.5000     1.9847   519.2609
 2364.0000     1.8918   519.6522
 2364.5000     1.7616   520.0435
 2365.0000     1.6686   520.4349
 2365.5000     1.6092   520.8262
 2366.0000     1.5492   521.2175
 2366.5000     1.4767   521.6088
 2367.0000     1.3676   522.0001
 2367.5000     1.2804   522.3914
 2368.0000     1.1973   522.7827
 2368.5000     1.2074   523.1740
 2369.0000     1.2882   523.5652
 2369.5000     1.3690   523.9566
 2370.0000     1.4210   524.3479
 2370.5000     1.3927   524.7392
 2371.0000     1.3184   525.1305
 2371.5000     1.3187   525.5218
 2372.0000     1.3221   525.9131
 2372.5000     1.3567   526.3044
 2373.0000     1.3481   526.6957
 2373.5000     1.3094   527.1010
 2374.0000     1.2950  -999.2500
 2374.5000     1.3060  -999.2500
