~VERSION INFORMATION
 VERS.                2.0:   CWLS LOG ASCII STANDARD - VERSION 2.0
 WRAP.                 NO:   ONE LINE PER DEPTH STEP
~WELL INFORMATION
#MNEM.UNIT      DATA TYPE    INFORMATION
#----------   ------------   ------------------------------
 STRT.F            5.0000:   START DEPTH
 STOP.F          640.0000:   STOP DEPTH
 STEP.F            0.5000:   STEP LENGTH
 NULL.          -999.2500:   NO VALUE
 COMP. BROWN JOHN E&C INC:   COMPANY
 WELL.     85-1 X 3 #85-3:   WELL
 FLD .             TEAPOT:   FIELD
 LOC .       S3 T38N R78W:   LOCATION
 CNTY.            NATRONA:   COUNTY
 STAT.            WYOMING:   STATE
 CTRY. UNITED STATES OF AMERICA:   COUNTRY
 SRVC.     Atlas Wireline:   SERVICE COMPANY
 DATE.        30-DEC-1991:   LOGDATE
 API .       490252249400:   API NUMBER
~CURVE INFORMATION
#MNEM.UNIT       API CODE    CURVE DESCRIPTION
#----------   ------------   ------------------------------
 DEPT.F                  :   
 GRR .GAPI   06 310 01 00:   GAMMA RAY FROM RESISTIVITY
 RFOC.OHMM   06 220 04 00:   RESISTIVITY FOCUSED LOG RES.
 RILD.OHMM   06 120 46 00:   DEEP INDUCTION RESISTIVITY
 RILM.OHMM   06 120 44 00:   INDUCTION LOG MEDIUM RESISTIVITY
 SPR .MV     06 010 01 00:   SPONTANEOUS POTENTIAL FROM RES.
 CALD.IN     45 280 60 00:   CALIPER FROM DENSITY LOG
 CORR.G/C3   45 356 01 00:   DENSITY CORRECTION
 DEN .G/C3   45 350 01 00:   COMPENSATED BULK DENSTIY
 PORD.DEC    45 890 12 00:   POROSITY DENSITY SANDSTONE
 CNC .DEC    42 890 03 00:   NEUTRON POROSITY SANDSTONE
~PARAMETER INFORMATION
#MNEM.UNIT          VALUE    DESCRIPTION
#----------   ------------   ------------------------------
 PD  .                 GL:   PERMANENT DATUM
 EPD .F              5156:   ELEVATION PERMANENT DATUM
 LMF .                 KB:   LOG MEASURED FROM
 DAPD.F                10:   FEET ABOVE PERMANENT DATUM
 DMF .                 KB:   DRILLING MEASURED FROM
 EKB .F              5166:   KELLING BUSHING
 EGL .F              5156:   GROUND LEVEL
 DATE.        30-DEC-1991:   RUN DATE
 RUN .                  1:   RUN NUMBER
 DD  .F               641:   DEPTH DRILLER
 DL  .F               642:   DEPTH LOGGER
 BLI .F               261:   BOTTOM LOG INTERVAL
 TLI .F               172:   TOP LOG INTERVAL
 CS  .IN            8.625:   CASING SIZE
 CBD .F               163:   CASING BOTTOM DRILLER
 CBL .F               172:   CASING BOTTOM LOGGER
 BS  .IN            7.875:   BIT SIZE
 BSD .F               641:   BIT SIZE AT DEPTH
 DFT .               CHEM:   DRILLING FLUID TYPE
 DFD .               17.1:   DRILLING FLUID DENSITY
 DFV .                 47:   DRILLING FLUID VISCOSITY
 DFPH.                9.0:   DRILLING FLUID PH
 DFL .                6.8:   DRILLING FLUID LOSS
 MSS .                PIT:   MUD SAMPLE SOURCE
 RMS .OHMM           1.40:   RESISTIVITY MUD SAMPLE
 MST .F               100:   MUD SAMPLE TEMPERATURE
 RMF .OHMM           1.12:   RESISTIVITY MUD FILTRATE SAMPLE
 MFST.F               100:   MUD FILTRATE SAMPLE TEMPERATURE
 RMC .OHMM           1.75:   RESISTIVITY MUD CAKE
 MCST.F               100:   MUD CAKE SAMPLE TEMPERATURE
 MFSS.               MEAS:   MUD FILTRATE SAMPLE SOURCE
 MCSS.               CALC:   MUD CAKE SAMPLE SOURCE
 RMB .OHMM           .536:   RESISTIVITY MUD AT BHT
 BHT .F               261:   BOTTOM HOLE TEMPERATURE
 TCS .HRS               4:   TIME CURCULATED STOPPED
 MRT .F               261:   MAXIMUM RECORDED TEMPERATURE
 LUN .            HL-6387:   LOGGING UNIT NUMBER
 LUL .          CASPER/WT:   LOGGING UNIT LOCATION
 ENGI.             ZIEGER:   RECORDING ENGINEER
 WITN.         LOFRENIERI:   WITNESSED BY
 CLNT.            A2DTECH:   CLIENT CODE
 ORIG.           5" PRINT:   ORIGIN OF DATA
 UWI .       490252249400:   UNIQUE WELL ID
 DICO. A2D Technologies, Inc.:   DIGITIZING COMPANY
~OTHER INFORMATION
~A    DEPT      GRR      RFOC       RILD       RILM        SPR       CALD       CORR        DEN       PORD        CNC   
# ...
  373.5000   100.4369     5.6007     5.3645     5.4446   -54.9940     9.6570     0.0302     2.4728     0.1292     0.3503
  374.0000   102.2581     5.6801     5.3659     5.4842   -54.9903     9.6577     0.0257     2.4766     0.1237     0.3467
  374.5000   103.1717     6.0488     5.4424     5.4856   -54.8364     9.6736     0.0302     2.4773     0.1210     0.3461
  375.0000   102.8735     6.4414     5.4816     5.4486   -54.5314     9.6743     0.0422     2.4743     0.1210     0.3476
  375.5000   101.6705     6.5785     5.4446     5.3376   -54.5285     9.6750     0.0452     2.4660     0.1225     0.3506
  376.0000    98.0454     6.7272     5.2960     5.2285   -54.5255     9.6303     0.0373     2.4534     0.1279     0.3578
  376.5000    96.8410     7.0066     5.0095     4.9635   -54.3716     9.6478     0.0181     2.4335     0.1358     0.3860
  377.0000    98.3611     6.8148     4.6728     4.4256   -53.8962     9.6926     0.0030     2.4252     0.1455     0.4110
  377.5000   100.7875     6.2687     4.5451     4.1000   -53.3076     9.6933    -0.0001     2.4343     0.1509     0.4144
  378.0000   100.4908     4.8778     4.5145     4.0440   -52.7005     9.6940     0.0029     2.4524     0.1527     0.3996
  378.5000    98.6812     4.5499     4.5154     4.1309   -52.0934     9.6948     0.0105     2.4675     0.1359     0.3751
  379.0000    96.5690     4.5824     4.5481     4.2488   -52.0905     9.6803     0.0180     2.4714     0.1255     0.3509
  379.5000    96.9198     5.0535     4.5809     4.6578   -52.5408     9.6811     0.0240     2.4743     0.1231     0.3416
  380.0000   102.3310     5.9898     4.7115     5.1320   -53.1420     9.6666     0.0285     2.4766     0.1228     0.3385
  380.5000   103.5456     6.8215     4.8798     5.3527   -53.2902     9.6522     0.0270     2.4773     0.1225     0.3383
  381.0000   101.4349     6.5887     5.2335     5.4293   -53.2866     9.6531     0.0209     2.4841     0.1194     0.3398
  381.5000    97.8099     6.4529     5.5762     5.6234   -53.5865     9.6690     0.0149     2.4856     0.1167     0.3383
  382.0000    96.6040     6.4090     5.8136     5.8653   -54.0360     9.6849     0.0148     2.4840     0.1161     0.3352
  382.5000    94.1907     6.5001     5.8964     6.0328   -54.3352     9.7008     0.0179     2.4819     0.1177     0.3319
  383.0000    92.3450     6.4558     5.8976     6.0344   -54.3323     9.7169     0.0179     2.4804     0.1188     0.3286
  383.5000    91.4792     6.5493     5.8578     5.9941   -54.1536     9.7477     0.0133     2.4773     0.1191     0.3274
  384.0000    91.7890     6.7888     5.6581     5.7906   -53.5705     9.7486     0.0027     2.4690     0.1206     0.3324
  384.5000    93.0051     6.9734     5.2047     5.3646   -53.1144     9.7342    -0.0048     2.4403     0.1279     0.3549
  385.0000    94.2213     6.7826     4.6863     4.8670   -52.8094     9.7046    -0.0078     2.4213     0.1412     0.3754
  385.5000    95.4374     5.7383     4.4350     4.3242   -52.5044     9.5502    -0.0048     2.4192     0.1517     0.3908
  386.0000    95.1287     4.4651     4.3138     3.9771   -52.1994     9.3577    -0.0001     2.4275     0.1551     0.3830
  386.5000    95.7531     4.1939     4.2549     4.0073   -52.0453     9.2372     0.0072     2.4426     0.1508     0.3667
  387.0000    96.3640     4.1947     4.2856     4.3279   -51.8914     9.1774     0.0162     2.4577     0.1397     0.3480
  387.5000    94.5544     4.5088     4.3467     4.6417   -52.3410     9.1476     0.0222     2.4736     0.1300     0.3262
  388.0000    91.8371     5.7024     4.5019     4.9782   -52.3381     9.1485     0.0283     2.4889     0.1209     0.3164
  388.5000    90.6312     6.2009     4.7294     5.3020   -52.4869     9.1644     0.0282     2.4940     0.1119     0.3022
  389.0000    90.9411     6.6961     5.0359     5.6469   -52.3322     9.1652     0.0267     2.4917     0.1115     0.2878
  389.5000    92.1916     6.8864     5.4009     5.8991   -52.3293     9.1356     0.0282     2.4932     0.1131     0.2869
  390.0000    94.2825     7.0329     5.8738     6.2297   -52.3257     9.1365     0.0252     2.5008     0.1111     0.2882
  390.5000    95.1960     7.0831     6.2123     6.4524   -52.1717     9.1372     0.0176     2.5030     0.1073     0.2891
  391.0000    94.8993     7.0840     6.4341     6.5906   -52.4717     9.1379     0.0116     2.5030     0.1058     0.2903
  391.5000    93.0897     7.1407     6.4805     6.6385   -52.9212     9.1387     0.0086     2.5000     0.1061     0.2936
  392.0000    93.3981     7.2866     6.4818     6.6402   -53.2204     9.1545     0.0206     2.4992     0.1082     0.2954
  392.5000    92.7184     7.2876     6.4384     6.5959   -53.2175     9.1705     0.0296     2.5045     0.1085     0.2975
  393.0000    88.8711     7.2377     6.4848     6.5067   -53.5378     9.1713     0.0326     2.5128     0.1043     0.3000
  393.5000    91.2990     7.2389     6.4861     6.5540   -53.9663     9.1872     0.0266     2.5181     0.0988     0.3018
  394.0000    92.5151     7.2399     6.5328     6.6016   -54.2662     9.1880     0.0175     2.5196     0.0961     0.3069
  394.5000    90.1004     7.3425     6.6259     6.6496   -54.4143     9.1887     0.0190     2.5128     0.0976     0.3075
  395.0000    86.7779     7.3452     6.6737     6.6979   -54.4107     9.1894     0.0265     2.5045     0.1040     0.3050
  395.5000    85.8759     7.4477     6.6286     6.6997   -54.2567     9.1902     0.0311     2.4977     0.1082     0.3021
  396.0000    87.4915     7.5010     6.5839     6.6087   -54.0906     9.1733     0.0280     2.5000     0.1088     0.3015
  396.5000    90.7303     7.5545     6.4939     6.5190   -53.4949     9.1312     0.0190     2.5030     0.1070     0.3039
  397.0000    91.6438     7.5031     6.4501     6.4754   -53.0388     9.0865     0.0084     2.5007     0.1052     0.3066
  397.5000    91.0445     7.4002     6.4969     6.4776   -52.8849     9.0719     0.0069     2.4947     0.1067     0.3087
  398.0000    89.5375     7.1976     6.4982     6.6163   -52.7309     9.0879     0.0204     2.4947     0.1089     0.3112
  398.5000    88.3330     7.0006     6.5908     6.7579   -52.5769     9.1341     0.0279     2.4992     0.1106     0.3115
  399.0000    88.3389     6.9529     6.7338     6.9040   -52.5740     9.1658     0.0310     2.5068     0.1073     0.3080
  399.5000    88.6487     7.0517     6.9724     7.1002   -52.7222     9.1964     0.0264     2.5121     0.1030     0.2946
  400.0000    89.5622     7.2521     7.1712     7.2523   -52.8703     9.2121     0.0204     2.5121     0.1006     0.2915
  400.5000    90.1732     7.4582     7.3243     7.3561   -52.7156     9.1972     0.0143     2.5083     0.1003     0.2909
  401.0000    88.6596     7.7239     7.3258     7.3581   -52.5617     9.1824     0.0098     2.5030     0.1063     0.2931
  401.5000    87.4523     7.9434     7.3273     7.4067   -52.5588     9.1373     0.0037     2.4902     0.1084     0.2955
  402.0000    89.8765     8.1691     6.7384     6.8604   -52.5559     9.1224    -0.0023     2.4668     0.1133     0.3006
  402.5000    91.0890     8.3429     5.8207     6.2814   -52.7117     9.1227    -0.0022     2.3981     0.1341     0.3357
  403.0000    89.8823     8.4612     5.4672     5.3013   -53.0120     9.1230     0.0052     2.3517     0.1664     0.3806
  403.5000    88.9775     8.4036     5.1711     4.3919   -53.1616     9.1234     0.0203     2.3845     0.1934     0.4063
  404.0000    88.6778     6.8438     5.0294     4.3012   -53.1601     9.1388     0.0326     2.4230     0.2012     0.3818
  404.5000    95.6652     4.5802     5.0301     4.6770   -53.6115     9.1391     0.0265     2.4691     0.1543     0.3374
  405.0000   102.1483     3.8477     5.0660     5.3772   -53.7615     9.1394     0.0160     2.4948     0.1199     0.3111
  405.5000   103.2101     4.6451     5.2102     6.0662   -53.6086     9.1397     0.0068     2.5114     0.1054     0.2878
  406.0000    95.0443     7.2581     5.4337     6.4920   -53.4561     9.1400    -0.0006     2.5152     0.0996     0.2860
  406.5000    86.5752     8.7621     5.7464     6.7697   -53.7567     9.1403    -0.0006     2.5152     0.0993     0.2781
