~VERSION INFORMATION
 VERS.                2.0:   CWLS LOG ASCII STANDARD - VERSION 2.0
 WRAP.                 NO:   ONE LINE PER DEPTH STEP
~WELL INFORMATION
#MNEM.UNIT      DATA TYPE    INFORMATION
#----------   ------------   ------------------------------
 STRT.F           42.0000:   START DEPTH
 STOP.F          408.0000:   STOP DEPTH
 STEP.F            0.5000:   STEP LENGTH
 NULL.          -999.2500:   NO VALUE
 COMP. FENIX & SCISSON INC:   COMPANY
 WELL.       SX 3FO #22-3:   WELL
 FLD .             TEAPOT:   FIELD
 LOC .       S3 T38N R78W:   LOCATION
 CNTY.            NATRONA:   COUNTY
 STAT.            WYOMING:   STATE
 CTRY. UNITED STATES OF AMERICA:   COUNTRY
 SRVC.              Welex:   SERVICE COMPANY
 DATE.        01-JUL-1980:   LOGDATE
 API .       490251083000:   API NUMBER
~CURVE INFORMATION
#MNEM.UNIT       API CODE    CURVE DESCRIPTION
#----------   ------------   ------------------------------
 DEPT.F                  :   
 GRD .GAPI   45 310 01 00:   GAMMA RAY FROM DENSITY LOG
 CALD.IN     45 280 60 00:   CALIPER
 RHOB.G/C3   45 350 01 00:   BULK DENSITY
 DPHI.DEC    45 890 12 00:   DENSITY POROSITY SANDSTONE
 CORR.G/C3   45 356 01 00:   DENSITY CORRECTION
~PARAMETER INFORMATION
#MNEM.UNIT          VALUE    DESCRIPTION
#----------   ------------   ------------------------------
 PD  .                 GL:   PERMANENT DATUM
 EPD .F              5152:   ELEVATION PERMANENT DATUM
 LMF .                 KB:   LOG MEASURED FROM
 DAPD.F                 5:   FEET ABOVE PERMANENT DATUM
 DMF .                 KB:   DRILLING MEASURED FROM
 EKB .F              5157:   KELLING BUSHING
 EGL .F              5152:   GROUND LEVEL
 DATE.             7-1-80:   RUN DATE
 RUN .                  1:   RUN NUMBER
 DD  .F               470:   DEPTH DRILLER
 DL  .F               410:   DEPTH LOGGER
 BLI .F               408:   BOTTOM LOG INTERVAL
 TLI .F                40:   TOP LOG INTERVAL
 BS  .IN             8.75:   BIT SIZE
 BSD .F               470:   BIT SIZE AT DEPTH
 DFT .        AIR DRILLED:   DRILLING FLUID TYPE
 BHT .F                75:   BOTTOM HOLE TEMPERATURE
 TCS .HRS             4.5:   TIME CURCULATED STOPPED
 MRT .F                75:   MAXIMUM RECORDED TEMPERATURE
 ENGI.        REIN/GLASER:   RECORDING ENGINEER
 WITN.             ROADES:   WITNESSED BY
 CLNT.            A2DTECH:   CLIENT CODE
 ORIG.           5" PRINT:   ORIGIN OF DATA
 UWI .       490251083000:   UNIQUE WELL ID
 DICO. A2D Technologies, Inc.:   DIGITIZING COMPANY
~OTHER INFORMATION
~A   DEPT       GRD        CALD       RHOB       DPHI       CORR 
# ...
  286.0000    69.5586     8.9277     2.4671     0.1334     0.1679
  286.5000    69.0166     8.9132     2.4350     0.1485     0.1614
  287.0000    72.0634     8.9447     2.4462     0.1452     0.1552
  287.5000    75.0862     8.9670     2.4615     0.1390     0.1577
  288.0000    78.9061     8.9899     2.4550     0.1397     0.1647
  288.5000    84.0126     9.0126     2.4723     0.1282     0.1715
  289.0000    82.4475     9.0333     2.4661     0.1352     0.1772
  289.5000    79.2431     8.9865     2.4526     0.1438     0.1751
  290.0000    75.9971     8.9355     2.4315     0.1526     0.1720
  290.5000    72.6123     8.9257     2.4263     0.1582     0.1689
  291.0000    71.1627     8.9169     2.4139     0.1635     0.1658
  291.5000    70.0460     8.8692     2.4052     0.1698     0.1627
  292.0000    69.2327     8.7745     2.4110     0.1698     0.1596
  292.5000    69.4961     8.8070     2.4127     0.1671     0.1565
  293.0000    71.3788     8.9126     2.4089     0.1686     0.1533
  293.5000    73.1973     9.0224     2.4151     0.1647     0.1502
  294.0000    75.0401     9.0485     2.4145     0.1648     0.1468
  294.5000    75.3560     9.0325     2.4077     0.1680     0.1390
  295.0000    74.0402     9.0161     2.3988     0.1710     0.1366
  295.5000    72.8619     9.0341     2.3854     0.1798     0.1247
  296.0000    73.9267     9.0559     2.3722     0.1886     0.1111
  296.5000    76.1837     9.0570     2.3667     0.1930     0.1007
  297.0000    78.4317     9.0416     2.3756     0.1883     0.0957
  297.5000    79.3547     9.0314     2.3859     0.1812     0.0930
  298.0000    78.2796     9.0213     2.4011     0.1752     0.0992
  298.5000    76.8847     9.0178     2.3954     0.1783     0.1070
  299.0000    75.5066     9.0341     2.3963     0.1742     0.1144
  299.5000    75.0491     9.0496     2.4060     0.1690     0.1217
  300.0000    75.5675     9.0651     2.4002     0.1730     0.1276
  300.5000    77.6854     9.0606     2.3964     0.1718     0.1245
  301.0000    79.7306     9.0360     2.4115     0.1664     0.1231
  301.5000    80.9920     9.0116     2.4263     0.1586     0.1230
  302.0000    80.6241     8.9936     2.4276     0.1591     0.1230
  302.5000    80.1241     8.9975     2.4233     0.1578     0.1229
  303.0000    79.6207     9.0024     2.4253     0.1586     0.1272
  303.5000    80.0039     9.0073     2.4411     0.1515     0.1332
  304.0000    81.7056     9.0123     2.4594     0.1413     0.1396
  304.5000    83.3544     8.9972     2.4777     0.1286     0.1580
  305.0000    85.0475     8.9629     2.4957     0.1160     0.1640
  305.5000    85.7215     8.9286     2.5084     0.1078     0.1690
  306.0000    84.8690     8.8941     2.4881     0.1265     0.1674
  306.5000    83.8760     8.8603     2.4456     0.1533     0.1328
  307.0000    82.8745     8.8663     2.4027     0.1758     0.1008
  307.5000    81.9727     8.9106     2.3809     0.1819     0.0820
  308.0000    82.3653     8.9539     2.3886     0.1788     0.0771
  308.5000    84.8092     8.9940     2.3999     0.1705     0.0844
  309.0000    87.2321     9.0073     2.4071     0.1694     0.0905
  309.5000    88.0835     9.0197     2.4011     0.1694     0.0859
  310.0000    88.8951     9.0319     2.4060     0.1706     0.0900
  310.5000    89.3070     9.0125     2.4012     0.1722     0.0900
  311.0000    88.1895     8.9881     2.3954     0.1764     0.0837
  311.5000    86.9033     8.9808     2.3909     0.1786     0.0792
  312.0000    85.9443     8.9949     2.3994     0.1735     0.0887
  312.5000    86.1285     9.0089     2.4119     0.1649     0.0980
  313.0000    86.0975     9.0230     2.4174     0.1602     0.1053
  313.5000    85.2707     9.0337     2.4103     0.1677     0.1010
  314.0000    84.9253     9.0263     2.4041     0.1690     0.0995
  314.5000    85.3263     9.0192     2.4062     0.1672     0.1113
  315.0000    86.2199     9.0121     2.4141     0.1652     0.1169
  315.5000    86.7633     9.0051     2.4264     0.1594     0.1304
  316.0000    85.6007     8.9980     2.4446     0.1452     0.1438
  316.5000    85.1120     8.9888     2.4613     0.1350     0.1573
  317.0000    85.0097     8.9774     2.4768     0.1244     0.1698
  317.5000    84.9462     8.9414     2.5116     0.1072     0.1927
  318.0000    84.1392     8.9053     2.5461     0.0802     0.2182
  318.5000    82.9029     8.7970     2.5586     0.0834     0.2075
  319.0000    81.9597     8.6798     2.5301     0.0878     0.1862
  319.5000    82.9714     8.5565     2.5492     0.0887     0.1650
  320.0000    85.3861     8.7190     2.5196     0.1478     0.1634
  320.5000    87.6716     8.8658     2.4498     0.1625     0.1337
  321.0000    87.8729     8.7474     2.3917     0.1749     0.0956
  321.5000    88.1318     8.9787     2.3851     0.1826     0.0818
  322.0000    87.3613     8.9593     2.4007     0.1751     0.0933
  322.5000    86.1358     8.9370     2.4138     0.1660     0.1001
  323.0000    85.9880     8.9148     2.4189     0.1608     0.0991
  323.5000    87.9130     8.8930     2.4247     0.1566     0.1040
  324.0000    89.9098     8.8771     2.4375     0.1529     0.1088
  324.5000    91.8861     8.8894     2.4399     0.1497     0.1130
  325.0000    92.4685     8.9011     2.4282     0.1564     0.1098
  325.5000    91.2650     8.9128     2.4163     0.1637     0.1045
  326.0000    89.3076     8.9059     2.4060     0.1700     0.0991
  326.5000    87.3472     8.8913     2.3961     0.1770     0.0951
  327.0000    86.1333     8.8767     2.3846     0.1841     0.0902
  327.5000    85.8888     8.8618     2.3722     0.1890     0.0822
  328.0000    88.6934     8.8711     2.3661     0.1923     0.0737
  328.5000    90.7077     8.8962     2.3601     0.1963     0.0651
  329.0000    90.5948     8.9216     2.3514     0.2033     0.0565
  329.5000    90.0527     8.9472     2.3431     0.2074     0.0531
  330.0000    89.5214     8.9727     2.3421     0.2028     0.0553
  330.5000    89.5554     8.9972     2.3493     0.2001     0.0591
  331.0000    89.8926     8.9977     2.3614     0.2018     0.0630
  331.5000    90.2571     8.9782     2.3734     0.1874     0.0669
  332.0000    89.3943     8.9628     2.3816     0.1814     0.0658
  332.5000    88.2401     8.9471     2.3837     0.1814     0.0625
  333.0000    87.0702     8.9311     2.3925     0.1791     0.0640
  333.5000    85.9157     8.9158     2.4068     0.1716     0.0688
  334.0000    84.9020     8.9278     2.4034     0.1686     0.0676
  334.5000    85.1284     8.9414     2.4117     0.1702     0.0667
  335.0000    85.2095     8.9549     2.4268     0.1547     0.0719
  335.5000    84.3262     8.9683     2.4294     0.1564     0.0722
  336.0000    83.4495     8.9696     2.4282     0.1573     0.0671
  336.5000    82.5596     8.9615     2.4335     0.1526     0.0701
  337.0000    82.3055     8.9533     2.4352     0.1526     0.0695
  337.5000    82.2249     8.9451     2.4298     0.1539     0.0653
  338.0000    82.1891     8.9371     2.4246     0.1577     0.0613
  338.5000    82.3781     8.9200     2.4280     0.1594     0.0698
  339.0000    82.5681     8.9003     2.4466     0.1477     0.0792
  339.5000    82.7578     8.8797     2.4599     0.1386     0.0887
  340.0000    82.9345     8.8926     2.4533     0.1382     0.0891
  340.5000    83.4895     8.9150     2.4413     0.1469     0.0828
  341.0000    84.2002     8.9349     2.4291     0.1548     0.0765
  341.5000    84.9163     8.9305     2.4267     0.1582     0.0761
  342.0000    85.5389     8.9247     2.4445     0.1466     0.0843
  342.5000    85.5312     8.9189     2.4585     0.1370     0.0926
  343.0000    84.9688     8.9195     2.4563     0.1388     0.0917
  343.5000    84.3547     8.9548     2.4509     0.1423     0.0870
  344.0000    83.7361     8.9897     2.4454     0.1450     0.0830
  344.5000    83.1073     9.0075     2.4441     0.1458     0.0830
  345.0000    82.7271     8.9823     2.4474     0.1446     0.0830
  345.5000    82.7808     8.9585     2.4493     0.1447     0.0830
  346.0000    85.3130     8.9347     2.4469     0.1444     0.0840
  346.5000    88.1748     8.9110     2.4623     0.1354     0.0878
