~VERSION INFORMATION
 VERS.                2.0:   CWLS LOG ASCII STANDARD - VERSION 2.0
 WRAP.                 NO:   ONE LINE PER DEPTH STEP
~WELL INFORMATION
#MNEM.UNIT      DATA TYPE    INFORMATION
#----------   ------------   ------------------------------
 STRT.F            0.0000:   START DEPTH
 STOP.F          596.0000:   STOP DEPTH
 STEP.F            0.1000:   STEP LENGTH
 NULL.          -999.2500:   NO VALUE
 COMP. BROWN JOHN E&C INC:   COMPANY
 WELL.    72-5 SX-3 #72-3:   WELL
 FLD .             TEAPOT:   FIELD
 LOC .       S3 T38N R78W:   LOCATION
 CNTY.            NATRONA:   COUNTY
 STAT.            WYOMING:   STATE
 CTRY. UNITED STATES OF AMERICA:   COUNTRY
 SRVC.      Western Atlas:   SERVICE COMPANY
 DATE.        15-APR-1992:   LOGDATE
 API .       490252250900:   API NUMBER
~CURVE INFORMATION
#MNEM.UNIT       API CODE    CURVE DESCRIPTION
#----------   ------------   ------------------------------
 DEPT.F                  :   
 GRR .GAPI   07 310 01 00:   GAMMA RAY
 RILD.OHMM   07 120 46 00:   INDUCTION LOG DEEP RESISTIVITY
 RILM.OHMM   07 120 44 00:   INDUCTION LOG MEDIUM RESISTIVITY
~PARAMETER INFORMATION
#MNEM.UNIT          VALUE    DESCRIPTION
#----------   ------------   ------------------------------
 PD  .                 GL:   PERMANENT DATUM
 EPD .F              5132:   ELEVATION PERMANENT DATUM
 LMF .                 KB:   LOG MEASURED FROM
 DAPD.F                 5:   FEET ABOVE PERMANENT DATUM
 DMF .                 KB:   DRILLING MEASURED FROM
 EKB .F              5137:   KELLING BUSHING
 EDF .F              5136:   DRILLING FLOOR
 EGL .F              5132:   GROUND LEVEL
 DATE.        15-APR-1992:   RUN DATE
 RUN .                  1:   RUN NUMBER
 DD  .F               605:   DEPTH DRILLER
 DL  .F               599:   DEPTH LOGGER
 BLI .F               596:   BOTTOM LOG INTERVAL
 TLI .F                46:   TOP LOG INTERVAL
 CS  .IN            8.625:   CASING SIZE
 CBD .F                48:   CASING BOTTOM DRILLER
 CBL .F                46:   CASING BOTTOM LOGGER
 BS  .IN            7.875:   BIT SIZE
 BSD .F               605:   BIT SIZE AT DEPTH
 DFT .                AIR:   DRILLING FLUID TYPE
 LUN .            HL-6321:   LOGGING UNIT NUMBER
 LUL .        RK. SPRINGS:   LOGGING UNIT LOCATION
 ENGI.            TRIBBLE:   RECORDING ENGINEER
 WITN.             STRONG:   WITNESSED BY
 CLNT.            A2DTECH:   CLIENT CODE
 ORIG.           5" PRINT:   ORIGIN OF DATA
 UWI .       490252250900:   UNIQUE WELL ID
 DICO. A2D Technologies, Inc.:   DIGITIZING COMPANY
~OTHER INFORMATION
~A    DEPT     GRR       RILD       RILM   
# ...
  582.4000   111.1111     8.6320     8.6499
  582.5000   110.9394     8.6224     8.6490
  582.6000   110.9091     8.5707     8.6289
  582.7000   110.6287     8.5701     8.5871
  582.8000   110.6255     8.5695     8.5863
  582.9000   110.2875     8.5689     8.5855
  583.0000   109.8991     8.5683     8.5846
  583.1000   109.6465     8.5677     8.5838
  583.2000   109.3891     8.5671     8.5829
  583.3000   108.7884     8.5665     8.5785
  583.4000   108.3862     8.5332     8.5214
  583.5000   107.8847     8.5057     8.5207
  583.6000   107.5661     8.5051     8.5199
  583.7000   107.5624     8.5045     8.4989
  583.8000   107.5585     8.5038     8.4402
  583.9000   107.5552     8.5033     8.3408
  584.0000   107.7292     8.5027     8.3400
  584.1000   107.8509     8.5021     8.3032
  584.2000   107.9168     8.4942     8.2804
  584.3000   108.1469     8.4417     8.2646
  584.4000   108.1425     8.4412     8.2166
  584.5000   108.1394     8.4059     8.1630
  584.6000   108.2918     8.3812     8.1623
  584.7000   108.4352     8.3806     8.1309
  584.8000   108.4315     8.3768     8.1039
  584.9000   108.4278     8.3210     8.1032
  585.0000   108.4242     8.3205     8.1024
  585.1000   108.2323     8.2897     8.1016
  585.2000   108.1139     8.2614     8.1008
  585.3000   108.1103     8.2608     8.1000
  585.4000   108.0807     8.2602     8.0992
  585.5000   107.7996     8.2597     8.0984
  585.6000   107.3551     8.2591     8.0975
  585.7000   106.8538     8.2585     8.0968
  585.8000   106.2401     8.2421     8.0960
  585.9000   105.5480     8.1943     8.0952
  586.0000   105.0427     8.1421     8.0944
  586.1000   104.2921     8.0996     8.0925
  586.2000   103.7406     8.0844     8.0364
  586.3000   103.2392     8.0621     8.0358
  586.4000   102.9188     8.0269     8.0082
  586.5000   102.9516     8.0264     7.9616
  586.6000   103.2143     8.0257     7.9154
  586.7000   103.2109     8.0253     7.8660
  586.8000   103.5611     8.0247     7.8653
  586.9000   104.0553     8.0241     7.8646
  587.0000   104.4808     8.0236     7.8419
  587.1000   104.7405     8.0230     7.8083
  587.2000   105.3134     7.9787     7.8054
  587.3000   105.5196     7.9660     7.7523
  587.4000   105.6097     7.9417     7.7517
  587.5000   103.9899     7.9095     7.7240
  587.6000    92.8372     7.9049     7.6963
  587.7000    49.5381     7.8532     7.6955
  587.8000     0.0000     7.8527     7.6947
  587.9000     0.0000     7.8228     7.6522
  588.0000     0.0000     7.7970     7.6397
  588.1000  -999.2500     7.7964     7.6390
  588.2000  -999.2500     7.7959     7.6255
  588.3000  -999.2500     7.7953     7.5843
  588.4000  -999.2500     7.7596     7.5835
  588.5000  -999.2500     7.7400     7.5828
  588.6000  -999.2500     7.7394     7.5547
  588.7000  -999.2500     7.7327     7.5286
  588.8000  -999.2500     7.6844     7.5195
  588.9000  -999.2500     7.6839     7.4747
  589.0000  -999.2500     7.6834     7.4740
  589.1000  -999.2500     7.6828     7.4410
  589.2000  -999.2500     7.6823     7.4206
  589.3000  -999.2500     7.6793     7.4198
  589.4000  -999.2500     7.6277     7.4150
  589.5000  -999.2500     7.6272     7.3667
  589.6000  -999.2500     7.6267     7.3661
  589.7000  -999.2500     7.6261     7.3377
  589.8000  -999.2500     7.6339     7.3134
  589.9000  -999.2500     7.6785     7.3035
  590.0000  -999.2500     7.6780     7.2611
  590.1000  -999.2500     7.6775     7.2603
  590.2000  -999.2500     7.6769     7.2273
  590.3000  -999.2500     7.6764     7.2084
  590.4000  -999.2500     7.6759     7.2077
  590.5000  -999.2500     7.6753     7.2070
  590.6000  -999.2500     7.6748     7.2062
  590.7000  -999.2500     7.6743     7.2056
  590.8000  -999.2500     7.6737     7.1768
  590.9000  -999.2500     7.6732     7.1541
  591.0000  -999.2500     7.6726     7.1534
  591.1000  -999.2500     7.6720     7.1527
  591.2000  -999.2500     7.6716     7.1518
  591.3000  -999.2500     7.6710     7.1513
  591.4000  -999.2500     7.6705     7.1506
  591.5000  -999.2500     7.6700     7.1349
  591.6000  -999.2500     7.6694     7.0994
  591.7000  -999.2500     7.6689     7.0987
  591.8000  -999.2500     7.6684     7.0980
  591.9000  -999.2500     7.6678     7.0973
  592.0000  -999.2500     7.6673     7.0769
  592.1000  -999.2500     7.6667     7.0466
  592.2000  -999.2500     7.6661     7.0459
  592.3000  -999.2500     7.6657     7.0451
  592.4000  -999.2500     7.6651     7.0445
  592.5000  -999.2500     7.6646     7.0438
  592.6000  -999.2500     7.6641     7.0431
  592.7000  -999.2500     7.6635     7.0424
  592.8000  -999.2500     7.6630     7.0417
  592.9000  -999.2500     7.6625     7.0411
  593.0000  -999.2500     7.6619     7.0404
  593.1000  -999.2500     7.6614     7.0397
  593.2000  -999.2500     7.6609     7.0390
  593.3000  -999.2500     7.6603     7.0383
  593.4000  -999.2500     7.6598     7.0375
  593.5000  -999.2500     7.6593     7.0369
  593.6000  -999.2500     7.6587     7.0362
  593.7000  -999.2500     7.6697     7.0356
  593.8000  -999.2500     7.7114     7.0428
  593.9000  -999.2500     7.7107     7.0835
  594.0000  -999.2500     7.7103     7.0828
  594.1000  -999.2500     7.7097     7.0821
  594.2000  -999.2500     7.7092     7.0814
  594.3000  -999.2500     7.7087     7.0807
  594.4000  -999.2500     7.7081     7.0800
  594.5000  -999.2500     7.7076     7.0792
  594.6000  -999.2500     7.7070     7.0786
  594.7000  -999.2500     7.7065     7.0779
  594.8000  -999.2500     7.7060     7.0772
  594.9000  -999.2500     7.7054     7.0855
  595.0000  -999.2500     7.7049     7.1254
  595.1000  -999.2500  -999.2500     7.1247
  595.2000  -999.2500  -999.2500     7.1240
  595.3000  -999.2500  -999.2500     7.1233
  595.4000  -999.2500  -999.2500     7.1227
  595.5000  -999.2500  -999.2500     7.1220
  595.6000  -999.2500  -999.2500     7.1212
  595.7000  -999.2500  -999.2500     7.1206
  595.8000  -999.2500  -999.2500     7.1478
  595.9000  -999.2500  -999.2500     7.1691
  596.0000  -999.2500  -999.2500     7.1684
