~VERSION INFORMATION
 VERS.                2.0:   CWLS LOG ASCII STANDARD - VERSION 2.0
 WRAP.                 NO:   ONE LINE PER DEPTH STEP
~WELL INFORMATION
#MNEM.UNIT      DATA TYPE    INFORMATION
#----------   ------------   ------------------------------
 STRT.F           41.0000:   START DEPTH
 STOP.F          468.0000:   STOP DEPTH
 STEP.F            0.1000:   STEP LENGTH
 NULL.          -999.2500:   NO VALUE
 COMP.       F D SERV INC:   COMPANY
 WELL. NAVAL PETROLEUM RESERVE 3 SX-1 #53-1-10:   WELL
 FLD .             TEAPOT:   FIELD
 LOC .      S10 T38N R78W:   LOCATION
 CNTY.            NATRONA:   COUNTY
 STAT.            WYOMING:   STATE
 CTRY. UNITED STATES OF AMERICA:   COUNTRY
 SRVC.     Atlas Wireline:   SERVICE COMPANY
 DATE.        22-DEC-1992:   LOGDATE
 API .       490252256900:   API NUMBER
~CURVE INFORMATION
#MNEM.UNIT       API CODE    CURVE DESCRIPTION
#----------   ------------   ------------------------------
 DEPT.F                  :   
 GRR .GAPI   07 310 01 00:   GAMMA RAY
 RILD.OHMM   07 120 46 00:   INDUCTION LOG DEEP RESISTIVITY
 RILM.OHMM   07 120 44 00:   RESITIVITY LONG MEDIUM
~PARAMETER INFORMATION
#MNEM.UNIT          VALUE    DESCRIPTION
#----------   ------------   ------------------------------
 PD  .                 GL:   PERMANENT DATUM
 EPD .F              5185:   ELEVATION PERMANENT DATUM
 LMF .                 KB:   LOG MEASURED FROM
 DAPD.F                10:   FEET ABOVE PERMANENT DATUM
 DMF .                 KB:   DRILLING MEASURED FROM
 EKB .F              5195:   KELLING BUSHING
 EDF .F              5194:   DRILLING FLOOR
 EGL .F              5185:   GROUND LEVEL
 DATE.        22-DEC-1992:   RUN DATE
 RUN .                  1:   RUN NUMBER
 DD  .F               475:   DEPTH DRILLER
 DL  .F               472:   DEPTH LOGGER
 BLI .F               470:   BOTTOM LOG INTERVAL
 CS  .IN            8.625:   CASING SIZE
 CBL .F                80:   CASING BOTTOM LOGGER
 BS  .IN            7.875:   BIT SIZE
 BSD .F               475:   BIT SIZE AT DEPTH
 DFT .        AIR DRILLED:   DRILLING FLUID TYPE
 LUN .            HL 6321:   LOGGING UNIT NUMBER
 LUL .       RCK, SPRINGS:   LOGGING UNIT LOCATION
 ENGI.      JOHN THOMPSON:   RECORDING ENGINEER
 WITN.          G. STRONG:   WITNESSED BY
 CLNT.            A2DTECH:   CLIENT CODE
 ORIG.           5" PRINT:   ORIGIN OF DATA
 UWI .       490252256900:   UNIQUE WELL ID
 DICO. A2D Technologies, Inc.:   DIGITIZING COMPANY
~OTHER INFORMATION
~A   DEPT      GRR       RILD       RILM   
# ...
  277.6000   121.3382    18.5725    19.6977
  277.7000   120.4624    18.4949    19.6451
  277.8000   118.8505    18.4962    19.5643
  277.9000   117.2050    18.4977    19.5659
  278.0000   116.4768    18.4987    19.5678
  278.1000   115.9086    18.5000    19.5692
  278.2000   115.4878    18.4595    19.5708
  278.3000   115.1524    18.3739    19.5725
  278.4000   114.9075    18.3755    19.5524
  278.5000   114.7152    18.3767    19.4399
  278.6000   114.7200    18.3780    19.4415
  278.7000   114.7249    18.3793    19.4432
  278.8000   114.7297    18.3805    19.4448
  278.9000   114.7346    18.3818    19.4464
  279.0000   114.7394    18.3832    19.4480
  279.1000   114.7442    18.3844    19.4498
  279.2000   114.7494    18.3857    19.4513
  279.3000   114.7539    18.3391    19.5304
  279.4000   114.9374    18.2606    19.5904
  279.5000   115.0667    18.2618    19.5921
  279.6000   115.2873    18.2633    19.5937
  279.7000   116.0227    18.2644    19.5956
  279.8000   116.5970    18.2656    19.5970
  279.9000   117.2461    18.2669    19.5986
  280.0000   118.0000    18.2682    19.6459
  280.1000   118.7539    18.2695    19.7388
  280.2000   119.5080    18.2707    19.7405
  280.3000   120.2602    18.2720    19.7421
  280.4000   120.7644    18.2733    19.7438
  280.5000   121.0707    18.2746    19.7454
  280.6000   121.3252    18.2847    19.7471
  280.7000   121.4885    18.4051    19.7487
  280.8000   121.4933    18.4062    19.7506
  280.9000   121.4985    18.4075    19.7520
  281.0000   121.5030    18.4087    19.7537
  281.1000   121.3269    18.4335    19.8092
  281.2000   121.0820    18.5400    19.8950
  281.3000   120.7629    18.5413    19.8967
  281.4000   120.2684    18.6269    19.8986
  281.5000   119.7097    18.7353    19.9950
  281.6000   119.7139    18.8443    20.0407
  281.7000   119.5548    18.9382    20.0424
  281.8000   119.3099    18.9396    20.0440
  281.9000   119.1224    19.1439    20.0458
  282.0000   119.1273    19.2867    20.1594
  282.1000   119.1331    19.3989    20.2771
  282.2000   119.1370    19.5118    20.3953
  282.3000   119.1418    19.6252    20.5531
  282.4000   119.1467    19.7565    20.7917
  282.5000   119.1111    19.9517    21.0575
  282.6000   118.8536    20.1095    21.1679
  282.7000   118.8582    20.2755    21.3755
  282.8000   118.6796    20.4863    21.5652
  282.9000   118.4348    20.6068    21.6910
  283.0000   118.1899    20.7254    21.8174
  283.1000   117.9680    20.8460    21.9669
  283.2000   117.9739    20.9673    22.0727
  283.3000   118.1980    21.0893    22.2015
  283.4000   118.2861    21.2119    22.3310
  283.5000   118.4041    21.3463    22.4376
  283.6000   118.5988    21.3477    22.4396
  283.7000   118.6102    21.4345    22.5663
  283.8000   118.9124    21.4999    22.6979
  283.9000   119.1192    21.5341    22.8303
  284.0000   119.3738    21.6593    22.9634
  284.1000   119.7246    21.8064    23.0828
  284.2000   120.1859    21.8077    23.0849
  284.3000   120.4511    21.8092    23.2055
  284.4000   120.9341    21.8107    23.2499
  284.5000   121.0667    21.8122    23.2518
  284.6000   121.0715    21.8138    23.2874
  284.7000   121.0764    21.8153    23.4182
  284.8000   121.0553    21.8168    23.4205
  284.9000   120.7836    21.8183    23.4221
  285.0000   120.7879    21.8605    23.3428
  285.1000   120.6238    21.9739    23.2635
  285.2000   120.3790    21.9756    23.2418
  285.3000   120.1341    21.9770    23.1060
  285.4000   119.8803    21.8935    22.9807
  285.5000   119.2978    21.8274    22.8513
  285.6000   118.8913    21.8290    22.7226
  285.7000   118.3968    21.8305    22.5946
  285.8000   118.0008    21.8323    22.4806
  285.9000   117.8003    21.8335    22.4829
  286.0000   117.8062    21.8350    22.2565
  286.1000   117.5693    21.7886    22.0899
  286.2000   117.5127    21.6656    21.9654
  286.3000   117.5176    21.5375    21.8110
  286.4000   117.6040    21.5389    21.5640
  286.5000   117.8586    21.4497    21.2757
  286.6000   118.1387    21.3286    21.1778
  286.7000   118.5923    21.1712    20.9862
  286.8000   119.2679    20.9419    20.7946
  286.9000   120.0218    20.8089    20.6570
  287.0000   120.7110    20.7062    20.4136
  287.1000   121.2040    20.5120    20.3034
  287.2000   121.5014    20.2796    20.1034
  287.3000   121.5054    20.0757    19.9361
  287.4000   121.6646    19.9609    19.8238
  287.5000   121.8182    19.7350    19.7121
  287.6000   121.8707    19.6006    19.5884
  287.7000   122.1310    19.4254    19.5899
  287.8000   122.1358    19.2454    19.5163
  287.9000   121.9500    19.1203    19.4064
  288.0000   121.7051    18.8895    19.2971
  288.1000   121.3762    18.7898    19.1914
  288.2000   120.8510    18.6838    19.1933
  288.3000   120.0392    18.5783    19.1054
  288.4000   119.1356    18.4734    18.9978
  288.5000   118.1414    18.3691    18.8908
  288.6000   117.1473    18.2506    18.8023
  288.7000   115.9521    18.1623    18.8043
  288.8000   114.2367    18.0598    18.7031
  288.9000   112.7959    17.9578    18.6768
  289.0000   112.1696    17.8563    18.6784
  289.1000   111.7390    17.7550    18.6467
  289.2000   111.5976    17.6553    18.5518
  289.3000   111.6024    17.6342    18.5537
  289.4000   111.6073    17.5786    18.5550
  289.5000   111.6121    17.5142    18.5566
  289.6000   111.6170    17.5154    18.5581
  289.7000   111.6218    17.5167    18.5344
  289.8000   111.6267    17.4261    18.4324
  289.9000   111.6315    17.3974    18.4343
  290.0000   111.6368    17.3503    18.3503
  290.1000   111.8707    17.2791    18.3092
  290.2000   112.1253    17.2803    18.3107
  290.3000   112.5027    17.2817    18.2949
  290.4000   112.9374    17.2827    18.1868
  290.5000   113.2081    17.2839    18.1882
  290.6000   113.7874    17.2851    18.1132
  290.7000   114.2166    17.2863    18.0651
  290.8000   114.8800    17.2875    18.0666
  290.9000   115.5281    17.2887    18.0681
  291.0000   116.0848    17.2899    18.0698
  291.1000   116.8412    17.2911    17.9804
  291.2000   117.5928    17.2923    17.9472
  291.3000   118.3466    17.2935    17.9027
  291.4000   119.1005    17.2948    17.8257
  291.5000   119.7656    17.2959    17.8272
  291.6000   120.3055    17.2971    17.8290
  291.7000   121.1131    17.2983    17.8302
  291.8000   121.5814    17.2995    17.8317
  291.9000   121.9071    17.3007    17.8331
  292.0000   122.1616    17.3022    17.8346
  292.1000   122.3442    17.3032    17.8362
  292.2000   122.3491    17.3044    17.9348
  292.3000   122.3546    17.3056    17.9637
  292.4000   122.3588    17.3068    17.9652
  292.5000   122.3636    17.3080    17.9667
  292.6000   122.3685    17.3092    17.9774
  292.7000   122.3733    17.3104    18.0955
  292.8000   122.3782    17.3116    18.0968
  292.9000   122.3830    17.3128    18.1670
  293.0000   122.1899    17.3140    18.2263
  293.1000   122.0897    17.3154    18.2520
  293.2000   122.1858    17.3164    18.3566
  293.3000   122.4024    17.2517    18.3585
  293.4000   122.4076    17.1986    18.4444
  293.5000   122.6464    17.1998    18.4895
  293.6000   122.9009    17.2010    18.5307
  293.7000   123.1555    17.2024    18.6218
  293.8000   123.3358    17.2034    18.6234
  293.9000   123.3616    17.2046    18.6249
  294.0000   123.6491    17.2058    18.6265
  294.1000   123.8708    17.2070    18.6280
  294.2000   123.9612    17.2083    18.6296
  294.3000   123.7446    17.2094    18.6311
  294.4000   123.1927    17.2106    18.6329
  294.5000   122.4445    17.2118    18.6343
  294.6000   121.2543    17.2130    18.6358
  294.7000   120.6569    17.2142    18.5904
  294.8000   119.9127    17.2155    18.5096
  294.9000   119.2622    17.2166    18.5112
  295.0000   118.6869    17.2178    18.5127
  295.1000   117.6415    17.2190    18.5143
  295.2000   116.9357    17.2202    18.4541
  295.3000   116.3749    17.2214    18.3889
  295.4000   115.8804    17.2226    18.3904
  295.5000   115.3858    17.2238    18.3920
  295.6000   114.9147    17.2250    18.2948
  295.7000   114.6406    17.2262    18.2674
