~VERSION INFORMATION
 VERS.                2.0:   CWLS LOG ASCII STANDARD - VERSION 2.0
 WRAP.                 NO:   ONE LINE PER DEPTH STEP
~WELL INFORMATION
#MNEM.UNIT      DATA TYPE    INFORMATION
#----------   ------------   ------------------------------
 STRT.F            0.0000:   START DEPTH
 STOP.F         4535.0000:   STOP DEPTH
 STEP.F            0.5000:   STEP LENGTH
 NULL.          -999.2500:   NO VALUE
 COMP.   FLUOR DANIEL INC:   COMPANY
 WELL.     56 X 15 #56-15:   WELL
 FLD .             TEAPOT:   FIELD
 LOC .      S15 T38N R78W:   LOCATION
 CNTY.            NATRONA:   COUNTY
 STAT.            WYOMING:   STATE
 CTRY. UNITED STATES OF AMERICA:   COUNTRY
 SRVC.      Dresser Atlas:   SERVICE COMPANY
 DATE.        03-MAY-1984:   LOGDATE
 API .       490252268500:   API NUMBER
~CURVE INFORMATION
#MNEM.UNIT       API CODE    CURVE DESCRIPTION
#----------   ------------   ------------------------------
 DEPT.F                  :   
 CNC .DEC    42 890 03 00:   NEUTRON POROSITY SANDSTONE
 PORD.DEC    45 890 12 00:   POROSITY DENSITY SANDSTONE
 RHOB.G/C3   45 350 01 00:   BULK DENSITY
 CORR.G/C3   45 356 01 00:   DENSITY CORRECTION
 DT  .US/F   60 520 00 00:   INTERVAL TRANSIT TIME
 RILD.OHMM   07 120 46 00:   INDUCTION LOG DEEP RESISTIVITY
 RILM.OHMM   07 120 44 00:   INDUCTION LOG MEDIUM RESISTIVITY
 CALR.IN     07 280 01 00:   CALIPER FROM RESISTIVITY
 GRR .GAPI   07 310 01 00:   GAMMA RAY FROM RESISTIVITY LOG
 SPR .MV     07 010 01 00:   SPONTANEOUS POTENTIAL
 RFOC.OHMM   07 220 04 00:   RESISTIVITY FOCUSED LOG
~PARAMETER INFORMATION
#MNEM.UNIT          VALUE    DESCRIPTION
#----------   ------------   ------------------------------
 PD  .                 GL:   PERMANENT DATUM
 EPD .F              5326:   ELEVATION PERMANENT DATUM
 LMF .                 KB:   LOG MEASURED FROM
 DAPD.F                12:   FEET ABOVE PERMANENT DATUM
 DMF .                 KB:   DRILLING MEASURED FROM
 EKB .F              5338:   KELLING BUSHING
 EDF .F              5337:   DRILLING FLOOR
 EGL .F              5326:   GROUND LEVEL
 DATE.        03-MAY-1984:   RUN DATE
 RUN .                  1:   RUN NUMBER
 DD  .F              4547:   DEPTH DRILLER
 DL  .F              4539:   DEPTH LOGGER
 BLI .F              4536:   BOTTOM LOG INTERVAL
 TLI .F              1021:   TOP LOG INTERVAL
 CS  .IN            8.625:   CASING SIZE
 CBD .F              1027:   CASING BOTTOM DRILLER
 CBL .F              1021:   CASING BOTTOM LOGGER
 BS  .IN            7.875:   BIT SIZE
 BSD .F              4547:   BIT SIZE AT DEPTH
 DFT .            KCL GEL:   DRILLING FLUID TYPE
 DFD .                9.1:   DRILLING FLUID DENSITY
 DFV .                 44:   DRILLING FLUID VISCOSITY
 DFPH.                  8:   DRILLING FLUID PH
 DFL .               14.5:   DRILLING FLUID LOSS
 MSS .            MUDTANK:   MUD SAMPLE SOURCE
 RMS .OHMM           0.56:   RESISTIVITY MUD SAMPLE
 MST .F                73:   MUD SAMPLE TEMPERATURE
 RMF .OHMM           0.42:   RESISTIVITY MUD FILTRATE SAMPLE
 MFST.F                73:   MUD FILTRATE SAMPLE TEMPERATURE
 RMC .OHMM           0.71:   RESISTIVITY MUD CAKE
 MCST.F                73:   MUD CAKE SAMPLE TEMPERATURE
 MFSS.               MEAS:   MUD FILTRATE SAMPLE SOURCE
 MCSS.               CALC:   MUD CAKE SAMPLE SOURCE
 RMB .OHMM           0.29:   RESISTIVITY MUD AT BHT
 BHT .F               141:   BOTTOM HOLE TEMPERATURE
 TCS .HRS             3.5:   TIME CURCULATED STOPPED
 MRT .F               125:   MAXIMUM RECORDED TEMPERATURE
 LUN .               6302:   LOGGING UNIT NUMBER
 LUL .               CODY:   LOGGING UNIT LOCATION
 ENGI.              GETTY:   RECORDING ENGINEER
 WITN.           JENNINGS:   WITNESSED BY
 CLNT.            A2DTECH:   CLIENT CODE
 ORIG.           5" PRINT:   ORIGIN OF DATA
 UWI .       490252268500:   UNIQUE WELL ID
 DICO. A2D Technologies, Inc.:   DIGITIZING COMPANY
~OTHER INFORMATION
~A    DEPT     CNC       PORD       RHOB       CORR         DT       RILD       RILM       CALR         GRR       SPR       RFOC   
# ...
 1952.0000  -999.2500  -999.2500  -999.2500  -999.2500  -999.2500     6.9267     6.9193     8.9261    91.9166   -20.5335     6.8862
 1952.5000  -999.2500  -999.2500  -999.2500  -999.2500  -999.2500     7.0232     6.9671     8.9416    88.9194   -20.5320     6.9245
 1953.0000  -999.2500  -999.2500  -999.2500  -999.2500  -999.2500     7.0718     7.0151     8.9722    88.6234   -20.5306     7.0428
 1953.5000  -999.2500  -999.2500  -999.2500  -999.2500  -999.2500     7.1207     7.0634     8.9728    89.8319   -20.5291     7.1352
 1954.0000  -999.2500  -999.2500  -999.2500  -999.2500  -999.2500     7.2198     7.0141     8.9883    90.7387   -20.5277     7.1849
 1954.5000  -999.2500  -999.2500  -999.2500  -999.2500  -999.2500     7.2369     6.9650     8.9739    88.9441   -20.5262     7.1849
 1955.0000  -999.2500  -999.2500  -999.2500  -999.2500  -999.2500     7.2548     6.8686     8.9745    88.0475   -20.5247     7.1849
 1955.5000  -999.2500  -999.2500  -999.2500  -999.2500  -999.2500     7.2686     6.7735     8.9901    90.1569   -20.5232     7.1352
 1956.0000  -999.2500  -999.2500  -999.2500  -999.2500  -999.2500     7.1678     6.7263     8.9908    92.5651   -20.5215     7.0368
 1956.5000  -999.2500  -999.2500  -999.2500  -999.2500  -999.2500     7.0682     6.7258     8.9763    93.7721   -20.5200     6.9398
 1957.0000  -999.2500  -999.2500  -999.2500  -999.2500  -999.2500     7.0188     6.7722     8.9770    94.9791   -20.5186     6.7968
 1957.5000  -999.2500  -999.2500  -999.2500  -999.2500  -999.2500     6.9214     6.8188     8.9474    95.6005   -20.5171     6.7031
 1958.0000  -999.2500  -999.2500  -999.2500  -999.2500  -999.2500     6.8730     6.9617     8.9330    94.9922   -20.5157     6.7031
 1958.5000  -999.2500  -999.2500  -999.2500  -999.2500  -999.2500     6.8726     7.0585     8.9337    92.5956   -20.5142     6.6107
 1959.0000  -999.2500  -999.2500  -999.2500  -999.2500  -999.2500     6.9200     7.1072     8.9043    89.8987   -20.3628     6.4745
 1959.5000  -999.2500  -999.2500  -999.2500  -999.2500  -999.2500     7.0682     7.1066     8.8601    88.1027   -20.5113     6.7031
 1960.0000  -999.2500  -999.2500  -999.2500  -999.2500  -999.2500     7.3657     7.0570     8.8157    86.6070   -20.3596     7.0368
 1960.5000  -999.2500  -999.2500  -999.2500  -999.2500  -999.2500     7.5728     6.9593     8.8011    85.1113   -20.3582     7.2349
 1961.0000  -999.2500  -999.2500  -999.2500  -999.2500  -999.2500     7.5199     6.8630     8.7867    84.5165   -20.3567     7.2853
 1961.5000  -999.2500  -999.2500  -999.2500  -999.2500  -999.2500     7.3642     6.8151     8.8174    84.5225   -20.3553     7.1849
 1962.0000  -999.2500  -999.2500  -999.2500  -999.2500  -999.2500     7.2117     6.8145     8.8630    86.6317   -20.3538     6.9881
 1962.5000  -999.2500  -999.2500  -999.2500  -999.2500  -999.2500     7.0624     6.8140     8.8936    91.4423   -20.3523     6.7968
 1963.0000  -999.2500  -999.2500  -999.2500  -999.2500  -999.2500     6.9162     6.8611     8.8961    96.2529   -20.3505     6.8441
 1963.5000  -999.2500  -999.2500  -999.2500  -999.2500  -999.2500     6.8677     6.8605     8.9099   100.4629   -20.1992     6.8441
 1964.0000  -999.2500  -999.2500  -999.2500  -999.2500  -999.2500     6.8673     6.8601     8.9254   100.4687   -20.0478     6.8441
 1964.5000  -999.2500  -999.2500  -999.2500  -999.2500  -999.2500     6.9148     6.8596     8.9260    99.8739   -20.0463     6.8441
 1965.0000  -999.2500  -999.2500  -999.2500  -999.2500  -999.2500     6.9143     6.8592     8.9266    97.6877   -19.7450     6.8918
 1965.5000  -999.2500  -999.2500  -999.2500  -999.2500  -999.2500     6.9621     6.8050     8.9272    91.7789   -19.5937     6.8774
 1966.0000  -999.2500  -999.2500  -999.2500  -999.2500  -999.2500     6.9133     6.7637     8.9128    89.0820   -19.4423     6.7968
 1966.5000  -999.2500  -999.2500  -999.2500  -999.2500  -999.2500     6.9128     6.7632     8.8983    89.0878   -19.4405     6.7498
 1967.0000  -999.2500  -999.2500  -999.2500  -999.2500  -999.2500     6.9123     6.7627     8.8391    90.2948   -19.4390     6.6567
 1967.5000  -999.2500  -999.2500  -999.2500  -999.2500  -999.2500     6.9035     6.7623     8.7947    94.5048   -19.4376     6.6464
 1968.0000  -999.2500  -999.2500  -999.2500  -999.2500  -999.2500     6.8635     6.8090     8.7503   100.5166   -19.4361     6.5650
 1968.5000  -999.2500  -999.2500  -999.2500  -999.2500  -999.2500     6.8630     6.8084     8.7208   101.7237   -19.4347     6.4745
 1969.0000  -999.2500  -999.2500  -999.2500  -999.2500  -999.2500     6.9104     6.8080     8.7065    98.1273   -19.4332     6.5196
 1969.5000  -999.2500  -999.2500  -999.2500  -999.2500  -999.2500     6.9582     6.7604     8.7071    93.6286   -19.4318     6.5650
 1970.0000  -999.2500  -999.2500  -999.2500  -999.2500  -999.2500     7.0063     6.7132     8.7076    90.0308   -19.4303     6.6567
 1970.5000  -999.2500  -999.2500  -999.2500  -999.2500  -999.2500     7.0056     6.7127     8.7402    87.0336   -19.4285     6.6567
 1971.0000  -999.2500  -999.2500  -999.2500  -999.2500  -999.2500     6.9084     6.7591     8.8139    84.6370   -19.5774     6.6846
 1971.5000  -999.2500  -999.2500  -999.2500  -999.2500  -999.2500     6.9080     6.8531     8.8595    81.9401   -19.5755     6.7031
 1972.0000  -999.2500  -999.2500  -999.2500  -999.2500  -999.2500     6.9076     6.9002     8.9050    82.2581   -19.5742     6.7968
 1972.5000  -999.2500  -999.2500  -999.2500  -999.2500  -999.2500     6.9070     6.9477     8.9356    86.5919   -19.5727     6.8105
 1973.0000  -999.2500  -999.2500  -999.2500  -999.2500  -999.2500     6.9065     6.8992     8.9512    90.0671   -19.5712     6.8441
 1973.5000  -999.2500  -999.2500  -999.2500  -999.2500  -999.2500     6.9061     6.8510     8.9667    87.3702   -19.5697     6.8441
 1974.0000  -999.2500  -999.2500  -999.2500  -999.2500  -999.2500     6.9055     6.7562     8.9673    85.5742   -19.5679     6.8248
 1974.5000  -999.2500  -999.2500  -999.2500  -999.2500  -999.2500     6.8573     6.6627     8.9680    89.1836   -19.5665     6.7882
 1975.0000  -999.2500  -999.2500  -999.2500  -999.2500  -999.2500     6.8568     6.7087     8.9686    91.2915   -19.7150     6.7031
 1975.5000  -999.2500  -999.2500  -999.2500  -999.2500  -999.2500     6.8564     6.7549     8.9692    93.3994   -19.7135     6.6567
 1976.0000  -999.2500  -999.2500  -999.2500  -999.2500  -999.2500     6.8559     6.6613     8.9998    96.8051   -19.7121     6.6107
 1976.5000  -999.2500  -999.2500  -999.2500  -999.2500  -999.2500     6.8079     6.5661     9.0153    92.8119   -20.0105     6.4745
 1977.0000  -999.2500  -999.2500  -999.2500  -999.2500  -999.2500     6.7135     6.3888     9.0459    89.2141   -20.1659     6.3410
 1977.5000  -999.2500  -999.2500  -999.2500  -999.2500  -999.2500     6.7129     6.2569     9.0615    90.4211   -20.6069     6.2104
 1978.0000  -999.2500  -999.2500  -999.2500  -999.2500  -999.2500     6.7593     6.3000     9.0771    91.0275   -20.9057     6.1674
 1978.5000  -999.2500  -999.2500  -999.2500  -999.2500  -999.2500     6.8535     6.5218     9.0628    89.5318   -21.2041     6.3410
 1979.0000  -999.2500  -999.2500  -999.2500  -999.2500  -999.2500     6.9009     6.7516     9.0334    86.5346   -21.3525     6.6381
 1979.5000  -999.2500  -999.2500  -999.2500  -999.2500  -999.2500     6.9003     6.9410     9.0038    82.5985   -21.5010     6.9881
 1980.0000  -999.2500  -999.2500  -999.2500  -999.2500  -999.2500     6.9480     6.9888     8.9744    80.2400   -21.4992     7.1352
 1980.5000  -999.2500  -999.2500  -999.2500  -999.2500  -999.2500     6.9475     6.9883     8.9450    88.6556   -21.4977     7.1599
 1981.0000  -999.2500  -999.2500  -999.2500  -999.2500  -999.2500     6.9955     6.9878     8.9157    91.6644   -21.4963     7.0858
 1981.5000  -999.2500  -999.2500  -999.2500  -999.2500  -999.2500     6.9949     6.9873     8.8863    91.3699   -21.4945     7.0368
 1982.0000  -999.2500  -999.2500  -999.2500  -999.2500  -999.2500     6.9460     6.9868     8.8719    86.5709   -21.7929     6.9881
