~VERSION INFORMATION
 VERS.                2.0:   CWLS LOG ASCII STANDARD - VERSION 2.0
 WRAP.                 NO:   ONE LINE PER DEPTH STEP
~WELL INFORMATION
#MNEM.UNIT      DATA TYPE    INFORMATION
#----------   ------------   ------------------------------
 STRT.F            0.0000:   START DEPTH
 STOP.F          790.0000:   STOP DEPTH
 STEP.F            0.1000:   STEP LENGTH
 NULL.          -999.2500:   NO VALUE
 COMP.   FLUOR DANIEL INC:   COMPANY
 WELL.   72-2 X-34 #72-34:   WELL
 FLD .          N.P.R. #3:   FIELD
 LOC .      S34 T39N R78W:   LOCATION
 CNTY.            NATRONA:   COUNTY
 STAT.            WYOMING:   STATE
 CTRY. UNITED STATES OF AMERICA:   COUNTRY
 SRVC.      Western Atlas:   SERVICE COMPANY
 DATE.        25-MAR-1995:   LOGDATE
 API .       490252269300:   API NUMBER
~CURVE INFORMATION
#MNEM.UNIT       API CODE    CURVE DESCRIPTION
#----------   ------------   ------------------------------
 DEPT.F                  :   
 GRR .GAPI   07 310 01 00:   GAMMA RAY
 RILD.OHMM   07 120 46 00:   INDUCTION LOG DEEP RESISTIVITY
 RILM.OHMM   07 120 44 00:   INDUCTION LOG MEDIUM RESISTIVITY
~PARAMETER INFORMATION
#MNEM.UNIT          VALUE    DESCRIPTION
#----------   ------------   ------------------------------
 PD  .                 GL:   PERMANENT DATUM
 EPD .F              5058:   ELEVATION PERMANENT DATUM
 LMF .                 KB:   LOG MEASURED FROM
 DAPD.F                10:   FEET ABOVE PERMANENT DATUM
 DMF .                 KB:   DRILLING MEASURED FROM
 EKB .F              5068:   KELLING BUSHING
 EDF .F              5067:   DRILLING FLOOR
 EGL .F              5058:   GROUND LEVEL
 DATE.        25-MAR-1995:   RUN DATE
 RUN .                  1:   RUN NUMBER
 DD  .F               796:   DEPTH DRILLER
 DL  .F               798:   DEPTH LOGGER
 BLI .F               790:   BOTTOM LOG INTERVAL
 TLI .F                96:   TOP LOG INTERVAL
 CS  .IN            9.625:   CASING SIZE
 CBD .F                95:   CASING BOTTOM DRILLER
 CBL .F                96:   CASING BOTTOM LOGGER
 BS  .IN             8.75:   BIT SIZE
 BSD .F               796:   BIT SIZE AT DEPTH
 DFT .                AIR:   DRILLING FLUID TYPE
 MRT .F                97:   MAXIMUM RECORDED TEMPERATURE
 LUN .            HL 6530:   LOGGING UNIT NUMBER
 LUL .             CASPER:   LOGGING UNIT LOCATION
 ENGI.             RAUTIO:   RECORDING ENGINEER
 WITN.             STRONG:   WITNESSED BY
 CLNT.            A2DTECH:   CLIENT CODE
 ORIG.       2", 5" PRINT:   ORIGIN OF DATA
 UWI .       490252269300:   UNIQUE WELL ID
 DICO. A2D Technologies, Inc.:   DIGITIZING COMPANY
~OTHER INFORMATION
~A    DEPT      GRR      RILD       RILM   
# ...
  764.4000   111.7079     9.8221     9.7865
  764.5000   111.5334     9.8282     9.8437
  764.6000   111.4999     9.8924     9.9012
  764.7000   111.2250     9.8922     9.9590
  764.8000   110.9805     9.9359    10.0172
  764.9000   110.7208     9.9631    10.0760
  765.0000   110.4613     9.9629    10.0761
  765.1000   110.2968     9.9729    10.0762
  765.2000   110.3426    10.0342    10.1120
  765.3000   110.6103    10.0341    10.1710
  765.4000   110.6115    10.0821    10.2305
  765.5000   110.8181    10.1059    10.2890
  765.6000   111.0801    10.1313    10.2891
  765.7000   111.3421    10.1783    10.2892
  765.8000   111.5496    10.1781    10.2894
  765.9000   111.5508    10.1780    10.2896
  766.0000   111.5523    10.2305    10.2897
  766.1000   111.5533    10.2508    10.2898
  766.2000   111.3895    10.2507    10.2900
  766.3000   111.1299    10.2687    10.2901
  766.4000   110.8055    10.3306    10.2903
  766.5000   110.2849    10.3981    10.2904
  766.6000   109.6935    10.3979    10.2905
  766.7000   109.0190    10.3978    10.2948
  766.8000   108.4127    10.4318    10.3626
  766.9000   108.0170    10.4722    10.3627
  767.0000   107.7574    10.4721    10.3629
  767.1000   107.5221    10.4720    10.3630
  767.2000   107.5236    10.5339    10.3805
  767.3000   107.5247    10.5470    10.4411
  767.4000   107.5260    10.5468    10.5084
  767.5000   107.5273    10.5732    10.5634
  767.6000   107.5285    10.6369    10.6252
  767.7000   107.5640    10.6985    10.6559
  767.8000   107.8421    10.6983    10.6753
  767.9000   108.0886    10.6982    10.7377
  768.0000   108.1555    10.7411    10.8054
  768.1000   108.3015    10.7748    10.8056
  768.2000   108.5635    10.7935    10.8514
  768.3000   108.7813    10.8519    10.8811
  768.4000   108.7826    10.8517    10.9025
  768.5000   109.0389    10.8516    10.9662
  768.6000   109.0961    10.8992    11.0338
  768.7000   109.0974    10.9293    11.0340
  768.8000   108.9940    10.9524    11.0823
  768.9000   108.7888    11.0075    11.1112
  769.0000   108.7900    11.0074    11.1346
  769.1000   108.7915    11.0072    11.1996
  769.2000   108.5777    11.0596    11.2671
  769.3000   108.3181    11.0860    11.2673
  769.4000   108.1730    11.1136    11.3182
  769.5000   108.1098    11.1654    11.3843
  769.6000   107.8503    11.1678    11.4254
  769.7000   107.5548    11.2453    11.4380
  769.8000   107.1065    11.3030    11.5053
  769.9000   106.7604    11.3258    11.5055
  770.0000   106.3761    11.3582    11.5056
  770.1000   105.7813    11.4069    11.5058
  770.2000   105.0005    11.4067    11.5059
  770.3000   104.1407    11.4065    11.5060
  770.4000   103.2034    11.4693    11.5051
  770.5000   102.3456    11.4882    11.4268
  770.6000   101.4297    11.4880    11.4269
  770.7000   100.4716    11.4878    11.4271
  770.8000    99.6904    11.4877    11.4273
  770.9000    98.8604    11.4875    11.4119
  771.0000    97.8834    11.4874    11.3484
  771.1000    97.2299    11.4873    11.3486
  771.2000    96.7093    11.4457    11.2933
  771.3000    96.1887    11.4049    11.2704
  771.4000    95.7122    11.4048    11.2409
  771.5000    95.4464    11.4046    11.1759
  771.6000    95.4476    11.4044    11.1112
  771.7000    95.4488    11.4043    11.0386
  771.8000    95.2959    11.4041    10.9280
  771.9000    95.1403    11.4365    10.8441
  772.0000    95.1954    11.4858    10.7814
  772.1000    95.4538    11.4856    10.7366
  772.2000    95.4553    11.4854    10.7314
  772.3000    95.4563    11.4852    10.6627
  772.4000    95.4575    11.4851    10.6628
  772.5000    95.5730    11.4849    10.6630
  772.6000    95.8350    11.5088    10.6631
  772.7000    96.0972    11.5783    10.6633
  772.8000    96.3958    11.6501    10.6634
  772.9000    96.3969    11.6499    10.6636
  773.0000    96.3988    11.6498    10.6637
  773.1000  -999.2500    11.6496    10.6193
  773.2000  -999.2500    11.6782    10.5902
  773.3000  -999.2500    11.7330    10.5700
  773.4000  -999.2500    11.7328    10.5089
  773.5000  -999.2500    11.7326    10.4445
  773.6000  -999.2500    11.7325    10.3313
  773.7000  -999.2500    11.7323    10.2122
  773.8000  -999.2500    11.7321    10.0944
  773.9000  -999.2500    11.7120     9.9778
  774.0000  -999.2500    11.6481     9.8625
  774.1000  -999.2500    11.6479     9.7445
  774.2000  -999.2500    11.6477     9.6361
  774.3000  -999.2500    11.5472     9.4828
  774.4000  -999.2500    11.4451     9.3191
  774.5000  -999.2500    11.3761     9.1582
  774.6000  -999.2500    11.3182     8.9905
  774.7000  -999.2500    11.3180     8.7810
  774.8000  -999.2500    11.2519     8.6314
  774.9000  -999.2500    11.1841     8.4825
  775.0000  -999.2500    11.1566     8.3361
  775.1000  -999.2500    11.1292     8.1921
  775.2000  -999.2500    11.0767     8.0600
  775.3000  -999.2500    11.0765     7.9680
  775.4000  -999.2500    11.0763     7.9681
  775.5000  -999.2500    11.0201     7.9305
  775.6000  -999.2500    10.9970     7.9132
  775.7000  -999.2500    10.9968     7.9133
  775.8000  -999.2500    10.9967     7.9241
  775.9000  -999.2500    10.9965     7.9687
  776.0000  -999.2500    10.9963     7.9688
  776.1000  -999.2500    10.9961     8.0080
  776.2000  -999.2500    10.9960     8.0246
  776.3000  -999.2500    10.9959     8.0457
  776.4000  -999.2500    10.9957     8.0807
  776.5000  -999.2500    10.9956     8.0836
  776.6000  -999.2500    10.9954     8.1373
  776.7000  -999.2500    10.9952     8.1784
  776.8000  -999.2500    10.9951     8.1942
  776.9000  -999.2500    10.9949     8.2170
  777.0000  -999.2500    10.9947     8.2650
  777.1000  -999.2500    10.9946     8.3133
  777.2000  -999.2500    10.9944     8.3672
  777.3000  -999.2500    10.9943     8.4107
  777.4000  -999.2500    10.9942     8.4599
  777.5000  -999.2500    10.9940     8.5092
  777.6000  -999.2500    10.9938     8.5589
  777.7000  -999.2500    10.9937     8.6089
  777.8000  -999.2500    10.9935     8.6636
  777.9000  -999.2500    10.9933     8.6638
  778.0000  -999.2500    10.9931     8.6639
  778.1000  -999.2500    10.9930     8.6640
  778.2000  -999.2500    10.9580     8.6641
  778.3000  -999.2500    10.8920     8.6577
  778.4000  -999.2500    10.8362     8.6044
  778.5000  -999.2500    10.8361     8.6045
  778.6000  -999.2500    10.8359     8.5677
  778.7000  -999.2500    10.7852     8.5451
  778.8000  -999.2500    10.7202     8.5279
  778.9000  -999.2500    10.6556     8.4786
  779.0000  -999.2500    10.5913     8.4276
  779.1000  -999.2500    10.5275     8.4278
  779.2000  -999.2500    10.4538     8.3905
  779.3000  -999.2500    10.4010     8.3420
  779.4000  -999.2500    10.3789     8.2938
  779.5000  -999.2500    10.3499     8.2459
  779.6000  -999.2500    10.2875     8.1974
  779.7000  -999.2500    10.2309     8.1508
  779.8000  -999.2500    10.2307     8.1037
  779.9000  -999.2500    10.2306     8.0847
  780.0000  -999.2500    10.2305     8.0661
  780.1000  -999.2500    10.2303     8.0195
  780.2000  -999.2500    10.2301     7.9734
  780.3000  -999.2500    10.2300     7.9736
  780.4000  -999.2500    10.2299     7.9737
  780.5000  -999.2500    10.2297     7.9738
  780.6000  -999.2500    10.2296     7.9543
  780.7000  -999.2500    10.2294     7.9188
  780.8000  -999.2500    10.2540     7.9189
  780.9000  -999.2500    10.3027     7.9190
  781.0000  -999.2500    10.3025     7.9578
  781.1000  -999.2500    10.3023     8.0043
  781.2000  -999.2500    10.3022     8.0721
  781.3000  -999.2500    10.3021     8.1665
  781.4000  -999.2500    10.3019     8.2593
  781.5000  -999.2500    10.2849     8.3143
  781.6000  -999.2500    10.2281     8.4404
  781.7000  -999.2500    10.2279     8.5225
  781.8000  -999.2500    10.1726     8.5959
  781.9000  -999.2500    10.1114     8.6824
  782.0000  -999.2500    10.0821     8.7291
  782.1000  -999.2500    10.0617     8.7292
  782.2000  -999.2500    10.0009     8.7743
  782.3000  -999.2500     9.9382     8.7903
  782.4000  -999.2500     9.9381     8.7904
  782.5000  -999.2500     9.9380     8.7753
