~VERSION INFORMATION
 VERS.                2.0:   CWLS LOG ASCII STANDARD - VERSION 2.0
 WRAP.                 NO:   ONE LINE PER DEPTH STEP
~WELL INFORMATION
#MNEM.UNIT      DATA TYPE    INFORMATION
#----------   ------------   ------------------------------
 STRT.F            0.0000:   START DEPTH
 STOP.F          774.0000:   STOP DEPTH
 STEP.F            0.5000:   STEP LENGTH
 NULL.          -999.2500:   NO VALUE
 COMP. LAWRENCE/ALLISON INC:   COMPANY
 WELL. SX 11 WP #37-53-11:   WELL
 FLD .             TEAPOT:   FIELD
 LOC .      S11 T38N R78W:   LOCATION
 CNTY.            NATRONA:   COUNTY
 STAT.            WYOMING:   STATE
 CTRY. UNITED STATES OF AMERICA:   COUNTRY
 SRVC.            Unknown:   SERVICE COMPANY
 DATE.        19-SEP-1984:   LOGDATE
 API .       490251098900:   API NUMBER
~CURVE INFORMATION
#MNEM.UNIT       API CODE    CURVE DESCRIPTION
#----------   ------------   ------------------------------
 DEPT.F                  :   
 GRR .GAPI   07 310 01 00:   GAMMA RAY FROM RES. LOG.
 SPR .MV     07 010 01 00:   SPONTANEOUS POTENTIAL
 RFOC.OHMM   07 220 04 00:   RESISTIVITY FOCUSED LOG
 ILD .OHMM   07 120 46 00:   INDUCTION LOG DEEP RESISTIVITY
 RILM.OHMM   07 120 44 00:   INDUCTION LOG MEDIUM RESISTIVITY
 CALD.IN     45 280 60 00:   CALIPER
 DEN .G/C3   45 350 01 00:   COMPENSATED BULK DENSTIY
 CORR.G/C3   45 356 01 00:   DENSITY CORRECTION
 PORD.DEC    45 890 12 00:   POROSITY DENSITY SANDSTONE
 AC  .US/F   60 520 00 00:   ACOUSTIC SONIC
 CNC .DEC    42 890 03 00:   NEUTRON POROSITY SANDSTONE
~PARAMETER INFORMATION
#MNEM.UNIT          VALUE    DESCRIPTION
#----------   ------------   ------------------------------
 PD  .                 GL:   PERMANENT DATUM
 EPD .F              5153:   ELEVATION PERMANENT DATUM
 LMF .                 GL:   LOG MEASURED FROM
 DMF .                 GL:   DRILLING MEASURED FROM
 EGL .F              5153:   GROUND LEVEL
 DATE.       19-SEPT-1984:   RUN DATE
 RUN .                  1:   RUN NUMBER
 DD  .F               785:   DEPTH DRILLER
 DL  .F               774:   DEPTH LOGGER
 BLI .F               772:   BOTTOM LOG INTERVAL
 CS  .IN            8.625:   CASING SIZE
 CBD .F                42:   CASING BOTTOM DRILLER
 CBL .F                41:   CASING BOTTOM LOGGER
 BS  .IN            7.875:   BIT SIZE
 BSD .F               785:   BIT SIZE AT DEPTH
 DFT .          KCL WATER:   DRILLING FLUID TYPE
 MSS .           FLOWLINE:   MUD SAMPLE SOURCE
 RMS .OHMM            .27:   RESISTIVITY MUD SAMPLE
 MST .F                82:   MUD SAMPLE TEMPERATURE
 TCS .HRS               2:   TIME CURCULATED STOPPED
 MRT .F               100:   MAXIMUM RECORDED TEMPERATURE
 LUN .               6274:   LOGGING UNIT NUMBER
 LUL .               GLTE:   LOGGING UNIT LOCATION
 ENGI.         HINDS/MACK:   RECORDING ENGINEER
 WITN.             STRONG:   WITNESSED BY
 CLNT.            A2DTECH:   CLIENT CODE
 ORIG.   1", 2", 5" PRINT:   ORIGIN OF DATA
 UWI .       490251098900:   UNIQUE WELL ID
 DICO. A2D Technologies, Inc.:   DIGITIZING COMPANY
~OTHER INFORMATION
~A    DEPT      GRR       SPR       RFOC        ILD       RILM       CALD        DEN       CORR       PORD         AC        CNC   
# ...
  122.0000    86.9806    -5.8296    11.7136    12.3597    11.6819     8.2438     2.3469    -0.0119     0.1957   107.7414     0.2599
  122.5000    83.7529    -5.4656    11.8486    12.4657    11.6665     8.2430     2.3332    -0.0119     0.2028   108.0417     0.2740
  123.0000    82.5452    -5.5752    11.9199    12.5727    11.6485     8.2422     2.3307    -0.0119     0.2077   107.9510     0.2702
  123.5000    81.3011    -5.8109    11.9843    12.7027    11.6763     8.2414     2.3290    -0.0119     0.2086   107.5712     0.2664
  124.0000    80.1850    -6.3977    12.0491    12.8870    11.7187     8.2406     2.3271    -0.0138     0.2093   107.1082     0.2652
  124.5000    81.3290    -6.9783    12.1573    13.0740    11.7611     8.2398     2.3260    -0.0170     0.2097   106.6461     0.2770
  125.0000    83.9216    -7.5594    12.4132    13.2637    11.8037     8.2390     2.3291    -0.0202     0.2093   106.5038     0.2887
  125.5000    86.5045    -8.1392    12.6745    13.4561    11.8463     8.2382     2.3323    -0.0233     0.2070   106.6012     0.2933
  126.0000    89.0492    -8.7201    12.9412    13.6511    11.8885     8.2374     2.3348    -0.0243     0.2053   106.6988     0.2905
  126.5000    88.9903    -8.8985    13.2136    13.8493    11.9313     8.2366     2.3320    -0.0155     0.2061   106.5982     0.2794
  127.0000    85.9070    -8.6744    13.2411    14.0861    12.0532     8.2358     2.3293    -0.0069     0.2077   105.7210     0.2685
  127.5000    82.4542    -8.4514    13.2411    14.4677    12.9240     8.2350     2.3265    -0.0009     0.2094   104.5175     0.2576
  128.0000    78.8447    -8.2270    13.2381    15.3775    13.8590     8.2341     2.3238     0.0041     0.2115   101.9638     0.2529
  128.5000    78.3266    -8.0025    13.5683    16.4008    14.8620     8.2333     2.3218     0.0092     0.2129    94.3786     0.2539
  129.0000    79.3030    -7.7826    15.0202    17.6262    15.9357     8.2325     2.3233     0.0141     0.2115    86.7935     0.2525
  129.5000    78.3708    -7.7916    16.7663    18.9423    16.4986     8.2317     2.3357     0.0111     0.2038    80.2008     0.2481
  130.0000    75.5000    -8.3991    20.9949    20.3566    16.2627     8.2309     2.3623     0.0004     0.1946    74.2246     0.2263
  130.5000    73.1031    -9.0213    26.6291    21.7569    16.0512     8.2301     2.4051    -0.0101     0.1720    71.9583     0.2048
  131.0000    70.9164    -9.2400    33.7388    22.1340    15.8424     8.2293     2.4512    -0.0180     0.1471    74.2674     0.1857
  131.5000    70.8978    -9.4433    37.2169    22.3250    15.6364     8.2285     2.4990    -0.0183     0.1198    77.7237     0.1711
  132.0000    73.7167    -9.6486    27.9374    21.7509    15.8153     8.2277     2.5428    -0.0164     0.0906    85.0340     0.1650
  132.5000    77.0584    -9.8562    22.7625    20.5602    16.0399     8.2269     2.5431    -0.0056     0.0797    92.1627     0.1724
  133.0000    77.5458   -10.1906    18.8064    19.4347    16.1990     8.2261     2.5071     0.0059     0.0928    97.8497     0.1843
  133.5000    77.9912   -10.8974    17.6148    18.3708    15.5513     8.2253     2.4563     0.0052     0.1158   101.6279     0.2084
  134.0000    79.0094   -11.9337    16.4964    17.3652    14.9856     8.2244     2.4129    -0.0082     0.1458   105.4050     0.2337
  134.5000    80.5954   -12.9733    15.4520    16.4146    14.4393     8.2236     2.3837    -0.0189     0.1747   109.0461     0.2561
  135.0000    82.1773   -14.0120    14.4727    15.5161    13.9135     8.2228     2.3568    -0.0070     0.1879   110.7729     0.2589
  135.5000    83.7632   -15.1470    14.0272    14.8236    13.4178     8.2220     2.3461     0.0052     0.1968   111.4466     0.2615
  136.0000    84.3347   -17.0642    13.6461    14.5180    12.9407     8.2212     2.3369     0.0071     0.2032   111.1840     0.2642
  136.5000    83.8873   -18.9928    13.2770    14.2188    12.4808     8.2204     2.3325     0.0046     0.2061   110.5853     0.2668
  137.0000    83.7512   -20.9185    13.1204    13.9257    12.0816     8.2196     2.3293     0.0021     0.2079   109.9920     0.2733
  137.5000    84.5207   -22.9419    13.1377    13.6386    12.0816     8.2188     2.3268     0.0035     0.2097   109.3991     0.2817
  138.0000    85.5972   -25.0637    13.1511    13.5170    12.0816     8.2180     2.3320     0.0055     0.2090   108.8370     0.2859
  138.5000    85.6972   -27.1852    13.1645    13.2928    12.1928     8.2172     2.3438     0.0053     0.2012   108.5549     0.2807
  139.0000    84.8023   -29.3073    13.1779    13.0215    12.1928     8.2164     2.3543     0.0044     0.1940   108.2867     0.2835
  139.5000    84.7948   -31.4305    13.1913    12.7558    12.1928     8.2156     2.3550    -0.0027     0.1942   107.8721     0.2931
  140.0000    85.8043   -33.5457    13.2051    12.4954    11.6658     8.2147     2.3532    -0.0143     0.1946   107.2836     0.2970
  140.5000    87.1964   -35.2450    13.2182    11.6329    10.6791     8.2142     2.3521    -0.0251     0.1945   106.8489     0.2875
  141.0000    86.0461   -37.0300    13.2317    10.5962     9.7759     8.2136     2.3547    -0.0124     0.1929   107.5534     0.2831
  141.5000    87.4791   -39.9249    13.2411     9.6519     8.9490     8.2131     2.3604     0.0027     0.1898   109.0454     0.2835
  142.0000    90.9447   -42.8360    11.2032     8.7912     8.1921     8.2125     2.3667     0.0197     0.1859   111.2035     0.2959
  142.5000    96.5732   -45.5682     9.6240     8.0070     7.4992     8.2120     2.3774     0.0368     0.1776   113.2082     0.2997
  143.0000   101.6476   -46.8768     8.2674     7.4321     7.2366     8.2114     2.3883     0.0341     0.1722   113.1293     0.2995
  143.5000   102.5584   -48.1661     7.4333     7.2096     7.0243     8.2109     2.3991     0.0155     0.1673   112.4959     0.2993
  144.0000   102.3414   -49.0598     7.5635     6.9927     6.8182     8.2104     2.4089    -0.0031     0.1629   111.7904     0.2991
  144.5000   101.7314   -49.5544     7.7536     6.7823     6.6181     8.2098     2.4326    -0.0033     0.1466   111.3977     0.2994
  145.0000   101.2524   -50.0500     7.9485     6.5780     6.5981     8.2093     2.4539     0.0009     0.1340   111.3479     0.2990
  145.5000   102.5814   -50.5447     8.1482     6.4611     6.5982     8.2087     2.4656     0.0051     0.1275   111.6095     0.2985
  146.0000   105.3729   -51.0396     8.3530     6.4271     6.5985     8.2082     2.4643     0.0090     0.1277   112.2072     0.2932
  146.5000   106.2723   -51.5348     8.3738     6.3935     6.5667     8.2077     2.4632     0.0227     0.1284   112.8048     0.2809
  147.0000   105.1638   -51.8766     8.1243     6.3598     6.5217     8.2071     2.4621     0.0377     0.1292   113.4024     0.2918
  147.5000   102.9684   -52.0652     7.9040     6.3262     6.4771     8.2066     2.4611     0.0528     0.1305   113.6266     0.3004
  148.0000   101.5282   -52.2551     7.6890     6.3062     6.4239     8.2060     2.4526     0.0647     0.1335   113.5089     0.3091
  148.5000   105.0350   -52.4433     7.5008     6.3645     6.4686     8.2055     2.4414     0.0305     0.1448   112.7910     0.3253
  149.0000   107.7439   -52.5249     7.6029     6.4123     6.5394     8.2050     2.4303    -0.0039     0.1480   112.1333     0.3269
  149.5000   108.3212   -52.0303     7.8117     6.4604     6.6109     8.2044     2.4291    -0.0018     0.1483   111.4747     0.3185
  150.0000   108.9556   -51.5321     8.0255     6.5089     6.6833     8.2039     2.4311     0.0050     0.1483   110.8214     0.3081
  150.5000   109.1136   -51.0346     8.2217     6.5578     6.7564     8.2033     2.4331    -0.0090     0.1464   110.2165     0.2991
  151.0000   108.0960   -50.5220     8.2217     6.6071     6.8304     8.2028     2.4385     0.0071     0.1434   110.1827     0.2995
  151.5000   105.5548   -50.1741     8.2217     6.6567     6.9052     8.2023     2.4477     0.0264     0.1392   110.1412     0.2999
  152.0000   102.4898   -49.8624     8.2217     6.7204     6.9714     8.2017     2.4494     0.0344     0.1363   110.1546     0.3003
