~VERSION INFORMATION
 VERS.                2.0:   CWLS LOG ASCII STANDARD - VERSION 2.0
 WRAP.                 NO:   ONE LINE PER DEPTH STEP
~WELL INFORMATION
#MNEM.UNIT      DATA TYPE    INFORMATION
#----------   ------------   ------------------------------
 STRT.F           32.0000:   START DEPTH
 STOP.F          738.0000:   STOP DEPTH
 STEP.F            0.5000:   STEP LENGTH
 NULL.          -999.2500:   NO VALUE
 COMP. FENIX & SCISSON INC:   COMPANY
 WELL.       NPR-3 #43-34:   WELL
 FLD .             TEAPOT:   FIELD
 LOC .      S34 T39N R78W:   LOCATION
 CNTY.            NATRONA:   COUNTY
 STAT.            WYOMING:   STATE
 CTRY. UNITED STATES OF AMERICA:   COUNTRY
 SRVC.            Unknown:   SERVICE COMPANY
 DATE.        26-AUG-1978:   LOGDATE
 API .       490251069900:   API NUMBER
~CURVE INFORMATION
#MNEM.UNIT       API CODE    CURVE DESCRIPTION
#----------   ------------   ------------------------------
 DEPT.F                  :   
 GRD .GAPI   45 310 01 00:   GAMMA RAY FROM DENSITY LOG
 CALD.IN     45 280 60 00:   CALIPER
 RHOB.G/C3   45 350 01 00:   BULK DENSITY
 DPHI.DEC    45 890 12 00:   DENSITY POROSITY SANDSTONE
 CORR.G/C3   45 356 01 00:   DENSITY CORRECTION
 SPR .MV     05 010 01 00:   SPONTANEOUS POTENTIAL FROM RES.
 SN  .OHMM   05 040 16 00:   SHORT NORMAL 16"
 ILD .OHMM   05 120 46 00:   INDUCTION LOG DEEP
~PARAMETER INFORMATION
#MNEM.UNIT          VALUE    DESCRIPTION
#----------   ------------   ------------------------------
 PD  .                 GL:   PERMANENT DATUM
 EPD .F              5110:   ELEVATION PERMANENT DATUM
 LMF .                 KB:   LOG MEASURED FROM
 DAPD.F                 4:   FEET ABOVE PERMANENT DATUM
 DMF .                 KB:   DRILLING MEASURED FROM
 EKB .F              5114:   KELLING BUSHING
 EGL .F              5110:   GROUND LEVEL
 DATE.            8-26-78:   RUN DATE
 RUN .                  1:   RUN NUMBER
 DD  .F               748:   DEPTH DRILLER
 DL  .F               738:   DEPTH LOGGER
 BLI .F               732:   BOTTOM LOG INTERVAL
 TLI .F                40:   TOP LOG INTERVAL
 CS  .IN            8.625:   CASING SIZE
 CBD .F                40:   CASING BOTTOM DRILLER
 CBL .F                40:   CASING BOTTOM LOGGER
 BS  .IN            7.875:   BIT SIZE
 BSD .F               748:   BIT SIZE AT DEPTH
 DFT .                KCL:   DRILLING FLUID TYPE
 DFD .                8.7:   DRILLING FLUID DENSITY
 DFV .                 33:   DRILLING FLUID VISCOSITY
 DFPH.                  9:   DRILLING FLUID PH
 DFL .                 10:   DRILLING FLUID LOSS
 MSS .          FLOW LINE:   MUD SAMPLE SOURCE
 RMS .OHMM            .36:   RESISTIVITY MUD SAMPLE
 MST .F                80:   MUD SAMPLE TEMPERATURE
 RMF .OHMM             .3:   RESISTIVITY MUD FILTRATE SAMPLE
 MFST.F                80:   MUD FILTRATE SAMPLE TEMPERATURE
 RMC .OHMM            .48:   RESISTIVITY MUD CAKE
 MCST.F                82:   MUD CAKE SAMPLE TEMPERATURE
 MFSS.               MEAS:   MUD FILTRATE SAMPLE SOURCE
 MCSS.               MEAS:   MUD CAKE SAMPLE SOURCE
 TCS .HRS               2:   TIME CURCULATED STOPPED
 LUN .               2958:   LOGGING UNIT NUMBER
 LUL .               CASP:   LOGGING UNIT LOCATION
 ENGI.             MILLER:   RECORDING ENGINEER
 WITN.              AMEND:   WITNESSED BY
 CLNT.            A2DTECH:   CLIENT CODE
 ORIG.           5" PRINT:   ORIGIN OF DATA
 UWI .       490251069900:   UNIQUE WELL ID
 DICO. A2D Technologies, Inc.:   DIGITIZING COMPANY
~OTHER INFORMATION
~A   DEPT       GRD      CALD       RHOB       DPHI       CORR        SPR         SN        ILD   
# ...
  194.0000    96.4249     7.3028     2.4754     0.1221     0.0289   -35.2115     7.2367     6.3129
  194.5000    96.1640     7.2912     2.4792     0.1230     0.0295   -35.2440     7.1748     6.2523
  195.0000    94.2298     7.2791     2.4812     0.1242     0.0302   -35.2763     7.1134     6.2523
  195.5000    93.9674     7.2770     2.4775     0.1244     0.0308   -35.3087     7.0525     6.2523
  196.0000    94.4129     7.2917     2.4753     0.1244     0.0315   -35.3413     6.9814     6.2523
  196.5000    93.6278     7.2957     2.4762     0.1212     0.0297   -35.3424     6.9854     6.2523
  197.0000    92.3885     7.2931     2.4831     0.1172     0.0274   -35.3211     6.9902     6.2523
  197.5000    91.1229     7.2908     2.4897     0.1136     0.0252   -35.3002     6.9951     6.2523
  198.0000    89.8559     7.2886     2.4965     0.1144     0.0229   -35.2794     6.9999     6.2523
  198.5000    90.4080     7.2864     2.4955     0.1189     0.0224   -35.2585     7.0048     6.2523
  199.0000    90.1895     7.2842     2.4885     0.1244     0.0251   -35.2377     7.0096     6.2523
  199.5000    89.6278     7.2820     2.4816     0.1264     0.0210   -35.2169     7.0145     6.2523
  200.0000    89.7942     7.2798     2.4746     0.1268     0.0143   -35.1963     7.0194     6.2523
  200.5000    91.4362     7.2775     2.4677     0.1317     0.0089   -35.1772     7.0242     6.2523
  201.0000    94.0584     7.2864     2.4607     0.1360     0.0075   -35.1409     7.0291     6.2523
  201.5000    94.4632     7.3045     2.4549     0.1324     0.0075   -35.3593     7.0340     6.2523
  202.0000    93.6248     7.3226     2.4585     0.1283     0.0081   -35.3446     7.0388     6.2523
  202.5000    93.5152     7.3371     2.4643     0.1247     0.0115   -35.3464     7.0437     6.2523
  203.0000    95.6567     7.3292     2.4701     0.1229     0.0147   -35.3466     7.0457     6.2523
  203.5000    96.9540     7.3179     2.4760     0.1212     0.0180   -35.3466     7.0542     6.2523
  204.0000    92.6130     7.3204     2.4810     0.1213     0.0213   -35.3431     7.0651     6.2523
  204.5000    93.5050     7.3247     2.4794     0.1216     0.0234   -35.3181     7.0761     6.2523
  205.0000    94.2166     7.3290     2.4780     0.1200     0.0229   -35.2931     7.0870     6.2523
  205.5000    94.0139     7.3333     2.4811     0.1153     0.0224   -35.2682     7.0980     6.2523
  206.0000    94.0103     7.3376     2.4894     0.1103     0.0218   -35.2433     7.1091     6.2523
  206.5000    93.7211     7.3418     2.4981     0.1056     0.0213   -35.2184     7.1101     6.2523
  207.0000    93.3928     7.3461     2.5059     0.1056     0.0208   -35.1935     7.1841     6.2523
  207.5000    93.6637     7.3504     2.5070     0.1056     0.0202   -35.1690     7.2558     6.2523
  208.0000    95.9589     7.3547     2.5068     0.1056     0.0197   -35.1458     7.3094     6.2524
  208.5000    97.9467     7.3567     2.5055     0.1162     0.0200   -35.0726     7.2134     6.2523
  209.0000    98.4022     7.3567     2.4934     0.1208     0.0215   -34.9961     7.1379     6.2523
  209.5000    97.0547     7.3567     2.4810     0.1204     0.0229   -34.9500     7.0625     6.2055
  210.0000    95.6682     7.3567     2.4809     0.1200     0.0244   -34.9464     6.9822     6.1103
  210.5000    94.2618     7.3567     2.4821     0.1196     0.0259   -34.9241     6.8898     5.9960
  211.0000    93.6544     7.3567     2.4824     0.1196     0.0274   -34.9025     6.7896     5.8755
  211.5000    93.6231     7.3567     2.4826     0.1202     0.0269   -34.8808     6.6908     5.7574
  212.0000    94.7408     7.3567     2.4828     0.1211     0.0249   -34.8591     6.6090     5.6958
  212.5000    97.0379     7.3567     2.4823     0.1220     0.0230   -34.8375     6.6034     5.6845
  213.0000    97.0223     7.3567     2.4821     0.1228     0.0211   -34.8158     6.6707     5.6723
  213.5000    97.1569     7.3567     2.4795     0.1275     0.0191   -34.7942     6.6538     5.6602
  214.0000    99.0908     7.3567     2.4719     0.1328     0.0172   -34.7724     6.6447     5.6481
  214.5000   102.1626     7.3567     2.4644     0.1332     0.0154   -34.7527     6.6355     5.6360
  215.0000   103.1793     7.3566     2.4635     0.1324     0.0149   -34.7524     6.6265     5.6239
  215.5000   102.4072     7.3545     2.4631     0.1336     0.0138   -34.7525     6.6174     5.6119
  216.0000   101.5342     7.3524     2.4612     0.1382     0.0127   -34.7525     6.6083     5.5999
  216.5000   100.5293     7.3503     2.4565     0.1420     0.0116   -34.7525     6.6068     5.5879
  217.0000    96.9242     7.3482     2.4522     0.1416     0.0137   -34.7525     6.6068     5.5759
  217.5000    94.1618     7.3461     2.4509     0.1276     0.0164   -34.7525     6.6067     5.5640
  218.0000    93.9238     7.3440     2.4615     0.1217     0.0191   -34.7525     6.6068     5.5521
  218.5000    93.5835     7.3419     2.4749     0.1208     0.0217   -34.7525     6.6068     5.5481
  219.0000    93.4070     7.3398     2.4820     0.1200     0.0235   -34.7525     6.6617     5.7122
  219.5000    93.5622     7.3377     2.4835     0.1191     0.0235   -34.7525     6.7782     5.8270
  220.0000    93.7831     7.3373     2.4850     0.1185     0.0235   -34.7525     6.8994     5.9441
  220.5000    92.6558     7.3392     2.4865     0.1184     0.0235   -34.7525     7.0495     6.0635
  221.0000    92.4063     7.3411     2.4880     0.1165     0.0235   -34.7525     7.0466     6.1964
  221.5000    92.3573     7.3430     2.4897     0.1158     0.0233   -34.7524     7.0615     6.1950
  222.0000    92.8833     7.3449     2.4884     0.1181     0.0214   -34.7527     7.0697     6.2215
  222.5000    96.2188     7.3468     2.4869     0.1192     0.0195   -34.7298     7.0780     6.2529
  223.0000    97.0465     7.3487     2.4845     0.1180     0.0181   -34.6901     7.0862     6.2048
  223.5000    94.3011     7.3506     2.4831     0.1168     0.0167   -34.6502     7.0943     6.1423
  224.0000    92.8144     7.3525     2.4844     0.1168     0.0153   -34.6103     7.1026     6.0804
  224.5000    95.4689     7.3544     2.4858     0.1190     0.0138   -34.5701     7.1109     6.0191
  225.0000    98.3734     7.3564     2.4865     0.1260     0.0124   -34.5556     7.0718     5.9585
  225.5000    97.1363     7.3579     2.4784     0.1316     0.0109   -34.6153     7.0228     5.8984
  226.0000    96.0134     7.3598     2.4699     0.1322     0.0097   -34.7703     6.9741     5.8390
  226.5000    96.2397     7.3617     2.4629     0.1324     0.0074   -34.9266     6.9257     5.7802
  227.0000    95.4572     7.3636     2.4620     0.1306     0.0088   -34.8973     6.9176     5.7219
  227.5000    95.8264     7.3655     2.4630     0.1274     0.0123   -34.8322     6.9176     5.6643
  228.0000    97.6693     7.3674     2.4660     0.1233     0.0148   -34.7664     6.9176     5.6072
  228.5000    95.2013     7.3693     2.4728     0.1163     0.0206   -34.7011     6.9177     5.5993
  229.0000    93.2193     7.3712     2.4932     0.1128     0.0256   -34.6357     6.9169     5.7505
  229.5000    93.2104     7.3731     2.4961     0.1129     0.0255   -34.5704     6.9192     5.9290
  230.0000    94.8715     7.3750     2.4958     0.1131     0.0255   -34.5051     6.9152     6.1130
  230.5000    95.7714     7.3767     2.4943     0.1132     0.0255   -34.4398     7.1183     6.3028
  231.0000    94.2906     7.3754     2.4929     0.1132     0.0255   -34.3745     7.2257     6.4984
  231.5000    89.7660     7.3741     2.4914     0.1128     0.0254   -34.3091     7.3348     6.7002
  232.0000    85.9949     7.3728     2.4945     0.1092     0.0291   -34.2436     7.4454     6.9081
  232.5000    86.0107     7.3716     2.5068     0.1024     0.0305   -34.1778     7.5577     7.1225
  233.0000    86.0153     7.3703     2.5184     0.0957     0.0316   -34.1786     7.6536     7.2776
  233.5000    86.3112     7.3690     2.5262     0.0944     0.0278   -34.2614     7.6535     7.3773
  234.0000    88.0142     7.3678     2.5152     0.1086     0.0229   -34.3412     7.6537     7.2333
