~VERSION INFORMATION
 VERS.                2.0:   CWLS LOG ASCII STANDARD - VERSION 2.0
 WRAP.                 NO:   ONE LINE PER DEPTH STEP
~WELL INFORMATION
#MNEM.UNIT      DATA TYPE    INFORMATION
#----------   ------------   ------------------------------
 STRT.F         1939.0000:   START DEPTH
 STOP.F         2285.5000:   STOP DEPTH
 STEP.F            0.5000:   STEP LENGTH
 NULL.          -999.2500:   NO VALUE
 COMP. BROWN JOHN E&C INC:   COMPANY
 WELL.    STX-34 #46-1-34:   WELL
 FLD .             TEAPOT:   FIELD
 LOC .      S34 T39N R78W:   LOCATION
 CNTY.            NATRONA:   COUNTY
 STAT.            WYOMING:   STATE
 CTRY. UNITED STATES OF AMERICA:   COUNTRY
 SRVC.            Unknown:   SERVICE COMPANY
 DATE.        31-AUG-1991:   LOGDATE
 API .       490251105200:   API NUMBER
~CURVE INFORMATION
#MNEM.UNIT       API CODE    CURVE DESCRIPTION
#----------   ------------   ------------------------------
 DEPT.F                  :   
 ROP .MIN/FT 91 810 01 00:   RATE OF DRILLING PENETRATION
 TGAS.UNITS  91 830 01 00:   TOTAL GAS FROM HOTWIRE
~PARAMETER INFORMATION
#MNEM.UNIT          VALUE    DESCRIPTION
#----------   ------------   ------------------------------
 EKB .F              5091:   KELLING BUSHING
 EGL .F              5081:   GROUND LEVEL
 DATE.            8-31-91:   RUN DATE
 DD  .F              2284:   DEPTH DRILLER
 BLI .F              2284:   BOTTOM LOG INTERVAL
 TLI .F              1940:   TOP LOG INTERVAL
 CS  .IN            8.625:   CASING SIZE
 CBD .F               645:   CASING BOTTOM DRILLER
 TCS .HRS            1500:   TIME CURCULATED STOPPED
 TLAB.HRS            0515:   TIME LOGGER AT BOTTOM
 ENGI.              TOWER:   RECORDING ENGINEER
 WITN.               HUSK:   WITNESSED BY
 CLNT.            A2DTECH:   CLIENT CODE
 ORIG.         2.5" PRINT:   ORIGIN OF DATA
 UWI .       490251105200:   UNIQUE WELL ID
 DICO. A2D Technologies, Inc.:   DIGITIZING COMPANY
~OTHER INFORMATION
~A  DEPT         ROP      TGAS  
# ...
 2060.5000     0.6696    11.5951
 2061.0000     0.6690    11.5940
 2061.5000     0.6497    11.5928
 2062.0000     0.6447    11.5916
 2062.5000     0.6110    11.5904
 2063.0000     0.5915    11.5892
 2063.5000     0.6096    11.5880
 2064.0000     0.6465    11.5869
 2064.5000     0.6592    11.5857
 2065.0000     0.6826    11.5845
 2065.5000     0.7193    11.5833
 2066.0000     0.7381    11.5821
 2066.5000     0.7791    11.5809
 2067.0000     0.7923    11.5797
 2067.5000     0.8103    11.5786
 2068.0000     0.8097    11.5774
 2068.5000     0.8091    11.5762
 2069.0000     0.8273    11.5747
 2069.5000     0.8264    13.5418
 2070.0000     0.8071    14.2750
 2070.5000     0.8065    15.7733
 2071.0000     0.7871    16.5620
 2071.5000     0.7864    18.2101
 2072.0000     0.7857    19.0988
 2072.5000     0.7289    20.2405
 2073.0000     0.7096    20.2163
 2073.5000     0.6902    19.4354
 2074.0000     0.6894    19.2097
 2074.5000     0.7076    18.6304
 2075.0000     0.7069    17.8446
 2075.5000     0.7251    17.0644
 2076.0000     0.7431    16.2835
 2076.5000     0.7423    16.0584
 2077.0000     0.7418    15.4785
 2077.5000     0.7185    15.4522
 2078.0000     0.7030    15.4315
 2078.5000     0.6648    15.4101
 2079.0000     0.6267    15.3873
 2079.5000     0.5866    15.3646
 2080.0000     0.5506    15.3383
 2080.5000     0.5498    15.3176
 2081.0000     0.5492    16.0564
 2081.5000     0.5486    16.0329
 2082.0000     0.5667    16.0101
 2082.5000     0.6120    15.9839
 2083.0000     0.6589    16.0635
 2083.5000     0.6958    16.1573
 2084.0000     0.6951    16.2510
 2084.5000     0.7133    16.3448
 2085.0000     0.7124    16.4386
 2085.5000     0.7118    16.5324
 2086.0000     0.7493    16.1867
 2086.5000     0.8278    14.9608
 2087.0000     0.9340    13.7349
 2087.5000     1.0088    12.5090
 2088.0000     1.0644    11.9392
 2088.5000     1.0855    11.9165
 2089.0000     1.1007    11.8937
 2089.5000     1.0998    11.8709
 2090.0000     1.0805    11.8481
 2090.5000     1.0600    11.8253
 2091.0000     0.9803    11.8025
 2091.5000     0.9192    11.7797
 2092.0000     0.8344    11.7570
 2092.5000     0.7589    11.7342
 2093.0000     0.7173    11.7114
 2093.5000     0.6827    11.6886
 2094.0000     0.6632    11.6658
 2094.5000     0.6814    11.6430
 2095.0000     0.6823    11.6203
 2095.5000     0.7233    11.5975
 2096.0000     0.7743    11.5747
 2096.5000     0.8472    11.5519
 2097.0000     0.9215    11.5291
 2097.5000     0.9771    11.5063
 2098.0000     0.9764    11.4835
 2098.5000     0.9756    11.4608
 2099.0000     0.9189    11.4380
 2099.5000     0.8767    11.4152
 2100.0000     0.7904    11.3924
 2100.5000     0.7297    11.4553
 2101.0000     0.6902    11.5181
 2101.5000     0.6350    11.5810
 2102.0000     0.6157    11.6439
 2102.5000     0.6151    11.7067
 2103.0000     0.6146    11.7696
 2103.5000     0.6140    11.8324
 2104.0000     0.6323    11.8953
 2104.5000     0.6605    11.9582
 2105.0000     0.7059    12.0210
 2105.5000     0.7241    12.0839
 2106.0000     0.7798    12.1467
 2106.5000     0.7862    12.2096
 2107.0000     0.7974    12.2725
 2107.5000     0.7968    12.3353
 2108.0000     0.7963    12.3982
 2108.5000     0.7770    12.4604
 2109.0000     0.7764    12.4869
 2109.5000     0.7383    12.5135
 2110.0000     0.7003    12.5400
 2110.5000     0.6616    12.5665
 2111.0000     0.6243    12.5930
 2111.5000     0.6238    12.6195
 2112.0000     0.6231    12.6460
 2112.5000     0.6226    12.6725
 2113.0000     0.6221    12.6991
 2113.5000     0.6215    12.7256
 2114.0000     0.6303    12.7521
 2114.5000     0.6579    12.7786
 2115.0000     0.6947    12.8051
 2115.5000     0.7340    12.8316
 2116.0000     0.7748    12.8582
 2116.5000     0.8257    12.8847
 2117.0000     0.8610    12.9112
 2117.5000     0.8792    12.9377
 2118.0000     0.8974    12.9642
 2118.5000     0.8523    12.9907
 2119.0000     0.8212    13.0172
 2119.5000     0.7833    13.0438
 2120.0000     0.7266    13.0703
 2120.5000     0.6886    13.0968
 2121.0000     0.6880    13.1233
 2121.5000     0.6874    13.1498
 2122.0000     0.6868    13.1763
 2122.5000     0.7058    13.2029
 2123.0000     0.7420    13.2294
 2123.5000     0.7687    13.2559
 2124.0000     0.8156    13.2824
 2124.5000     0.8713    13.3089
 2125.0000     0.9488    13.3354
 2125.5000     0.9881    13.3619
 2126.0000     1.0476    13.3885
 2126.5000     1.1125    13.4150
 2127.0000     1.1681    13.4415
 2127.5000     1.2285    13.4680
 2128.0000     1.2856    13.4945
 2128.5000     1.3264    13.5210
 2129.0000     1.3532    13.5476
 2129.5000     1.3152    13.5741
 2130.0000     1.2459    13.5978
 2130.5000     1.0987    11.4731
 2131.0000     0.9014    11.4466
 2131.5000     0.7885    11.4260
 2132.0000     0.7131    12.1616
 2132.5000     0.6751    13.0654
 2133.0000     0.7463    14.7049
 2133.5000     0.8237    16.6272
 2134.0000     0.8232    18.1192
 2134.5000     0.7657    19.6111
 2135.0000     0.7238    20.3468
 2135.5000     0.6717    20.3368
 2136.0000     0.6711    20.3278
 2136.5000     0.7267    20.3187
 2137.0000     0.7855    20.3096
 2137.5000     0.9293    20.3006
 2138.0000     0.9685    20.2915
 2138.5000     0.9117    20.2825
 2139.0000     0.9112    20.2734
 2139.5000     0.9107    20.2643
 2140.0000     0.9101    20.2553
 2140.5000     0.9486    20.2462
 2141.0000     1.0213    20.2371
 2141.5000     1.1144    20.2281
 2142.0000     1.2481    20.2190
 2142.5000     1.3263    20.2100
 2143.0000     1.3375    20.2009
 2143.5000     1.3368    20.1918
 2144.0000     1.3363    20.1828
 2144.5000     1.4036    20.1737
 2145.0000     1.5459    20.1647
 2145.5000     1.7091    20.1556
 2146.0000     1.8771    20.1465
 2146.5000     2.0092    20.1375
 2147.0000     2.0961    20.1284
 2147.5000     2.1923    20.1194
 2148.0000     2.2494    20.1103
 2148.5000     2.2301    20.1012
 2149.0000     2.1703    20.0922
 2149.5000     1.9660    20.0831
 2150.0000     1.4045    20.0740
 2150.5000     0.8233    20.0650
 2151.0000     0.7666    20.0559
 2151.5000     0.7287    20.0469
 2152.0000     0.6844    20.0378
 2152.5000     0.6323    20.0287
 2153.0000     0.5771    20.0197
 2153.5000     0.5017    20.0106
 2154.0000     0.4980    20.0016
 2154.5000     0.4818    19.9925
 2155.0000     0.5748    19.9834
 2155.5000     0.7428    19.9744
 2156.0000     0.8734    19.9653
 2156.5000     1.0156    19.9563
 2157.0000     1.1797    19.9472
 2157.5000     1.2649    19.9381
 2158.0000     1.3393    19.9291
 2158.5000     1.5674    19.9200
 2159.0000     1.6941    19.9109
 2159.5000     1.6388    19.9019
 2160.0000     1.4681    19.8928
 2160.5000     1.0930    19.8838
 2161.0000     0.5900    19.8747
 2161.5000     0.5675    19.8656
 2162.0000     0.5483    19.8566
 2162.5000     0.5282    19.8475
 2163.0000     0.4910    18.0734
 2163.5000     0.4631    15.9936
 2164.0000     0.4336    13.7316
 2164.5000     0.4518    13.7109
 2165.0000     0.4716    13.7123
 2165.5000     0.4937    13.7137
 2166.0000     0.5532    13.7151
 2166.5000     0.6181    13.7165
 2167.0000     0.6363    13.7179
 2167.5000     0.6358    13.7193
 2168.0000     0.6290    13.7207
 2168.5000     0.6058    13.7221
 2169.0000     0.5591    13.7235
 2169.5000     0.5399    13.7249
 2170.0000     0.5175    13.7263
 2170.5000     0.5013    13.7277
 2171.0000     0.5194    13.7292
 2171.5000     0.5376    13.7306
 2172.0000     0.5558    13.7320
 2172.5000     0.5966    13.7334
 2173.0000     0.6297    13.7348
 2173.5000     0.6851    13.7362
 2174.0000     0.7034    13.7376
 2174.5000     0.7215    13.7390
 2175.0000     0.7210    13.7404
 2175.5000     0.7204    13.7418
 2176.0000     0.7010    13.7432
 2176.5000     0.6444    13.7446
 2177.0000     0.6235    13.7460
 2177.5000     0.6004    13.7474
 2178.0000     0.6052    13.7489
 2178.5000     0.6234    13.7503
 2179.0000     0.6416    13.7517
 2179.5000     0.6644    13.7531
 2180.0000     0.7091    13.7545
 2180.5000     0.7624    13.7443
 2181.0000     0.8078    13.7409
 2181.5000     0.8635    13.7375
