~VERSION INFORMATION
 VERS.                2.0:   CWLS LOG ASCII STANDARD - VERSION 2.0
 WRAP.                 NO:   ONE LINE PER DEPTH STEP
~WELL INFORMATION
#MNEM.UNIT      DATA TYPE    INFORMATION
#----------   ------------   ------------------------------
 STRT.F           40.0000:   START DEPTH
 STOP.F         3444.0000:   STOP DEPTH
 STEP.F            0.5000:   STEP LENGTH
 NULL.          -999.2500:   NO VALUE
 COMP.    FENIX & SCISSON:   COMPANY
 WELL.     13-A-10 #13-10:   WELL
 FLD .            WILDCAT:   FIELD
 LOC .      S10 T38N R78W:   LOCATION
 CNTY.            NATRONA:   COUNTY
 STAT.            WYOMING:   STATE
 CTRY. UNITED STATES OF AMERICA:   COUNTRY
 SRVC.       Schlumberger:   SERVICE COMPANY
 DATE.        08-JUL-1970:   LOGDATE
 API .       490251090300:   API NUMBER
~CURVE INFORMATION
#MNEM.UNIT       API CODE    CURVE DESCRIPTION
#----------   ------------   ------------------------------
 DEPT.F                  :   
 ASN .OHMM   05 041 16 00:   AMPLIFIED SHORT NORMAL 16"
 CILD.MMHO   05 110 46 00:   CONDUCTIVITY INDUCTION LOG DEEP
 ILD .OHMM   05 120 46 00:   INDUCTION LOG DEEP
 SPR .MV     05 010 01 00:   SPONTANEOUS POTENTIAL FROM RES.
 CALD.IN     45 280 60 00:   CALIPER FROM DENSITY
 CORR.G/C3   45 356 01 00:   DENSITY CORRECTION
 DPHI.DEC    45 890 12 00:   DENSITY POROSITY SANDSTONE
 RHOB.G/C3   45 350 01 00:   BULK DENSITY
~PARAMETER INFORMATION
#MNEM.UNIT          VALUE    DESCRIPTION
#----------   ------------   ------------------------------
 PD  .                 GL:   PERMANENT DATUM
 EPD .F              5295:   ELEVATION PERMANENT DATUM
 LMF .                 KB:   LOG MEASURED FROM
 DAPD.F                10:   FEET ABOVE PERMANENT DATUM
 DMF .                 KB:   DRILLING MEASURED FROM
 EKB .F              5305:   KELLING BUSHING
 EGL .F              5295:   GROUND LEVEL
 DATE.        08-JUL-1970:   RUN DATE
 RUN .                  3:   RUN NUMBER
 DD  .F              3450:   DEPTH DRILLER
 DL  .F              3444:   DEPTH LOGGER
 BLI .F              3443:   BOTTOM LOG INTERVAL
 TLI .F              2950:   TOP LOG INTERVAL
 CS  .IN            10.75:   CASING SIZE
 CBD .F               842:   CASING BOTTOM DRILLER
 BS  .IN                9:   BIT SIZE
 BSD .F              3450:   BIT SIZE AT DEPTH
 DFT .      FRESH GEL MUD:   DRILLING FLUID TYPE
 DFD .               10.4:   DRILLING FLUID DENSITY
 DFV .                 43:   DRILLING FLUID VISCOSITY
 DFPH.                7.6:   DRILLING FLUID PH
 DFL .                  8:   DRILLING FLUID LOSS
 MSS .           FLOWLINE:   MUD SAMPLE SOURCE
 RMS .OHMM              2:   RESISTIVITY MUD SAMPLE
 MST .F                85:   MUD SAMPLE TEMPERATURE
 RMF .OHMM            1.6:   RESISTIVITY MUD FILTRATE SAMPLE
 MFST.F                85:   MUD FILTRATE SAMPLE TEMPERATURE
 MFSS.               MEAS:   MUD FILTRATE SAMPLE SOURCE
 RMB .OHMM           1.49:   RESISTIVITY MUD AT BHT
 BHT .F               114:   BOTTOM HOLE TEMPERATURE
 TCS .HRS               3:   TIME CURCULATED STOPPED
 MRT .F               114:   MAXIMUM RECORDED TEMPERATURE
 LUN .               4507:   LOGGING UNIT NUMBER
 LUL .               CSPR:   LOGGING UNIT LOCATION
 ENGI.             TURNER:   RECORDING ENGINEER
 WITN.                MAY:   WITNESSED BY
 CLNT.            A2DTECH:   CLIENT CODE
 ORIG.     2.5", 5" PRINT:   ORIGIN OF DATA
 UWI .       490251090300:   UNIQUE WELL ID
 DICO. A2D Technologies, Inc.:   DIGITIZING COMPANY
~OTHER INFORMATION
~A   DEPT        ASN      CILD         ILD      SPR       CALD       CORR       DPHI       RHOB   
# ...
 1012.0000     7.6133   136.8053     7.4268   -59.5596  -999.2500  -999.2500  -999.2500  -999.2500
 1012.5000     7.6726   135.2926     7.4876   -59.5611  -999.2500  -999.2500  -999.2500  -999.2500
 1013.0000     7.8955   132.2917     7.6398   -59.5625  -999.2500  -999.2500  -999.2500  -999.2500
 1013.5000     8.2516   129.8632     7.7920   -59.5640  -999.2500  -999.2500  -999.2500  -999.2500
 1014.0000     8.5313   127.7777     7.9442   -59.5655  -999.2500  -999.2500  -999.2500  -999.2500
 1014.5000     8.7177   124.7770     8.0965   -59.8646  -999.2500  -999.2500  -999.2500  -999.2500
 1015.0000     8.8248   120.2878     8.2487   -59.8660  -999.2500  -999.2500  -999.2500  -999.2500
 1015.5000     8.8851   117.2867     8.4609   -59.8675  -999.2500  -999.2500  -999.2500  -999.2500
 1016.0000     8.8841   114.2861     8.6087   -59.8691  -999.2500  -999.2500  -999.2500  -999.2500
 1016.5000     8.7926   112.7730     8.6072   -59.8706  -999.2500  -999.2500  -999.2500  -999.2500
 1017.0000     8.7483   109.7720     8.7552   -59.8720  -999.2500  -999.2500  -999.2500  -999.2500
 1017.5000     8.8077   109.1518     8.9030   -59.8735  -999.2500  -999.2500  -999.2500  -999.2500
 1018.0000     8.8672   109.1694     8.9013   -59.8750  -999.2500  -999.2500  -999.2500  -999.2500
 1018.5000     8.9266   109.1841     9.0493   -59.8765  -999.2500  -999.2500  -999.2500  -999.2500
 1019.0000     8.9861   107.7107     9.1969   -59.9435  -999.2500  -999.2500  -999.2500  -999.2500
 1019.5000     9.0756   107.7254     9.1954   -60.1771  -999.2500  -999.2500  -999.2500  -999.2500
 1020.0000     9.1051   107.7401     9.3433   -60.4762  -999.2500  -999.2500  -999.2500  -999.2500
 1020.5000     9.0744   107.7547     9.3417   -60.4777  -999.2500  -999.2500  -999.2500  -999.2500
 1021.0000     9.0738   107.7694     9.3402   -60.7768  -999.2500  -999.2500  -999.2500  -999.2500
 1021.5000     9.0732   109.2722     9.3388   -60.7783  -999.2500  -999.2500  -999.2500  -999.2500
 1022.0000     9.0426   110.7750     9.3373   -60.4819  -999.2500  -999.2500  -999.2500  -999.2500
 1022.5000     9.0120   110.7897     9.3358   -60.4836  -999.2500  -999.2500  -999.2500  -999.2500
 1023.0000     8.9813   112.2924     9.1851   -60.4851  -999.2500  -999.2500  -999.2500  -999.2500
 1023.5000     8.9207   112.3071     9.1835   -60.4866  -999.2500  -999.2500  -999.2500  -999.2500
 1024.0000     8.8600   112.3218     9.0169   -60.4881  -999.2500  -999.2500  -999.2500  -999.2500
 1024.5000     8.7994   113.8246     8.7328   -60.1920  -999.2500  -999.2500  -999.2500  -999.2500
 1025.0000     8.7387   113.8393     8.5572   -60.1935  -999.2500  -999.2500  -999.2500  -999.2500
 1025.5000     8.6765   115.3423     8.4020   -60.1950  -999.2500  -999.2500  -999.2500  -999.2500
 1026.0000     8.5858   115.3572     8.1313   -60.1964  -999.2500  -999.2500  -999.2500  -999.2500
 1026.5000     8.5520   115.4906     8.0915   -60.1979  -999.2500  -999.2500  -999.2500  -999.2500
 1027.0000     8.4929   117.0334     7.9791   -60.1994  -999.2500  -999.2500  -999.2500  -999.2500
 1027.5000     8.4655   118.3780     8.1271   -59.9036  -999.2500  -999.2500  -999.2500  -999.2500
 1028.0000     8.4696   118.3929     8.1254   -59.9050  -999.2500  -999.2500  -999.2500  -999.2500
 1028.5000     8.5055   118.4078     8.1801   -59.9065  -999.2500  -999.2500  -999.2500  -999.2500
 1029.0000     8.5602   118.4227     8.2716   -59.9080  -999.2500  -999.2500  -999.2500  -999.2500
 1029.5000     8.5904   118.0804     8.3354   -59.9094  -999.2500  -999.2500  -999.2500  -999.2500
 1030.0000     8.5826   115.4742     8.4876   -59.9109  -999.2500  -999.2500  -999.2500  -999.2500
 1030.5000     8.5820   115.4911     8.5657   -59.9124  -999.2500  -999.2500  -999.2500  -999.2500
 1031.0000     8.5513   115.5059     8.6428   -59.9139  -999.2500  -999.2500  -999.2500  -999.2500
 1031.5000     8.5508   117.0089     8.7119   -59.9153  -999.2500  -999.2500  -999.2500  -999.2500
 1032.0000     8.5502   117.5795     8.7104   -59.9168  -999.2500  -999.2500  -999.2500  -999.2500
 1032.5000     8.5075   118.5268     8.7087   -59.9183  -999.2500  -999.2500  -999.2500  -999.2500
 1033.0000     8.4761   119.1768     8.5579   -59.6221  -999.2500  -999.2500  -999.2500  -999.2500
 1033.5000     8.4283   120.7191     8.4072   -59.6236  -999.2500  -999.2500  -999.2500  -999.2500
 1034.0000     8.3976   121.5476     8.2565   -59.6251  -999.2500  -999.2500  -999.2500  -999.2500
 1034.5000     8.3970   121.5625     8.1058   -59.6265  -999.2500  -999.2500  -999.2500  -999.2500
 1035.0000     8.3964   121.5774     8.1043   -59.6280  -999.2500  -999.2500  -999.2500  -999.2500
 1035.5000     8.4258   120.7592     8.1028   -59.6295  -999.2500  -999.2500  -999.2500  -999.2500
 1036.0000     8.4252   119.2462     8.2507   -59.3333  -999.2500  -999.2500  -999.2500  -999.2500
 1036.5000     8.4245   117.1606     8.3984   -59.3348  -999.2500  -999.2500  -999.2500  -999.2500
 1037.0000     8.4540   115.6845     8.5463   -59.3363  -999.2500  -999.2500  -999.2500  -999.2500
 1037.5000     8.5134   112.7257     8.6940   -59.3378  -999.2500  -999.2500  -999.2500  -999.2500
 1038.0000     8.8732   113.1941     8.8418   -59.3077  -999.2500  -999.2500  -999.2500  -999.2500
 1038.5000     9.1429   115.7312     8.8403   -59.0431  -999.2500  -999.2500  -999.2500  -999.2500
 1039.0000     9.1122   118.7221     8.8388   -59.0446  -999.2500  -999.2500  -999.2500  -999.2500
 1039.5000     9.0216   121.7130     8.6881   -59.0461  -999.2500  -999.2500  -999.2500  -999.2500
 1040.0000     8.7807   123.2158     8.5373   -59.0476  -999.2500  -999.2500  -999.2500  -999.2500
 1040.5000     8.4198   126.2066     8.3721   -58.7513  -999.2500  -999.2500  -999.2500  -999.2500
 1041.0000     8.1189   127.7094     8.2358   -58.7530  -999.2500  -999.2500  -999.2500  -999.2500
 1041.5000     7.9681   129.2122     8.0851   -58.7545  -999.2500  -999.2500  -999.2500  -999.2500
 1042.0000     7.9375   129.2269     8.0836   -58.7559  -999.2500  -999.2500  -999.2500  -999.2500
 1042.5000     7.9369   127.7530     8.0820   -58.7574  -999.2500  -999.2500  -999.2500  -999.2500
 1043.0000     7.9964   124.7920     8.0806   -58.4611  -999.2500  -999.2500  -999.2500  -999.2500
 1043.5000     8.0559   121.8304     8.0791   -58.4628  -999.2500  -999.2500  -999.2500  -999.2500
 1044.0000     8.1161   118.8491     8.2271   -58.4643  -999.2500  -999.2500  -999.2500  -999.2500
 1044.5000     8.2060   115.9074     8.2756   -58.3437  -999.2500  -999.2500  -999.2500  -999.2500
 1045.0000     8.2963   114.4340     8.4279   -58.2986  -999.2500  -999.2500  -999.2500  -999.2500
 1045.5000     8.3566   112.8222     8.5801   -58.4687  -999.2500  -999.2500  -999.2500  -999.2500
 1046.0000     8.4168   109.9991     8.7324   -58.4702  -999.2500  -999.2500  -999.2500  -999.2500
 1046.5000     8.4771   110.0149     8.8846   -58.1741  -999.2500  -999.2500  -999.2500  -999.2500
 1047.0000     8.5322   110.0298     8.9642   -58.1756  -999.2500  -999.2500  -999.2500  -999.2500
 1047.5000     8.5676   110.0447     8.9627   -58.1771  -999.2500  -999.2500  -999.2500  -999.2500
 1048.0000     8.6278   111.5477     8.9612   -58.0080  -999.2500  -999.2500  -999.2500  -999.2500
 1048.5000     8.6505   113.0506     8.8736   -57.5851  -999.2500  -999.2500  -999.2500  -999.2500
 1049.0000     8.6030   114.9703     8.8087   -57.5866  -999.2500  -999.2500  -999.2500  -999.2500
 1049.5000     8.4507   116.5131     8.6579   -57.5881  -999.2500  -999.2500  -999.2500  -999.2500
 1050.0000     8.4083   119.5434     8.5072   -57.5895  -999.2500  -999.2500  -999.2500  -999.2500
 1050.5000     8.3477   121.0862     8.5057   -57.2932  -999.2500  -999.2500  -999.2500  -999.2500
 1051.0000     8.3170   122.0536     8.3550   -57.2949  -999.2500  -999.2500  -999.2500  -999.2500
 1051.5000     8.3164   121.4536     8.3536   -57.2963  -999.2500  -999.2500  -999.2500  -999.2500
 1052.0000     8.3759   119.9407     8.3521   -57.2978  -999.2500  -999.2500  -999.2500  -999.2500
