~VERSION INFORMATION
 VERS.                2.0:   CWLS LOG ASCII STANDARD - VERSION 2.0
 WRAP.                 NO:   ONE LINE PER DEPTH STEP
~WELL INFORMATION
#MNEM.UNIT      DATA TYPE    INFORMATION
#----------   ------------   ------------------------------
 STRT.F            0.0000:   START DEPTH
 STOP.F          497.0000:   STOP DEPTH
 STEP.F            0.1000:   STEP LENGTH
 NULL.          -999.2500:   NO VALUE
 COMP.       F D SERV INC:   COMPANY
 WELL. NAVAL PETROLEUM RESERVE 3 SX-1 #81-1-10:   WELL
 FLD .             NPR #3:   FIELD
 LOC .      S10 T38N R78W:   LOCATION
 CNTY.            NATRONA:   COUNTY
 STAT.            WYOMING:   STATE
 CTRY. UNITED STATES OF AMERICA:   COUNTRY
 SRVC.     Atlas Wireline:   SERVICE COMPANY
 DATE.        14-DEC-1997:   LOGDATE
 API .       490252257400:   API NUMBER
~CURVE INFORMATION
#MNEM.UNIT       API CODE    CURVE DESCRIPTION
#----------   ------------   ------------------------------
 DEPT.F                  :   
 GRR .GAPI   07 310 01 00:   GAMMA RAY
 RILD.OHMM   07 120 46 00:   INDUCTION LOG DEEP RESISTIVITY
 RILM.OHMM   07 120 44 00:   INDUCTION LOG MEDIUM RESISTIVITY
~PARAMETER INFORMATION
#MNEM.UNIT          VALUE    DESCRIPTION
#----------   ------------   ------------------------------
 PD  .                 GL:   PERMANENT DATUM
 EPD .F              5132:   ELEVATION PERMANENT DATUM
 LMF .                 KB:   LOG MEASURED FROM
 DAPD.F                10:   FEET ABOVE PERMANENT DATUM
 DMF .                 KB:   DRILLING MEASURED FROM
 EKB .F              5142:   KELLING BUSHING
 EDF .F              5141:   DRILLING FLOOR
 EGL .F              5132:   GROUND LEVEL
 DATE.        14-DEC-1992:   RUN DATE
 RUN .                  1:   RUN NUMBER
 DD  .F               513:   DEPTH DRILLER
 DL  .F               505:   DEPTH LOGGER
 BLI .F               497:   BOTTOM LOG INTERVAL
 CS  .IN            8.625:   CASING SIZE
 CBD .F                53:   CASING BOTTOM DRILLER
 CBL .F                54:   CASING BOTTOM LOGGER
 BS  .IN            7.875:   BIT SIZE
 BSD .F               513:   BIT SIZE AT DEPTH
 DFT .           AIR FOAM:   DRILLING FLUID TYPE
 BHT .F                68:   BOTTOM HOLE TEMPERATURE
 MRT .F                68:   MAXIMUM RECORDED TEMPERATURE
 LUN .           HL- 6274:   LOGGING UNIT NUMBER
 LUL .             CASPER:   LOGGING UNIT LOCATION
 ENGI.             RAUTIO:   RECORDING ENGINEER
 WITN.          G. STRONG:   WITNESSED BY
 CLNT.            A2DTECH:   CLIENT CODE
 ORIG.           5" PRINT:   ORIGIN OF DATA
 UWI .       490252257400:   UNIQUE WELL ID
 DICO. A2D Technologies, Inc.:   DIGITIZING COMPANY
~OTHER INFORMATION
~A    DEPT      GRR      RILD       RILM   
# ...
  273.0000   134.8253     7.3939     7.4186
  273.1000   134.8362     7.4376     7.3998
  273.2000   135.1227     7.4816     7.3999
  273.3000   135.3438     7.5315     7.4084
  273.4000   135.5976     7.5705     7.4517
  273.5000   135.7199     7.6154     7.4518
  273.6000   135.7181     7.6369     7.4519
  273.7000   135.7163     7.6369     7.4520
  273.8000   135.5188     7.6294     7.4521
  273.9000   135.4114     7.5840     7.4638
  274.0000   135.2007     7.5315     7.5043
  274.1000   134.6877     7.5315     7.5044
  274.2000   134.1613     7.5315     7.5045
  274.3000   133.2955     7.5315     7.5046
  274.4000   133.0707     7.5315     7.5047
  274.5000   132.4578     7.5315     7.5048
  274.6000   131.6891     7.5315     7.5049
  274.7000   131.0070     7.5315     7.5050
  274.8000   130.4529     7.5315     7.5477
  274.9000   129.6705     7.5315     7.5576
  275.0000   129.0659     7.5490     7.5577
  275.1000   128.8590     7.5840     7.5578
  275.2000   128.6016     7.5840     7.5579
  275.3000   128.4584     7.5840     7.5580
  275.4000   128.5253     7.5840     7.5581
  275.5000   128.8022     7.5840     7.5582
  275.6000   129.3565     7.5840     7.5583
  275.7000   129.5880     7.5694     7.5584
  275.8000   130.2169     7.5315     7.5585
  275.9000   131.6920     7.5315     7.5586
  276.0000   133.3978     7.5315     7.5587
  276.1000   134.5463     7.5315     7.5588
  276.2000   135.6764     7.5591     7.5589
  276.3000   135.9702     7.5840     7.5590
  276.4000   136.1839     7.5840     7.5431
  276.5000   136.2681     7.5840     7.5069
  276.6000   136.2663     7.5840     7.5070
  276.7000   136.1859     7.5434     7.4551
  276.8000   135.9285     7.5315     7.4552
  276.9000   135.6583     7.5315     7.4283
  277.0000   135.6566     7.5148     7.4038
  277.1000   135.4574     7.4793     7.3931
  277.2000   135.0481     7.4793     7.3500
  277.3000   134.8539     7.4793     7.3019
  277.4000   135.0470     7.4421     7.2645
  277.5000   135.0602     7.4275     7.2515
  277.6000   135.3444     7.4275     7.2301
  277.7000   135.3428     7.4275     7.2014
  277.8000   135.3410     7.4216     7.2015
  277.9000   135.3392     7.3760     7.2016
  278.0000   135.1606     7.3345     7.2017
  278.1000   134.6903     7.3249     7.1697
  278.2000   134.4301     7.3249     7.1521
  278.3000   134.4280     7.3249     7.1522
  278.4000   134.2193     7.3249     7.1523
  278.5000   134.1235     7.3249     7.1524
  278.6000   134.1217     7.3249     7.1525
  278.7000   134.1199     7.3249     7.1876
  278.8000   134.1430     7.3249     7.2025
  278.9000   134.4173     7.3249     7.2026
  279.0000   134.8856     7.3249     7.2027
  279.1000   135.3951     7.3249     7.2028
  279.2000   136.1922     7.3249     7.2030
  279.3000   137.2129     7.3249     7.2414
  279.4000   138.1809     7.3249     7.2534
  279.5000   138.9247     7.2969     7.2535
  279.6000   138.0190     7.2742     7.2536
  279.7000   137.5833     7.2742     7.2537
  279.8000   136.8987     7.2742     7.2538
  279.9000   136.0041     7.2742     7.2539
  280.0000   135.0602     7.2742     7.2540
  280.1000   134.3610     7.2742     7.2541
  280.2000   134.0927     7.2742     7.2542
  280.3000   133.8461     7.2742     7.2543
  280.4000   133.3895     7.2742     7.2544
  280.5000   132.8765     7.2766     7.2545
  280.6000   132.1474     7.3249     7.2914
  280.7000   131.1855     7.3249     7.3053
  280.8000   130.4337     7.3249     7.3265
  280.9000   129.8631     7.3249     7.3565
  281.0000   129.8615     7.3249     7.3566
  281.1000   129.8596     7.3249     7.3567
  281.2000   129.9936     7.3249     7.3167
  281.3000   130.2474     7.3249     7.3059
  281.4000   130.5459     7.3249     7.2821
  281.5000   131.0572     7.3249     7.2396
  281.6000   132.5611     7.3249     7.2053
  281.7000   134.0229     7.3249     7.2054
  281.8000   135.1567     7.3205     7.1557
  281.9000   135.6860     7.2742     7.1557
  282.0000   135.9398     7.2742     7.1558
  282.1000   136.1671     7.2421     7.1373
  282.2000   136.1649     7.2238     7.0956
  282.3000   135.9265     7.2071     7.0542
  282.4000   135.6690     7.1646     7.0086
  282.5000   135.2660     7.1224     6.9722
  282.6000   134.7530     7.0747     6.8749
  282.7000   134.3488     6.9679     6.7552
  282.8000   134.3381     6.8731     6.6375
  282.9000   134.0437     6.7924     6.5217
  283.0000   134.0422     6.7256     6.4035
  283.1000   134.2137     6.6801     6.2966
  283.2000   134.4675     6.5996     6.1592
  283.3000   134.8035     6.5242     6.0371
  283.4000   135.2764     6.4780     5.9319
  283.5000   135.5391     6.4399     5.8285
  283.6000   136.2771     6.3689     5.7258
  283.7000   136.6402     6.2570     5.5729
  283.8000   136.7386     6.1470     5.4910
  283.9000   136.7367     6.0294     5.4370
  284.0000   136.7349     5.9650     5.3904
  284.1000   136.7331     5.8950     5.3366
  284.2000   136.7311     5.8259     5.3023
  284.3000   136.0432     5.7702     5.2354
  284.4000   135.2745     5.7363     5.2074
  284.5000   134.6435     5.7025     5.1771
  284.6000   134.2225     5.6638     5.1633
  284.7000   134.0114     5.6638     5.1526
  284.8000   134.0096     5.6415     5.1277
  284.9000   134.0075     5.6245     5.1278
  285.0000   134.2169     5.6141     5.1636
  285.1000   134.9666     5.5811     5.1637
  285.2000   135.8676     5.5469     5.1638
  285.3000   136.7810     5.5469     5.1769
  285.4000   138.0573     5.5469     5.2150
  285.5000   139.4185     5.5469     5.2746
  285.6000   140.3711     5.5469     5.3097
  285.7000   141.5847     5.5387     5.3097
  285.8000   142.8611     5.5085     5.3529
  285.9000   144.0356     5.5085     5.4001
  286.0000   144.8876     5.5085     5.4319
  286.1000   145.1308     5.5085     5.4639
  286.2000   144.8275     5.5085     5.4979
  286.3000   144.8259     5.5085     5.5593
  286.4000   144.4738     5.5025     5.5999
  286.5000   144.0903     5.4703     5.6520
  286.6000   143.7489     5.4703     5.7056
  286.7000   143.1209     5.4436     5.7392
  286.8000   141.8048     5.4115     5.7731
  286.9000   140.3126     5.3797     5.8129
  287.0000   138.5742     5.3574     5.8129
  287.1000   137.2547     5.3574     5.8130
  287.2000   136.3421     5.3574     5.8131
  287.3000   135.7056     5.3574     5.8039
  287.4000   135.4481     5.3574     5.7730
  287.5000   135.1655     5.3389     5.7731
  287.6000   135.1638     5.3203     5.7428
  287.7000   135.1620     5.3203     5.7093
  287.8000   135.2996     5.3203     5.6585
  287.9000   135.5534     5.3203     5.6151
  288.0000   135.8073     5.3203     5.6048
  288.1000   136.0611     5.2983     5.5377
  288.2000   136.3575     5.2671     5.4751
  288.3000   136.1433     5.2468     5.4363
  288.4000   135.8859     5.2416     5.3669
  288.5000   135.6284     5.2105     5.2861
  288.6000   135.2951     5.2105     5.2176
  288.7000   134.7821     5.2105     5.1266
  288.8000   134.2384     5.2105     5.0247
  288.9000   133.9964     5.2105     4.9251
  289.0000   133.5441     5.2105     4.8299
  289.1000   133.1803     5.2105     4.7727
  289.2000   132.9229     5.2105     4.7448
  289.3000   132.6073     5.1821     4.7203
  289.4000   132.1068     5.1744     4.7204
  289.5000   131.8160     5.1744     4.7204
  289.6000   131.8145     5.1624     4.7205
  289.7000   131.8127     5.1386     4.7360
  289.8000   131.8108     5.1373     4.7535
  289.9000   131.8090     5.1030     4.7536
  290.0000   131.8072     5.1030     4.7537
  290.1000   131.8054     5.1030     4.7538
  290.2000   131.8033     5.0877     4.7766
  290.3000   132.0065     5.0676     4.8047
  290.4000   132.4194     5.0676     4.8330
  290.5000   132.8153     5.0676     4.8764
  290.6000   133.2729     5.0969     4.9607
  290.7000   134.2936     5.1030     5.0260
  290.8000   135.4071     5.1030     5.1052
  290.9000   135.6378     5.1164     5.1745
  291.0000   136.0783     5.1467     5.2515
  291.1000   136.4466     5.1744     5.3447
