~VERSION INFORMATION
 VERS.                2.0:   CWLS LOG ASCII STANDARD - VERSION 2.0
 WRAP.                 NO:   ONE LINE PER DEPTH STEP
~WELL INFORMATION
#MNEM.UNIT      DATA TYPE    INFORMATION
#----------   ------------   ------------------------------
 STRT.F            0.0000:   START DEPTH
 STOP.F         4535.0000:   STOP DEPTH
 STEP.F            0.5000:   STEP LENGTH
 NULL.          -999.2500:   NO VALUE
 COMP. LAWRENCE - ALLISON & ASSOCIATES:   COMPANY
 WELL.    NPR ##3 56-X-15:   WELL
 FLD .   TEAPOT NAVAL RES:   FIELD
 LOC .      S15 T38N R78W:   LOCATION
 CNTY.            NATRONA:   COUNTY
 STAT.            WYOMING:   STATE
 CTRY. UNITED STATES OF AMERICA:   COUNTRY
 SRVC.      Dresser Atlas:   SERVICE COMPANY
 DATE.        03-MAY-1984:   LOGDATE
 API .       490251095900:   API NUMBER
~CURVE INFORMATION
#MNEM.UNIT       API CODE    CURVE DESCRIPTION
#----------   ------------   ------------------------------
 DEPT.F                  :   
 CORR.G/C3   45 356 01 00:   DENSITY CORRECTION
 DEN .G/C3   45 350 01 00:   COMPENSATED BULK DENSTIY
 PORD.DEC    45 890 12 00:   POROSITY DENSITY SANDSTONE
 CNC .DEC    42 890 03 00:   NEUTRON POROSITY SANDSTONE
 GRR .GAPI   07 310 01 00:   GAMMA RAY
 CALR.IN     07 280 01 00:   CALIPER FROM RESISTIVITY
 SPR .MV     07 010 01 00:   SPONTANEOUS POTENTIAL
 RILD.OHMM   07 120 46 00:   INDUCTION LOG DEEP RESISTIVITY
 RILM.OHMM   07 120 44 00:   INDUCTION LOG MEDIUM RESISTIVITY
 RFOC.OHMM   07 220 04 00:   RESISTIVITY FOCUSED LOG
 AC  .US/F   60 520 00 00:   ACCOUSTIC
~PARAMETER INFORMATION
#MNEM.UNIT          VALUE    DESCRIPTION
#----------   ------------   ------------------------------
 PD  .                 GL:   PERMANENT DATUM
 EPD .F              5326:   ELEVATION PERMANENT DATUM
 LMF .                 KB:   LOG MEASURED FROM
 DAPD.F                12:   FEET ABOVE PERMANENT DATUM
 DMF .                 KB:   DRILLING MEASURED FROM
 EKB .F              5338:   KELLING BUSHING
 EDF .F              5337:   DRILLING FLOOR
 EGL .F              5326:   GROUND LEVEL
 DATE.        03-MAY-1984:   RUN DATE
 RUN .                  1:   RUN NUMBER
 DD  .F              4547:   DEPTH DRILLER
 DL  .F              4539:   DEPTH LOGGER
 BLI .F              4536:   BOTTOM LOG INTERVAL
 CS  .IN            8.625:   CASING SIZE
 CBD .F              1027:   CASING BOTTOM DRILLER
 CBL .F              1021:   CASING BOTTOM LOGGER
 BS  .IN            7.875:   BIT SIZE
 BSD .F              4547:   BIT SIZE AT DEPTH
 DFT .            KCL GEL:   DRILLING FLUID TYPE
 DFD .                9.1:   DRILLING FLUID DENSITY
 DFV .                 44:   DRILLING FLUID VISCOSITY
 DFPH.                  8:   DRILLING FLUID PH
 DFL .               14.5:   DRILLING FLUID LOSS
 MSS .           MUD TANK:   MUD SAMPLE SOURCE
 RMS .OHMM           0.56:   RESISTIVITY MUD SAMPLE
 MST .F                73:   MUD SAMPLE TEMPERATURE
 RMF .OHMM           0.42:   RESISTIVITY MUD FILTRATE SAMPLE
 MFST.F                73:   MUD FILTRATE SAMPLE TEMPERATURE
 RMC .OHMM           0.71:   RESISTIVITY MUD CAKE
 MCST.F                73:   MUD CAKE SAMPLE TEMPERATURE
 MFSS.               MEAS:   MUD FILTRATE SAMPLE SOURCE
 MCSS.               CALC:   MUD CAKE SAMPLE SOURCE
 RMB .OHMM           0.29:   RESISTIVITY MUD AT BHT
 BHT .F               141:   BOTTOM HOLE TEMPERATURE
 TCS .HRS             3.5:   TIME CURCULATED STOPPED
 MRT .F               125:   MAXIMUM RECORDED TEMPERATURE
 LUN .               6302:   LOGGING UNIT NUMBER
 LUL .               CODY:   LOGGING UNIT LOCATION
 ENGI.              GETTY:   RECORDING ENGINEER
 WITN.           JENNINGS:   WITNESSED BY
 CLNT.            A2DTECH:   CLIENT CODE
 ORIG.           5" PRINT:   ORIGIN OF DATA
 UWI .       490251095900:   UNIQUE WELL ID
 DICO. A2D Technologies, Inc.:   DIGITIZING COMPANY
~OTHER INFORMATION
~A    DEPT    CORR        DEN       PORD        CNC        GRR       CALR        SPR       RILD       RILM       RFOC         AC   
# ...
 2440.0000  -999.2500  -999.2500  -999.2500  -999.2500   121.4441     8.0603   -29.0094     8.1186     8.0734     9.1492  -999.2500
 2440.5000  -999.2500  -999.2500  -999.2500  -999.2500   117.2365     8.0746   -28.8637     8.2858     8.1825     9.1437  -999.2500
 2441.0000  -999.2500  -999.2500  -999.2500  -999.2500   118.1418     8.0889   -28.8712     8.4565     8.3506     9.1393  -999.2500
 2441.5000  -999.2500  -999.2500  -999.2500  -999.2500   121.1523     8.1180   -28.8772     8.5708     8.4048     9.1349  -999.2500
 2442.0000  -999.2500  -999.2500  -999.2500  -999.2500   122.0576     8.1323   -29.0334     8.6867     8.4007     9.1941  -999.2500
 2442.5000  -999.2500  -999.2500  -999.2500  -999.2500   109.4290     8.1315   -29.0393     8.6825     8.4552     9.3182  -999.2500
 2443.0000  -999.2500  -999.2500  -999.2500  -999.2500   107.6275     8.1459   -29.3456     8.6782     8.5100     9.3786  -999.2500
 2443.5000  -999.2500  -999.2500  -999.2500  -999.2500   108.2320     8.1602   -29.3516     8.5542     8.4470     9.8411  -999.2500
 2444.0000  -999.2500  -999.2500  -999.2500  -999.2500   113.3477     8.1744   -29.5077     8.4319     8.3844     9.9062  -999.2500
 2444.5000  -999.2500  -999.2500  -999.2500  -999.2500   114.8537     8.1737   -29.6639     8.3069     8.2075     9.4961  -999.2500
 2445.0000  -999.2500  -999.2500  -999.2500  -999.2500   111.5492     8.1729   -29.6699     8.1868     8.0848     9.0410  -999.2500
 2445.5000  -999.2500  -999.2500  -999.2500  -999.2500   110.9500     8.1872   -29.9762     8.0194     7.9680     8.6078  -999.2500
 2446.0000  -999.2500  -999.2500  -999.2500  -999.2500   113.9612     8.1864   -30.2824     8.0155     7.9160     8.1386  -999.2500
 2446.5000  -999.2500  -999.2500  -999.2500  -999.2500   115.7687     8.1857   -30.4386     8.0116     7.9673     8.0784  -999.2500
 2447.0000  -999.2500  -999.2500  -999.2500  -999.2500   113.6665     8.1849   -30.4446     8.0077     8.0189     8.1308  -999.2500
 2447.5000  -999.2500  -999.2500  -999.2500  -999.2500   113.0672     8.1842   -30.3004     8.0599     8.0709     8.8948  -999.2500
 2448.0000  -999.2500  -999.2500  -999.2500  -999.2500   113.6725     8.1834   -30.3064     8.1122     8.0661     9.2689  -999.2500
 2448.5000  -999.2500  -999.2500  -999.2500  -999.2500   113.6755     8.1677   -30.3124     8.0511     8.1193     9.0733  -999.2500
 2449.0000  -999.2500  -999.2500  -999.2500  -999.2500   113.3777     8.1669   -30.3184     8.0472     8.1144     8.6988  -999.2500
 2449.5000  -999.2500  -999.2500  -999.2500  -999.2500   111.5755     8.1511   -30.3243     8.0433     8.1105     8.3978  -999.2500
 2450.0000  -999.2500  -999.2500  -999.2500  -999.2500   113.1266     8.1353   -30.3303     8.0386     8.0415     8.3938  -999.2500
 2450.5000  -999.2500  -999.2500  -999.2500  -999.2500   121.2127     8.1374   -30.3318     8.0169     7.9220     9.1838  -999.2500
 2451.0000  -999.2500  -999.2500  -999.2500  -999.2500   124.2292     8.1395   -30.3333     7.9953     7.8238     9.1806  -999.2500
 2451.5000  -999.2500  -999.2500  -999.2500  -999.2500   123.9374     8.1417   -30.3348     7.9743     7.8206     9.1774  -999.2500
 2452.0000  -999.2500  -999.2500  -999.2500  -999.2500   122.4426     8.1438   -30.3365     7.9704     7.8720     9.0989  -999.2500
 2452.5000  -999.2500  -999.2500  -999.2500  -999.2500   128.7674     8.1459   -30.3380     8.0795     7.9235     8.8574  -999.2500
 2453.0000  -999.2500  -999.2500  -999.2500  -999.2500   131.4831     8.1480   -30.3395     8.1885     7.9754     8.8544  -999.2500
 2453.5000  -999.2500  -999.2500  -999.2500  -999.2500   131.7928     8.1483   -30.3410     8.1851     8.0836     8.9751  -999.2500
 2454.0000  -999.2500  -999.2500  -999.2500  -999.2500   129.0950     8.1630   -30.3424     8.3551     8.1933     9.2248  -999.2500
 2454.5000  -999.2500  -999.2500  -999.2500  -999.2500   126.0965     8.1477   -30.3439     8.4100     8.3059     9.2867  -999.2500
 2455.0000  -999.2500  -999.2500  -999.2500  -999.2500   124.6015     8.1473   -30.3454     8.4057     8.3628     9.0284  -999.2500
 2455.5000  -999.2500  -999.2500  -999.2500  -999.2500   119.7986     8.1470   -30.3469     8.4609     8.4199     8.9628  -999.2500
 2456.0000  -999.2500  -999.2500  -999.2500  -999.2500   114.0933     8.1467   -30.3484     8.4574     8.4688     9.2122  -999.2500
 2456.5000  -999.2500  -999.2500  -999.2500  -999.2500   111.3914     8.1464   -30.3499     8.3953     8.3484     9.7352  -999.2500
 2457.0000  -999.2500  -999.2500  -999.2500  -999.2500   111.1037     8.1461   -30.3514     8.3337     8.2865     9.8005  -999.2500
 2457.5000  -999.2500  -999.2500  -999.2500  -999.2500   116.3059     8.1308   -30.3529     8.2725     8.1688     9.7963  -999.2500
 2458.0000  -999.2500  -999.2500  -999.2500  -999.2500   119.8714     8.1155   -30.3544     8.2117     8.1654     8.7629  -999.2500
 2458.5000  -999.2500  -999.2500  -999.2500  -999.2500   116.7370     8.0851   -30.3559     8.1514     8.1056     8.0594  -999.2500
 2459.0000  -999.2500  -999.2500  -999.2500  -999.2500   114.4043     8.0547   -30.3576     8.1481     8.1022     8.2263  -999.2500
 2459.5000  -999.2500  -999.2500  -999.2500  -999.2500   113.5545     8.0544   -30.3591     8.2589     8.1562     8.7539  -999.2500
 2460.0000  -999.2500  -999.2500  -999.2500  -999.2500   115.6710     8.0541   -30.3606     8.3711     8.2660     9.3154  -999.2500
 2460.5000  -999.2500  -999.2500  -999.2500  -999.2500   117.7852     8.0538   -30.3621     8.4261     8.3202     9.7085  -999.2500
 2461.0000  -999.2500  -999.2500  -999.2500  -999.2500   119.5987     8.0535   -30.5137     8.4225     8.3168     9.3721  -999.2500
 2461.5000  -999.2500  -999.2500  -999.2500  -999.2500   122.6151     8.0382   -30.5152     8.4190     8.3133     9.3058  -999.2500
 2462.0000  -999.2500  -999.2500  -999.2500  -999.2500   125.9324     8.0379   -30.3662     8.3564     8.3099     9.3675  -999.2500
 2462.5000  -999.2500  -999.2500  -999.2500  -999.2500   126.8436     8.0226   -30.2179     8.3530     8.3065     9.2993  -999.2500
 2463.0000  -999.2500  -999.2500  -999.2500  -999.2500   126.2511     8.0072   -29.9191     8.2917     8.1318     9.1038  -999.2500
 2463.5000  -999.2500  -999.2500  -999.2500  -999.2500   122.9517     8.0069   -29.9205     8.1737     8.0722     8.7292  -999.2500
 2464.0000  -999.2500  -999.2500  -999.2500  -999.2500   116.6449     8.0066   -29.7715     8.1137     8.0130     8.5462  -999.2500
 2464.5000  -999.2500  -999.2500  -999.2500  -999.2500   113.3456     8.0063   -29.7734     8.0542     7.9543     8.4849  -999.2500
 2465.0000  -999.2500  -999.2500  -999.2500  -999.2500   112.7508     8.0060   -29.7748     7.9396     7.8413     8.8422  -999.2500
 2465.5000  -999.2500  -999.2500  -999.2500  -999.2500   113.6643     8.0057   -29.7763     7.9363     7.7838     8.9015  -999.2500
 2466.0000  -999.2500  -999.2500  -999.2500  -999.2500   121.1921     8.0054   -29.9280     7.9331     7.7267     8.8977  -999.2500
 2466.5000  -999.2500  -999.2500  -999.2500  -999.2500   124.8100     8.0051   -29.9294     7.9298     7.6701     8.8946  -999.2500
 2467.0000  -999.2500  -999.2500  -999.2500  -999.2500   118.8040     7.9897   -29.9309     7.9265     7.6669     8.8300  -999.2500
 2467.5000  -999.2500  -999.2500  -999.2500  -999.2500   114.9009     7.9894   -29.7823     7.9233     7.7172     8.6450  -999.2500
 2468.0000  -999.2500  -999.2500  -999.2500  -999.2500   114.9121     7.9891   -29.7838     7.9761     7.7140     8.2319  -999.2500
 2468.5000  -999.2500  -999.2500  -999.2500  -999.2500   123.3421     7.9888   -29.7853     7.9720     7.8265     8.0035  -999.2500
 2469.0000  -999.2500  -999.2500  -999.2500  -999.2500   122.4488     7.9885   -30.3877     8.0244     7.9903     8.0573  -999.2500
 2469.5000  -999.2500  -999.2500  -999.2500  -999.2500   117.0443     7.9883   -30.5393     8.1334     8.0883     8.6933  -999.2500
 2470.0000  -999.2500  -999.2500  -999.2500  -999.2500   113.7450     7.9880   -30.6909     8.2440     8.1413     8.9974  -999.2500
