~VERSION INFORMATION
 VERS.                2.0:   CWLS LOG ASCII STANDARD - VERSION 2.0
 WRAP.                 NO:   ONE LINE PER DEPTH STEP
~WELL INFORMATION
#MNEM.UNIT      DATA TYPE    INFORMATION
#----------   ------------   ------------------------------
 STRT.F           39.0000:   START DEPTH
 STOP.F          590.0000:   STOP DEPTH
 STEP.F            0.5000:   STEP LENGTH
 NULL.          -999.2500:   NO VALUE
 COMP. FENIX & SCISSON INC:   COMPANY
 WELL.    NPR-3 SX #41-34:   WELL
 FLD .             TEAPOT:   FIELD
 LOC .      S34 T39N R78W:   LOCATION
 CNTY.            NATRONA:   COUNTY
 STAT.            WYOMING:   STATE
 CTRY. UNITED STATES OF AMERICA:   COUNTRY
 SRVC.           BIRDWELL:   SERVICE COMPANY
 DATE.        28-AUG-1978:   LOGDATE
 API .       490251069800:   API NUMBER
~CURVE INFORMATION
#MNEM.UNIT       API CODE    CURVE DESCRIPTION
#----------   ------------   ------------------------------
 DEPT.F                  :   
 SPR .MV     05 010 01 00:   SPONTANEOUS POTENTIAL FROM RES.
 SN  .OHMM   05 040 16 00:   SHORT NORMAL 16"
 ILD .OHMM   05 120 46 00:   INDUCTION LOG DEEP
 CALD.IN     45 280 60 00:   CALIPER
 GRD .GAPI   45 310 01 00:   GAMMA RAY FROM DENSITY LOG
 RHOB.G/C3   45 350 01 00:   BULK DENSITY
 DPHI.DEC    45 890 12 00:   DENSITY POROSITY SANDSTONE
 CORR.G/C3   45 356 01 00:   DENSITY CORRECTION
~PARAMETER INFORMATION
#MNEM.UNIT          VALUE    DESCRIPTION
#----------   ------------   ------------------------------
 PD  .                 GL:   PERMANENT DATUM
 EPD .F              5064:   ELEVATION PERMANENT DATUM
 LMF .                 KB:   LOG MEASURED FROM
 DAPD.F                 4:   FEET ABOVE PERMANENT DATUM
 DMF .                 KB:   DRILLING MEASURED FROM
 EKB .F              5068:   KELLING BUSHING
 EGL .F              5064:   GROUND LEVEL
 DATE.          8-28-1978:   RUN DATE
 RUN .                  1:   RUN NUMBER
 DD  .F               600:   DEPTH DRILLER
 DL  .F               596:   DEPTH LOGGER
 BLI .F               590:   BOTTOM LOG INTERVAL
 TLI .F                50:   TOP LOG INTERVAL
 CS  .IN            8.625:   CASING SIZE
 CBD .F                40:   CASING BOTTOM DRILLER
 BS  .IN            7.875:   BIT SIZE
 BSD .F               600:   BIT SIZE AT DEPTH
 DFT .                KCL:   DRILLING FLUID TYPE
 DFD .                8.7:   DRILLING FLUID DENSITY
 DFV .                 35:   DRILLING FLUID VISCOSITY
 DFPH.                  9:   DRILLING FLUID PH
 DFL .                 10:   DRILLING FLUID LOSS
 MSS .          FLOW LINE:   MUD SAMPLE SOURCE
 RMS .OHMM             .4:   RESISTIVITY MUD SAMPLE
 MST .F                76:   MUD SAMPLE TEMPERATURE
 RMF .OHMM             .3:   RESISTIVITY MUD FILTRATE SAMPLE
 MFST.F                80:   MUD FILTRATE SAMPLE TEMPERATURE
 RMC .OHMM             .4:   RESISTIVITY MUD CAKE
 MCST.F                80:   MUD CAKE SAMPLE TEMPERATURE
 MFSS.               MEAS:   MUD FILTRATE SAMPLE SOURCE
 MCSS.               MEAS:   MUD CAKE SAMPLE SOURCE
 TCS .HRS               3:   TIME CURCULATED STOPPED
 LUN .               2958:   LOGGING UNIT NUMBER
 LUL .               CASP:   LOGGING UNIT LOCATION
 ENGI.             MILLER:   RECORDING ENGINEER
 WITN.              AMEND:   WITNESSED BY
 CLNT.            A2DTECH:   CLIENT CODE
 ORIG.           5" PRINT:   ORIGIN OF DATA
 UWI .       490251069800:   UNIQUE WELL ID
 DICO. A2D Technologies, Inc.:   DIGITIZING COMPANY
~OTHER INFORMATION
~A   DEPT      SPR         SN        ILD       CALD        GRD         RHOB       DPHI      CORR  
# ...
  322.5000   -27.0197     7.8094     7.0452     7.0007   116.7932     2.4883     0.1143     0.0278
  323.0000   -26.9377     7.8052     7.0420     6.9985   116.4833     2.4904     0.1134     0.0315
  323.5000   -26.8557     7.8010     7.0388     6.9962   113.1400     2.4915     0.1157     0.0353
  324.0000   -26.8673     7.7968     7.0356     6.9940   109.4835     2.4893     0.1290     0.0328
  324.5000   -26.8977     7.7926     7.0324     6.9917   105.8383     2.4762     0.1424     0.0288
  325.0000   -26.9285     7.7884     7.0293     6.9894   105.3305     2.4630     0.1438     0.0258
  325.5000   -26.9591     7.7842     7.0260     6.9872   106.6747     2.4494     0.1431     0.0255
  326.0000   -26.9897     7.7801     7.0228     6.9849   108.5104     2.4479     0.1400     0.0251
  326.5000   -27.0203     7.7760     6.9556     6.9840   110.0473     2.4583     0.1277     0.0247
  327.0000   -27.0508     7.7717     6.7964     6.9840   110.3068     2.4706     0.1178     0.0243
  327.5000   -27.0814     7.7672     6.6409     6.9840   110.0090     2.4834     0.1165     0.0239
  328.0000   -27.1120     7.5896     6.4889     6.9840   107.1033     2.4886     0.1178     0.0222
  328.5000   -27.1426     7.3980     6.3402     6.9840   104.7026     2.4874     0.1291     0.0205
  329.0000   -27.1732     7.2111     6.1950     6.9840   104.8161     2.4707     0.1411     0.0189
  329.5000   -27.2038     7.0290     6.0614     6.9840   105.0531     2.4534     0.1532     0.0172
  330.0000   -27.2344     6.7677     6.0413     6.9840   101.9290     2.4362     0.1648     0.0156
  330.5000   -27.2649     6.7837     6.0227     6.9840   100.3365     2.4183     0.1665     0.0140
  331.0000   -27.2955     6.8146     6.0041     6.9842   104.2271     2.4171     0.1512     0.0123
  331.5000   -27.3261     6.8457     5.9855     6.9693   107.5152     2.4357     0.1396     0.0125
  332.0000   -27.3569     6.8778     5.9668     6.9450   105.8719     2.4559     0.1281     0.0141
  332.5000   -27.3890     6.8964     5.9483     6.9207   103.5935     2.4762     0.1165     0.0190
  333.0000   -27.4135     6.7660     5.9297     6.9038   103.4741     2.4934     0.1110     0.0238
  333.5000   -27.2943     6.5620     5.9113     6.9350   103.4061     2.4877     0.1194     0.0244
  334.0000   -27.2411     6.3674     5.8957     7.0576   103.4774     2.4832     0.1190     0.0248
  334.5000   -27.2020     6.1749     5.9537     7.3437   105.3209     2.4859     0.1112     0.0252
  335.0000   -27.1287     6.0294     5.9489     7.0582   109.0534     2.4937     0.1120     0.0256
  335.5000   -27.0544     6.2349     5.9499     7.0200   112.9038     2.4953     0.1141     0.0258
  336.0000   -26.9798     6.4998     5.9497     7.0149   116.6287     2.4923     0.1192     0.0250
  336.5000   -26.9056     6.7758     6.2707     7.0098   116.4113     2.4864     0.1253     0.0241
  337.0000   -26.8447     7.0631     6.5565     7.0042   109.0057     2.4786     0.1385     0.0232
  337.5000   -26.8462     7.2170     6.7989     6.9986   103.2308     2.4536     0.1514     0.0224
  338.0000   -26.8463     7.2836     6.8301     6.9930   100.1893     2.4280     0.1605     0.0245
  338.5000   -26.8461     7.2170     6.7677     6.9874    99.5507     2.4207     0.1502     0.0293
  339.0000   -26.8466     7.2170     6.6889     6.9840    99.5732     2.4302     0.1392     0.0338
  339.5000   -26.8444     7.1495     6.4766     6.9840    99.7170     2.4521     0.1282     0.0319
  340.0000   -27.0001     7.1525     6.0651     6.9838   100.6548     2.4737     0.1141     0.0299
  340.5000   -27.2377     7.0881     5.8430     6.9838   102.5686     2.4955     0.0954     0.0278
  341.0000   -27.4783     7.0209     5.8430     6.9973   103.3765     2.5169     0.0942     0.0258
  341.5000   -27.7183     6.9567     5.8430     7.0816   102.2047     2.5196     0.1024     0.0238
  342.0000   -27.9601     6.7944     5.8430     7.1646   101.3552     2.5138     0.1083     0.0217
  342.5000   -28.0207     6.4413     5.9240     7.2145   102.6433     2.5052     0.1134     0.0197
  343.0000   -27.9730     6.1066     5.9513     7.1526   104.1713     2.4964     0.1130     0.0180
  343.5000   -27.9235     5.8430     6.0062     7.0946   103.9345     2.4962     0.1059     0.0183
  344.0000   -27.8669     5.8430     6.0616     7.0774   103.8496     2.5026     0.1047     0.0187
  344.5000   -27.5487     6.2106     6.2309     7.0695   103.7631     2.5078     0.1054     0.0190
  345.0000   -27.4424     6.6863     6.5537     7.0634   103.4840     2.5089     0.1022     0.0193
  345.5000   -27.4441     7.1984     6.8742     7.0574   103.1682     2.5096     0.1022     0.0197
  346.0000   -27.4450     7.7497     7.2104     7.0515   101.4509     2.5104     0.1032     0.0198
  346.5000   -27.4451     8.2071     7.5630     7.0455    98.3210     2.5077     0.1066     0.0189
  347.0000   -27.4451     8.2083     7.9330     7.0396    95.2110     2.5030     0.1070     0.0179
  347.5000   -27.4451     8.2075     8.3263     7.0337    93.0284     2.5015     0.1061     0.0169
  348.0000   -27.4451     8.2071     8.5182     7.0278    93.6845     2.5033     0.1052     0.0161
  348.5000   -27.4451     8.2071     8.5127     7.0219    95.8799     2.5059     0.1050     0.0195
  349.0000   -27.4451     8.2071     8.5899     7.0160    98.0914     2.5084     0.1050     0.0233
  349.5000   -27.4451     8.2071     8.5891     7.0100   100.2866     2.5078     0.1050     0.0244
  350.0000   -27.4451     8.2071     8.6757     7.0041   100.8419     2.5075     0.1050     0.0250
  350.5000   -27.4451     8.2071     8.6729     6.9982   100.6132     2.5074     0.1020     0.0256
  351.0000   -27.4451     8.2071     8.6719     6.9925    99.9034     2.5091     0.0991     0.0253
  351.5000   -27.4451     8.2071     8.6720     6.9859    99.2016     2.5130     0.0962     0.0233
  352.0000   -27.4451     8.2071     8.6720     6.9687    98.7446     2.5171     0.0966     0.0214
  352.5000   -27.4450     8.2071     8.6720     6.9576   100.6867     2.5147     0.1031     0.0192
  353.0000   -27.4453     8.2071     8.6720     6.9521   103.2624     2.5082     0.1095     0.0156
  353.5000   -27.4438     8.2071     8.6723     6.9463   104.1448     2.4986     0.1158     0.0121
  354.0000   -27.5602     8.2071     8.6704     6.9404   101.0961     2.4892     0.1222     0.0128
  354.5000   -27.7409     8.2071     8.6761     6.9345    95.7824     2.4711     0.1351     0.0141
  355.0000   -27.9235     8.2071     8.3965     6.9286    91.4774     2.4374     0.1588     0.0154
  355.5000   -28.1060     8.2071     8.1272     6.9227    92.1971     2.4039     0.1826     0.0214
  356.0000   -28.2883     8.2071     7.8666     6.9168    92.9460     2.3801     0.1864     0.0340
  356.5000   -28.4708     8.2071     7.6146     6.9109    93.5875     2.4032     0.1590     0.0472
  357.0000   -28.6544     8.2072     7.3509     6.9051    91.9836     2.4455     0.1374     0.0387
  357.5000   -28.8357     8.2097     6.9330     6.8991    90.6930     2.4883     0.1159     0.0234
  358.0000   -28.8437     8.2100     6.4735     6.8933    92.1184     2.5104     0.1018     0.0138
  358.5000   -28.8426     7.9077     6.1703     6.8882    91.9557     2.5182     0.0985     0.0135
  359.0000   -28.8426     7.5557     6.1715     6.9121    92.7205     2.5165     0.0998     0.0131
  359.5000   -28.8466     7.2174     6.4645     6.9400    95.9293     2.5145     0.1033     0.0127
  360.0000   -28.6555     6.8989     6.6698     6.9679    97.3448     2.5124     0.1024     0.0123
  360.5000   -28.4060     6.7015     6.8816     6.9962    95.9413     2.5130     0.0973     0.0120
  361.0000   -28.1553     6.7013     7.0895     7.0232    91.3519     2.5229     0.0930     0.0116
  361.5000   -27.9035     6.8939     7.8179     7.0241    78.5387     2.5212     0.0930     0.0112
  362.0000   -27.6548     7.6577     8.5815     7.0240    65.3878     2.5172     0.1023     0.0108
  362.5000   -27.6133     8.5927     9.3321     7.0240    52.3677     2.5127     0.1089     0.0104
