~VERSION INFORMATION
 VERS.                2.0:   CWLS LOG ASCII STANDARD - VERSION 2.0
 WRAP.                 NO:   ONE LINE PER DEPTH STEP
~WELL INFORMATION
#MNEM.UNIT      DATA TYPE    INFORMATION
#----------   ------------   ------------------------------
 STRT.F            1.0000:   START DEPTH
 STOP.F          524.0000:   STOP DEPTH
 STEP.F            0.1000:   STEP LENGTH
 NULL.          -999.2500:   NO VALUE
 COMP.       F D SERV INC:   COMPANY
 WELL.    87-2 SX-3 #87-3:   WELL
 FLD .             TEAPOT:   FIELD
 LOC .       S3 T38N R78W:   LOCATION
 CNTY.            NATRONA:   COUNTY
 STAT.            WYOMING:   STATE
 CTRY. UNITED STATES OF AMERICA:   COUNTRY
 SRVC.     Atlas Wireline:   SERVICE COMPANY
 DATE.        20-OCT-1992:   LOGDATE
 API .       490252254700:   API NUMBER
~CURVE INFORMATION
#MNEM.UNIT       API CODE    CURVE DESCRIPTION
#----------   ------------   ------------------------------
 DEPT.F                  :   
 GRR .GAPI   07 310 01 00:   GAMMA RAY
 RILD.OHMM   07 120 46 00:   INDUCTION LOG DEEP RESISTIVITY
 RILM.OHMM   07 120 44 00:   INDUCTION LOG MEDIUM RESISTIVITY
~PARAMETER INFORMATION
#MNEM.UNIT          VALUE    DESCRIPTION
#----------   ------------   ------------------------------
 PD  .                 GL:   PERMANENT DATUM
 EPD .F              5124:   ELEVATION PERMANENT DATUM
 LMF .                 KB:   LOG MEASURED FROM
 DAPD.F                10:   FEET ABOVE PERMANENT DATUM
 DMF .                 KB:   DRILLING MEASURED FROM
 EKB .F              5134:   KELLING BUSHING
 EDF .F              5133:   DRILLING FLOOR
 EGL .F              5124:   GROUND LEVEL
 DATE.        20-OCT-1992:   RUN DATE
 RUN .                  1:   RUN NUMBER
 DD  .F               533:   DEPTH DRILLER
 DL  .F               532:   DEPTH LOGGER
 BLI .F               524:   BOTTOM LOG INTERVAL
 TLI .F                74:   TOP LOG INTERVAL
 CS  .IN            8.625:   CASING SIZE
 CBD .F                85:   CASING BOTTOM DRILLER
 CBL .F                74:   CASING BOTTOM LOGGER
 BS  .IN            7.875:   BIT SIZE
 BSD .F               533:   BIT SIZE AT DEPTH
 DFT .           AIR FOAM:   DRILLING FLUID TYPE
 TCS .HRS               3:   TIME CURCULATED STOPPED
 MRT .F                70:   MAXIMUM RECORDED TEMPERATURE
 LUN .            HL-6274:   LOGGING UNIT NUMBER
 LUL .             CASPER:   LOGGING UNIT LOCATION
 ENGI.             RAUTIO:   RECORDING ENGINEER
 WITN.        GARY STRONG:   WITNESSED BY
 CLNT.            A2DTECH:   CLIENT CODE
 ORIG.           5" PRINT:   ORIGIN OF DATA
 UWI .       490252254700:   UNIQUE WELL ID
 DICO. A2D Technologies, Inc.:   DIGITIZING COMPANY
~OTHER INFORMATION
~A    DEPT     GRR       RILD       RILM   
# ...
  456.0000   101.8316    10.9083    10.7806
  456.1000   101.8130    10.8656    10.7613
  456.2000   101.5305    10.8328    10.7612
  456.3000   101.5326    10.8178    10.7460
  456.4000   101.5351    10.7577    10.6859
  456.5000   101.4364    10.7579    10.6857
  456.6000   101.2333    10.7091    10.6856
  456.7000   101.2363    10.6483    10.6503
  456.8000   101.2386    10.6092    10.5893
  456.9000   101.2410    10.6014    10.5367
  457.0000   101.2435    10.5358    10.5366
  457.1000   101.2459    10.5359    10.5365
  457.2000   101.2369    10.4949    10.4950
  457.3000   100.9450    10.4353    10.4350
  457.4000   100.5378    10.3760    10.3897
  457.5000   100.1889    10.3182    10.3883
  457.6000    99.9416    10.3184    10.3289
  457.7000    99.6595    10.2717    10.2699
  457.8000    99.1194    10.2469    10.2448
  457.9000    98.8935    10.2265    10.2240
  458.0000    98.6462    10.1759    10.1656
  458.1000    98.2840    10.1761    10.1021
  458.2000    97.8455    10.1237    10.0497
  458.3000    97.5982    10.0662     9.9922
  458.4000    97.3509    10.0091     9.9613
  458.5000    97.1036     9.9659     9.9475
  458.6000    97.1332     9.9650     9.8906
  458.7000    97.4673     9.9084     9.8341
  458.8000    97.9945     9.8970     9.7779
  458.9000    98.8401     9.8328     9.7220
  459.0000    99.4977     9.7407     9.6472
  459.1000   100.4113     9.6853     9.5441
  459.2000   101.3072     9.6251     9.4844
  459.3000   102.0588     9.5757     9.4353
  459.4000   102.8338     9.5213     9.3814
  459.5000   103.5620     9.4426     9.3277
  459.6000   104.4990     9.3480     9.2743
  459.7000   105.5003     9.2941     9.2213
  459.8000   106.5739     9.1889     9.1686
  459.9000   107.7935     9.0848     9.0751
  460.0000   108.6681     8.9818     8.9717
  460.1000   108.8790     8.8799     8.8870
  460.2000   109.1312     8.7730     8.8237
  460.3000   109.2876     8.6097     8.6588
  460.4000   109.2115     8.4781     8.5259
  460.5000   108.6801     8.2391     8.4133
  460.6000   107.9854     7.9415     8.2533
  460.7000   107.4144     7.6398     8.0306
  460.8000   106.7982     7.3818     7.8495
  460.9000   106.1142     7.1342     7.7602
  461.0000   105.6232     6.8947     7.6375
  461.1000   105.3760     6.6840     7.4358
  461.2000   105.1287     6.4958     7.1984
  461.3000   105.2383     6.3170     7.0044
  461.4000   104.9564     6.1603     6.8733
  461.5000   104.4594     6.0354     6.7335
  461.6000   104.1127     5.9221     6.5812
  461.7000   104.0966     5.8669     6.4487
  461.8000   103.8117     5.8669     6.2980
  461.9000   104.0256     5.8670     6.0141
  462.0000   104.4329     5.8671     5.6816
  462.1000   105.1319     5.8409     5.4624
  462.2000   106.1753     5.8265     5.3458
  462.3000   107.4991     5.8380     5.3056
  462.4000   108.6773     5.8674     5.3092
  462.5000   110.6433     5.8675     5.3427
  462.6000   112.6492     5.8676     5.3701
  462.7000   114.5964     5.8677     5.3800
  462.8000   117.0960     5.8678     5.4080
  462.9000   120.0715     5.8756     5.4701
  463.0000   121.8924     5.9090     5.5327
  463.1000   123.7059     5.9091     5.5643
  463.2000   125.2960     5.9358     5.6215
  463.3000   126.9815     5.9506     5.7046
  463.4000   128.3531     5.9623     5.8148
  463.5000   129.0322     5.9925     5.9449
  463.6000   129.4456     5.9926     6.0584
  463.7000   129.6978     5.9926     6.1525
  463.8000   129.7822     6.0158     6.2347
  463.9000   129.2839     6.0348     6.3063
  464.0000   128.5390     6.0348     6.3788
  464.1000   127.5997     6.0353     6.4520
  464.2000   126.6033     6.1048     6.5262
  464.3000   125.1305     6.1750     6.6013
  464.4000   122.6362     6.2662     6.6772
  464.5000   119.8043     6.3870     6.7539
  464.6000   117.6461     6.5343     6.8314
  464.7000   115.3108     6.7014     6.9183
  464.8000   113.1688     6.8050     6.9894
  464.9000   111.2662     6.9227     7.0698
  465.0000   109.7091     7.0424     7.1696
  465.1000   108.5137     7.1734     7.2839
  465.2000   107.6336     7.3387     7.3674
  465.3000   107.1398     7.5087     7.4096
  465.4000   107.0322     7.6480     7.4855
  465.5000   107.2843     7.8054     7.5715
  465.6000   107.5802     7.9856     7.6885
  465.7000   107.7887     8.1697     7.8712
  465.8000   108.0409     8.3792     8.1244
  465.9000   108.1997     8.5084     8.2922
  466.0000   108.2389     8.6556     8.4514
  466.1000   108.5111     8.8052     8.5976
  466.2000   108.5133     8.9572     8.7575
  466.3000   108.3424     9.1116     8.9595
  466.4000   108.0951     9.1639     9.1148
  466.5000   107.7876     9.2577     9.2726
  466.6000   107.2868     9.3642     9.4028
  466.7000   106.5402     9.4536     9.4926
  466.8000   105.7936     9.5078     9.5469
  466.9000   104.9067     9.5685     9.6076
  467.0000   104.0776     9.6173     9.6565
  467.1000   103.6077     9.6725     9.7118
  467.2000   103.3314     9.7280     9.7673
  467.3000   103.3335     9.7714     9.8232
  467.4000   103.4998     9.7715     9.8795
  467.5000   103.7519     9.8276     9.9360
  467.6000   104.0546     9.8840     9.9485
  467.7000   104.5685     9.9093    10.0118
  467.8000   105.5461     9.9282    10.0884
  467.9000   106.5475     9.9789    10.0945
  468.0000   107.6795     9.9791    10.1589
  468.1000   108.7823    10.0299    10.2104
  468.2000   109.5163    10.0874    10.2689
  468.3000   110.0966    10.1453    10.3015
  468.4000   110.3093    10.1907    10.3143
  468.5000   110.7157    10.1909    10.3736
  468.6000   111.0224    10.1910    10.3734
  468.7000   111.0248    10.2363    10.3733
  468.8000   111.0274    10.2627    10.4059
  468.9000   111.0297    10.2628    10.4458
  469.0000   111.0322    10.2692    10.4520
  469.1000   110.9135    10.3350    10.5188
  469.2000   110.6663    10.3874    10.5186
  469.3000   110.4190    10.4076    10.5185
  469.4000   110.1236    10.4339    10.5448
  469.5000   109.9245    10.4808    10.6051
  469.6000   109.6772    10.4809    10.6662
  469.7000   109.4299    10.5407    10.6660
  469.8000   109.1826    10.5546    10.6659
  469.9000   108.9105    10.5879    10.6993
  470.0000   108.9127    10.6288    10.7404
  470.1000   108.7471    10.6353    10.7467
  470.2000   108.4999    10.7035    10.8155
  470.3000   108.2526    10.7577    10.8154
  470.4000   108.0037    10.7788    10.8152
  470.5000   108.0061    10.8058    10.8421
  470.6000   107.8171    10.8678    10.9042
  470.7000   107.2999    10.9307    10.9671
  470.8000   106.4749    10.9309    10.9669
  470.9000   105.5221    10.9791    11.0152
  471.0000   104.9559    11.0421    11.0782
  471.1000   104.5280    11.1055    11.1209
  471.2000   104.1894    11.1692    11.1338
  471.3000   103.9422    11.2410    11.2772
  471.4000   103.7398    11.2977    11.3340
  471.5000   103.7428    11.3626    11.3989
  471.6000   103.7452    11.4278    11.4641
  471.7000   103.7476    11.4794    11.5297
  471.8000   103.7501    11.4796    11.5964
  471.9000   103.8214    11.5448    11.6620
  472.0000   104.0613    11.6110    11.7288
  472.1000   104.0641    11.6776    11.7959
  472.2000   104.2715    11.7446    11.8634
  472.3000   104.5237    11.8120    11.9313
  472.4000   104.8682    11.8882    12.0080
  472.5000   105.3344    11.9480    12.0079
  472.6000   105.6076    12.0166    12.0528
  472.7000   106.0676    12.0855    12.0918
  472.8000   106.3971    12.1548    12.0916
  472.9000   106.6493    12.2255    12.0915
  473.0000   106.8423    12.2947    12.0913
  473.1000   106.8474    12.3653    12.1441
  473.2000   107.0995    12.4362    12.2136
  473.3000   107.3517    12.5076    12.2835
  473.4000   107.4646    12.5724    12.3538
  473.5000   107.4671    12.5726    12.4334
  473.6000   107.4434    12.6357    12.5584
  473.7000   107.1660    12.7082    12.6082
  473.8000   106.9488    12.7811    12.6391
  473.9000   106.7016    12.8392    12.7114
  474.0000   106.4543    12.8394    12.7853
  474.1000   106.1575    12.9119    12.8573
