~VERSION INFORMATION
 VERS.                2.0:   CWLS LOG ASCII STANDARD - VERSION 2.0
 WRAP.                 NO:   ONE LINE PER DEPTH STEP
~WELL INFORMATION
#MNEM.UNIT      DATA TYPE    INFORMATION
#----------   ------------   ------------------------------
 STRT.F           20.0000:   START DEPTH
 STOP.F          930.0000:   STOP DEPTH
 STEP.F            0.5000:   STEP LENGTH
 NULL.          -999.2500:   NO VALUE
 COMP. FENIX & SCISSON INC:   COMPANY
 WELL.     NPR 3 #45-S-14:   WELL
 FLD .        TEAPOT DOME:   FIELD
 LOC .      S14 T38N R78W:   LOCATION
 CNTY.            NATRONA:   COUNTY
 STAT.            WYOMING:   STATE
 CTRY. UNITED STATES OF AMERICA:   COUNTRY
 SRVC.           BIRDWELL:   SERVICE COMPANY
 DATE.        02-JAN-1979:   LOGDATE
 API .       490251076200:   API NUMBER
~CURVE INFORMATION
#MNEM.UNIT       API CODE    CURVE DESCRIPTION
#----------   ------------   ------------------------------
 DEPT.F                  :   
 GRD .GAPI   45 310 01 00:   GAMMA RAY FROM DENSITY LOG
 CALD.IN     45 280 60 00:   CALIPER
 RHOB.G/C3   45 350 01 00:   BULK DENSITY
 DPHI.DEC    45 890 12 00:   DENSITY POROSITY SANDSTONE
 CORR.G/C3   45 356 01 00:   DENSITY CORRECTION
~PARAMETER INFORMATION
#MNEM.UNIT          VALUE    DESCRIPTION
#----------   ------------   ------------------------------
 PD  .                 GL:   PERMANENT DATUM
 EPD .F              5261:   ELEVATION PERMANENT DATUM
 LMF .                 KB:   LOG MEASURED FROM
 DAPD.F                 4:   FEET ABOVE PERMANENT DATUM
 DMF .                 KB:   DRILLING MEASURED FROM
 EKB .F              5265:   KELLING BUSHING
 EGL .F              5261:   GROUND LEVEL
 DATE.             1-7-79:   RUN DATE
 RUN .                  1:   RUN NUMBER
 DD  .F               969:   DEPTH DRILLER
 DL  .F               928:   DEPTH LOGGER
 BLI .F               928:   BOTTOM LOG INTERVAL
 TLI .F                20:   TOP LOG INTERVAL
 CS  .IN            8.625:   CASING SIZE
 CBD .F                40:   CASING BOTTOM DRILLER
 CBL .F                46:   CASING BOTTOM LOGGER
 BS  .IN            7.875:   BIT SIZE
 BSD .F               969:   BIT SIZE AT DEPTH
 DFT .                KCL:   DRILLING FLUID TYPE
 DFD .                8.8:   DRILLING FLUID DENSITY
 DFV .                 42:   DRILLING FLUID VISCOSITY
 DFPH.                9.2:   DRILLING FLUID PH
 DFL .                 10:   DRILLING FLUID LOSS
 MSS .           FLOWLINE:   MUD SAMPLE SOURCE
 RMS .OHMM            .95:   RESISTIVITY MUD SAMPLE
 MST .F                60:   MUD SAMPLE TEMPERATURE
 RMF .OHMM            1.7:   RESISTIVITY MUD FILTRATE SAMPLE
 MFST.F                60:   MUD FILTRATE SAMPLE TEMPERATURE
 RMC .OHMM            1.6:   RESISTIVITY MUD CAKE
 MCST.F                60:   MUD CAKE SAMPLE TEMPERATURE
 MFSS.           MEASURED:   MUD FILTRATE SAMPLE SOURCE
 MCSS.           MEASURED:   MUD CAKE SAMPLE SOURCE
 RMB .OHMM            .98:   RESISTIVITY MUD AT BHT
 BHT .F                58:   BOTTOM HOLE TEMPERATURE
 TCS .HRS               4:   TIME CURCULATED STOPPED
 MRT .F                58:   MAXIMUM RECORDED TEMPERATURE
 LUN .               3006:   LOGGING UNIT NUMBER
 LUL .             CASPER:   LOGGING UNIT LOCATION
 ENGI.            ROLLINS:   RECORDING ENGINEER
 WITN.           DINSMORE:   WITNESSED BY
 CLNT.            A2DTECH:   CLIENT CODE
 ORIG.           5" PRINT:   ORIGIN OF DATA
 UWI .       490251076200:   UNIQUE WELL ID
 DICO. A2D Technologies, Inc.:   DIGITIZING COMPANY
~OTHER INFORMATION
~A   DEPT      GRD         CALD     RHOB       DPHI       CORR   
# ...
  203.0000   104.7610     7.8300     2.3900     0.1700     0.0290
  203.5000   103.8280     7.8300     2.3900     0.1690     0.0280
  204.0000   102.9220     7.8300     2.3900     0.1720     0.0260
  204.5000   102.5160     7.8300     2.3880     0.1760     0.0250
  205.0000   102.6010     7.8300     2.3820     0.1800     0.0260
  205.5000   102.7070     7.8300     2.3760     0.1820     0.0270
  206.0000   102.2390     7.8300     2.3760     0.1830     0.0280
  206.5000    97.6460     7.8300     2.3760     0.1850     0.0290
  207.0000    97.2370     7.8270     2.3750     0.1860     0.0300
  207.5000    97.4150     7.8090     2.3750     0.1860     0.0310
  208.0000    97.6300     7.7910     2.3740     0.1860     0.0320
  208.5000    99.4850     7.4830     2.3770     0.1820     0.0320
  209.0000   101.6000     7.6370     2.3800     0.1730     0.0290
  209.5000   103.1860     7.6860     2.3820     0.1780     0.0260
  210.0000   103.2770     7.7040     2.3770     0.1850     0.0230
  210.5000    95.2090     7.8590     2.3620     0.1950     0.0230
  211.0000    94.4760     7.6370     2.3480     0.2170     0.0230
  211.5000    95.2600     7.8530     2.3170     0.2440     0.0250
  212.0000    98.1360     7.8500     2.2730     0.2710     0.0330
  212.5000   103.6420     7.8500     2.2280     0.3030     0.0350
  213.0000   104.1540     7.8500     2.1870     0.2980     0.0310
  213.5000   102.9170     7.8510     2.1800     0.2830     0.0270
  214.0000   103.0400     7.7980     2.2130     0.2590     0.0280
  214.5000   103.2330     7.6820     2.2520     0.2350     0.0270
  215.0000   102.8470     7.6630     2.2890     0.2170     0.0250
  215.5000   102.2240     7.6430     2.3170     0.2030     0.0230
  216.0000    97.0330     7.6390     2.3450     0.1930     0.0210
  216.5000    92.5330     7.8550     2.3490     0.1960     0.0230
  217.0000    93.9690     7.8890     2.3490     0.1980     0.0240
  217.5000    95.6330     7.8870     2.3480     0.1970     0.0250
  218.0000    97.9010     7.8850     2.3480     0.1960     0.0260
  218.5000   100.0330     7.8830     2.3470     0.1950     0.0280
  219.0000   100.2920     7.8820     2.3470     0.1990     0.0360
  219.5000   100.4950     7.8800     2.3460     0.2010     0.0440
  220.0000   100.7170     7.8780     2.3460     0.1960     0.0730
  220.5000   101.3000     7.8760     2.3600     0.1750     0.1010
  221.0000   103.2690     7.8740     2.3900     0.1600     0.1260
  221.5000   106.3740     7.8720     2.4130     0.1490     0.1350
  222.0000   105.7940     7.8700     2.4280     0.1380     0.1450
  222.5000   102.3300     7.8420     2.4430     0.1370     0.1380
  223.0000    99.3950     7.8140     2.4460     0.1430     0.1200
  223.5000    97.3640     7.7840     2.4430     0.1510     0.1000
  224.0000    97.5200     7.7510     2.4310     0.1610     0.0640
  224.5000    99.0410     7.7400     2.4110     0.1650     0.0330
  225.0000   100.5490     7.7310     2.3990     0.1690     0.0260
  225.5000   101.6600     7.7210     2.3940     0.1750     0.0220
  226.0000   102.4960     7.7130     2.3850     0.1800     0.0180
  226.5000   100.0980     7.6810     2.3740     0.1810     0.0170
  227.0000    96.6320     7.5980     2.3710     0.1850     0.0170
  227.5000    94.0160     7.6220     2.3690     0.1880     0.0180
  228.0000    98.1760     7.8150     2.3570     0.1910     0.0180
  228.5000   100.6340     7.8190     2.3580     0.1890     0.0180
  229.0000   101.5100     7.8260     2.3580     0.1920     0.0180
  229.5000   101.5230     7.8290     2.3560     0.1970     0.0190
  230.0000   100.8990     7.8250     2.3390     0.2070     0.0200
  230.5000   101.6600     7.8220     2.3170     0.2320     0.0380
  231.0000   104.6190     7.8180     2.2940     0.2350     0.0570
  231.5000   107.6240     7.8140     2.2890     0.2220     0.0610
  232.0000   106.8220     7.8100     2.3160     0.1970     0.0540
  232.5000   103.7270     7.7760     2.3470     0.1810     0.0470
  233.0000   101.1410     7.7410     2.3750     0.1770     0.0480
  233.5000    99.0100     7.7180     2.3890     0.1720     0.0480
  234.0000    96.9180     7.7880     2.3960     0.1660     0.0490
  234.5000    96.9540     7.8580     2.4010     0.1660     0.0490
  235.0000    97.7890     7.8670     2.4010     0.1670     0.0500
  235.5000    99.5330     7.8630     2.4010     0.1690     0.0500
  236.0000   103.1450     7.8590     2.4010     0.1690     0.0510
  236.5000   102.3670     7.8550     2.4010     0.1670     0.0510
  237.0000   101.0910     7.8510     2.4010     0.1640     0.0520
  237.5000   100.7840     7.8470     2.4010     0.1630     0.0520
  238.0000    99.8450     7.8430     2.4010     0.1640     0.0530
  238.5000    97.2570     7.8390     2.4000     0.1660     0.0500
  239.0000    96.7370     7.8350     2.3980     0.1700     0.0430
  239.5000    95.5010     7.8310     2.3940     0.1790     0.0360
  240.0000    93.4780     7.8300     2.3810     0.1890     0.0290
  240.5000    92.1130     7.7980     2.3660     0.2020     0.0220
  241.0000    91.7750     7.7410     2.3430     0.2170     0.0210
  241.5000    94.7360     7.6910     2.3160     0.2370     0.0250
  242.0000   101.7900     7.6970     2.2880     0.2570     0.0380
  242.5000   106.6190     7.7030     2.2610     0.2650     0.0510
  243.0000   108.1170     7.7110     2.2470     0.2430     0.0480
  243.5000   104.3700     7.7560     2.2760     0.2170     0.0390
  244.0000   101.6820     7.8010     2.3140     0.1890     0.0280
  244.5000   101.6510     7.8310     2.3630     0.1900     0.0230
  245.0000   100.7840     7.8300     2.3650     0.1910     0.0220
  245.5000    98.5270     7.8300     2.3640     0.1900     0.0210
  246.0000    97.2180     7.8300     2.3640     0.1880     0.0230
  246.5000    96.7440     7.8310     2.3660     0.1870     0.0250
  247.0000    97.0410     7.8290     2.3660     0.1860     0.0260
  247.5000    98.1090     7.7850     2.3660     0.1840     0.0250
  248.0000    99.2050     7.7400     2.3670     0.1840     0.0210
  248.5000    98.8470     7.7100     2.3670     0.1880     0.0190
  249.0000    98.0310     7.7510     2.3630     0.1910     0.0210
  249.5000    97.2390     7.8210     2.3600     0.1890     0.0230
  250.0000    96.8850     7.8300     2.3600     0.1880     0.0250
  250.5000    97.6020     7.8300     2.3600     0.1900     0.0260
  251.0000    97.1380     7.8300     2.3580     0.1910     0.0260
  251.5000    96.5590     7.8300     2.3570     0.1910     0.0240
  252.0000    96.7290     7.8260     2.3550     0.1930     0.0230
  252.5000    96.9950     7.8200     2.3520     0.1960     0.0210
  253.0000    96.1840     7.8150     2.3470     0.2030     0.0190
  253.5000    94.9200     7.8090     2.3310     0.2110     0.0170
  254.0000    95.3120     7.8030     2.3230     0.2190     0.0120
  254.5000    92.1370     7.7980     2.3160     0.2340     0.0100
  255.0000    91.4520     7.7920     2.2820     0.2560     0.0120
  255.5000    92.1870     7.7860     2.2480     0.2710     0.0220
  256.0000    94.4610     7.7810     2.2300     0.2760     0.0330
  256.5000    96.7280     7.7770     2.2290     0.2630     0.0320
  257.0000    97.1960     7.7660     2.2530     0.2290     0.0310
  257.5000    95.4360     7.4840     2.3070     0.1970     0.0300
  258.0000    93.3790     7.7700     2.3480     0.1760     0.0290
  258.5000    96.3120     7.5850     2.3820     0.1720     0.0280
  259.0000   100.3870     7.5080     2.3880     0.1720     0.0270
  259.5000   101.7780     7.7950     2.3870     0.1730     0.0260
  260.0000    99.6510     7.8300     2.3850     0.1740     0.0250
  260.5000    98.1330     7.8310     2.3850     0.1740     0.0250
  261.0000    98.4740     7.8300     2.3850     0.1750     0.0250
  261.5000    99.4080     7.8210     2.3790     0.1800     0.0250
  262.0000   101.2130     7.7880     2.3730     0.1820     0.0250
  262.5000    96.6160     7.7570     2.3710     0.1820     0.0250
  263.0000    91.0060     7.7290     2.3700     0.1840     0.0250
  263.5000    91.0800     7.7320     2.3660     0.1920     0.0250
