~VERSION INFORMATION
 VERS.                2.0:   CWLS LOG ASCII STANDARD - VERSION 2.0
 WRAP.                 NO:   ONE LINE PER DEPTH STEP
~WELL INFORMATION
#MNEM.UNIT      DATA TYPE    INFORMATION
#----------   ------------   ------------------------------
 STRT.F            3.0000:   START DEPTH
 STOP.F         3449.0000:   STOP DEPTH
 STEP.F            0.5000:   STEP LENGTH
 NULL.          -999.2500:   NO VALUE
 COMP. LAWRENCE/ALLISON INC:   COMPANY
 WELL.       NPR 3 #24-10:   WELL
 FLD .             TEAPOT:   FIELD
 LOC .      S10 T38N R78W:   LOCATION
 CNTY.            NATRONA:   COUNTY
 STAT.            WYOMING:   STATE
 CTRY. UNITED STATES OF AMERICA:   COUNTRY
 SRVC.      Dresser Atlas:   SERVICE COMPANY
 DATE.        28-JUL-1985:   LOGDATE
 API .       490251104400:   API NUMBER
~CURVE INFORMATION
#MNEM.UNIT       API CODE    CURVE DESCRIPTION
#----------   ------------   ------------------------------
 DEPT.F                  :   
 PORD.DEC    45 890 12 00:   POROSITY DENSITY SANDSTONE
 CNC .DEC    42 890 03 00:   NEUTRON POROSITY SANDSTONE
 CORR.G/C3   45 356 01 00:   DENSITY CORRECTION
 DEN .G/C3   45 350 01 00:   COMPENSATED BULK DENSTIY
 AC  .US/F   60 520 00 00:   ACCOUSTIC
 CALR.IN     07 280 01 00:   CALIPER FROM RESISTIVITY
 GRR .GAPI   07 310 01 00:   GAMMA RAY
 RFOC.OHMM   07 220 04 00:   RESISTIVITY FOCUSED LOG
 RILD.OHMM   07 120 46 00:   INDUCTION LOG DEEP RESISTIVITY
 RILM.OHMM   07 120 44 00:   INDUCTION LOG MEDIUM RESISTIVITY
 SPR .MV     07 010 01 00:   SPONTANEOUS POTENTIAL
~PARAMETER INFORMATION
#MNEM.UNIT          VALUE    DESCRIPTION
#----------   ------------   ------------------------------
 PD  .                 GL:   PERMANENT DATUM
 EPD .F              5242:   ELEVATION PERMANENT DATUM
 LMF .                 KB:   LOG MEASURED FROM
 DAPD.F                13:   FEET ABOVE PERMANENT DATUM
 DMF .                 KB:   DRILLING MEASURED FROM
 EKB .F              5255:   KELLING BUSHING
 EGL .F              5242:   GROUND LEVEL
 DATE.        28-JUL-1985:   RUN DATE
 RUN .                  1:   RUN NUMBER
 DD  .F              3451:   DEPTH DRILLER
 DL  .F              3451:   DEPTH LOGGER
 BLI .F              3449:   BOTTOM LOG INTERVAL
 CS  .IN            8.625:   CASING SIZE
 CBD .F               688:   CASING BOTTOM DRILLER
 CBL .F               686:   CASING BOTTOM LOGGER
 BS  .IN            7.875:   BIT SIZE
 BSD .F              3451:   BIT SIZE AT DEPTH
 DFT .            KCL GEL:   DRILLING FLUID TYPE
 DFD .                8.9:   DRILLING FLUID DENSITY
 DFV .                 40:   DRILLING FLUID VISCOSITY
 DFPH.                8.0:   DRILLING FLUID PH
 DFL .                 10:   DRILLING FLUID LOSS
 MSS .           FLOWLINE:   MUD SAMPLE SOURCE
 RMS .OHMM           0.87:   RESISTIVITY MUD SAMPLE
 MST .F                92:   MUD SAMPLE TEMPERATURE
 RMF .OHMM             65:   RESISTIVITY MUD FILTRATE SAMPLE
 MFST.F                92:   MUD FILTRATE SAMPLE TEMPERATURE
 RMC .OHMM           1.09:   RESISTIVITY MUD CAKE
 MCST.F                92:   MUD CAKE SAMPLE TEMPERATURE
 MFSS.               CALC:   MUD FILTRATE SAMPLE SOURCE
 MCSS.               CALC:   MUD CAKE SAMPLE SOURCE
 RMB .OHMM            .66:   RESISTIVITY MUD AT BHT
 BHT .F               121:   BOTTOM HOLE TEMPERATURE
 TCS .HRS               4:   TIME CURCULATED STOPPED
 MRT .F               121:   MAXIMUM RECORDED TEMPERATURE
 LUN .               6264:   LOGGING UNIT NUMBER
 LUL .               GLTE:   LOGGING UNIT LOCATION
 ENGI.           FAHLSING:   RECORDING ENGINEER
 WITN.             STRONG:   WITNESSED BY
 CLNT.            A2DTECH:   CLIENT CODE
 ORIG.        2" 5" PRINT:   ORIGIN OF DATA
 UWI .       490251104400:   UNIQUE WELL ID
 DICO. A2D Technologies, Inc.:   DIGITIZING COMPANY
 R1  . POROSITY WITH SANDSTONE:   REMARKS 1
~OTHER INFORMATION
~A    DEPT    PORD        CNC       CORR        DEN         AC       CALR         GRR      RFOC       RILD       RILM        SPR   
# ...
  704.5000  -999.2500  -999.2500  -999.2500  -999.2500  -999.2500     9.8009    87.1326     3.2050     3.1087     3.8219   -39.2614
  705.0000  -999.2500  -999.2500  -999.2500  -999.2500  -999.2500     9.7858    90.2936     4.2622     3.6983     4.4233   -39.8893
  705.5000  -999.2500  -999.2500  -999.2500  -999.2500  -999.2500     9.7557    92.5483     5.1784     4.3691     5.0487   -40.7686
  706.0000  -999.2500  -999.2500  -999.2500  -999.2500  -999.2500     9.7255    90.4979     5.3248     5.0553     5.6044   -41.2203
  706.5000  -999.2500  -999.2500  -999.2500  -999.2500  -999.2500     9.6953    88.6741     5.4373     5.8087     6.0505   -41.9741
  707.0000  -999.2500  -999.2500  -999.2500  -999.2500  -999.2500     9.6802    88.8895     5.5138     6.2699     6.5777   -42.8789
  707.5000  -999.2500  -999.2500  -999.2500  -999.2500  -999.2500     9.6652    90.6911     5.6697     6.6743     6.9064   -44.0859
  708.0000  -999.2500  -999.2500  -999.2500  -999.2500  -999.2500     9.6652    90.9065     5.9116     6.9584     7.0525   -44.9907
  708.5000  -999.2500  -999.2500  -999.2500  -999.2500  -999.2500     9.6652    88.5687     6.1211     7.2043     6.9072   -45.7445
  709.0000  -999.2500  -999.2500  -999.2500  -999.2500  -999.2500     9.6652    86.8029     6.2941     7.3560     6.8122   -45.8945
  709.5000  -999.2500  -999.2500  -999.2500  -999.2500  -999.2500     9.6652    86.7918     6.2945     7.4073     6.7656   -46.1951
  710.0000  -999.2500  -999.2500  -999.2500  -999.2500  -999.2500     9.6501    96.2349     6.2949     7.4589     6.8133   -46.4953
  710.5000  -999.2500  -999.2500  -999.2500  -999.2500  -999.2500     9.6501    97.3645     6.2955     7.4589     6.8138   -46.7960
  711.0000  -999.2500  -999.2500  -999.2500  -999.2500  -999.2500     9.6199    97.8163     6.3398     7.4589     6.8618   -47.0970
  711.5000  -999.2500  -999.2500  -999.2500  -999.2500  -999.2500     9.5747    96.3593     6.3403     7.2418     6.8623   -47.5483
  712.0000  -999.2500  -999.2500  -999.2500  -999.2500  -999.2500     9.5294    92.9705     6.3849     7.1020     6.7679   -47.8489
  712.5000  -999.2500  -999.2500  -999.2500  -999.2500  -999.2500     9.5143    92.3946     6.4299     6.9618     6.6286   -48.1495
  713.0000  -999.2500  -999.2500  -999.2500  -999.2500  -999.2500     9.4992    98.2681     6.4752     6.8513     6.5831   -48.6012
  713.5000  -999.2500  -999.2500  -999.2500  -999.2500  -999.2500     9.4842   102.3343     6.4756     6.8517     6.6296   -48.9018
  714.0000  -999.2500  -999.2500  -999.2500  -999.2500  -999.2500     9.4842   104.3675     6.4761     6.8046     6.6763   -48.9003
  714.5000  -999.2500  -999.2500  -999.2500  -999.2500  -999.2500     9.4842   101.8825     6.4765     6.8050     6.7234   -48.8811
  715.0000  -999.2500  -999.2500  -999.2500  -999.2500  -999.2500     9.4842   100.7530     6.4320     6.7114     6.7239   -48.2678
  715.5000  -999.2500  -999.2500  -999.2500  -999.2500  -999.2500     9.4842   103.2380     6.3879     6.6192     6.6314   -47.0828
  716.0000  -999.2500  -999.2500  -999.2500  -999.2500  -999.2500     9.4992   105.0452     6.3002     6.5737     6.4949   -45.8728
  716.5000  -999.2500  -999.2500  -999.2500  -999.2500  -999.2500     9.4992   101.2048     6.2570     6.5741     6.4055   -44.5118
  717.0000  -999.2500  -999.2500  -999.2500  -999.2500  -999.2500     9.4997    99.3976     6.2141     6.5745     6.3616   -43.3019
  717.5000  -999.2500  -999.2500  -999.2500  -999.2500  -999.2500     9.5143    99.6235     6.1715     6.5749     6.3180   -42.8472
  718.0000  -999.2500  -999.2500  -999.2500  -999.2500  -999.2500     9.5163   100.3012     6.1719     6.6211     6.3625   -42.5436
  718.5000  -999.2500  -999.2500  -999.2500  -999.2500  -999.2500     9.5294    99.3976     6.2154     6.6215     6.4521   -42.5421
  719.0000  -999.2500  -999.2500  -999.2500  -999.2500  -999.2500     9.5294    98.7199     6.2659     6.6219     6.5429   -42.8427
  719.5000  -999.2500  -999.2500  -999.2500  -999.2500  -999.2500     9.5445    99.3976     6.3916     6.6223     6.6414   -42.9927
  720.0000  -999.2500  -999.2500  -999.2500  -999.2500  -999.2500     9.5445   101.8825     6.4366     6.6226     6.7756   -43.1422
  720.5000  -999.2500  -999.2500  -999.2500  -999.2500  -999.2500     9.5747   103.0120     6.4820     6.5771     6.8233   -42.9893
  721.0000  -999.2500  -999.2500  -999.2500  -999.2500  -999.2500     9.5897   100.9789     6.4374     6.5319     6.8238   -42.9878
  721.5000  -999.2500  -999.2500  -999.2500  -999.2500  -999.2500     9.6199   100.0753     6.3932     6.5304     6.8243   -42.6842
  722.0000  -999.2500  -999.2500  -999.2500  -999.2500  -999.2500     9.6350   100.5271     6.3495     6.4874     6.8247   -42.5317
  722.5000  -999.2500  -999.2500  -999.2500  -999.2500  -999.2500     9.6501    99.8494     6.3499     6.4429     6.7779   -42.2281
  723.0000  -999.2500  -999.2500  -999.2500  -999.2500  -999.2500     9.6802   101.4307     6.3504     6.3996     6.5923   -42.2266
  723.5000  -999.2500  -999.2500  -999.2500  -999.2500  -999.2500     9.6953   104.3762     6.3508     6.3209     6.3674   -41.7694
  724.0000  -999.2500  -999.2500  -999.2500  -999.2500  -999.2500     9.6953   103.3958     6.3071     6.2423     6.0232   -41.0051
  724.5000  -999.2500  -999.2500  -999.2500  -999.2500  -999.2500     9.6953    98.9060     6.2639     6.1758     5.7773   -40.3741
  725.0000  -999.2500  -999.2500  -999.2500  -999.2500  -999.2500     9.6953    97.3645     6.1351     6.0120     5.5031   -40.1057
  725.5000  -999.2500  -999.2500  -999.2500  -999.2500  -999.2500     9.6953   100.2219     5.8849     5.8475     5.2785   -39.8018
  726.0000  -999.2500  -999.2500  -999.2500  -999.2500  -999.2500     9.6953   104.5934     5.5284     5.7670     5.2059   -39.0450
  726.5000  -999.2500  -999.2500  -999.2500  -999.2500  -999.2500     9.6953   105.2711     5.2661     5.7674     5.1702   -38.4393
  727.0000  -999.2500  -999.2500  -999.2500  -999.2500  -999.2500     9.6953   104.1416     5.1579     5.8080     5.2860   -38.7399
  727.5000  -999.2500  -999.2500  -999.2500  -999.2500  -999.2500     9.7104   106.1747     5.3494     5.9307     5.5492   -40.7022
  728.0000  -999.2500  -999.2500  -999.2500  -999.2500  -999.2500     9.7255   107.7560     5.7066     6.0983     5.9021   -41.6071
  728.5000  -999.2500  -999.2500  -999.2500  -999.2500  -999.2500     9.7406   109.3373     6.1810     6.3584     6.2403   -41.4545
  729.0000  -999.2500  -999.2500  -999.2500  -999.2500  -999.2500     9.7557   109.5633     6.4896     6.6296     6.5521   -41.3020
  729.5000  -999.2500  -999.2500  -999.2500  -999.2500  -999.2500     9.7707   104.1416     6.6731     6.9123     6.8796   -41.1494
  730.0000  -999.2500  -999.2500  -999.2500  -999.2500  -999.2500     9.7858    98.0422     6.8617     7.1572     7.1235   -41.2990
  730.5000  -999.2500  -999.2500  -999.2500  -999.2500  -999.2500     9.8009    95.3313     7.1048     7.4107     7.4277   -41.4489
  731.0000  -999.2500  -999.2500  -999.2500  -999.2500  -999.2500     9.8160    96.0090     7.3057     7.6733     7.6378   -41.5985
  731.5000  -999.2500  -999.2500  -999.2500  -999.2500  -999.2500     9.8160    97.5904     7.5122     7.8354     7.7994   -41.4456
  732.0000  -999.2500  -999.2500  -999.2500  -999.2500  -999.2500     9.8160    98.7199     7.5650     7.9548     7.9644   -41.4441
  732.5000  -999.2500  -999.2500  -999.2500  -999.2500  -999.2500     9.8160    94.2018     7.5131     8.1701     8.0765   -41.4426
  733.0000  -999.2500  -999.2500  -999.2500  -999.2500  -999.2500     9.8160    91.9428     7.4615     8.2276     8.0771   -41.7432
  733.5000  -999.2500  -999.2500  -999.2500  -999.2500  -999.2500     9.8009    90.5873     7.4104     8.2281     7.9660   -41.8928
  734.0000  -999.2500  -999.2500  -999.2500  -999.2500  -999.2500     9.8009    91.7169     7.4110     8.2859     7.9666   -41.8913
  734.5000  -999.2500  -999.2500  -999.2500  -999.2500  -999.2500     9.7858    93.5241     7.4632     8.3442     7.9671   -41.8898
