~VERSION INFORMATION
 VERS.                2.0:   CWLS LOG ASCII STANDARD - VERSION 2.0
 WRAP.                 NO:   ONE LINE PER DEPTH STEP
~WELL INFORMATION
#MNEM.UNIT      DATA TYPE    INFORMATION
#----------   ------------   ------------------------------
 STRT.F           27.0000:   START DEPTH
 STOP.F          713.0000:   STOP DEPTH
 STEP.F            0.5000:   STEP LENGTH
 NULL.          -999.2500:   NO VALUE
 COMP. FENIX & SCISSON INC:   COMPANY
 WELL.       NPR 3 #44-34:   WELL
 FLD .        TEAPOT DOME:   FIELD
 LOC .      S34 T39N R78W:   LOCATION
 CNTY.            NATRONA:   COUNTY
 STAT.            WYOMING:   STATE
 CTRY. UNITED STATES OF AMERICA:   COUNTRY
 SRVC.           BIRDWELL:   SERVICE COMPANY
 DATE.        24-AUG-1978:   LOGDATE
 API .       490251070000:   API NUMBER
~CURVE INFORMATION
#MNEM.UNIT       API CODE    CURVE DESCRIPTION
#----------   ------------   ------------------------------
 DEPT.F                  :   
 SPR .MV     05 010 01 00:   SPONTANEOUS POTENTIAL FROM RES.
 ILD .OHMM   05 120 46 00:   INDUCTION LOG DEEP
 SN  .OHMM   05 040 16 00:   SHORT NORMAL 16"
 CALD.IN     45 280 60 00:   CALIPER
 GRD .GAPI   45 310 01 00:   GAMMA RAY FROM DENSITY LOG
 DEN .G/C3   45 350 01 00:   COMPENSATED BULK DENSTIY
 DPHI.DEC    45 890 12 00:   DENSITY POROSITY SANDSTONE
 CORR.G/C3   45 356 01 00:   DENSITY CORRECTION
~PARAMETER INFORMATION
#MNEM.UNIT          VALUE    DESCRIPTION
#----------   ------------   ------------------------------
 PD  .                 GL:   PERMANENT DATUM
 EPD .F              5124:   ELEVATION PERMANENT DATUM
 LMF .                 KB:   LOG MEASURED FROM
 DAPD.F                 4:   FEET ABOVE PERMANENT DATUM
 DMF .                 KB:   DRILLING MEASURED FROM
 EKB .F              5128:   KELLING BUSHING
 EGL .F              5124:   GROUND LEVEL
 DATE.            8-24-78:   RUN DATE
 RUN .                  1:   RUN NUMBER
 DD  .F               716:   DEPTH DRILLER
 DL  .F               713:   DEPTH LOGGER
 BLI .F               707:   BOTTOM LOG INTERVAL
 TLI .F                50:   TOP LOG INTERVAL
 CS  .IN            8.625:   CASING SIZE
 CBD .F                40:   CASING BOTTOM DRILLER
 BS  .IN            7.875:   BIT SIZE
 BSD .F               716:   BIT SIZE AT DEPTH
 DFT .            MUD KCL:   DRILLING FLUID TYPE
 DFD .                8.6:   DRILLING FLUID DENSITY
 DFV .                 34:   DRILLING FLUID VISCOSITY
 DFL .                7.4:   DRILLING FLUID LOSS
 MSS .          FLOW LINE:   MUD SAMPLE SOURCE
 RMS .OHMM            .18:   RESISTIVITY MUD SAMPLE
 MST .F                76:   MUD SAMPLE TEMPERATURE
 RMF .OHMM            .16:   RESISTIVITY MUD FILTRATE SAMPLE
 MFST.F                92:   MUD FILTRATE SAMPLE TEMPERATURE
 RMC .OHMM             .3:   RESISTIVITY MUD CAKE
 MCST.F                86:   MUD CAKE SAMPLE TEMPERATURE
 MFSS.               MEAS:   MUD FILTRATE SAMPLE SOURCE
 TCS .HRS               3:   TIME CURCULATED STOPPED
 MRT .F                72:   MAXIMUM RECORDED TEMPERATURE
 LUN .               2958:   LOGGING UNIT NUMBER
 LUL .               CASP:   LOGGING UNIT LOCATION
 ENGI.           REYNOLDS:   RECORDING ENGINEER
 WITN.              AMEND:   WITNESSED BY
 CLNT.            A2DTECH:   CLIENT CODE
 ORIG.           5" PRINT:   ORIGIN OF DATA
 UWI .       490251070000:   UNIQUE WELL ID
 DICO. A2D Technologies, Inc.:   DIGITIZING COMPANY
~OTHER INFORMATION
~A   DEPT      SPR        ILD         SN       CALD         GRD       DEN       DPHI       CORR   
# ...
  229.5000   -65.1585     7.6164     7.9045     8.9066   101.3527     2.4918     0.1281     0.0061
  230.0000   -65.1099     7.6062     7.8940     8.9105   100.3524     2.4817     0.1334     0.0052
  230.5000   -64.9244     7.5960     7.8834     8.9144    97.5641     2.4726     0.1360     0.0044
  231.0000   -64.8594     7.5858     7.8728     8.9171    94.7931     2.4717     0.1356     0.0036
  231.5000   -64.8877     7.5757     7.8623     8.9097    92.0893     2.4720     0.1342     0.0045
  232.0000   -64.9184     7.5655     7.8518     8.9024    91.6894     2.4744     0.1329     0.0055
  232.5000   -64.9490     7.5555     7.8413     8.8952    94.9078     2.4760     0.1320     0.0065
  233.0000   -64.9795     7.5452     7.8308     8.8879    95.8343     2.4760     0.1324     0.0074
  233.5000   -65.0101     7.5434     7.8201     8.8806    93.7854     2.4752     0.1347     0.0084
  234.0000   -65.0391     7.5435     7.8092     8.8748    93.8005     2.4742     0.1367     0.0095
  234.5000   -65.0400     7.5435     7.7983     8.8699    94.1195     2.4739     0.1311     0.0137
  235.0000   -65.0399     7.5435     7.7874     8.8651    95.5355     2.4790     0.1264     0.0184
  235.5000   -65.0398     7.5435     7.7765     8.8602    96.4645     2.4851     0.1304     0.0230
  236.0000   -65.0398     7.5435     7.7657     8.8553    96.5947     2.4774     0.1348     0.0250
  236.5000   -65.0398     7.5435     7.7548     8.8505    96.3086     2.4731     0.1342     0.0231
  237.0000   -65.0398     7.5435     7.7440     8.8456    95.9700     2.4788     0.1289     0.0212
  237.5000   -65.0398     7.5435     7.7332     8.8408    95.7781     2.4888     0.1245     0.0193
  238.0000   -65.0398     7.5435     7.7224     8.8359    95.5780     2.4962     0.1200     0.0174
  238.5000   -65.0398     7.5435     7.7116     8.8310    96.7243     2.4953     0.1193     0.0156
  239.0000   -65.0398     7.5435     7.7009     8.8261   100.4799     2.4943     0.1207     0.0158
  239.5000   -65.0398     7.5435     7.6901     8.8213   100.9585     2.4933     0.1213     0.0161
  240.0000   -65.0398     7.5435     7.6835     8.8174    99.8462     2.4932     0.1208     0.0165
  240.5000   -65.0402     7.5434     7.7369     8.8241    99.8151     2.4936     0.1222     0.0168
  241.0000   -65.0393     7.5433     7.7779     8.8317    99.8187     2.4939     0.1234     0.0172
  241.5000   -65.0430     7.5438     7.8190     8.8392    99.8219     2.4946     0.1225     0.0174
  242.0000   -64.7385     7.5411     7.8604     8.8468    99.8562     2.4955     0.1208     0.0164
  242.5000   -64.2719     7.6857     7.9062     8.8543    98.4513     2.4942     0.1250     0.0153
  243.0000   -64.1354     7.7837     7.9817     8.8618    97.3899     2.4804     0.1324     0.0143
  243.5000   -64.1616     7.8393     8.0475     8.8693    98.1674     2.4778     0.1304     0.0132
  244.0000   -63.9246     7.8642     8.0714     8.8769   102.0366     2.4858     0.1266     0.0122
  244.5000   -63.9568     7.8892     8.0954     8.8844   106.4812     2.4903     0.1234     0.0111
  245.0000   -64.1268     7.9465     8.1271     8.8919   105.1403     2.4934     0.1222     0.0101
  245.5000   -64.3001     8.0188     8.2177     8.8995   103.4831     2.4950     0.1209     0.0094
  246.0000   -64.4242     8.0917     8.3093     8.9070   103.1333     2.4966     0.1192     0.0111
  246.5000   -64.2800     8.1653     8.4020     8.9145   102.8759     2.4981     0.1183     0.0129
  247.0000   -64.1424     8.2124     8.4957     8.9158   101.7128     2.4962     0.1202     0.0148
  247.5000   -64.0847     8.2453     8.5904     8.9125   100.8523     2.4941     0.1221     0.0158
  248.0000   -64.2685     8.2749     8.6687     8.9090   102.3159     2.4942     0.1220     0.0166
  248.5000   -64.4326     8.3360     8.7131     8.9056   103.0138     2.4948     0.1202     0.0174
  249.0000   -64.2752     8.3971     8.7573     8.9021   103.0513     2.4964     0.1183     0.0182
  249.5000   -64.0985     8.4586     8.8020     8.8987   104.0272     2.4988     0.1172     0.0190
  250.0000   -64.0566     8.5204     8.8468     8.8952   106.4696     2.5013     0.1166     0.0197
  250.5000   -64.0735     8.5757     8.8949     8.8918   106.8072     2.5037     0.1160     0.0205
  251.0000   -64.0919     8.5527     8.8719     8.8883   103.0096     2.5061     0.1142     0.0214
  251.5000   -64.1100     8.5291     8.8472     8.8849   103.1059     2.5086     0.1124     0.0200
  252.0000   -64.1280     8.4969     8.8138     8.8814   105.8756     2.5134     0.1062     0.0180
  252.5000   -64.1460     8.5613     8.8583     8.8780   109.1378     2.5215     0.1020     0.0160
  253.0000   -64.1640     8.6630     8.9889     8.8745   109.8362     2.5239     0.0996     0.0140
  253.5000   -64.1820     8.7660     9.1893     8.8711   108.0133     2.5233     0.1074     0.0133
  254.0000   -64.2000     8.8701     9.3941     8.8677   107.8273     2.5165     0.1124     0.0130
  254.5000   -64.2180     8.9591     9.5568     8.8642   108.7529     2.5067     0.1173     0.0127
  255.0000   -64.2362     9.0445     9.6867     8.8607   109.5335     2.5001     0.1220     0.0124
  255.5000   -64.2429     9.1301     9.8374     8.8587   106.7445     2.4974     0.1216     0.0121
  256.0000   -64.2431     9.1856     9.8269     8.8685   103.4450     2.4952     0.1216     0.0117
  256.5000   -64.2430     9.2356     9.8149     8.8783   102.1994     2.4975     0.1188     0.0117
  257.0000   -64.2430     9.2861     9.8025     8.8881   103.0319     2.5006     0.1149     0.0136
  257.5000   -64.2430     9.3368     9.7903     8.8978   103.8513     2.5050     0.1111     0.0154
  258.0000   -64.2430     9.3972     9.7782     8.9077   101.8903     2.5093     0.1099     0.0172
  258.5000   -64.2430     9.2769     9.7662     8.9174    99.0241     2.5110     0.1104     0.0172
  259.0000   -64.2430     9.2094     9.7539     8.9136    98.3389     2.5098     0.1154     0.0170
  259.5000   -64.2431     9.1830     9.7266     8.9090    98.1957     2.5027     0.1217     0.0167
  260.0000   -64.2437     9.1568     9.6562     8.9045    97.5687     2.4943     0.1228     0.0164
  260.5000   -64.2099     9.1307     9.5863     8.9000    96.8046     2.4934     0.1235     0.0161
  261.0000   -64.1635     9.1045     9.5168     8.8955    96.7719     2.4923     0.1255     0.0159
  261.5000   -64.1168     9.0785     9.4479     8.8909    98.8998     2.4871     0.1290     0.0155
  262.0000   -64.0699     9.0415     9.3795     8.8864    99.8885     2.4822     0.1309     0.0173
  262.5000   -64.0225     8.9733     9.3116     8.8817    94.2442     2.4820     0.1300     0.0198
  263.0000   -63.9734     8.9059     9.2441     8.8788    90.6260     2.4841     0.1276     0.0217
  263.5000   -63.9241     8.8387     9.1772     8.8968    95.4400     2.4863     0.1247     0.0222
  264.0000   -63.8773     8.7719     9.1107     8.8938   100.4453     2.4892     0.1244     0.0226
  264.5000   -63.9341     8.7336     9.0593     8.8891   101.5475     2.4985     0.1148     0.0231
  265.0000   -64.1939     8.7334     9.0593     8.8845   103.0288     2.5017     0.1184     0.0232
  265.5000   -64.4493     8.7335     9.0593     8.8800   105.3706     2.4969     0.1212     0.0224
  266.0000   -64.6456     8.7337     9.0593     8.8822   105.7560     2.4963     0.1200     0.0216
  266.5000   -64.6417     8.7337     9.0593     8.8913   105.7916     2.4983     0.1185     0.0208
  267.0000   -64.7729     8.7347     9.0467     8.9003   103.1552     2.5002     0.1176     0.0200
  267.5000   -65.0278     8.6641     8.9753     8.9094   103.1422     2.5020     0.1176     0.0192
  268.0000   -65.1190     8.6056     8.9049     8.9178   104.3328     2.5010     0.1188     0.0183
  268.5000   -65.2159     8.5714     8.8351     8.9167    99.8605     2.4977     0.1200     0.0175
  269.0000   -65.4618     8.5581     8.8092     8.9154    94.8105     2.4975     0.1200     0.0183
  269.5000   -65.7365     8.5449     8.7941     8.9141    94.6442     2.4979     0.1212     0.0192
