~VERSION INFORMATION
 VERS.                2.0:   CWLS LOG ASCII STANDARD - VERSION 2.0
 WRAP.                 NO:   ONE LINE PER DEPTH STEP
~WELL INFORMATION
#MNEM.UNIT      DATA TYPE    INFORMATION
#----------   ------------   ------------------------------
 STRT.F           30.0000:   START DEPTH
 STOP.F          510.0000:   STOP DEPTH
 STEP.F            0.5000:   STEP LENGTH
 NULL.          -999.2500:   NO VALUE
 COMP. FENIX & SCISSON INC:   COMPANY
 WELL.    66-SX 3FP #54-3:   WELL
 FLD .             TEAPOT:   FIELD
 LOC .       S3 T38N R78W:   LOCATION
 CNTY.            NATRONA:   COUNTY
 STAT.            WYOMING:   STATE
 CTRY. UNITED STATES OF AMERICA:   COUNTRY
 SRVC.              Welex:   SERVICE COMPANY
 DATE.        25-JUN-1980:   LOGDATE
 API .       490251081400:   API NUMBER
~CURVE INFORMATION
#MNEM.UNIT       API CODE    CURVE DESCRIPTION
#----------   ------------   ------------------------------
 DEPT.F                  :   
 SGRD.OHMM   07 220 05 00:   SHALLOW GUARD RESISTIVITY
 ILD .OHMM   07 120 46 00:   INDUCTION LOG DEEP RESISTIVITY
 ILM .OHMM   07 120 44 00:   INDUCTION LOG MEDIUM
 CALD.IN     45 280 60 00:   CALIPER
 GRD .GAPI   45 310 01 00:   GAMMA RAY FROM DENSITY LOG
 CORR.G/C3   45 356 01 00:   DENSITY CORRECTION
 NPHI.DEC    42 890 03 00:   NEUTRON POROSITY SANDSTONE
 DPHI.DEC    45 890 12 00:   DENSITY POROSITY SANDSTONE
 SPR .MV     07 010 01 00:   SPONTANEOUS POTENTIAL
 RHOB.G/C3   45 350 01 00:   BULK DENSITY
~PARAMETER INFORMATION
#MNEM.UNIT          VALUE    DESCRIPTION
#----------   ------------   ------------------------------
 PD  .                 GL:   PERMANENT DATUM
 EPD .F              5158:   ELEVATION PERMANENT DATUM
 LMF .                 KB:   LOG MEASURED FROM
 DAPD.F                 5:   FEET ABOVE PERMANENT DATUM
 DMF .                 KB:   DRILLING MEASURED FROM
 EKB .F              5163:   KELLING BUSHING
 EGL .F              5158:   GROUND LEVEL
 DATE.            6-25-80:   RUN DATE
 RUN .                  1:   RUN NUMBER
 DD  .F               516:   DEPTH DRILLER
 DL  .F               512:   DEPTH LOGGER
 BLI .F               510:   BOTTOM LOG INTERVAL
 TLI .F                30:   TOP LOG INTERVAL
 BS  .IN            9.875:   BIT SIZE
 BSD .F               516:   BIT SIZE AT DEPTH
 DFT .            KCL MUD:   DRILLING FLUID TYPE
 DFD .                9.2:   DRILLING FLUID DENSITY
 DFV .                 52:   DRILLING FLUID VISCOSITY
 DFPH.                 12:   DRILLING FLUID PH
 DFL .                  6:   DRILLING FLUID LOSS
 MSS .           FLOWLINE:   MUD SAMPLE SOURCE
 RMB .OHMM            .35:   RESISTIVITY MUD AT BHT
 BHT .F                75:   BOTTOM HOLE TEMPERATURE
 TCS .HRS               1:   TIME CURCULATED STOPPED
 MRT .F                75:   MAXIMUM RECORDED TEMPERATURE
 LUN .               1892:   LOGGING UNIT NUMBER
 LUL .             CASPER:   LOGGING UNIT LOCATION
 ENGI.            TOTHILL:   RECORDING ENGINEER
 WITN.              AMEND:   WITNESSED BY
 CLNT.            A2DTECH:   CLIENT CODE
 ORIG.           5" PRINT:   ORIGIN OF DATA
 UWI .       490251081400:   UNIQUE WELL ID
 DICO. A2D Technologies, Inc.:   DIGITIZING COMPANY
~OTHER INFORMATION
~A   DEPT       SGRD        ILD        ILM     CALD        GRD       CORR       NPHI       DPHI        SPR       RHOB   
# ...
   97.0000     6.4530     5.1076     5.3442    10.1777   105.2295     0.0370     0.2916     0.1118   -56.6793     2.4994
   97.5000     6.5250     5.1547     5.4028    10.1827   105.4774     0.0305     0.2919     0.1114   -56.6797     2.4961
   98.0000     6.5978     5.2504     5.4671    10.1876   103.9503     0.0345     0.2926     0.1072   -56.6801     2.5005
   98.5000     6.6714     5.3478     5.5321    10.1926   102.3816     0.0430     0.2950     0.1031   -56.6798     2.5076
   99.0000     6.7459     5.4211     5.5979    10.1975   102.4383     0.0516     0.2976     0.1014   -56.6758     2.5146
   99.5000     6.8211     5.5052     5.6645    10.2024   103.8747     0.0589     0.3000     0.1082   -56.4599     2.5077
  100.0000     6.8976     5.5915     5.7319    10.2074   106.7898     0.0454     0.3044     0.1198   -56.0095     2.4885
  100.5000     6.9808     5.6538     5.8001    10.2123   107.5612     0.0299     0.3018     0.1237   -55.5605     2.4714
  101.0000     7.0345     5.6875     5.8692    10.2172   107.8088     0.0249     0.3004     0.1248   -55.1115     2.4698
  101.5000     7.0928     5.7202     5.9195    10.2225   108.0551     0.0276     0.2969     0.1254   -54.7407     2.4777
  102.0000     7.1519     5.7559     5.9199    10.2294   108.5530     0.0384     0.2933     0.1172   -55.0745     2.4871
  102.5000     7.2115     5.7069     5.8651    10.2362   109.0987     0.0503     0.2884     0.1092   -55.3890     2.4966
  103.0000     7.2716     5.6544     5.8268    10.2430   109.6352     0.0624     0.2924     0.1045   -55.6508     2.5058
  103.5000     7.3322     5.6023     5.7884    10.2499   110.1727     0.0735     0.2974     0.1109   -55.9122     2.5097
  104.0000     7.3933     5.5507     5.7503    10.2567   110.7102     0.0607     0.3015     0.1176   -56.1431     2.4912
  104.5000     7.4697     5.4997     5.7032    10.2635   111.2477     0.0501     0.3022     0.1170   -56.2970     2.4849
  105.0000     7.6311     5.4490     5.7214    10.2703   111.7849     0.0531     0.3022     0.1138   -56.4533     2.4892
  105.5000     7.7948     5.3986     5.7455    10.2774   112.3435     0.0588     0.3022     0.1143   -56.6080     2.4940
  106.0000     7.8841     5.3478     5.7696    10.2787   112.4803     0.0642     0.3018     0.1172   -56.9503     2.4970
  106.5000     7.9134     5.3478     5.7940    10.2711   112.2349     0.0643     0.3018     0.1158   -57.4435     2.4955
  107.0000     7.9427     5.3478     5.8184    10.2630   111.4565     0.0624     0.3017     0.1188   -57.8734     2.4917
  107.5000     7.9718     5.3478     5.8429    10.2550   110.4445     0.0584     0.3015     0.1217   -57.8476     2.4836
  108.0000     8.0020     5.3919     5.8675    10.2470   109.3922     0.0545     0.3026     0.1246   -57.1825     2.4769
  108.5000     8.1129     5.4672     5.8922    10.2390   106.9672     0.0584     0.3014     0.1202   -56.8850     2.4784
  109.0000     8.2839     5.5481     5.9170    10.2310   104.3968     0.0689     0.2997     0.1083   -56.8868     2.4942
  109.5000     8.4577     5.6317     5.9419    10.2230   102.2982     0.0759     0.2982     0.0973   -56.4594     2.5115
  110.0000     8.6351     5.7369     5.9670    10.2150   102.8489     0.0857     0.2945     0.0926   -55.8182     2.5287
  110.5000     8.8162     5.8439     6.0089    10.2071   104.0163     0.0959     0.2910     0.0902   -55.1393     2.5432
  111.0000     9.0011     5.9532     6.0696    10.2024   104.3093     0.0981     0.2882     0.0927   -54.6830     2.5397
  111.5000     9.1899     6.0637     6.1309    10.2041   102.9435     0.0875     0.2814     0.0962   -54.6184     2.5315
  112.0000     9.3827     6.1776     6.1929    10.2056   101.7791     0.0768     0.2750     0.0979   -54.5454     2.5234
  112.5000     9.5799     6.2927     6.2554    10.2072   103.0127     0.0764     0.2730     0.0994   -54.5841     2.5150
  113.0000     9.7793     6.4101     6.3186    10.2087   104.2880     0.0830     0.2686     0.0989   -54.6842     2.5128
  113.5000    10.0084     6.5298     6.3825    10.2103   105.4879     0.0758     0.2674     0.0969   -55.1561     2.5182
  114.0000    10.2335     6.6517     6.4469    10.2119   104.7101     0.0783     0.2639     0.0906   -55.7307     2.5265
  114.5000    10.4622     6.7758     6.5125    10.2134   103.8298     0.1026     0.2618     0.0938   -55.8415     2.5266
  115.0000    10.5503     6.9023     6.5671    10.2150   102.9610     0.0877     0.2593     0.0983   -55.5806     2.5219
  115.5000    10.8312     7.0311     6.6464    10.2166   102.0917     0.0729     0.2560     0.0998   -55.3191     2.5210
  116.0000    11.0940     7.1624     6.7252    10.2181   101.4013     0.0661     0.2547     0.0993   -55.0618     2.5227
  116.5000    11.3632     7.2961     6.8052    10.2197   100.8359     0.0754     0.2539     0.0974   -54.9865     2.5178
  117.0000    11.6389     7.4443     6.8861    10.2214   100.2537     0.0690     0.2510     0.1034   -55.1685     2.5128
  117.5000    11.9213     7.4721     6.9681    10.2112    98.9286     0.0586     0.2470     0.1034   -55.3480     2.5078
  118.0000    12.1189     7.5001     7.0510    10.1997    96.7397     0.0483     0.2498     0.1053   -55.5304     2.5028
  118.5000    11.8910     7.5721     7.1349    10.1881    94.5743     0.0421     0.2488     0.1110   -55.6773     2.4999
  119.0000    11.7205     7.6849     7.2429    10.1765    93.2548     0.0485     0.2521     0.1074   -55.2864     2.4999
  119.5000    11.5657     7.7995     7.2124    10.1650    93.4919     0.0548     0.2579     0.1030   -54.9192     2.5032
  120.0000    11.4990     7.9157     7.1708    10.1634    95.7323     0.0666     0.2638     0.0998   -54.9089     2.5111
  120.5000    11.4327     8.0337     7.1295    10.1635    97.3388     0.0784     0.2609     0.1010   -54.8366     2.5188
  121.0000    11.3669     8.0875     7.0884    10.1672    97.4807     0.0789     0.2571     0.1022   -54.4969     2.5157
  121.5000    11.3014     8.0580     7.0459    10.1778    97.4788     0.0726     0.2537     0.1029   -54.1676     2.5104
  122.0000    11.2000     8.0361     6.9326    10.1883    97.8056     0.0667     0.2544     0.1036   -53.8387     2.5070
  122.5000    11.0364     8.0142     6.7863    10.1993    98.2522     0.0771     0.2574     0.1007   -53.5088     2.5107
  123.0000    10.8752     7.9924     6.6189    10.2019    98.2557     0.0886     0.2604     0.0962   -53.1815     2.5180
  123.5000    10.7164     7.9707     6.3433    10.2019    98.2493     0.1001     0.2630     0.0946   -53.1417     2.5251
  124.0000    10.5581     7.9491     6.0812    10.2014    98.8577     0.1093     0.2634     0.0981   -53.1435     2.5214
  124.5000    10.5478     7.8921     5.9679    10.2057    99.8593     0.0983     0.2614     0.1022   -53.2121     2.5076
  125.0000    10.5374     7.7720     5.9681    10.2510    99.8972     0.1061     0.2608     0.0977   -53.4979     2.5142
  125.5000    10.5271     7.6529     6.4395    10.2592    98.8279     0.1231     0.2612     0.0969   -53.7726     2.5293
  126.0000    10.5167     7.5358     6.7915    10.2262    97.6920     0.1367     0.2636     0.1022   -54.0598     2.5172
  126.5000    10.5064     7.4366     6.7915    10.1903    96.5662     0.0964     0.2660     0.1152   -54.0072     2.4971
  127.0000    10.4961     7.3963     6.8542    10.1629    95.4383     0.0864     0.2651     0.1198   -53.8491     2.4786
  127.5000    10.4857     7.3562     6.8542    10.1634    94.3114     0.0783     0.2624     0.1213   -53.8485     2.4797
  128.0000    10.4757     7.3167     6.8542    10.1634    93.1946     0.0702     0.2598     0.1205   -54.2384     2.4874
  128.5000    10.4614     7.2470     6.9209    10.1635    92.4930     0.0641     0.2621     0.1170   -54.6224     2.4799
  129.0000    10.4640     7.1765     7.0013    10.1635    92.4170     0.0696     0.2652     0.1155   -55.0165     2.4847
  129.5000    10.2148     7.1424     7.0827    10.1635    91.9854     0.0772     0.2683     0.1142   -55.4776     2.4955
  130.0000    10.0475     7.1100     7.1766    10.1634    91.5483     0.0809     0.2721     0.1148   -55.4055     2.4997
