~VERSION INFORMATION
 VERS.                2.0:   CWLS LOG ASCII STANDARD - VERSION 2.0
 WRAP.                 NO:   ONE LINE PER DEPTH STEP
~WELL INFORMATION
#MNEM.UNIT      DATA TYPE    INFORMATION
#----------   ------------   ------------------------------
 STRT.F            4.0000:   START DEPTH
 STOP.F          473.0000:   STOP DEPTH
 STEP.F            0.5000:   STEP LENGTH
 NULL.          -999.2500:   NO VALUE
 COMP.       F D SERV INC:   COMPANY
 WELL.  64-5 SX-10 #64-10:   WELL
 FLD .             TEAPOT:   FIELD
 LOC .      S10 T38N R78W:   LOCATION
 CNTY.            NATRONA:   COUNTY
 STAT.            WYOMING:   STATE
 CTRY. UNITED STATES OF AMERICA:   COUNTRY
 SRVC.     Atlas Wireline:   SERVICE COMPANY
 DATE.        11-APR-1992:   LOGDATE
 API .       490252252800:   API NUMBER
~CURVE INFORMATION
#MNEM.UNIT       API CODE    CURVE DESCRIPTION
#----------   ------------   ------------------------------
 DEPT.F                  :   
 GRR .GAPI   07 310 01 00:   GAMMA RAY
 SPR .MV     07 010 01 00:   SPONTANEOUS POTENTIAL
 RILD.OHMM   07 120 46 00:   INDUCTION LOG DEEP RESISTIVITY
 RILM.OHMM   07 120 44 00:   INDUCTION LOG MEDIUM RESISTIVITY
 RFOC.OHMM   07 220 04 00:   RESISTIVITY FOCUSED LOG
~PARAMETER INFORMATION
#MNEM.UNIT          VALUE    DESCRIPTION
#----------   ------------   ------------------------------
 PD  .                 GL:   PERMANENT DATUM
 EPD .F              5189:   ELEVATION PERMANENT DATUM
 LMF .                 KB:   LOG MEASURED FROM
 DAPD.F                10:   FEET ABOVE PERMANENT DATUM
 DMF .                 KB:   DRILLING MEASURED FROM
 EKB .F              5199:   KELLING BUSHING
 EDF .F              5198:   DRILLING FLOOR
 EGL .F              5189:   GROUND LEVEL
 DATE.        11-APR-1992:   RUN DATE
 RUN .                  1:   RUN NUMBER
 DD  .F               475:   DEPTH DRILLER
 DL  .F               475:   DEPTH LOGGER
 BLI .F               473:   BOTTOM LOG INTERVAL
 CS  .IN            8.625:   CASING SIZE
 CBD .F               130:   CASING BOTTOM DRILLER
 CBL .F               140:   CASING BOTTOM LOGGER
 BS  .IN            7.875:   BIT SIZE
 BSD .F               475:   BIT SIZE AT DEPTH
 DFT .          CHEM. GEL:   DRILLING FLUID TYPE
 DFD .               13.8:   DRILLING FLUID DENSITY
 DFV .                 62:   DRILLING FLUID VISCOSITY
 DFPH.                  9:   DRILLING FLUID PH
 DFL .                6.8:   DRILLING FLUID LOSS
 MSS .            MUDTANK:   MUD SAMPLE SOURCE
 RMS .OHMM           1.85:   RESISTIVITY MUD SAMPLE
 MST .F                72:   MUD SAMPLE TEMPERATURE
 RMF .OHMM           0.96:   RESISTIVITY MUD FILTRATE SAMPLE
 MFST.F                72:   MUD FILTRATE SAMPLE TEMPERATURE
 RMC .OHMM           3.17:   RESISTIVITY MUD CAKE
 MCST.F                72:   MUD CAKE SAMPLE TEMPERATURE
 MFSS.               MEAS:   MUD FILTRATE SAMPLE SOURCE
 MCSS.               MEAS:   MUD CAKE SAMPLE SOURCE
 RMB .OHMM           1.28:   RESISTIVITY MUD AT BHT
 BHT .F               104:   BOTTOM HOLE TEMPERATURE
 TCS .HRS               2:   TIME CURCULATED STOPPED
 MRT .F               104:   MAXIMUM RECORDED TEMPERATURE
 LUN .            HL-6274:   LOGGING UNIT NUMBER
 LUL .             CASPER:   LOGGING UNIT LOCATION
 ENGI.             RAUTIO:   RECORDING ENGINEER
 WITN.        GARY STRONG:   WITNESSED BY
 CLNT.            A2DTECH:   CLIENT CODE
 ORIG.           5" PRINT:   ORIGIN OF DATA
 UWI .       490252252800:   UNIQUE WELL ID
 DICO. A2D Technologies, Inc.:   DIGITIZING COMPANY
~OTHER INFORMATION
~A    DEPT     GRR        SPR       RILD       RILM       RFOC   
# ...
  370.0000    70.9091   -37.7204    13.6066    12.6321    12.2718
  370.5000    71.2121   -37.4200    13.6998    12.6343    12.2718
  371.0000    72.7273   -37.1215    13.7923    12.6360    12.3577
  371.5000    73.3333   -36.8220    13.7893    12.6378    12.3577
  372.0000    71.5152   -36.8276    13.7865    12.6395    12.4443
  372.5000    70.6061   -37.1360    13.6878    12.4287    12.4443
  373.0000    70.9091   -37.1405    13.6691    12.4593    12.4443
  373.5000    71.2121   -37.2970    13.4919    12.4922    12.3577
  374.0000    71.8182   -37.3014    13.3022    12.2336    12.2718
  374.5000    74.5455   -37.0020    13.2070    11.9804    12.0176
  375.0000    76.3636   -36.5494    13.2043    11.8145    11.6868
  375.5000    75.7576   -36.0991    13.2016    11.8145    11.6056
  376.0000    76.4848   -36.1035    13.1071    11.8145    11.5249
  376.5000    78.4848   -36.2600    13.0133    11.8145    11.6056
  377.0000    79.6970   -36.4165    12.9202    11.8145    11.6868
  377.5000    79.6970   -36.8820    12.9175    11.8145    11.6056
  378.0000    76.9697   -37.1854    12.8251    11.8145    11.4447
  378.5000    74.5455   -37.1900    12.9122    11.8145    11.3652
  379.0000    74.5455   -36.7394    12.8197    11.6509    11.3652
  379.5000    74.8485   -36.4400    12.7274    11.4896    11.3652
  380.0000    74.8485   -35.9885    12.6363    11.4097    11.3652
  380.5000    72.4242   -35.8399    12.6337    11.4896    11.4447
  381.0000    71.2121   -35.6924    12.5433    11.5010    11.4447
  381.5000    70.9091   -35.6980    12.5408    11.5701    11.4447
  382.0000    71.2121   -35.7025    12.6266    11.6509    11.5249
  382.5000    74.2424   -36.0109    12.6234    11.6226    11.6056
  383.0000    75.1515   -35.7114    12.6208    11.5371    11.6056
  383.5000    75.2727   -35.4119    12.5884    11.4523    11.6056
  384.0000    79.0909   -35.1125    12.6127    11.4475    11.6056
  384.5000    82.4242   -35.2690    12.6479    11.4428    11.6056
  385.0000    82.1212   -35.2736    12.6764    11.4380    11.6056
  385.5000    77.2727   -35.7349    12.5139    11.4333    11.3652
  386.0000    73.9394   -35.7390    12.4144    11.4285    11.2861
  386.5000    75.1515   -35.4396    12.1442    11.4238    11.2077
  387.0000    77.2727   -35.1390    11.8175    11.3397    11.0523
  387.5000    76.3636   -34.9924    11.6604    11.2563    10.9755
  388.0000    75.1515   -34.9971    11.6604    11.0960    10.8881
  388.5000    76.3636   -35.0015    11.6604    10.9379    10.7481
  389.0000    77.2727   -35.0060    11.7419    10.8574    10.6734
  389.5000    76.9697   -34.8585    11.6604    10.7776    10.5255
  390.0000    76.3636   -34.8641    11.5747    10.6983    10.3796
  390.5000    76.7070   -34.8686    11.4149    10.6196    10.1646
  391.0000    79.8181   -34.8731    11.3402    10.4683    10.0939
  391.5000    81.8182   -34.5736    11.1834    10.3192     9.8848
  392.0000    78.7879   -34.5781    10.9486    10.1721     9.8161
  392.5000    77.2727   -34.4295    10.7225    10.1679     9.6801
  393.0000    79.6970   -34.2820    10.5745     9.9535     9.6128
  393.5000    84.2424   -33.9825    10.3561     9.8116     9.6801
  394.0000    85.7576   -33.9881    10.0719     9.5310     9.6128
  394.5000    84.2424   -34.1445     9.7254     9.1437     9.3482
  395.0000    82.1212   -33.3891     9.0680     8.9446     9.1524
  395.5000    81.2121   -32.6327     8.2281     8.2757     9.0277
  396.0000    83.6364   -32.1823     7.5655     6.8628     8.8407
  396.5000    88.1818   -32.0348     6.4460     5.6052     8.5973
  397.0000    91.5152   -32.0404     5.6516     4.9985     8.1306
  397.5000    95.1515   -31.5889     5.4977     4.7709     6.4134
  398.0000    98.1818   -31.4403     5.4596     4.7690     5.0589
  398.5000   100.3030   -31.9018     5.4599     5.0052     4.6852
  399.0000    98.7879   -32.5142     5.6539     5.2899     5.6565
  399.5000    95.1515   -32.6707     6.3197     6.2067     7.8098
  400.0000    92.1212   -32.6562     7.0636     6.9357     9.7579
  400.5000    87.0702   -32.5299     7.8411     7.6431    10.2420
  401.0000    80.8895   -32.3839     8.4652     8.1343    10.0968
  401.5000    80.5775   -32.2380     9.1389     8.5970     9.6800
  402.0000    80.8715   -32.0906     9.8662     9.4081     9.4107
  402.5000    81.4685   -32.2501    10.2157     9.8056     9.2773
  403.0000    80.8534   -32.8641    10.4313    10.1490     9.2741
  403.5000    79.0262   -33.1726    10.5776    10.4314     9.4667
  404.0000    78.7164   -33.1801    10.6515    10.6473     9.7308
  404.5000    81.1294   -33.0327    10.8008    10.7184     9.9329
  405.0000    84.1507   -33.3442    10.9522    10.8643    10.2100
  405.5000    85.9598   -33.3503    11.2615    11.0110    10.4949
  406.0000    87.1652   -33.3563    11.5795    11.2401    10.7877
  406.5000    87.4592   -33.8183    11.9065    11.2343    11.1663
  407.0000    85.9328   -33.9763    12.1740    11.4668    11.3991
  407.5000    84.7116   -33.9824    12.3407    11.7859    11.6359
  408.0000    83.1875   -33.2286    12.5096    11.9476    11.7950
  408.5000    81.9663   -32.6252    12.5928    12.1948    11.9553
  409.0000    81.9573   -32.6328    12.6765    12.3595    12.1189
  409.5000    82.2513   -32.7908    12.7649    12.5278    12.0306
  410.0000    81.9392   -32.7969    12.9414    12.6983    11.9429
  410.5000    81.0101   -32.8029    13.2043    12.8711    12.0222
  411.0000    82.2242   -32.6555    13.2921    12.9559    12.2719
  411.5000    82.5182   -32.6630    13.3921    13.0410    12.3544
  412.0000    80.6265   -32.6691    13.5636    13.0354    12.1782
  412.5000    78.2323   -32.6752    13.5587    13.0300    11.9222
  413.0000    77.9454   -32.6812    13.5540    12.9342    12.0013
  413.5000    77.9364   -32.3818    13.5483    12.9288    12.2506
  414.0000    77.8747   -32.9973    13.5436    12.9234    12.4181
  414.5000    76.7065   -33.1553    13.5389    13.0084    12.5880
  415.0000    78.2104   -33.3133    13.5342    12.9999    12.5836
  415.5000    78.8097   -33.3194    13.5295    12.8176    12.3191
  416.0000    79.1037   -33.3455    13.5249    12.6280    12.0601
  416.5000    78.7894   -33.3313    13.5202    12.3685    11.8065
  417.0000    78.1743   -33.1856    13.5155    12.4608    11.7205
  417.5000    76.9532   -32.7357    13.5108    12.8992    11.7993
  418.0000    76.0350   -32.2858    13.5061    13.1683    11.9597
  418.5000    75.4200   -31.9879    13.5014    13.3316    12.2091
  419.0000    76.6231   -31.8419    13.4967    12.9585    12.2038
  419.5000    77.8261   -31.8480    13.4921    12.5096    12.0308
  420.0000    77.8171   -31.7021    13.3937    12.2458    11.9431
  420.5000    77.8081   -31.4017    13.3890    11.9875    11.8561
  421.0000    77.1930   -30.7974    13.1990    11.8167    11.7696
  421.5000    76.8810   -30.0410    12.9213    11.6484    11.6839
  422.0000    77.4780   -29.7507    12.7380    11.3235    11.5987
  422.5000    80.4993   -29.9088    12.4700    11.0847    11.5947
  423.0000    82.9145   -30.0669    12.1228    11.0032    11.3509
  423.5000    84.1176   -30.2249    11.8678    10.8464    11.1123
  424.0000    85.0177   -30.2310    11.7812    10.6176    10.9547
  424.5000    85.3139   -30.2143    11.6140    10.5395    10.8749
  425.0000    85.3027   -30.0909    11.4492    10.4620    10.7207
  425.5000    84.9906   -30.0973    11.3657    10.4577    10.6425
  426.0000    86.1937   -30.1046    11.2045    10.4533    10.5650
  426.5000    86.7909   -30.4146    11.0455    10.4490    10.4880
  427.0000    86.1757   -30.5726    10.8888    10.3001    10.4115
  427.5000    85.2575   -30.2747    10.8093     9.9434    10.3357
  428.0000    84.6384   -29.9753    10.7305     9.7336    10.3321
  428.5000    84.0273   -30.1348    10.5783     9.6621    10.3285
  429.0000    84.3656   -29.9874    10.5011     9.7256    10.2532
  429.5000    86.1305   -29.8415    10.2802     9.7905    10.1785
  430.0000    85.7778   -29.6955    10.2052     9.8549    10.1043
  430.5000    84.2939   -30.0071    10.1305     9.7816    10.0307
