~VERSION INFORMATION
 VERS.                2.0:   CWLS LOG ASCII STANDARD - VERSION 2.0
 WRAP.                 NO:   ONE LINE PER DEPTH STEP
~WELL INFORMATION
#MNEM.UNIT      DATA TYPE    INFORMATION
#----------   ------------   ------------------------------
 STRT.F           33.5000:   START DEPTH
 STOP.F          680.0000:   STOP DEPTH
 STEP.F            0.5000:   STEP LENGTH
 NULL.          -999.2500:   NO VALUE
 COMP. FENIX & SCISSON INC:   COMPANY
 WELL.       NPR 3 #66-34:   WELL
 FLD .             TEAPOT:   FIELD
 LOC .      S34 T39N R78W:   LOCATION
 CNTY.            NATRONA:   COUNTY
 STAT.            WYOMING:   STATE
 CTRY. UNITED STATES OF AMERICA:   COUNTRY
 SRVC.           BIRDWELL:   SERVICE COMPANY
 DATE.        12-AUG-1978:   LOGDATE
 API .       490251068400:   API NUMBER
~CURVE INFORMATION
#MNEM.UNIT       API CODE    CURVE DESCRIPTION
#----------   ------------   ------------------------------
 DEPT.F                  :   
 SPR .MV     05 010 01 00:   SPONTANEOUS POTENTIAL FROM RES.
 SN  .OHMM   05 040 16 00:   SHORT NORMAL 16"
 IL  .OHMM   05 120 00 00:   INDUCTION LOG
 CORR.G/C3   45 356 01 00:   DENSITY CORRECTION
 GRD .GAPI   45 310 01 00:   GAMMA RAY FROM DENSITY LOG
 RHOB.G/C3   45 350 01 00:   BULK DENSITY
 DPHI.DEC    45 890 12 00:   DENSITY POROSITY SANDSTONE
 CALD.IN     45 280 60 00:   CALIPER
~PARAMETER INFORMATION
#MNEM.UNIT          VALUE    DESCRIPTION
#----------   ------------   ------------------------------
 PD  .                 GL:   PERMANENT DATUM
 EPD .F              5078:   ELEVATION PERMANENT DATUM
 LMF .                 KB:   LOG MEASURED FROM
 DAPD.F                 4:   FEET ABOVE PERMANENT DATUM
 DMF .                 KB:   DRILLING MEASURED FROM
 EKB .F              5082:   KELLING BUSHING
 EGL .F              5078:   GROUND LEVEL
 DATE.            8-12-78:   RUN DATE
 RUN .                  1:   RUN NUMBER
 DD  .F               675:   DEPTH DRILLER
 DL  .F               686:   DEPTH LOGGER
 BLI .F               680:   BOTTOM LOG INTERVAL
 TLI .F                50:   TOP LOG INTERVAL
 CS  .IN            8.625:   CASING SIZE
 CBD .F                40:   CASING BOTTOM DRILLER
 BS  .IN            7.875:   BIT SIZE
 BSD .F               675:   BIT SIZE AT DEPTH
 DFT .                KCL:   DRILLING FLUID TYPE
 DFL .               10.4:   DRILLING FLUID LOSS
 MSS .          FLOW LINE:   MUD SAMPLE SOURCE
 RMS .OHMM            .18:   RESISTIVITY MUD SAMPLE
 MST .F                90:   MUD SAMPLE TEMPERATURE
 RMF .OHMM            .16:   RESISTIVITY MUD FILTRATE SAMPLE
 MFST.F                90:   MUD FILTRATE SAMPLE TEMPERATURE
 RMC .OHMM            .32:   RESISTIVITY MUD CAKE
 MCST.F                90:   MUD CAKE SAMPLE TEMPERATURE
 MFSS.               MEAS:   MUD FILTRATE SAMPLE SOURCE
 TCS .HRS               3:   TIME CURCULATED STOPPED
 LUN .               3006:   LOGGING UNIT NUMBER
 LUL .               CASP:   LOGGING UNIT LOCATION
 ENGI.             MILLER:   RECORDING ENGINEER
 WITN.           MCGINLEY:   WITNESSED BY
 CLNT.            A2DTECH:   CLIENT CODE
 ORIG.           5" PRINT:   ORIGIN OF DATA
 UWI .       490251068400:   UNIQUE WELL ID
 DICO. A2D Technologies, Inc.:   DIGITIZING COMPANY
~OTHER INFORMATION
~A   DEPT      SPR         SN         IL       CORR         GRD      RHOB       DPHI       CALD   
   33.5000  -999.2500  -999.2500  -999.2500  -999.2500    45.5000  -999.2500  -999.2500  -999.2500
   34.0000  -999.2500  -999.2500  -999.2500  -999.2500    44.8531  -999.2500  -999.2500  -999.2500
   34.5000  -999.2500  -999.2500  -999.2500  -999.2500    44.2629  -999.2500  -999.2500  -999.2500
   35.0000  -999.2500  -999.2500  -999.2500  -999.2500    43.7922  -999.2500  -999.2500  -999.2500
   35.5000  -999.2500  -999.2500  -999.2500  -999.2500    43.2184  -999.2500  -999.2500  -999.2500
   36.0000  -999.2500  -999.2500  -999.2500  -999.2500    42.8306  -999.2500  -999.2500  -999.2500
   36.5000  -999.2500  -999.2500  -999.2500  -999.2500    40.7908  -999.2500  -999.2500  -999.2500
   37.0000  -999.2500  -999.2500  -999.2500  -999.2500    40.6846  -999.2500  -999.2500  -999.2500
   37.5000  -999.2500  -999.2500  -999.2500  -999.2500    40.6971  -999.2500  -999.2500  -999.2500
   38.0000  -999.2500  -999.2500  -999.2500  -999.2500    40.6889  -999.2500  -999.2500  -999.2500
   38.5000  -999.2500  -999.2500  -999.2500  -999.2500    40.7492  -999.2500  -999.2500  -999.2500
   39.0000  -999.2500  -999.2500  -999.2500  -999.2500    42.2840  -999.2500  -999.2500  -999.2500
   39.5000  -999.2500  -999.2500  -999.2500  -999.2500    43.8832  -999.2500  -999.2500  -999.2500
   40.0000  -999.2500  -999.2500  -999.2500  -999.2500    44.4636  -999.2500  -999.2500     8.2325
   40.5000  -999.2500  -999.2500  -999.2500  -999.2500    44.7447  -999.2500  -999.2500     8.2211
   41.0000  -999.2500  -999.2500  -999.2500  -999.2500    45.1319  -999.2500  -999.2500     8.1798
   41.5000  -999.2500  -999.2500  -999.2500  -999.2500    45.4983  -999.2500  -999.2500     8.1002
   42.0000  -999.2500  -999.2500  -999.2500  -999.2500    45.3780  -999.2500  -999.2500     8.1046
   42.5000  -999.2500  -999.2500  -999.2500  -999.2500    45.2298  -999.2500  -999.2500     7.9648
   43.0000  -999.2500  -999.2500  -999.2500  -999.2500    45.1186  -999.2500  -999.2500     7.7850
   43.5000  -999.2500  -999.2500  -999.2500  -999.2500    45.5283  -999.2500  -999.2500     7.7162
   44.0000  -999.2500  -999.2500  -999.2500  -999.2500    45.6926  -999.2500  -999.2500     7.6749
   44.5000  -999.2500  -999.2500  -999.2500  -999.2500    45.9307  -999.2500  -999.2500     7.6473
   45.0000  -999.2500  -999.2500  -999.2500  -999.2500    47.1500  -999.2500  -999.2500     7.6230
   45.5000  -999.2500  -999.2500  -999.2500  -999.2500    49.4128  -999.2500  -999.2500     7.6234
   46.0000  -999.2500  -999.2500  -999.2500    -0.2667    52.1269     2.0696     0.2799     7.6251
   46.5000  -999.2500  -999.2500  -999.2500     0.0184    54.9210     2.1421     0.2519     7.6447
   47.0000  -999.2500  -999.2500  -999.2500     0.0552    58.4895     2.1600     0.2084     7.7194
   47.5000  -999.2500  -999.2500  -999.2500     0.0854    64.6713     2.2747     0.1907     7.7970
   48.0000   -56.9000  -999.2500   149.3824     0.0851    68.3754     2.3763     0.1706     7.8743
   48.5000   -56.9924     2.8286    22.8943     0.0884    70.3855     2.4027     0.1626     7.9515
   49.0000   -57.7848     2.8286     7.0209     0.0817    72.3493     2.4099     0.1626     8.0288
   49.5000   -58.4173     2.8028    13.3085     0.0546    74.5588     2.4132     0.1792     8.1060
   50.0000   -59.2114     2.7998    22.9905     0.0258    77.8655     2.3571     0.1917     8.1832
   50.5000   -60.0050     2.8024    11.0290     0.0256    80.9498     2.3536     0.1956     8.2635
   51.0000   -60.7895     2.9609     4.6045     0.0286    81.2828     2.3504     0.1993     8.2692
   51.5000   -61.3065     2.9260     2.5335     0.0301    80.5889     2.3382     0.2083     8.2537
   52.0000   -61.2991     2.8879     2.4384     0.0290    79.8081     2.3254     0.2177     8.2464
   52.5000   -61.3007     2.8505     2.3437     0.0273    79.9865     2.3119     0.2268     8.2781
   53.0000   -61.3000     2.8137     2.2527     0.0249    82.3657     2.2951     0.2367     8.3090
   53.5000   -61.2996     2.7774     2.1653     0.0185    83.2824     2.2786     0.2468     8.3391
   54.0000   -61.3026     2.7416     2.0812     0.0116    85.8049     2.2620     0.2577     8.3478
   54.5000   -61.3103     2.7063     2.0004     0.0085    86.9189     2.2454     0.2685     8.3038
   55.0000   -61.4099     2.6714     1.9591     0.0091    86.3284     2.2304     0.2776     8.2608
   55.5000   -60.5943     2.6369     1.9713     0.0129    87.0131     2.2293     0.2765     8.2173
   56.0000   -59.7870     2.5805     2.0192     0.0279    86.0577     2.2327     0.2749     8.2060
   56.5000   -58.9862     2.5805     2.1289     0.0498    79.3445     2.2938     0.2306     8.2130
   57.0000   -58.1773     2.6942     2.3611     0.0543    78.4109     2.3544     0.1969     8.2212
   57.5000   -57.9112     2.8451     2.6186     0.0183    76.6414     2.3758     0.1937     8.1930
   58.0000   -57.9448     3.0048     2.9041     0.0144    74.6949     2.3865     0.1821     8.1616
   58.5000   -57.9829     3.1734     3.2211     0.0168    75.4449     2.3850     0.1785     8.1415
   59.0000   -58.0204     3.3513     3.5735     0.0172    76.7892     2.3835     0.1778     8.1641
   59.5000   -58.0574     3.5393     3.9594     0.0142    77.3048     2.3908     0.1763     8.2229
   60.0000   -58.0945     3.7378     4.1647     0.0141    76.0373     2.4028     0.1736     8.2822
   60.5000   -58.1315     3.9489     4.0659     0.0218    74.3752     2.4148     0.1635     8.2890
   61.0000   -58.1685     4.1044     3.9842     0.0288    75.9928     2.4273     0.1511     8.2940
   61.5000   -58.2055     4.2294     3.9354     0.0299    76.8452     2.4308     0.1506     8.3195
   62.0000   -58.2425     4.3555     3.9368     0.0253    75.0951     2.4296     0.1523     8.3380
   62.5000   -58.2795     4.4858     4.1645     0.0161    73.9283     2.4284     0.1540     8.3167
   63.0000   -58.3165     4.6200     4.3120     0.0152    75.1810     2.4310     0.1521     8.3013
   63.5000   -58.3535     4.7583     4.4648     0.0171    76.0876     2.4358     0.1463     8.3244
   64.0000   -58.3906     4.9008     4.6229     0.0188    74.9461     2.4344     0.1498     8.3386
   64.5000   -58.4276     5.0140     4.7867     0.0202    73.6236     2.4302     0.1518     8.2857
   65.0000   -58.4649     5.0613     4.8720     0.0190    72.9595     2.4302     0.1505     8.2323
   65.5000   -58.5003     5.0911     4.8939     0.0169    73.6117     2.4331     0.1509     8.2197
   66.0000   -58.4678     5.0503     4.9075     0.0171    73.3254     2.4315     0.1527     8.2776
   66.5000   -58.4292     5.0207     4.8784     0.0178    76.3614     2.4293     0.1529     8.3511
   67.0000   -58.3907     4.9985     4.8626     0.0188    79.7997     2.4271     0.1527     8.4187
   67.5000   -58.3522     5.0250     4.8826     0.0200    77.7382     2.4248     0.1547     8.4410
   68.0000   -58.3139     5.0446     4.9057     0.0252    74.5986     2.4309     0.1513     8.4181
   68.5000   -58.2755     5.0222     4.8785     0.0315    76.2424     2.4394     0.1477     8.3942
   69.0000   -58.2370     5.0017     4.8369     0.0416    78.0354     2.4403     0.1455     8.3752
   69.5000   -58.1987     4.9814     4.7958     0.0548    79.5602     2.4500     0.1407     8.3559
   70.0000   -58.1603     4.9611     4.7551     0.0680    81.2101     2.4539     0.1381     8.3208
   70.5000   -58.1218     4.9391     4.7266     0.0775    79.8507     2.4509     0.1393     8.2164
   71.0000   -58.0835     4.9159     4.7165     0.0823    78.4908     2.4510     0.1376     8.1140
   71.5000   -58.0451     4.8930     4.7064     0.0819    80.2439     2.4545     0.1344     8.0111
   72.0000   -58.0066     4.8701     4.6964     0.0782    82.7445     2.4537     0.1368     7.9060
   72.5000   -57.9675     4.8626     4.6869     0.0615    84.4627     2.4492     0.1411     7.8344
   73.0000   -57.9295     4.9463     4.7153     0.0451    85.1980     2.4356     0.1530     7.7627
   73.5000   -57.9462     5.0036     4.7693     0.0296    85.7109     2.4155     0.1655     7.6897
