~VERSION INFORMATION
 VERS.                2.0:   CWLS LOG ASCII STANDARD - VERSION 2.0
 WRAP.                 NO:   ONE LINE PER DEPTH STEP
~WELL INFORMATION
#MNEM.UNIT      DATA TYPE    INFORMATION
#----------   ------------   ------------------------------
 STRT.F           16.0000:   START DEPTH
 STOP.F          484.5000:   STOP DEPTH
 STEP.F            0.5000:   STEP LENGTH
 NULL.          -999.2500:   NO VALUE
 COMP. FENIX & SCISSON INC:   COMPANY
 WELL. NPR 3 #83 SX 10-10:   WELL
 FLD .             TEAPOT:   FIELD
 LOC .      S10 T38N R78W:   LOCATION
 CNTY.            NATRONA:   COUNTY
 STAT.            WYOMING:   STATE
 CTRY. UNITED STATES OF AMERICA:   COUNTRY
 SRVC.           BIRDWELL:   SERVICE COMPANY
 DATE.        25-NOV-1978:   LOGDATE
 API .       490251075200:   API NUMBER
~CURVE INFORMATION
#MNEM.UNIT       API CODE    CURVE DESCRIPTION
#----------   ------------   ------------------------------
 DEPT.F                  :   
 SPR .MV     05 010 01 00:   SPONTANEOUS POTENTIAL FROM RES.
 SN  .OHMM   05 040 16 00:   SHORT NORMAL 16"
 IL  .OHMM   05 120 00 00:   INDUCTION LOG
 CALD.IN     45 280 60 00:   CALIPER
 GRD .GAPI   45 310 01 00:   GAMMA RAY FROM DENSITY LOG
 CORR.G/C3   45 356 01 00:   DENSITY CORRECTION
 DPHI.DEC    45 890 12 00:   DENSITY POROSITY SANDSTONE
 RHOB.G/C3   45 350 01 00:   BULK DENSITY
~PARAMETER INFORMATION
#MNEM.UNIT          VALUE    DESCRIPTION
#----------   ------------   ------------------------------
 PD  .                 GL:   PERMANENT DATUM
 EPD .F              5145:   ELEVATION PERMANENT DATUM
 LMF .                 KB:   LOG MEASURED FROM
 DAPD.F                 4:   FEET ABOVE PERMANENT DATUM
 DMF .                 KB:   DRILLING MEASURED FROM
 EKB .F              5149:   KELLING BUSHING
 EGL .F              5145:   GROUND LEVEL
 DATE.           11-25-78:   RUN DATE
 RUN .                  1:   RUN NUMBER
 DD  .F               490:   DEPTH DRILLER
 DL  .F               487:   DEPTH LOGGER
 BLI .F               481:   BOTTOM LOG INTERVAL
 TLI .F                30:   TOP LOG INTERVAL
 CS  .IN            8.625:   CASING SIZE
 CBD .F                40:   CASING BOTTOM DRILLER
 CBL .F                35:   CASING BOTTOM LOGGER
 BS  .IN            7.875:   BIT SIZE
 BSD .F               490:   BIT SIZE AT DEPTH
 DFT .             SEAMUD:   DRILLING FLUID TYPE
 DFD .                8.8:   DRILLING FLUID DENSITY
 DFV .                 38:   DRILLING FLUID VISCOSITY
 DFPH.               11.1:   DRILLING FLUID PH
 DFL .                9.6:   DRILLING FLUID LOSS
 MSS .           FLOWLINE:   MUD SAMPLE SOURCE
 RMS .OHMM            .28:   RESISTIVITY MUD SAMPLE
 MST .F                58:   MUD SAMPLE TEMPERATURE
 RMF .OHMM            .25:   RESISTIVITY MUD FILTRATE SAMPLE
 MFST.F                70:   MUD FILTRATE SAMPLE TEMPERATURE
 RMC .OHMM             .3:   RESISTIVITY MUD CAKE
 MCST.F                70:   MUD CAKE SAMPLE TEMPERATURE
 MFSS.           MEASURED:   MUD FILTRATE SAMPLE SOURCE
 MCSS.           MEASURED:   MUD CAKE SAMPLE SOURCE
 BHT .F                58:   BOTTOM HOLE TEMPERATURE
 TCS .HRS               3:   TIME CURCULATED STOPPED
 MRT .F                58:   MAXIMUM RECORDED TEMPERATURE
 LUN .               3029:   LOGGING UNIT NUMBER
 LUL .               CASP:   LOGGING UNIT LOCATION
 ENGI.           REYNOLDS:   RECORDING ENGINEER
 WITN.           DINSMORE:   WITNESSED BY
 CLNT.            A2DTECH:   CLIENT CODE
 ORIG.     1", 2.5" PRINT:   ORIGIN OF DATA
 UWI .       490251075200:   UNIQUE WELL ID
 DICO. A2D Technologies, Inc.:   DIGITIZING COMPANY
~OTHER INFORMATION
~A   DEPT      SPR         SN         IL       CALD         GRD      CORR       DPHI       RHOB   
# ...
  137.5000   -44.4160     9.2440     8.7320     7.6230   109.7250     0.0520     0.1330     2.4620
  138.0000   -44.4310     9.2980     8.7730     7.6160   109.6250     0.0520     0.1320     2.4660
  138.5000   -44.4460     9.3510     8.8140     7.6080   109.5540     0.0490     0.1350     2.4620
  139.0000   -44.4620     9.4040     8.8550     7.6010   109.4620     0.0480     0.1380     2.4570
  139.5000   -44.4770     9.4570     8.8960     7.5940   109.3830     0.0510     0.1410     2.4550
  140.0000   -44.4920     9.5110     8.9370     7.5860   109.2960     0.0600     0.1410     2.4590
  140.5000   -44.5070     9.5640     8.9780     7.5790   109.2220     0.0570     0.1410     2.4610
  141.0000   -44.5220     9.6170     9.0190     7.5720   109.1120     0.0550     0.1390     2.4590
  141.5000   -44.5370     9.6710     9.0600     7.5640   109.2250     0.0530     0.1370     2.4580
  142.0000   -44.5520     9.7240     9.1000     7.5570   109.7140     0.0580     0.1350     2.4570
  142.5000   -44.5680     9.7780     9.1410     7.5500   110.1810     0.0650     0.1330     2.4660
  143.0000   -44.5830     9.8310     9.1820     7.5420   110.6540     0.0680     0.1330     2.4680
  143.5000   -44.5980     9.8850     9.2230     7.5350   111.1380     0.0640     0.1340     2.4660
  144.0000   -44.6130     9.9680     9.2490     7.5280   111.6050     0.0680     0.1340     2.4650
  144.5000   -44.6280     9.9560     9.2280     7.5200   112.0750     0.0770     0.1340     2.4690
  145.0000   -44.6430     9.9220     9.2070     7.5130   112.4340     0.0840     0.1270     2.4760
  145.5000   -44.6580     9.8880     9.1860     7.5060   112.3320     0.0780     0.1270     2.4780
  146.0000   -44.6740     9.8540     9.1650     7.4990   111.1180     0.0740     0.1330     2.4750
  146.5000   -44.6880     9.8200     9.1440     7.4900   110.0160     0.0690     0.1290     2.4740
  147.0000   -44.7040     9.7860     9.1230     7.4960   109.0900     0.0840     0.1210     2.4830
  147.5000   -44.7180     9.7520     9.1020     7.5150   109.1690     0.0990     0.1090     2.4940
  148.0000   -44.7350     9.7190     9.0810     7.5310   109.3820     0.0990     0.1140     2.5030
  148.5000   -44.7480     9.6850     9.0610     7.5480   109.6170     0.0780     0.1220     2.4920
  149.0000   -44.7640     9.6510     9.0400     7.5650   109.8380     0.0640     0.1330     2.4710
  149.5000   -44.7910     9.6180     9.0190     7.5820   110.0640     0.0540     0.1350     2.4600
  150.0000   -44.9590     9.5840     8.9980     7.6000   110.2870     0.0490     0.1370     2.4610
  150.5000   -45.1350     9.5500     8.9760     7.6100   110.5170     0.0500     0.1420     2.4610
  151.0000   -45.3120     9.5170     8.9570     7.6080   110.7290     0.0510     0.1460     2.4500
  151.5000   -45.4880     9.4830     8.9340     7.6070   110.9870     0.0530     0.1480     2.4430
  152.0000   -45.6650     9.4490     8.9170     7.6060   111.1440     0.0640     0.1380     2.4590
  152.5000   -45.8400     9.4100     8.8430     7.6060   111.5020     0.0770     0.1290     2.4780
  153.0000   -46.0190     9.3600     8.7800     7.6050   110.5130     0.0740     0.1200     2.4900
  153.5000   -46.1910     9.3090     8.7170     7.6040   108.4260     0.0630     0.1230     2.4820
  154.0000   -46.3750     9.2590     8.6540     7.6040   107.5400     0.0530     0.1280     2.4750
  154.5000   -46.5370     9.2090     8.5910     7.6030   108.4210     0.0470     0.1340     2.4670
  155.0000   -46.7410     9.1590     8.5280     7.6020   108.0290     0.0440     0.1400     2.4590
  155.5000   -46.6280     9.1090     8.4650     7.6010   106.0670     0.0470     0.1400     2.4530
  156.0000   -46.2910     9.0840     8.3650     7.6010   104.1770     0.0480     0.1410     2.4530
  156.5000   -46.0140     8.9180     8.2280     7.6000   103.5380     0.0500     0.1390     2.4560
  157.0000   -45.7040     8.7670     8.0920     7.5990   105.8350     0.0520     0.1360     2.4600
  157.5000   -45.5610     8.6160     7.9560     7.5980   107.6430     0.0520     0.1390     2.4600
  158.0000   -45.6980     8.4650     7.8190     7.5970   109.0700     0.0520     0.1430     2.4540
  158.5000   -46.0290     8.3150     7.6830     7.5970   105.4800     0.0500     0.1470     2.4480
  159.0000   -46.3540     8.1640     7.5470     7.5960   101.7240     0.0480     0.1500     2.4430
  159.5000   -46.6870     8.0130     7.4100     7.5950    97.8230     0.0390     0.1540     2.4370
  160.0000   -47.0140     7.8620     7.2740     7.5940    95.1860     0.0310     0.1520     2.4310
  160.5000   -47.3450     7.6860     7.1380     7.5940    99.7670     0.0300     0.1490     2.4350
  161.0000   -47.6760     7.7490     7.0050     7.5930   104.2060     0.0340     0.1470     2.4380
  161.5000   -47.9710     7.8960     7.0050     7.5920   107.3170     0.0380     0.1470     2.4420
  162.0000   -47.9880     8.0430     7.1380     7.5910   109.4740     0.0440     0.1490     2.4450
  162.5000   -47.8630     8.1900     7.2480     7.5910   111.8490     0.0500     0.1500     2.4430
  163.0000   -47.6920     8.2880     7.3570     7.5900   114.2880     0.0560     0.1520     2.4390
  163.5000   -47.5300     8.3100     7.4670     7.5890   115.4130     0.0620     0.1540     2.4340
  164.0000   -47.3640     8.3330     7.5770     7.5880   112.1060     0.0680     0.1540     2.4330
  164.5000   -47.2000     8.3560     7.6860     7.5880   109.0970     0.0790     0.1450     2.4440
  165.0000   -47.0340     8.3780     7.7960     7.5870   105.6850     0.0910     0.1330     2.4530
  165.5000   -46.8710     8.4010     7.9050     7.5860   105.0060     0.1010     0.1350     2.4650
  166.0000   -46.7050     8.4340     7.9770     7.5850   104.4590     0.1090     0.1390     2.4670
  166.5000   -46.5410     8.3930     7.9140     7.5850   103.9900     0.1180     0.1410     2.4580
  167.0000   -46.3930     8.3160     7.7990     7.5840   103.4710     0.1330     0.1340     2.4650
  167.5000   -46.4060     8.2400     7.6830     7.5830   102.9050     0.1430     0.1290     2.4740
  168.0000   -46.4440     8.1640     7.5680     7.5820   102.7410     0.1380     0.1280     2.4760
  168.5000   -46.4790     8.0340     7.4520     7.5820   103.1710     0.1340     0.1310     2.4730
  169.0000   -46.5140     7.8510     7.3360     7.5810   103.5070     0.1280     0.1290     2.4770
  169.5000   -46.5500     7.6690     7.2210     7.5800   104.0480     0.1230     0.1240     2.4800
  170.0000   -46.5850     7.4860     7.1050     7.5790   105.9290     0.1100     0.1340     2.4670
  170.5000   -46.6200     7.3040     6.9900     7.5790   107.5950     0.0990     0.1480     2.4560
  171.0000   -46.6550     7.1210     6.8740     7.5780   106.6770     0.0890     0.1480     2.4440
  171.5000   -46.6910     6.8760     6.7580     7.5770   105.2590     0.0850     0.1470     2.4440
  172.0000   -46.7260     7.0780     6.6250     7.5760   106.0500     0.0880     0.1440     2.4510
  172.5000   -46.7610     7.3890     6.7170     7.5750   107.4470     0.1000     0.1360     2.4600
  173.0000   -46.7970     7.6990     6.8250     7.5750   108.5050     0.1130     0.1270     2.4740
  173.5000   -46.8320     8.0090     6.9330     7.5740   109.5200     0.1230     0.1160     2.4890
  174.0000   -46.8670     8.1260     7.0410     7.5730   103.3680     0.1230     0.1210     2.4960
  174.5000   -46.9020     8.2340     7.1490     7.5720   105.0370     0.1200     0.1260     2.4770
  175.0000   -46.9380     8.3220     7.2570     7.5720   108.0950     0.1100     0.1310     2.4650
  175.5000   -46.9730     8.4100     7.3660     7.5710   112.1750     0.0980     0.1360     2.4590
  176.0000   -47.0080     8.4980     7.4740     7.5700   109.6680     0.0880     0.1440     2.4530
  176.5000   -47.0430     8.5850     7.5820     7.5690   106.1510     0.0750     0.1400     2.4520
  177.0000   -47.0790     8.6730     7.6900     7.5690   106.3430     0.0780     0.1330     2.4610
  177.5000   -47.1140     8.7610     7.7980     7.5720   106.7290     0.0890     0.1260     2.4750
