~VERSION INFORMATION
 VERS.                2.0:   CWLS LOG ASCII STANDARD - VERSION 2.0
 WRAP.                 NO:   ONE LINE PER DEPTH STEP
~WELL INFORMATION
#MNEM.UNIT      DATA TYPE    INFORMATION
#----------   ------------   ------------------------------
 STRT.F           12.5000:   START DEPTH
 STOP.F          604.0000:   STOP DEPTH
 STEP.F            0.5000:   STEP LENGTH
 NULL.          -999.2500:   NO VALUE
 COMP. FENIX & SCISSON INC:   COMPANY
 WELL.   SX-3 NPR 3 #61-3:   WELL
 FLD .             TEAPOT:   FIELD
 LOC .       S3 T38N R78W:   LOCATION
 CNTY.            NATRONA:   COUNTY
 STAT.            WYOMING:   STATE
 CTRY. UNITED STATES OF AMERICA:   COUNTRY
 SRVC.           BIRDWELL:   SERVICE COMPANY
 DATE.        03-DEC-1978:   LOGDATE
 API .       490251074100:   API NUMBER
~CURVE INFORMATION
#MNEM.UNIT       API CODE    CURVE DESCRIPTION
#----------   ------------   ------------------------------
 DEPT.F                  :   
 SPR .MV     05 010 01 00:   SPONTANEOUS POTENTIAL FROM RES.
 SN  .OHMM   05 040 16 00:   SHORT NORMAL 16"
 IL  .OHMM   05 120 00 00:   INDUCTION LOG
 CALD.IN     45 280 60 00:   CALIPER
 GRD .GAPI   45 310 01 00:   GAMMA RAY FROM DENSITY LOG
 DEN .G/C3   45 350 01 00:   COMPENSATED BULK DENSTIY
 CORR.G/C3   45 356 01 00:   DENSITY CORRECTION
 DPHI.DEC    45 890 12 00:   DENSITY POROSITY SANDSTONE
~PARAMETER INFORMATION
#MNEM.UNIT          VALUE    DESCRIPTION
#----------   ------------   ------------------------------
 PD  .                 GL:   PERMANENT DATUM
 EPD .F              5099:   ELEVATION PERMANENT DATUM
 LMF .                 KB:   LOG MEASURED FROM
 DAPD.F                 4:   FEET ABOVE PERMANENT DATUM
 DMF .                 KB:   DRILLING MEASURED FROM
 EKB .F              5103:   KELLING BUSHING
 EGL .F              5099:   GROUND LEVEL
 DATE.            12-3-78:   RUN DATE
 RUN .                  1:   RUN NUMBER
 DD  .F               615:   DEPTH DRILLER
 DL  .F               604:   DEPTH LOGGER
 BLI .F               598:   BOTTOM LOG INTERVAL
 TLI .F                40:   TOP LOG INTERVAL
 CS  .IN            8.625:   CASING SIZE
 CBL .F                35:   CASING BOTTOM LOGGER
 BS  .IN            7.875:   BIT SIZE
 BSD .F               615:   BIT SIZE AT DEPTH
 DFT .                KCL:   DRILLING FLUID TYPE
 DFD .                8.8:   DRILLING FLUID DENSITY
 DFV .                 42:   DRILLING FLUID VISCOSITY
 DFPH.               12.2:   DRILLING FLUID PH
 DFL .                 10:   DRILLING FLUID LOSS
 MSS .           FLOWLINE:   MUD SAMPLE SOURCE
 RMS .OHMM            .24:   RESISTIVITY MUD SAMPLE
 MST .F                58:   MUD SAMPLE TEMPERATURE
 RMF .OHMM             .3:   RESISTIVITY MUD FILTRATE SAMPLE
 MFST.F                54:   MUD FILTRATE SAMPLE TEMPERATURE
 RMC .OHMM            .34:   RESISTIVITY MUD CAKE
 MCST.F                56:   MUD CAKE SAMPLE TEMPERATURE
 MFSS.           MEASURED:   MUD FILTRATE SAMPLE SOURCE
 MCSS.           MEASURED:   MUD CAKE SAMPLE SOURCE
 RMB .OHMM            .27:   RESISTIVITY MUD AT BHT
 BHT .F                56:   BOTTOM HOLE TEMPERATURE
 TCS .HRS               3:   TIME CURCULATED STOPPED
 MRT .F                52:   MAXIMUM RECORDED TEMPERATURE
 LUN .               2958:   LOGGING UNIT NUMBER
 LUL .                CPR:   LOGGING UNIT LOCATION
 ENGI.            ROLLINS:   RECORDING ENGINEER
 WITN.              AMEND:   WITNESSED BY
 CLNT.            A2DTECH:   CLIENT CODE
 ORIG.       2", 5" PRINT:   ORIGIN OF DATA
 UWI .       490251074100:   UNIQUE WELL ID
 DICO. A2D Technologies, Inc.:   DIGITIZING COMPANY
~OTHER INFORMATION
~A   DEPT      SPR         SN         IL       CALD         GRD       DEN       CORR       DPHI   
# ...
  498.5000   -55.1516    11.7039    11.9595     8.0168    81.6846     2.4297     0.0325     0.1608
  499.0000   -55.4578    11.7040    12.0007     8.0178    81.6241     2.4229     0.0335     0.1619
  499.5000   -55.7635    11.7011    12.0420     8.0189    81.7297     2.4191     0.0335     0.1633
  500.0000   -55.9370    11.6966    12.0834     8.0199    83.7121     2.4153     0.0335     0.1655
  500.5000   -55.9635    11.6920    12.1250     8.0209    86.1470     2.4116     0.0333     0.1675
  501.0000   -55.9904    11.6875    12.1667     8.0175    87.8836     2.4090     0.0394     0.1648
  501.5000   -56.0171    11.6829    12.2086     8.0136    87.2368     2.4169     0.0472     0.1570
  502.0000   -56.0439    11.6784    12.2572     8.0099    85.0982     2.4308     0.0475     0.1491
  502.5000   -56.0708    11.6739    12.1973     8.0061    82.9313     2.4436     0.0459     0.1491
  503.0000   -56.0976    11.6693    12.1265     8.0023    82.4129     2.4389     0.0377     0.1514
  503.5000   -56.1245    11.6648    12.0561     7.9983    86.7393     2.4380     0.0297     0.1542
  504.0000   -56.1514    11.6602    11.9860     7.9943    89.5638     2.4363     0.0214     0.1571
  504.5000   -56.1782    11.6557    11.9164     7.9902    86.9188     2.4300     0.0195     0.1579
  505.0000   -56.2051    11.6512    11.8472     7.9862    86.0922     2.4264     0.0194     0.1583
  505.5000   -56.2319    11.6467    11.7784     7.9821    85.3581     2.4249     0.0197     0.1579
  506.0000   -56.2588    11.6421    11.7039     7.9781    85.6759     2.4239     0.0277     0.1533
  506.5000   -56.2856    11.6376    11.7256     7.9741    87.6676     2.4315     0.0362     0.1467
  507.0000   -56.3125    11.6331    11.7495     7.9700    89.9298     2.4417     0.0382     0.1437
  507.5000   -56.3394    11.6286    11.7734     7.9660    92.0345     2.4487     0.0391     0.1449
  508.0000   -56.3662    11.6241    11.7973     7.9619    92.0727     2.4467     0.0415     0.1460
  508.5000   -56.3931    11.6195    11.8213     7.9579    90.9411     2.4453     0.0456     0.1468
  509.0000   -56.4199    11.6150    11.8454     7.9538    89.7719     2.4472     0.0457     0.1476
  509.5000   -56.4468    11.6105    11.8694     7.9498    89.9293     2.4459     0.0428     0.1578
  510.0000   -56.4738    11.6060    11.8937     7.9457    91.9116     2.4311     0.0397     0.1815
  510.5000   -56.5017    11.6011    11.9159     7.9413    92.5752     2.4059     0.0373     0.2052
  511.0000   -56.5207    11.5927    12.0502     7.9550    85.7030     2.3626     0.0370     0.2289
  511.5000   -56.3915    11.7415    12.2082     7.9714    77.9777     2.3202     0.0710     0.2642
  512.0000   -56.2611    11.9125    13.0272     7.9879    70.3121     2.2785     0.1088     0.2583
  512.5000   -56.1319    12.0870    14.2253     8.0048    62.5070     2.2503     0.1216     0.2466
  513.0000   -55.9971    12.2643    15.5335     8.0188    61.2016     2.2747     0.1195     0.2350
  513.5000   -55.6210    12.6122    16.9361     7.9476    61.4735     2.2952     0.0987     0.2211
  514.0000   -54.8637    13.2291    18.1636     7.8714    63.8649     2.3189     0.0774     0.2270
  514.5000   -54.2541    13.8763    19.4568     7.7955    64.4628     2.3089     0.0637     0.2343
  515.0000   -54.0326    14.5122    20.8420     7.7201    64.8770     2.2932     0.0740     0.2387
  515.5000   -53.8135    15.0774    22.3259     7.6972    67.7456     2.2915     0.0897     0.2236
  516.0000   -53.1880    15.6651    23.8422     7.7939    71.1794     2.3165     0.0948     0.2112
  516.5000   -52.2657    16.2756    23.8491     8.3703    71.1378     2.3328     0.0585     0.2235
  517.0000   -51.3467    16.9000    23.6100     7.4565    70.4244     2.3311     0.0366     0.2395
  517.5000   -50.5420    17.4364    23.6182     7.1586    69.7049     2.2937     0.0356     0.2554
  518.0000   -50.0531    17.7611    23.6182     7.0882    69.5486     2.2662     0.0410     0.2539
  518.5000   -49.7009    17.9153    23.6182     7.1914    69.6244     2.2624     0.0466     0.2429
  519.0000   -49.4813    17.8990    23.6183     7.2962    69.7431     2.2830     0.0494     0.2268
  519.5000   -49.5007    17.8307    23.6184     7.4011    71.7127     2.3166     0.0449     0.2034
  520.0000   -49.4978    17.7908    23.6211     7.5057    72.7177     2.3500     0.0290     0.1805
  520.5000   -49.4986    17.7511    23.5650     7.6102    70.1291     2.3837     0.0132     0.1606
  521.0000   -49.5122    17.7113    23.4598     7.7148    68.8349     2.4164    -0.0021     0.1712
  521.5000   -49.5255    17.6717    23.3535     7.8194    68.7749     2.4169    -0.0010     0.1896
  522.0000   -49.5386    17.6322    23.2475     7.9244    73.2344     2.3700     0.0078     0.2079
  522.5000   -49.5518    17.5928    23.1420     8.0178    78.4178     2.3337     0.0164     0.2142
  523.0000   -49.5649    17.5534    23.0370     8.0210    80.6296     2.3316     0.0195     0.2131
  523.5000   -49.5780    17.5142    22.9324     8.0180    80.8152     2.3301     0.0223     0.2140
  524.0000   -49.5912    17.4749    22.8284     8.0155    81.0202     2.3302     0.0285     0.2136
  524.5000   -49.6043    17.4354    22.5831     8.0132    80.6118     2.3308     0.0349     0.2087
  525.0000   -49.6175    17.3790    22.0876     8.0108    79.3937     2.3377     0.0371     0.2038
  525.5000   -49.6306    17.1976    21.6020     8.0085    78.1285     2.3459     0.0365     0.2003
  526.0000   -49.6437    17.0200    21.1271     8.0061    77.1155     2.3530     0.0358     0.2003
  526.5000   -49.6569    16.8442    20.6630     8.0037    77.0225     2.3541     0.0320     0.2001
  527.0000   -49.6700    16.6757    20.2090     8.0014    77.0236     2.3541     0.0245     0.2004
  527.5000   -49.6831    16.4779    19.7651     7.9990    77.8242     2.3542     0.0170     0.2006
  528.0000   -49.6957    16.3594    19.3308     7.9967    79.3665     2.3530     0.0130     0.2037
  528.5000   -49.7288    16.2617    18.9216     7.9943    80.1458     2.3474     0.0100     0.2091
  529.0000   -49.7659    16.1649    18.8970     7.9919    77.0403     2.3398     0.0100     0.2146
  529.5000   -49.8030    16.0687    18.8732     7.9896    75.3745     2.3323     0.0115     0.2167
  530.0000   -49.8394    16.0014    18.8495     7.9872    75.4036     2.3287     0.0130     0.2146
  530.5000   -49.8764    15.9604    18.8258     7.9848    76.9379     2.3297     0.0145     0.2109
  531.0000   -49.9479    15.9195    18.8022     7.9825    78.8581     2.3374     0.0159     0.2053
  531.5000   -50.2198    15.8786    18.7786     7.9801    80.7966     2.3478     0.0174     0.1995
  532.0000   -50.4871    15.8379    18.7550     7.9777    82.5148     2.3541     0.0189     0.1995
  532.5000   -50.7542    15.7973    18.6327     7.9754    82.2486     2.3530     0.0203     0.1988
  533.0000   -51.0213    15.7568    18.4666     7.9730    80.0452     2.3533     0.0218     0.1959
  533.5000   -51.2885    15.7164    18.3019     7.9707    77.9702     2.3589     0.0234     0.1803
  534.0000   -51.5538    15.6761    18.2352     7.9683    77.8074     2.3809     0.0174     0.1649
  534.5000   -51.6959    15.6359    18.2351     7.9659    78.1491     2.4107     0.0102     0.1495
  535.0000   -51.6666    15.5958    18.2351     7.9636    78.5347     2.4419     0.0029     0.1416
  535.5000   -51.6389    15.5558    18.2352     7.9611    78.9143     2.4520    -0.0004     0.1440
  536.0000   -51.6105    15.5159    18.2352     7.9586    78.9241     2.4507    -0.0005     0.1448
  536.5000   -51.5825    15.4761    18.2353     7.9559    76.9277     2.4495    -0.0005     0.1482
  537.0000   -51.5540    15.4364    18.2361     7.9533    74.9289     2.4447     0.0013     0.1620
  537.5000   -51.5240    15.3968    18.2376     7.9506    74.6955     2.4183     0.0057     0.1758
  538.0000   -51.5188    15.3573    18.2382     7.9480    76.1433     2.3884     0.0101     0.1895
  538.5000   -51.8097    15.3180    17.8801     7.9454    78.5663     2.3661     0.0144     0.1951
