~VERSION INFORMATION
 VERS.                2.0:   CWLS LOG ASCII STANDARD - VERSION 2.0
 WRAP.                 NO:   ONE LINE PER DEPTH STEP
~WELL INFORMATION
#MNEM.UNIT      DATA TYPE    INFORMATION
#----------   ------------   ------------------------------
 STRT.F          695.0000:   START DEPTH
 STOP.F         1588.0000:   STOP DEPTH
 STEP.F            0.5000:   STEP LENGTH
 NULL.          -999.2500:   NO VALUE
 COMP. FENIX & SCISSON INC:   COMPANY
 WELL. 13 SHX 10 STX #13-10:   WELL
 FLD .             TEAPOT:   FIELD
 LOC .      S10 T38N R78W:   LOCATION
 CNTY.            NATRONA:   COUNTY
 STAT.            WYOMING:   STATE
 CTRY. UNITED STATES OF AMERICA:   COUNTRY
 SRVC.            Unknown:   SERVICE COMPANY
 DATE.        22-JUL-1979:   LOGDATE
 API .       490251078700:   API NUMBER
~CURVE INFORMATION
#MNEM.UNIT       API CODE    CURVE DESCRIPTION
#----------   ------------   ------------------------------
 DEPT.F                  :   
 CORR.G/C3   45 356 01 00:   DENSITY CORRECTION
 RHOB.G/C3   45 350 01 00:   BULK DENSITY
 CALD.IN     45 280 60 00:   CALIPER
 GRD .GAPI   45 310 01 00:   GAMMA RAY FROM DENSITY LOG
 DPHI.DEC    45 890 12 00:   DENSITY POROSITY SANDSTONE
~PARAMETER INFORMATION
#MNEM.UNIT          VALUE    DESCRIPTION
#----------   ------------   ------------------------------
 PD  .                 GL:   PERMANENT DATUM
 EPD .F              5306:   ELEVATION PERMANENT DATUM
 LMF .                 DF:   LOG MEASURED FROM
 DAPD.F                 9:   FEET ABOVE PERMANENT DATUM
 DMF .                 KB:   DRILLING MEASURED FROM
 EKB .F              5316:   KELLING BUSHING
 EDF .F              5315:   DRILLING FLOOR
 EGL .F              5306:   GROUND LEVEL
 DATE.            7-22-79:   RUN DATE
 RUN .                  1:   RUN NUMBER
 DD  .F              1595:   DEPTH DRILLER
 DL  .F              1588:   DEPTH LOGGER
 BLI .F              1588:   BOTTOM LOG INTERVAL
 TLI .F               700:   TOP LOG INTERVAL
 CS  .IN            9.625:   CASING SIZE
 CBD .F               950:   CASING BOTTOM DRILLER
 CBL .F               950:   CASING BOTTOM LOGGER
 BS  .IN             8.75:   BIT SIZE
 BSD .F              1595:   BIT SIZE AT DEPTH
 DFT .                OIL:   DRILLING FLUID TYPE
 TCS .HRS               2:   TIME CURCULATED STOPPED
 LUN .               2959:   LOGGING UNIT NUMBER
 LUL .             CASPER:   LOGGING UNIT LOCATION
 ENGI.            ROLLINS:   RECORDING ENGINEER
 WITN.           DINSMORE:   WITNESSED BY
 CLNT.            A2DTECH:   CLIENT CODE
 ORIG.     1", 2.5" PRINT:   ORIGIN OF DATA
 UWI .       490251078700:   UNIQUE WELL ID
 DICO. A2D Technologies, Inc.:   DIGITIZING COMPANY
~OTHER INFORMATION
~A   DEPT     CORR       RHOB       CALD         GRD      DPHI   
# ...
 1427.0000     0.0335     2.4958     8.4442   111.1005     0.0362
 1427.5000     0.0288     2.4850     8.4560   111.5890     0.0368
 1428.0000     0.0223     2.4772     8.4930   111.7940     0.0458
 1428.5000     0.0194     2.4744     8.5375   110.7291     0.0458
 1429.0000     0.0236     2.4861     8.5806   109.1049     0.0401
 1429.5000     0.0267     2.4990     8.6243   107.5337     0.0320
 1430.0000     0.0205     2.4949     8.6727   106.0502     0.0369
 1430.5000     0.0146     2.4849     8.6842   104.5422     0.0414
 1431.0000     0.0078     2.4759     8.6286   104.0500     0.0465
 1431.5000     0.0031     2.4711     8.5789   104.3901     0.0469
 1432.0000    -0.0002     2.4738     8.5282   105.7495     0.0473
 1432.5000     0.0151     2.4757     8.4738   105.0752     0.0426
 1433.0000     0.0482     2.4906     8.4639   106.5001     0.0335
 1433.5000     0.1084     2.5110     8.4858   110.1246     0.0244
 1434.0000     0.2356     2.5135     8.5115   108.5084     0.0148
 1434.5000     0.4285     2.5304     8.5848   102.0754     0.0172
 1435.0000     0.4198     2.2765     8.6520    96.2108     0.1341
 1435.5000     0.2592     2.0559     8.8305    97.2315     0.3012
 1436.0000     0.0935     1.7600     9.1774    99.2458     0.5106
 1436.5000    -0.0425     1.6319     9.5065   101.3352     0.4068
 1437.0000    -0.0394     1.9970     9.7727   103.3161     0.2996
 1437.5000    -0.0370     2.1308    10.9700   105.5266     0.1595
 1438.0000    -0.0154     2.3268    10.7233   105.9470     0.0916
 1438.5000     0.0068     2.4769     9.6203   103.8174     0.0514
 1439.0000     0.0282     2.4867     9.3337   103.0577     0.0375
 1439.5000     0.0498     2.4975     9.3945   104.3834     0.0316
 1440.0000     0.0712     2.5089     9.4853   105.4894     0.0259
 1440.5000     0.0922     2.5205     9.5722   106.6701     0.0201
 1441.0000     0.1264     2.5320     9.6375   107.8188     0.0143
 1441.5000     0.1760     2.5460     9.6508   108.9321     0.0014
 1442.0000     0.2254     2.5719     9.6722   107.8475    -0.0149
 1442.5000     0.2747     2.6151     9.6914   106.5014    -0.0336
 1443.0000     0.3201     2.6193     9.7510   108.3537    -0.0361
 1443.5000     0.3566     2.6186     9.8683   110.7573    -0.0365
 1444.0000     0.3801     2.6153     9.9790   113.1663    -0.0344
 1444.5000     0.3945     2.6115    10.1039   115.0903    -0.0306
 1445.0000     0.3995     2.6051    10.2430   112.9691    -0.0268
 1445.5000     0.3956     2.5978    10.4021   107.5050    -0.0230
 1446.0000     0.3932     2.5910    10.5580   102.3413    -0.0192
 1446.5000     0.4010     2.5684    10.7149   103.2112    -0.0152
 1447.0000     0.4136     2.5394    10.8717   106.0272     0.0049
 1447.5000     0.4322     2.5062    11.0288   105.7903     0.0262
 1448.0000     0.4497     2.4639    11.1851   104.5128     0.0476
 1448.5000     0.4675     2.4192    11.3413   106.0723     0.0689
 1449.0000     0.4825     2.3998    11.5013   107.5881     0.0902
 1449.5000     0.4943     2.3713    11.6513   107.9022     0.1041
 1450.0000     0.4999     2.3442    11.8307   104.5442     0.1204
 1450.5000     0.4907     2.3030    11.9080   101.2521     0.1451
 1451.0000     0.4819     2.2627    11.9965    97.3935     0.1698
 1451.5000     0.4717     2.2237    12.0770    95.9130     0.1933
 1452.0000     0.4613     2.1820    12.1649    93.6977     0.2211
 1452.5000     0.4247     2.1372    12.2268    94.9976     0.2476
 1453.0000     0.3799     2.0915    12.2679    97.0058     0.2801
 1453.5000     0.3592     2.0683    12.2955    95.3196     0.2721
 1454.0000     0.3767     2.0865    12.3330    97.9177     0.2550
 1454.5000     0.3882     2.1150    12.3063    99.8041     0.2533
 1455.0000     0.3841     2.1114    12.2675    99.1186     0.2554
 1455.5000     0.3726     2.0983    12.2286    98.5017     0.2582
 1456.0000     0.3605     2.0826    12.1894    95.9405     0.2609
 1456.5000     0.3533     2.0878    12.1506    94.7749     0.2626
 1457.0000     0.3490     2.0965    12.1117   100.8088     0.2603
 1457.5000     0.3435     2.1015    12.0729   106.1465     0.2581
 1458.0000     0.3304     2.1066    12.0339   105.4086     0.2558
 1458.5000     0.3125     2.1127    11.9949   105.1264     0.2523
 1459.0000     0.3114     2.1288    11.9569   105.6057     0.2452
 1459.5000     0.3113     2.1477    11.9169   106.2205     0.2381
 1460.0000     0.3161     2.1667    11.8808   102.9051     0.2271
 1460.5000     0.3277     2.1853    11.8174    98.8613     0.2124
 1461.0000     0.3383     2.2044    11.7611    96.3200     0.1998
 1461.5000     0.3495     2.2231    11.7017    95.3880     0.1852
 1462.0000     0.3603     2.2376    11.6416   102.2676     0.1839
 1462.5000     0.3712     2.2346    11.5898   106.4791     0.1809
 1463.0000     0.3829     2.2400    11.4569   102.6376     0.1802
 1463.5000     0.3839     2.2483    11.0830    97.5019     0.1836
 1464.0000     0.3665     2.2054    10.4720    91.2974     0.1933
 1464.5000     0.3763     2.2206    10.1275    92.7628     0.1957
 1465.0000     0.3997     2.2594    10.0752    95.3824     0.1733
 1465.5000     0.3938     2.2550    10.0231    97.7925     0.1722
 1466.0000     0.3805     2.2470     9.9704    96.5750     0.1780
 1466.5000     0.3651     2.2389     9.9200    95.4853     0.1833
 1467.0000     0.3566     2.2366     9.8669    94.9778     0.1868
 1467.5000     0.3980     2.2945     9.8273    96.3785     0.1524
 1468.0000     0.5104     2.3861     9.9331    99.0866     0.1160
 1468.5000     0.4982     2.3640    10.0487   101.8384     0.1008
 1469.0000     0.4061     2.1505    10.0762   102.5121     0.1943
 1469.5000     0.1898     2.0028    10.1633    99.6172     0.2866
 1470.0000    -0.0358     2.0109     8.4324   101.1192     0.2866
 1470.5000    -0.0265     2.1563     8.5383   105.0895     0.1933
 1471.0000    -0.0097     2.3418     8.4712   108.9438     0.1035
 1471.5000     0.0410     2.4853     8.5343   112.1580     0.0307
 1472.0000     0.0901     2.5214     8.5389   114.1571     0.0008
 1472.5000     0.1372     2.5569     8.6313   115.5748    -0.0087
 1473.0000     0.1954     2.5739     8.7387   116.0149    -0.0008
 1473.5000     0.1736     2.5041     8.5735   116.7875     0.0234
 1474.0000     0.0937     2.4427     8.0573   115.6206     0.0621
 1474.5000     0.0421     2.4045     8.0421   113.0917     0.0862
 1475.0000     0.0955     2.4852     8.0179   110.2810     0.0331
 1475.5000     0.1869     2.5966     8.0021   111.4064    -0.0201
 1476.0000     0.2537     2.5872     7.9801   113.5260    -0.0126
 1476.5000     0.2110     2.5384     7.9568   115.5399     0.0204
 1477.0000     0.1631     2.4839     7.9327   116.1379     0.0448
 1477.5000     0.1137     2.4814     7.9313   115.4386     0.0440
 1478.0000     0.0787     2.5035     7.9310   116.1935     0.0302
 1478.5000     0.0727     2.5244     7.9315   119.4485     0.0189
 1479.0000     0.0671     2.5327     7.9314   121.7849     0.0156
 1479.5000     0.0556     2.5228     7.9314   120.6425     0.0214
 1480.0000     0.0459     2.5039     7.9314   119.4603     0.0321
 1480.5000     0.0373     2.4882     7.9314   118.2518     0.0379
 1481.0000     0.0338     2.4913     7.9314   114.8679     0.0384
 1481.5000     0.0318     2.4927     7.9314   111.5201     0.0369
 1482.0000     0.0297     2.4969     7.9314   109.4234     0.0344
 1482.5000     0.0275     2.5014     7.9314   109.6030     0.0344
 1483.0000     0.0223     2.4961     7.9314   112.8669     0.0359
 1483.5000     0.0166     2.4881     7.9314   117.1248     0.0375
 1484.0000     0.0120     2.4919     7.9314   117.8897     0.0340
 1484.5000     0.0203     2.5017     7.9314   115.0182     0.0298
 1485.0000     0.0267     2.5091     7.9314   112.4570     0.0262
 1485.5000     0.0228     2.5042     7.9314   114.1707     0.0337
 1486.0000     0.0191     2.4910     7.9314   116.1692     0.0367
 1486.5000     0.0149     2.4975     7.9314   116.5134     0.0311
 1487.0000     0.0111     2.5112     7.9314   119.2671     0.0237
 1487.5000     0.0073     2.5183     7.9314   122.2198     0.0217
