~VERSION INFORMATION
 VERS.                2.0:   CWLS LOG ASCII STANDARD - VERSION 2.0
 WRAP.                 NO:   ONE LINE PER DEPTH STEP
~WELL INFORMATION
#MNEM.UNIT      DATA TYPE    INFORMATION
#----------   ------------   ------------------------------
 STRT.F          438.0000:   START DEPTH
 STOP.F         2175.0000:   STOP DEPTH
 STEP.F            0.5000:   STEP LENGTH
 NULL.          -999.2500:   NO VALUE
 COMP.   FLUOR DANIEL INC:   COMPANY
 WELL. NAVAL PETROLEUM RESERVE 3 X29 #74-29:   WELL
 FLD .            WLIDCAT:   FIELD
 LOC .      S29 T39N R78W:   LOCATION
 CNTY.            NATRONA:   COUNTY
 STAT.            WYOMING:   STATE
 CTRY. UNITED STATES OF AMERICA:   COUNTRY
 SRVC.            Unknown:   SERVICE COMPANY
 DATE.        05-JUN-1995:   LOGDATE
 API .       490252272900:   API NUMBER
~CURVE INFORMATION
#MNEM.UNIT       API CODE    CURVE DESCRIPTION
#----------   ------------   ------------------------------
 DEPT.F                  :   
 ROP .FT/HR  91 810 01 00:   RAT OF DRILLING PENETRATION
 TGAS.TC/CC  91 830 01 00:   TOTAL GAS UNIT
~PARAMETER INFORMATION
#MNEM.UNIT          VALUE    DESCRIPTION
#----------   ------------   ------------------------------
 EKB .F              5036:   KELLING BUSHING
 EGL .F              5026:   GROUND LEVEL
 DATE.        05-JUN-1995:   RUN DATE
 RUN .                  1:   RUN NUMBER
 BLI .F              2160:   BOTTOM LOG INTERVAL
 TLI .F               440:   TOP LOG INTERVAL
 ENGI.     R.HUSK/C.TOWER:   RECORDING ENGINEER
 CLNT.            A2DTECH:   CLIENT CODE
 ORIG.           5" PRINT:   ORIGIN OF DATA
 UWI .       490252272900:   UNIQUE WELL ID
 DICO. A2D Technologies, Inc.:   DIGITIZING COMPANY
~OTHER INFORMATION
~A   DEPT        ROP       TGAS 
# ...
 1653.0000     0.7572     2.1962
 1653.5000     0.7473     2.1831
 1654.0000     0.7469     2.1736
 1654.5000     0.7465     2.1623
 1655.0000     0.7462     2.1509
 1655.5000     0.7458     2.1396
 1656.0000     0.7454     2.1269
 1656.5000     0.7450     2.1170
 1657.0000     0.7446     2.1057
 1657.5000     0.7442     2.0943
 1658.0000     0.7574     2.0818
 1658.5000     0.7627     2.2594
 1659.0000     0.7720     2.2840
 1659.5000     0.7811     2.4264
 1660.0000     0.7808     2.4149
 1660.5000     0.7804     2.4038
 1661.0000     0.7800     2.3925
 1661.5000     0.7795     2.3601
 1662.0000     0.6446     1.9925
 1662.5000     0.6634     1.9143
 1663.0000     0.6631     1.7798
 1663.5000     0.6627     1.7698
 1664.0000     0.6621     1.7577
 1664.5000     0.6522     1.9353
 1665.0000     0.6519     1.9243
 1665.5000     0.6515     1.9132
 1666.0000     0.6620     1.9019
 1666.5000     0.6648     1.8883
 1667.0000     0.6676     1.8792
 1667.5000     0.6702     1.8662
 1668.0000     0.6607     1.8552
 1668.5000     0.6513     1.7875
 1669.0000     0.6516     1.7100
 1669.5000     0.6517     1.6324
 1670.0000     0.6519     1.5549
 1670.5000     0.6521     1.4774
 1671.0000     0.6619     1.3999
 1671.5000     0.6717     1.3224
 1672.0000     0.6719     1.2448
 1672.5000     0.6818     1.1673
 1673.0000     0.6916     1.0898
 1673.5000     0.6918     1.0660
 1674.0000     0.6919     1.0566
 1674.5000     0.6921     1.0458
 1675.0000     0.6827     1.0377
 1675.5000     0.6829     1.0274
 1676.0000     0.6831     1.0189
 1676.5000     0.6833     1.0094
 1677.0000     0.6835     0.9997
 1677.5000     0.6933     0.9897
 1678.0000     0.6935     0.9811
 1678.5000     0.7033     0.9006
 1679.0000     0.7131     0.7718
 1679.5000     0.7133     0.7626
 1680.0000     0.7135     0.7547
 1680.5000     0.6944     0.9351
 1681.0000     0.6850     0.9236
 1681.5000     0.6852     0.9143
 1682.0000     0.6854     0.9057
 1682.5000     0.6856     0.8959
 1683.0000     0.6954     0.8868
 1683.5000     0.6710     0.8774
 1684.0000     0.5612     0.8679
 1684.5000     0.5614     0.8585
 1685.0000     0.5615     0.8474
 1685.5000     0.5617     1.2156
 1686.0000     0.5619     1.3950
 1686.5000     0.5621     1.5768
 1687.0000     0.5623     1.9426
 1687.5000     0.5625     1.9340
 1688.0000     0.5627     2.1132
 1688.5000     0.5629     2.2925
 1689.0000     0.5631     2.2830
 1689.5000     0.5633     2.2736
 1690.0000     0.5635     2.2623
 1690.5000     0.5637     2.2547
 1691.0000     0.5639     2.2453
 1691.5000     0.5641     2.2346
 1692.0000     0.5642     2.2254
 1692.5000     0.5741     2.2170
 1693.0000     0.5742     2.1255
 1693.5000     0.5744     2.0090
 1694.0000     0.5746     2.0000
 1694.5000     0.5844     1.9906
 1695.0000     0.5750     1.9811
 1695.5000     0.5752     1.9698
 1696.0000     0.5754     2.1516
 1696.5000     0.5756     2.1415
 1697.0000     0.5758     2.1308
 1697.5000     0.5760     2.1226
 1698.0000     0.5762     2.1132
 1698.5000     0.5764     2.1032
 1699.0000     0.5765     2.0939
 1699.5000     0.5767     2.0847
 1700.0000     0.5769     2.1698
 1700.5000     0.5771     2.4436
 1701.0000     0.5773     2.4340
 1701.5000     0.5775     2.4228
 1702.0000     0.5777     2.4136
 1702.5000     0.5779     2.4044
 1703.0000     0.5781     2.5862
 1703.5000     0.5783     3.1430
 1704.0000     0.5785     3.8861
 1704.5000     0.5787     4.2566
 1705.0000     0.5789     4.6226
 1705.5000     0.5790     4.6132
 1706.0000     0.5696     4.6038
 1706.5000     0.6660     4.5943
 1707.0000     0.6662     4.6095
 1707.5000     0.6664     4.3300
 1708.0000     0.6666     4.3170
 1708.5000     0.6668     4.4927
 1709.0000     0.6669     4.4792
 1709.5000     0.6671     4.4634
 1710.0000     0.6866     4.6424
 1710.5000     0.6867     4.6283
 1711.0000     0.6965     4.6151
 1711.5000     0.6967     4.6001
 1712.0000     0.7065     4.5887
 1712.5000     0.7067     4.5741
 1713.0000     0.7070     4.5611
 1713.5000     0.6975     4.5481
 1714.0000     0.6400     4.5358
 1714.5000     0.5825     4.3340
 1715.0000     0.5827     4.5091
 1715.5000     0.5829     4.4962
 1716.0000     0.5831     4.4831
 1716.5000     0.5833     4.6585
 1717.0000     0.5835     4.6453
 1717.5000     0.5767     4.6321
 1718.0000     0.5698     4.6198
 1718.5000     0.5630     4.9030
 1719.0000     0.5561     4.9698
 1719.5000     0.5492     4.9566
 1720.0000     0.5442     4.9419
 1720.5000     0.5441     4.9278
 1721.0000     0.5440     4.9170
 1721.5000     0.5439     4.9029
 1722.0000     0.5438     4.8899
 1722.5000     0.5437     4.8774
 1723.0000     0.5436     4.8639
 1723.5000     0.5436     4.8509
 1724.0000     0.5435     4.8377
 1724.5000     0.5434     4.8245
 1725.0000     0.5433     4.8113
 1725.5000     0.5432     4.7956
 1726.0000     0.5431     4.7849
 1726.5000     0.5430     4.7717
 1727.0000     0.5429     4.7566
 1727.5000     0.5428     4.7436
 1728.0000     0.5427     4.7321
 1728.5000     0.5426     4.7176
 1729.0000     0.5425     4.7046
 1729.5000     0.5424     4.6925
 1730.0000     0.5423     4.6786
 1730.5000     0.5422     4.6656
 1731.0000     0.5421     4.8413
 1731.5000     0.5420     4.8283
 1732.0000     0.5419     5.0038
 1732.5000     0.5418     5.1796
 1733.0000     0.5417     5.3553
 1733.5000     0.5416     5.3391
 1734.0000     0.5415     5.3260
 1734.5000     0.5414     5.3151
 1735.0000     0.5413     5.3019
 1735.5000     0.5412     5.2887
 1736.0000     0.5412     5.2730
 1736.5000     0.5411     5.2623
 1737.0000     0.5410     5.2470
 1737.5000     0.5409     5.2358
 1738.0000     0.5408     5.2220
 1738.5000     0.5407     5.2090
 1739.0000     0.5406     5.1962
 1739.5000     0.5405     5.1830
 1740.0000     0.5500     5.1698
 1740.5000     0.5499     5.1559
 1741.0000     0.5594     5.1434
 1741.5000     0.5593     5.1299
 1742.0000     0.5688     4.9283
 1742.5000     0.5688     4.9142
 1743.0000     0.5698     4.9019
 1743.5000     0.5782     4.8887
 1744.0000     0.5781     4.8755
 1744.5000     0.5684     5.0508
 1745.0000     0.5683     5.0377
 1745.5000     0.5682     5.0238
 1746.0000     0.5681     5.0113
 1746.5000     0.5680     4.9978
 1747.0000     0.5679     4.9849
 1747.5000     0.5678     4.9717
 1748.0000     0.5581     4.9585
 1748.5000     0.5580     4.9447
 1749.0000     0.5579     4.9295
 1749.5000     0.5578     4.9165
 1750.0000     0.5577     4.9057
 1750.5000     0.5576     4.8925
 1751.0000     0.5575     4.8775
 1751.5000     0.5574     4.8645
 1752.0000     0.5573     4.9082
 1752.5000     0.6726     5.0896
 1753.0000     0.6725     5.2038
 1753.5000     0.6724     5.1898
 1754.0000     0.6819     5.1768
 1754.5000     0.6818     4.7865
 1755.0000     0.6817     4.7736
 1755.5000     0.6720     4.7604
 1756.0000     0.6719     4.7472
 1756.5000     0.6718     4.7340
 1757.0000     0.6717     4.8105
 1757.5000     0.6716     4.8962
 1758.0000     0.6715     5.0728
 1758.5000     0.6811     5.0585
 1759.0000     0.6810     5.0436
 1759.5000     0.6766     5.0321
 1760.0000     0.6673     5.0176
 1760.5000     0.6670     5.0046
 1761.0000     0.6764     4.9854
 1761.5000     0.6760     4.9325
 1762.0000     0.6757     4.8797
 1762.5000     0.6755     4.8269
 1763.0000     0.6752     4.7741
 1763.5000     0.6749     4.7212
 1764.0000     0.6746     4.6932
 1764.5000     0.6743     4.6858
 1765.0000     0.6732     4.6785
 1765.5000     0.6641     4.6712
 1766.0000     0.6638     4.6639
 1766.5000     0.6443     4.6565
 1767.0000     0.6440     4.6491
 1767.5000     0.6437     4.6400
 1768.0000     0.6435     4.8214
 1768.5000     0.6432     5.0046
 1769.0000     0.6429     5.3746
 1769.5000     0.6425     5.9315
 1770.0000     0.6615     6.1147
 1770.5000     0.8247     6.4830
 1771.0000     0.8148     6.4755
 1771.5000     0.8145     6.4679
 1772.0000     0.8142     6.4604
 1772.5000     0.8139     6.2631
 1773.0000     0.7944     6.0670
 1773.5000     0.7941     5.8710
 1774.0000     0.8707     5.6750
