~VERSION INFORMATION
 VERS.                2.0:   CWLS LOG ASCII STANDARD - VERSION 2.0
 WRAP.                 NO:   ONE LINE PER DEPTH STEP
~WELL INFORMATION
#MNEM.UNIT      DATA TYPE    INFORMATION
#----------   ------------   ------------------------------
 STRT.F            0.0000:   START DEPTH
 STOP.F          635.0000:   STOP DEPTH
 STEP.F            0.1000:   STEP LENGTH
 NULL.          -999.2500:   NO VALUE
 COMP.   FLUOR DANIEL INC:   COMPANY
 WELL. NAVAL PETROLEUM RESERVE 3 SX-3 #72-7-3:   WELL
 FLD .             TEAPOT:   FIELD
 LOC .       S3 T38N R78W:   LOCATION
 CNTY.            NATRONA:   COUNTY
 STAT.            WYOMING:   STATE
 CTRY. UNITED STATES OF AMERICA:   COUNTRY
 SRVC.      Western Atlas:   SERVICE COMPANY
 DATE.        11-JAN-1995:   LOGDATE
 API .       490252264900:   API NUMBER
~CURVE INFORMATION
#MNEM.UNIT       API CODE    CURVE DESCRIPTION
#----------   ------------   ------------------------------
 DEPT.F                  :   
 GRR .GAPI   07 310 01 00:   GAMMA RAY
 RILD.OHMM   07 120 46 00:   INDUCTION LOG DEEP RESISTIVITY
 RILM.OHMM   07 120 44 00:   RESITIVITY LONG MEDIUM
~PARAMETER INFORMATION
#MNEM.UNIT          VALUE    DESCRIPTION
#----------   ------------   ------------------------------
 PD  .                 GL:   PERMANENT DATUM
 EPD .F              5144:   ELEVATION PERMANENT DATUM
 LMF .                 KB:   LOG MEASURED FROM
 DAPD.F                10:   FEET ABOVE PERMANENT DATUM
 DMF .                 KB:   DRILLING MEASURED FROM
 EKB .F              5154:   KELLING BUSHING
 EDF .F              5153:   DRILLING FLOOR
 EGL .F              5144:   GROUND LEVEL
 DATE.        11-JAN-1995:   RUN DATE
 RUN .                  1:   RUN NUMBER
 DD  .F               641:   DEPTH DRILLER
 DL  .F               642:   DEPTH LOGGER
 BLI .F               635:   BOTTOM LOG INTERVAL
 CS  .IN            9.625:   CASING SIZE
 CBD .F                97:   CASING BOTTOM DRILLER
 CBL .F                97:   CASING BOTTOM LOGGER
 BS  .IN             8.75:   BIT SIZE
 BSD .F               641:   BIT SIZE AT DEPTH
 DFT .                AIR:   DRILLING FLUID TYPE
 MRT .F                89:   MAXIMUM RECORDED TEMPERATURE
 LUN .            HL 6530:   LOGGING UNIT NUMBER
 LUL .             CASPER:   LOGGING UNIT LOCATION
 ENGI.      PAT RASMUSSEN:   RECORDING ENGINEER
 WITN.        STEVE HARDY:   WITNESSED BY
 CLNT.            A2DTECH:   CLIENT CODE
 ORIG.           5" PRINT:   ORIGIN OF DATA
 UWI .       490252264900:   UNIQUE WELL ID
 DICO. A2D Technologies, Inc.:   DIGITIZING COMPANY
~OTHER INFORMATION
~A    DEPT      GRR      RILD       RILM   
# ...
  364.0000   114.0665     7.0969     7.2034
  364.1000   114.5762     7.1388     7.2218
  364.2000   115.1108     7.1886     7.2550
  364.3000   116.2716     7.1889     7.3235
  364.4000   116.9281     7.1892     7.3244
  364.5000   117.8621     7.1895     7.3753
  364.6000   118.5136     7.2009     7.4114
  364.7000   118.6955     7.2401     7.4274
  364.8000   118.6973     7.2404     7.4475
  364.9000   118.6992     7.2407     7.4799
  365.0000   118.7009     7.2410     7.4838
  365.1000   118.7027     7.2636     7.5329
  365.2000   118.4339     7.2919     7.5332
  365.3000   117.7534     7.2922     7.5337
  365.4000   116.7782     7.2925     7.5341
  365.5000   115.9910     7.3344     7.5345
  365.6000   115.2580     7.3778     7.5349
  365.7000   114.6947     7.3952     7.5353
  365.8000   114.3372     7.3955     7.4937
  365.9000   114.0850     7.4059     7.4504
  366.0000   113.7804     7.4476     7.4328
  366.1000   113.2785     7.4479     7.4332
  366.2000   112.9828     7.4859     7.4336
  366.3000   112.7742     7.5003     7.4340
  366.4000   112.6840     7.5006     7.4345
  366.5000   112.5720     7.5145     7.4348
  366.6000   112.3855     7.5589     7.4923
  366.7000   112.3873     7.6063     7.5601
  366.8000   112.3893     7.6066     7.6173
  366.9000   112.3909     7.6069     7.7030
  367.0000   112.3928     7.6326     7.7529
  367.1000   112.5217     7.6777     7.7533
  367.2000   112.6985     7.7140     7.7538
  367.3000   112.7311     7.7144     7.7542
  367.4000   113.0043     7.7147     7.7546
  367.5000   113.4793     7.7150     7.7550
  367.6000   114.1777     7.7445     7.7555
  367.7000   114.9415     7.7693     7.7559
  367.8000   115.7052     7.7572     7.7563
  367.9000   116.3362     7.7162     7.7297
  368.0000   116.0363     7.7166     7.7036
  368.1000   115.5381     7.7169     7.7040
  368.2000   115.0320     7.7172     7.7044
  368.3000   114.5259     7.7176     7.7049
  368.4000   113.7033     7.7179     7.7053
  368.5000   112.6073     7.7182     7.7057
  368.6000   112.1011     7.7185     7.7061
  368.7000   111.5175     7.7188     7.7066
  368.8000   111.3039     7.7192     7.7070
  368.9000   111.0518     7.7195     7.7075
  369.0000   110.9184     7.7198     7.7079
  369.1000   110.9202     7.7201     7.7083
  369.2000   110.8995     7.7204     7.7087
  369.3000   110.6219     7.7208     7.7091
  369.4000   110.6236     7.6818     7.7019
  369.5000   110.6254     7.6681     7.6567
  369.6000   110.7593     7.6684     7.6571
  369.7000   110.9311     7.6545     7.6576
  369.8000   111.0046     7.6160     7.6307
  369.9000   111.5391     7.6164     7.6055
  370.0000   112.5077     7.6167     7.5954
  370.1000   113.1382     7.6170     7.5537
  370.2000   113.6480     7.6173     7.5542
  370.3000   114.0604     7.6177     7.5546
  370.4000   114.3652     7.6180     7.5252
  370.5000   114.8771     7.6183     7.5032
  370.6000   116.0837     7.6187     7.5036
  370.7000   116.9125     7.6189     7.5040
  370.8000   117.7715     7.5902     7.5045
  370.9000   118.4248     7.5669     7.5049
  371.0000   118.8721     7.5547     7.5380
  371.1000   119.1136     7.5153     7.5579
  371.2000   119.1156     7.5156     7.5584
  371.3000   118.6769     7.5159     7.5588
  371.4000   118.1708     7.5162     7.5592
  371.5000   117.6647     7.5166     7.5597
  371.6000   117.0828     7.5169     7.5600
  371.7000   116.2952     7.5172     7.5605
  371.8000   115.1989     7.5175     7.5609
  371.9000   114.7337     7.5179     7.5613
  372.0000   114.4129     7.5181     7.5617
  372.1000   114.1607     7.5184     7.5622
  372.2000   113.9976     7.5187     7.5626
  372.3000   114.0403     7.5191     7.5936
  372.4000   114.3034     7.5165     7.6160
  372.5000   114.7985     7.4678     7.6165
  372.6000   115.3083     7.4681     7.6169
  372.7000   115.6677     7.4380     7.6173
  372.8000   115.9235     7.4171     7.6177
  372.9000   116.1251     7.4174     7.6181
  373.0000   116.1329     7.4177     7.6186
  373.1000   116.4311     7.4180     7.6190
  373.2000   116.4326     7.4183     7.6194
  373.3000   116.4344     7.4186     7.6198
  373.4000   116.5519     7.4189     7.6203
  373.5000   116.7402     7.4018     7.6207
  373.6000   116.7420     7.3590     7.6211
  373.7000   116.7440     7.3177     7.6215
  373.8000   116.2952     7.3181     7.6103
  373.9000   115.7891     7.2822     7.5697
  374.0000   115.2830     7.2681     7.5702
  374.1000   114.7768     7.2481     7.5705
  374.2000   114.2706     7.2185     7.5092
  374.3000   113.7337     7.2097     7.4446
  374.4000   113.0199     7.1198     7.4017
  374.5000   111.4987     7.0817     7.3650
  374.6000   110.2913     7.0407     7.3655
  374.7000   109.6252     6.9999     7.2841
  374.8000   109.2105     6.9445     7.2648
  374.9000   109.2127     6.8713     7.2161
  375.0000   109.2149     6.8315     7.1655
  375.1000   109.0127     6.7378     7.1572
  375.2000   108.9160     6.6742     7.1159
  375.3000   108.8104     6.6455     7.0680
  375.4000   108.6175     6.6114     6.9998
  375.5000   108.6193     6.5546     6.9189
  375.6000   108.6214     6.5520     6.8389
  375.7000   108.8399     6.5099     6.7705
  375.8000   109.2644     6.4763     6.7280
  375.9000   109.7742     6.4388     6.6425
  376.0000   110.2115     6.4015     6.6080
  376.1000   110.4673     6.3770     6.5425
  376.2000   110.7470     6.3716     6.4669
  376.3000   110.9789     6.3335     6.4048
  376.4000   111.0526     6.2980     6.3678
  376.5000   111.1883     6.2616     6.3298
  376.6000   111.4441     6.2253     6.2590
  376.7000   111.6622     6.1893     6.2149
  376.8000   111.6641     6.1534     6.1577
  376.9000   111.9093     6.1193     6.1009
  377.0000   112.1652     6.1196     6.0657
  377.1000   112.2737     6.1198     6.0319
  377.2000   112.2755     6.0960     6.0323
  377.3000   112.3283     6.0780     6.0325
  377.4000   112.5813     6.0675     6.0329
  377.5000   112.2813     6.0365     6.0332
  377.6000   112.2828     6.0368     6.0437
  377.7000   112.4451     6.0371     6.0759
  377.8000   113.1503     6.0373     6.0762
  377.9000   114.3580     6.0376     6.0765
  378.0000   115.3757     6.0378     6.1028
  378.1000   116.5217     6.0381     6.1389
  378.2000   117.1891     6.0383     6.1624
  378.3000   117.6053     5.9969     6.1628
  378.4000   117.8611     5.9971     6.1631
  378.5000   118.0393     5.9974     6.1989
  378.6000   118.0411     5.9976     6.2356
  378.7000   118.0430     5.9979     6.2503
  378.8000   117.8095     5.9981     6.2660
  378.9000   117.7444     5.9984     6.3031
  379.0000   117.1904     5.9986     6.3386
  379.1000   116.4488     5.9989     6.3390
  379.2000   116.1966     5.9991     6.3393
  379.3000   115.9390     5.9994     6.3397
  379.4000   115.9408     5.9940     6.3220
  379.5000   115.7422     5.9584     6.2855
  379.6000   115.6423     5.9587     6.2451
  379.7000   115.7482     5.9589     6.1676
  379.8000   116.1720     5.9592     6.1015
  379.9000   117.1897     5.9594     6.0570
  380.0000   118.3689     5.9597     6.0027
  380.1000   119.2251     5.9581     5.9333
  380.2000   120.2429     5.9190     5.8646
  380.3000   121.1433     5.8893     5.7963
  380.4000   121.8377     5.8320     5.7168
  380.5000   122.3263     5.7811     5.6635
  380.6000   122.6093     5.7476     5.6183
  380.7000   123.0648     5.7101     5.5579
  380.8000   123.2169     5.6401     5.4771
  380.9000   123.3494     5.5785     5.4436
  381.0000   123.5227     5.5139     5.3727
  381.1000   123.5245     5.4500     5.3456
  381.2000   123.5264     5.3990     5.3361
  381.3000   123.5281     5.3678     5.3208
  381.4000   123.3378     5.3367     5.2998
  381.5000   122.9416     5.3006     5.3001
  381.6000   122.4354     5.3008     5.3004
  381.7000   121.9770     5.2810     5.3007
  381.8000   121.7245     5.2647     5.3010
  381.9000   120.8203     5.2649     5.3013
  382.0000   119.5894     5.2651     5.3016
  382.1000   118.2245     5.2653     5.3019
