~VERSION INFORMATION
 VERS.                2.0:   CWLS LOG ASCII STANDARD - VERSION 2.0
 WRAP.                 NO:   ONE LINE PER DEPTH STEP
~WELL INFORMATION
#MNEM.UNIT      DATA TYPE    INFORMATION
#----------   ------------   ------------------------------
 STRT.F         1304.0000:   START DEPTH
 STOP.F         2900.0000:   STOP DEPTH
 STEP.F            0.5000:   STEP LENGTH
 NULL.          -999.2500:   NO VALUE
 COMP.   FLUOR DANIEL INC:   COMPANY
 WELL. NAVAL PETROLEUM RESERVE 3 SHX- #18-14:   WELL
 FLD .             TEAPOT:   FIELD
 LOC .      S14 T38N R78W:   LOCATION
 CNTY.            NATRONA:   COUNTY
 STAT.            WYOMING:   STATE
 CTRY. UNITED STATES OF AMERICA:   COUNTRY
 SRVC.            Unknown:   SERVICE COMPANY
 DATE.        17-APR-1995:   LOGDATE
 API .       490252270800:   API NUMBER
~CURVE INFORMATION
#MNEM.UNIT       API CODE    CURVE DESCRIPTION
#----------   ------------   ------------------------------
 DEPT.F                  :   
 ROP .FT/HR  91 810 01 00:   RAT OF DRILLING PENETRATION
 TGAS.TC/CC  91 830 01 00:   TOTAL GAS UNIT
~PARAMETER INFORMATION
#MNEM.UNIT          VALUE    DESCRIPTION
#----------   ------------   ------------------------------
 EKB .F              5271:   KELLING BUSHING
 EGL .F              5281:   GROUND LEVEL
 DATE.        17-APR-1995:   RUN DATE
 RUN .                  1:   RUN NUMBER
 BLI .F              2900:   BOTTOM LOG INTERVAL
 TLI .F              1310:   TOP LOG INTERVAL
 WITN.     C.TOWER/R.HUSK:   WITNESSED BY
 CLNT.            A2DTECH:   CLIENT CODE
 ORIG.           5" PRINT:   ORIGIN OF DATA
 UWI .       490252270800:   UNIQUE WELL ID
 DICO. A2D Technologies, Inc.:   DIGITIZING COMPANY
~OTHER INFORMATION
~A  DEPT         ROP     TGAS   
 1304.0000     0.5556  -999.2500
 1304.5000     0.5650  -999.2500
 1305.0000     0.5556  -999.2500
 1305.5000     0.5556  -999.2500
 1306.0000     0.5461  -999.2500
 1306.5000     0.5367  -999.2500
 1307.0000     0.5367  -999.2500
 1307.5000     0.5367  -999.2500
 1308.0000     0.5367  -999.2500
 1308.5000     0.5367  -999.2500
 1309.0000     0.5273  -999.2500
 1309.5000     0.5273  -999.2500
 1310.0000     0.5273  -999.2500
 1310.5000     0.5367  -999.2500
 1311.0000     0.5273  -999.2500
 1311.5000     0.5367  -999.2500
 1312.0000     0.5367    62.9283
 1312.5000     1.0075    63.1134
 1313.0000     1.0075    63.1088
 1313.5000     1.0075    63.2938
 1314.0000     1.0075    63.2902
 1314.5000     1.0075    63.2865
 1315.0000     1.0075    63.2828
 1315.5000     1.0075    63.2791
 1316.0000     0.7815    63.2754
 1316.5000     0.7815    63.2717
 1317.0000     0.7815    63.2672
 1317.5000     0.7815    63.2635
 1318.0000     0.7815    63.2598
 1318.5000     0.7815    63.2561
 1319.0000     0.7815    63.0638
 1319.5000     0.7815    63.2497
 1320.0000     0.7815    63.2451
 1320.5000     0.7815    63.2414
 1321.0000     0.7815    63.4264
 1321.5000     0.7815    63.4226
 1322.0000     1.0264    63.4181
 1322.5000     1.0264    63.4145
 1323.0000     1.0264    63.4108
 1323.5000     1.0264    63.5967
 1324.0000     1.0264    63.5921
 1324.5000     1.0264    63.5884
 1325.0000     1.0264    63.3961
 1325.5000     1.0264    63.3805
 1326.0000     1.0264    63.3887
 1326.5000     0.7815    63.1962
 1327.0000     0.7815    63.0031
 1327.5000     0.7815    62.8113
 1328.0000     0.7815    62.6918
 1328.5000     1.0160    62.6147
 1329.0000     1.0134    62.4223
 1329.5000     1.0109    62.2300
 1330.0000     1.0084    62.0376
 1330.5000     1.0058    62.0339
 1331.0000     1.0033    61.6528
 1331.5000     1.0008    61.4604
 1332.0000     0.9981    61.2673
 1332.5000     0.7927    61.2636
 1333.0000     0.7948    61.0712
 1333.5000     0.7970    60.8789
 1334.0000     0.7992    60.8752
 1334.5000     1.0174    60.6828
 1335.0000     1.0187    60.1131
 1335.5000     1.0201    59.7321
 1336.0000     1.0215    59.5295
 1336.5000     1.0229    59.3464
 1337.0000     1.0243    59.1541
 1337.5000     1.0257    58.9617
 1338.0000     1.3174    58.9580
 1338.5000     1.3153    58.9544
 1339.0000     1.3132    59.1403
 1339.5000     1.3111    59.1357
 1340.0000     1.3089    59.3208
 1340.5000     0.5375    59.3170
 1341.0000     0.5384    59.6907
 1341.5000     0.5394    59.8757
 1342.0000     0.5403    60.0607
 1342.5000     0.5413    60.4335
 1343.0000     0.5423    60.4298
 1343.5000     0.5432    60.8035
 1344.0000     0.5442    60.7998
 1344.5000     0.5451    60.7961
 1345.0000     0.5461    60.7924
 1345.5000     0.5471    60.9774
 1346.0000     0.5480    60.7851
 1346.5000     0.5490    61.1587
 1347.0000     0.5499    61.3428
 1347.5000     0.5509    61.3391
 1348.0000     0.5519    61.3355
 1348.5000     0.5528    61.3318
 1349.0000     0.5538    61.3281
 1349.5000     0.5548    61.5132
 1350.0000     0.7815    61.5094
 1350.5000     0.7794    60.9415
 1351.0000     0.7773    61.1284
 1351.5000     0.7753    61.3152
 1352.0000     0.7733    61.3129
 1352.5000     0.9983    61.1224
 1353.0000     0.9992    61.1205
 1353.5000     1.0000    61.3078
 1354.0000     1.0008    61.1168
 1354.5000     1.0016    61.1150
 1355.0000     1.0025    61.1131
 1355.5000     1.0033    61.1112
 1356.0000     1.0041    60.9207
 1356.5000     1.0049    60.9189
 1357.0000     1.0058    60.9170
 1357.5000     1.0066    60.9151
 1358.0000     1.3089    60.7242
 1358.5000     1.3089    60.7223
 1359.0000     1.3089    60.3431
 1359.5000     1.3089    59.9639
 1360.0000     1.3089    59.5847
 1360.5000     0.9967    59.2055
 1361.0000     0.9935    58.8263
 1361.5000     0.9903    58.4471
 1362.0000     0.7721    58.0679
 1362.5000     0.7721    57.6886
 1363.0000     0.7721    57.3094
 1363.5000     0.7721    56.9069
 1364.0000     0.7721    56.5037
 1364.5000     0.7721    56.1005
 1365.0000     0.7721    55.6973
 1365.5000     0.7721    55.2941
 1366.0000     0.8192    55.0340
 1366.5000     0.8192    54.8432
 1367.0000     0.7465    54.8413
 1367.5000     0.7504    54.6508
 1368.0000     0.9981    54.2716
 1368.5000     1.0005    53.8924
 1369.0000     1.0028    53.5132
 1369.5000     1.0052    53.1340
 1370.0000     1.2806    52.7547
 1370.5000     1.2783    52.3755
 1371.0000     1.2759    51.9959
 1371.5000     1.2734    51.6167
 1372.0000     0.5179    51.4261
 1372.5000     0.5179    51.2356
 1373.0000     0.5179    51.0451
 1373.5000     0.5179    50.8545
 1374.0000     0.5179    50.4753
 1374.5000     0.5179    50.2848
 1375.0000     0.5273    50.0943
 1375.5000     0.5461    49.9037
 1376.0000     0.5556    49.7132
 1376.5000     0.5556    49.7113
 1377.0000     0.5650    49.7094
 1377.5000     0.5650    49.6871
 1378.0000     0.5744    49.5167
 1378.5000     0.5744    49.3261
 1379.0000     0.5650    49.3243
 1379.5000     0.5650    49.3224
 1380.0000     0.5556    49.1981
 1380.5000     0.5461    49.1300
 1381.0000     0.5461    49.3173
 1381.5000     0.5367    49.3150
 1382.0000     0.5367    49.3132
 1382.5000     0.5461    49.3113
 1383.0000     0.5367    49.3094
 1383.5000     0.5367    49.3075
 1384.0000     0.5461    49.3053
 1384.5000     0.5367    49.3034
 1385.0000     0.5367    49.3016
 1385.5000     0.5367    49.2997
 1386.0000     0.5367    49.1092
 1386.5000     0.5461    49.1074
 1387.0000     0.5556    49.1055
 1387.5000     0.5556    48.9150
 1388.0000     0.5556    48.9131
 1388.5000     0.5556    48.9113
 1389.0000     0.5556    48.9094
 1389.5000     0.5556    48.7082
 1390.0000     0.5556    48.5283
 1390.5000     0.5556    48.3374
 1391.0000     0.5556    48.3355
 1391.5000     0.5461    48.1450
 1392.0000     0.5556    48.1431
 1392.5000     0.5556    48.3304
 1393.0000     0.5556    48.3281
 1393.5000     0.5556    48.3263
 1394.0000     0.6685    48.3244
 1394.5000     0.6685    48.3226
 1395.0000     0.6685    48.5094
 1395.5000     0.6685    48.3189
 1396.0000     0.6685    48.3170
 1396.5000     0.6685    48.3395
 1397.0000     0.6591    48.5020
 1397.5000     0.6685    48.4997
 1398.0000     0.7815    48.6865
 1398.5000     0.7627    48.8738
 1399.0000     0.7721    49.0606
 1399.5000     0.7627    49.0583
 1400.0000     0.7627    49.0277
 1400.5000     0.7625    48.8492
 1401.0000     0.7623    48.6707
 1401.5000     0.7621    48.4790
 1402.0000     0.7620    48.4753
 1402.5000     0.7618    48.4716
 1403.0000     0.7616    48.6567
 1403.5000     0.7614    48.8417
 1404.0000     0.5352    48.4597
 1404.5000     0.5350    48.6457
 1405.0000     0.5348    48.8302
 1405.5000     0.5347    48.8261
 1406.0000     0.5345    48.8224
 1406.5000     0.5343    48.8188
 1407.0000     0.5341    48.8151
 1407.5000     0.5339    49.0001
 1408.0000     0.5337    48.9955
 1408.5000     0.5335    48.9919
 1409.0000     0.5333    48.9882
 1409.5000     0.5331    48.9846
 1410.0000     0.5330    49.1705
 1410.5000     0.5328    49.1659
 1411.0000     0.5326    49.3509
 1411.5000     0.5324    49.5359
 1412.0000     0.5322    49.5314
 1412.5000     0.5320    49.3390
 1413.0000     0.5318    49.3354
 1413.5000     0.5316    49.3317
 1414.0000     0.5315    49.5176
 1414.5000     0.5313    49.5516
 1415.0000     0.5311    49.6981
 1415.5000     0.5309    49.6943
 1416.0000     0.5307    49.8794
 1416.5000     0.5299    49.8748
 1417.0000     0.5290    50.2485
 1417.5000     0.5282    50.2449
 1418.0000     0.5273    50.6195
 1418.5000     0.5264    50.6149
 1419.0000     0.5255    50.6112
 1419.5000     0.5247    50.8918
 1420.0000     0.5238    50.9813
 1420.5000     0.5229    51.3540
 1421.0000     0.5220    51.5390
 1421.5000     0.5212    51.7250
 1422.0000     0.5203    52.0987
 1422.5000     0.5194    52.2828
 1423.0000     0.5187    52.6565
 1423.5000     0.5309    52.8415
 1424.0000     0.5415    53.2152
 1424.5000     0.6496    53.5880
 1425.0000     0.6486    53.5843
