~VERSION INFORMATION
 VERS.                2.0:   CWLS LOG ASCII STANDARD - VERSION 2.0
 WRAP.                 NO:   ONE LINE PER DEPTH STEP
~WELL INFORMATION
#MNEM.UNIT      DATA TYPE    INFORMATION
#----------   ------------   ------------------------------
 STRT.F           24.5000:   START DEPTH
 STOP.F          506.0000:   STOP DEPTH
 STEP.F            0.5000:   STEP LENGTH
 NULL.          -999.2500:   NO VALUE
 COMP. FENIX & SCISSON INC:   COMPANY
 WELL.    NPR 3 SX #44-10:   WELL
 FLD .        TEAPOT DOME:   FIELD
 LOC .      S10 T38N R78W:   LOCATION
 CNTY.            NATRONA:   COUNTY
 STAT.            WYOMING:   STATE
 CTRY. UNITED STATES OF AMERICA:   COUNTRY
 SRVC.           BIRDWELL:   SERVICE COMPANY
 DATE.        14-NOV-1978:   LOGDATE
 API .       490251074700:   API NUMBER
~CURVE INFORMATION
#MNEM.UNIT       API CODE    CURVE DESCRIPTION
#----------   ------------   ------------------------------
 DEPT.F                  :   
 SPR .MV     05 010 01 00:   SPONTANEOUS POTENTIAL FROM RES.
 IL  .OHMM   05 120 00 00:   INDUCTION LOG
 SN  .OHMM   05 040 16 00:   SHORT NORMAL 16"
 CALD.IN     45 280 60 00:   CALIPER
 GRD .GAPI   45 310 01 00:   GAMMA RAY FROM DENSITY LOG
 RHOB.G/C3   45 350 01 00:   BULK DENSITY
 DPHI.DEC    45 890 12 00:   DENSITY POROSITY SANDSTONE
 DRHO.G/C3   45 356 01 00:   DENSITY CORRECTION
~PARAMETER INFORMATION
#MNEM.UNIT          VALUE    DESCRIPTION
#----------   ------------   ------------------------------
 PD  .                 GL:   PERMANENT DATUM
 EPD .F              5211:   ELEVATION PERMANENT DATUM
 LMF .                 KB:   LOG MEASURED FROM
 DAPD.F                 4:   FEET ABOVE PERMANENT DATUM
 DMF .                 KB:   DRILLING MEASURED FROM
 EKB .F              5215:   KELLING BUSHING
 EGL .F              5211:   GROUND LEVEL
 DATE.           11-14-78:   RUN DATE
 RUN .                  1:   RUN NUMBER
 DD  .F               510:   DEPTH DRILLER
 DL  .F               506:   DEPTH LOGGER
 BLI .F               500:   BOTTOM LOG INTERVAL
 TLI .F                45:   TOP LOG INTERVAL
 CS  .IN            8.625:   CASING SIZE
 CBD .F                40:   CASING BOTTOM DRILLER
 CBL .F                40:   CASING BOTTOM LOGGER
 BS  .IN            7.875:   BIT SIZE
 BSD .F               510:   BIT SIZE AT DEPTH
 DFT .            SEA MUD:   DRILLING FLUID TYPE
 DFD .                8.7:   DRILLING FLUID DENSITY
 DFV .                 35:   DRILLING FLUID VISCOSITY
 DFPH.               10.5:   DRILLING FLUID PH
 MSS .            MUD PIT:   MUD SAMPLE SOURCE
 RMS .OHMM            .51:   RESISTIVITY MUD SAMPLE
 MST .F                54:   MUD SAMPLE TEMPERATURE
 RMF .OHMM            .45:   RESISTIVITY MUD FILTRATE SAMPLE
 MFST.F                54:   MUD FILTRATE SAMPLE TEMPERATURE
 RMC .OHMM             .5:   RESISTIVITY MUD CAKE
 MCST.F                60:   MUD CAKE SAMPLE TEMPERATURE
 MFSS.           MEASURED:   MUD FILTRATE SAMPLE SOURCE
 MCSS.           MEASURED:   MUD CAKE SAMPLE SOURCE
 RMB .OHMM            .49:   RESISTIVITY MUD AT BHT
 BHT .F                56:   BOTTOM HOLE TEMPERATURE
 TCS .HRS               2:   TIME CURCULATED STOPPED
 MRT .F                56:   MAXIMUM RECORDED TEMPERATURE
 LUN .               2958:   LOGGING UNIT NUMBER
 LUL .               CASP:   LOGGING UNIT LOCATION
 ENGI.             MILLER:   RECORDING ENGINEER
 WITN.           DINSMORE:   WITNESSED BY
 CLNT.            A2DTECH:   CLIENT CODE
 ORIG.       2", 5" PRINT:   ORIGIN OF DATA
 UWI .       490251074700:   UNIQUE WELL ID
 DICO. A2D Technologies, Inc.:   DIGITIZING COMPANY
~OTHER INFORMATION
~A   DEPT      SPR         IL         SN       CALD         GRD      RHOB       DPHI       DRHO   
# ...
  429.5000   -43.4980    13.3320    14.4820     8.0060    81.3060     2.5420     0.0800     0.0380
  430.0000   -44.7870    13.1920    14.4270     8.0100    81.8630     2.5430     0.0800     0.0400
  430.5000   -44.5600    13.0630    14.3730     8.0090    81.5800     2.5350     0.0900     0.0420
  431.0000   -43.3070    12.9330    14.3180     8.0090    81.3120     2.5240     0.1000     0.0450
  431.5000   -43.3370    12.8030    14.2630     8.0080    81.0380     2.5130     0.1000     0.0450
  432.0000   -43.5620    12.6730    14.2080     8.0080    81.8170     2.5100     0.1000     0.0390
  432.5000   -43.7940    12.5430    14.1530     8.0070    83.6700     2.5100     0.1000     0.0330
  433.0000   -44.0250    12.4130    14.0980     8.0070    84.8630     2.5100     0.1010     0.0270
  433.5000   -44.2580    12.2830    14.0490     8.0060    84.4400     2.5090     0.1020     0.0260
  434.0000   -44.4900    12.1570    14.0020     8.0060    82.0430     2.5060     0.1040     0.0250
  434.5000   -44.7230    12.1570    13.9550     8.0060    79.5300     2.5020     0.1030     0.0240
  435.0000   -44.9460    12.1570    13.9080     8.0050    77.1930     2.5030     0.1010     0.0230
  435.5000   -44.8260    12.1570    13.8610     8.0050    77.2140     2.5080     0.1000     0.0210
  436.0000   -44.6790    12.1570    13.8140     8.0040    80.3630     2.5090     0.1020     0.0160
  436.5000   -44.5310    12.1570    13.7660     8.0040    82.6030     2.5070     0.1030     0.0100
  437.0000   -44.3860    12.1570    13.7190     8.0030    83.2940     2.5050     0.1040     0.0060
  437.5000   -44.2410    12.1560    13.6720     8.0030    81.8210     2.5030     0.1060     0.0050
  438.0000   -44.7580    12.1570    13.6250     8.0020    80.3660     2.5000     0.1070     0.0040
  438.5000   -46.3520    12.1570    13.5780     8.0020    80.3090     2.4960     0.1110     0.0040
  439.0000   -47.9290    12.0960    13.5300     8.0010    81.2790     2.4920     0.1150     0.0040
  439.5000   -49.4880    11.9940    13.4830     8.0010    83.7290     2.4880     0.1160     0.0040
  440.0000   -50.7300    11.8910    13.4360     8.0000    83.7490     2.4850     0.1160     0.0040
  440.5000   -50.0100    11.7880    13.3890     8.0000    83.3630     2.4860     0.1150     0.0050
  441.0000   -49.3170    11.6860    13.3420     7.9990    82.7370     2.4870     0.1150     0.0050
  441.5000   -48.6320    11.5830    13.2330     7.9990    81.3520     2.4880     0.1140     0.0050
  442.0000   -47.9570    11.4810    13.1070     7.9980    81.1830     2.4890     0.1140     0.0060
  442.5000   -47.3620    11.3780    12.9810     7.9980    84.4100     2.4890     0.1130     0.0090
  443.0000   -47.6510    11.2760    12.8550     7.9970    87.5070     2.4910     0.1110     0.0130
  443.5000   -47.9470    11.1650    12.7290     7.9970    89.0810     2.4960     0.1080     0.0160
  444.0000   -48.2400    11.0120    12.6030     7.9960    88.4700     2.5000     0.1040     0.0200
  444.5000   -48.5330    10.8580    12.4770     7.9960    87.7040     2.5030     0.1010     0.0240
  445.0000   -48.8250    10.7040    12.3510     7.9950    87.2690     2.5060     0.1000     0.0270
  445.5000   -49.1180    10.5510    12.2250     7.9950    88.6570     2.5090     0.0980     0.0290
  446.0000   -49.4110    10.3970    12.0990     7.9940    90.5870     2.5180     0.0970     0.0290
  446.5000   -49.7030    10.2440    11.9730     7.9940    91.7220     2.5250     0.0940     0.0280
  447.0000   -49.9970    10.0900    11.8460     7.9930    90.9890     2.5230     0.0920     0.0280
  447.5000   -50.2900     9.9970    11.7200     7.9930    90.3230     2.5210     0.0930     0.0270
  448.0000   -50.5910     9.9350    11.5690     7.9920    90.2980     2.5190     0.0940     0.0270
  448.5000   -50.6090     9.8730    11.2290     7.9920    90.3020     2.5170     0.0950     0.0260
  449.0000   -50.6120     9.8110    10.8890     7.9910    90.3060     2.5160     0.0960     0.0260
  449.5000   -50.6080     9.7440    10.5490     7.9910    90.3070     2.5140     0.0980     0.0230
  450.0000   -51.3530     9.1050    10.2080     7.9900    90.8040     2.5120     0.1010     0.0200
  450.5000   -52.8380     8.3980     9.8680     7.9890    92.3820     2.5100     0.1040     0.0160
  451.0000   -54.3180     7.6920     9.5660     7.9840    94.4810     2.5020     0.1080     0.0150
  451.5000   -55.8070     6.9270     8.8290     7.9790    96.5770     2.4920     0.1180     0.0180
  452.0000   -57.3320     6.8580     8.1660     7.9730    98.6720     2.4790     0.1290     0.0210
  452.5000   -57.1260     6.7600     7.4580     7.9680   102.6290     2.4650     0.1420     0.0270
  453.0000   -56.4060     6.6880     7.3220     7.9630   109.5880     2.4500     0.1340     0.0330
  453.5000   -56.7450     6.8050     7.2540     7.9580   116.1560     2.4450     0.1240     0.0310
  454.0000   -57.3710     6.9180     7.2540     7.9520   117.8270     2.4790     0.1140     0.0240
  454.5000   -57.9820     6.9920     7.4430     7.9470   116.6160     2.5050     0.1040     0.0170
  455.0000   -54.2860     7.4460     8.6750     7.9420   106.9410     2.5220     0.0940     0.0140
  455.5000   -54.1270     8.2610     9.9080     7.9360    97.1720     2.5370     0.0840     0.0130
  456.0000   -54.9330     9.0770    10.7250     7.9310    90.7520     2.5340     0.0820     0.0120
  456.5000   -55.7630     9.8930    10.9610     7.9350    88.6600     2.5310     0.0810     0.0160
  457.0000   -56.5950    10.7080    11.1970     7.9400    86.4530     2.5300     0.0810     0.0200
  457.5000   -57.4240    10.8950    11.4330     7.9460    85.9840     2.5350     0.0790     0.0230
  458.0000   -58.1070    10.9140    11.6690     7.9520    91.0100     2.5410     0.0750     0.0270
  458.5000   -58.2590    10.9340    11.8960     7.9570    92.2240     2.5460     0.0710     0.0290
  459.0000   -58.4350    10.9530    12.1220     7.9630    92.8210     2.5510     0.0690     0.0280
  459.5000   -58.5600    10.9730    12.3480     7.9690    94.5550     2.5570     0.0690     0.0280
  460.0000   -58.9070    11.0990    12.5730     7.9740    97.2260     2.5550     0.0700     0.0310
  460.5000   -59.2480    11.3730    12.7990     7.9800    98.9190     2.5510     0.0710     0.0350
  461.0000   -59.5880    11.6480    13.0250     7.9860    95.8270     2.5510     0.0720     0.0380
  461.5000   -59.9300    11.9220    13.2500     7.9910    93.3150     2.5540     0.0710     0.0390
  462.0000   -60.2770    12.1970    13.4760     7.9970    91.6500     2.5580     0.0690     0.0390
  462.5000   -60.7990    12.4710    13.7020     8.0030    90.2090     2.5610     0.0680     0.0360
  463.0000   -61.9050    12.7300    13.9270     8.0090    88.7620     2.5650     0.0660     0.0300
  463.5000   -62.9800    12.7550    14.0530     8.0100    87.3250     2.5630     0.0690     0.0260
  464.0000   -63.4970    12.7790    14.1960     8.0100    85.9830     2.5580     0.0730     0.0230
  464.5000   -62.5470    12.8030    14.3390     8.0100    86.2630     2.5570     0.0710     0.0210
  465.0000   -61.6280    12.8270    14.4810     8.0100    88.2540     2.5590     0.0680     0.0190
  465.5000   -60.6810    12.8510    14.6240     8.0100    90.2370     2.5610     0.0710     0.0170
  466.0000   -62.5570    12.8740    14.7540     8.0100    92.0580     2.5590     0.0740     0.0150
  466.5000   -61.5280    12.8980    14.7650     8.0100    93.4390     2.5510     0.0750     0.0130
  467.0000   -59.6940    12.9220    14.7790     8.0100    94.9480     2.5490     0.0750     0.0100
  467.5000   -60.1790    12.9460    14.7920     8.0100    96.5490     2.5460     0.0770     0.0170
  468.0000   -60.6240    12.9640    14.8050     8.0100    97.2540     2.5410     0.0790     0.0260
  468.5000   -61.0540    12.9260    14.8180     8.0100    90.8840     2.5420     0.0810     0.0350
  469.0000   -61.3820    12.8890    14.8310     8.0100    87.9490     2.5470     0.0770     0.0370
  469.5000   -61.5550    12.8530    14.8450     8.0100    87.5260     2.5490     0.0770     0.0350
