~VERSION INFORMATION
 VERS.                2.0:   CWLS LOG ASCII STANDARD - VERSION 2.0
 WRAP.                 NO:   ONE LINE PER DEPTH STEP
~WELL INFORMATION
#MNEM.UNIT      DATA TYPE    INFORMATION
#----------   ------------   ------------------------------
 STRT.F           33.0000:   START DEPTH
 STOP.F          694.0000:   STOP DEPTH
 STEP.F            0.5000:   STEP LENGTH
 NULL.          -999.2500:   NO VALUE
 COMP. FENIX & SCISSON INC:   COMPANY
 WELL.  NPR 3 #64 S 34-34:   WELL
 FLD .             TEAPOT:   FIELD
 LOC .      S34 T39N R78W:   LOCATION
 CNTY.            NATRONA:   COUNTY
 STAT.            WYOMING:   STATE
 CTRY. UNITED STATES OF AMERICA:   COUNTRY
 SRVC.              Welex:   SERVICE COMPANY
 DATE.        28-APR-1977:   LOGDATE
 API .       490251034600:   API NUMBER
~CURVE INFORMATION
#MNEM.UNIT       API CODE    CURVE DESCRIPTION
#----------   ------------   ------------------------------
 DEPT.F                  :   
 CALD.IN     45 280 60 00:   CALIPER FROM DENSITY LOG
 GRD .GAPI   45 310 01 00:   GAMMA RAY FROM DENSITY LOG
 CORR.G/C3   45 356 01 00:   DENSITY CORRECTION
 DPHI.DEC    45 890 12 00:   DENSITY POROSITY SANDSTONE
 RHOB.G/C3   45 350 01 00:   BULK DENSITY
 SPR .MV     07 010 01 00:   SPONTANEOUS POTENTIAL
 ILD .OHMM   07 120 46 00:   INDUCTION LOG DEEP
 ILM .OHMM   07 120 44 00:   INDUCTION LOG MEDIUM
 SGRD.OHMM   07 221 05 00:   SHALLOW SHORT GUARD RESISTIVITY
~PARAMETER INFORMATION
#MNEM.UNIT          VALUE    DESCRIPTION
#----------   ------------   ------------------------------
 PD  .                 GL:   PERMANENT DATUM
 EPD .F              5079:   ELEVATION PERMANENT DATUM
 LMF .                 GL:   LOG MEASURED FROM
 DMF .                 GL:   DRILLING MEASURED FROM
 EGL .F              5079:   GROUND LEVEL
 DATE.        28-APR-1977:   RUN DATE
 RUN .                  1:   RUN NUMBER
 DD  .F               735:   DEPTH DRILLER
 DL  .F               697:   DEPTH LOGGER
 BLI .F               695:   BOTTOM LOG INTERVAL
 TLI .F                32:   TOP LOG INTERVAL
 CS  .IN            8.625:   CASING SIZE
 BS  .IN               12:   BIT SIZE
 BSD .F               735:   BIT SIZE AT DEPTH
 DFT .            KCL MUD:   DRILLING FLUID TYPE
 DFD .                9.0:   DRILLING FLUID DENSITY
 BHT .F                74:   BOTTOM HOLE TEMPERATURE
 TCS .HRS            0100:   TIME CURCULATED STOPPED
 MRT .F                74:   MAXIMUM RECORDED TEMPERATURE
 ENGI.            C. DOAK:   RECORDING ENGINEER
 WITN.           ROB LYON:   WITNESSED BY
 CLNT.            A2DTECH:   CLIENT CODE
 ORIG.           5" PRINT:   ORIGIN OF DATA
 UWI .       490251034600:   UNIQUE WELL ID
 DICO. A2D Technologies, Inc.:   DIGITIZING COMPANY
~OTHER INFORMATION
~A   DEPT     CALD        GRD       CORR       DPHI       RHOB        SPR        ILD        ILM       SGRD   
# ...
   69.5000     7.9563   105.6231     0.0424     0.2938     2.1850   -41.4167     3.0600     2.9602     3.4643
   70.0000     8.0031   104.3917     0.0380     0.2943     2.1813   -41.4030     2.9784     2.8813     3.3952
   70.5000     8.0346   103.8720     0.0351     0.2973     2.1784   -41.3898     2.8991     2.8035     3.2816
   71.0000     8.0363   104.9575     0.0353     0.2999     2.1725   -41.6748     2.7070     2.6914     2.9594
   71.5000     8.0232   106.1553     0.0324     0.3000     2.1651   -41.6612     2.5629     2.5668     2.7439
   72.0000     8.0250   107.3291     0.0280     0.3000     2.1599   -41.6478     2.4603     2.4805     2.5618
   72.5000     8.0119   104.9407     0.0235     0.3000     2.1555   -41.6343     2.3618     2.3491     2.6172
   73.0000     7.9988   104.0948     0.0191     0.2998     2.1511   -41.6209     2.2830     2.2555     2.4949
   73.5000     7.8818   104.7092     0.0147     0.2997     2.1510   -41.6075     2.3650     2.3370     2.1884
   74.0000     7.8241   105.0147     0.0088     0.2979     2.1588   -41.7433     2.5015     2.4550     1.9596
   74.5000     7.8556   101.7655     0.0014     0.2604     2.2007   -41.8791     2.6094     2.5965     2.2372
   75.0000     7.9317   102.5223     0.0075     0.2329     2.2504   -41.8657     2.7220     2.7084     2.7073
   75.5000     7.9929   103.1306     0.0182     0.1978     2.3131   -42.0015     2.9805     2.9047     4.0935
   76.0000     8.0244   102.4037     0.0273     0.1727     2.3700   -41.9880     3.4734     3.4328     5.2567
   76.5000     8.0411   100.9349     0.0334     0.1717     2.3843   -41.9746     4.0199     3.9186     5.1876
   77.0000     8.0429   100.3563     0.0365     0.1738     2.3844   -41.9611     4.4630     4.2614     4.9794
   77.5000     8.0446   101.7065     0.0381     0.1696     2.3890   -41.9476     4.8868     4.6664     4.9132
   78.0000     8.0315   103.6502     0.0367     0.1689     2.3898   -41.9342     5.1331     4.9358     4.9512
   78.5000     8.0333   105.2971     0.0368     0.1710     2.3884   -41.9207     5.1723     5.0781     4.9888
   79.0000     8.0202   105.4758     0.0354     0.1661     2.3922   -41.9073     5.1759     5.1525     5.0266
   79.5000     8.0221   104.5850     0.0349     0.1619     2.4005   -42.0433     5.0730     5.1920     5.0999
   80.0000     8.0238   103.1162     0.0281     0.1592     2.4036   -42.0296     5.1831     5.1216     5.2103
   80.5000     8.0256   101.3507     0.0252     0.1627     2.4014   -42.0162     5.5202     5.4199     5.3601
   81.0000     8.0274   102.8493     0.0223     0.1630     2.3993   -42.0027     5.8387     5.7329     5.6300
   81.5000     8.0292   104.1995     0.0194     0.1603     2.4009   -41.9893     6.1330     5.9804     5.9136
   82.0000     8.0310   105.4013     0.0165     0.1557     2.4107   -41.9758     6.3096     6.1103     6.2114
   82.5000     8.0327   106.4548     0.0166     0.1504     2.4175   -42.1116     6.2693     6.1571     6.5242
   83.0000     8.0345   106.9110     0.0182     0.1500     2.4258   -42.0981     6.2747     6.2042     6.6654
   83.5000     8.0363   105.5943     0.0229     0.1484     2.4244   -42.0847     6.2791     6.2517     6.7627
   84.0000     8.0381   103.8288     0.0260     0.1455     2.4304   -42.0712     6.2834     6.2611     6.8140
   84.5000     8.0399   102.8014     0.0276     0.1443     2.4357   -42.0578     6.2433     6.2602     6.8182
   85.0000     8.0416   105.7873     0.0292     0.1445     2.4359   -42.0443     6.2045     6.2213     6.7286
   85.5000     8.0434   106.3957     0.0278     0.1476     2.4269   -42.0309     6.2099     6.1828     6.6401
   86.0000     8.0452   106.1101     0.0234     0.1568     2.4188   -42.1672     6.1703     6.1871     6.5517
   86.5000     8.0470   108.6510     0.0205     0.1608     2.4077   -42.1532     6.1330     6.1484     6.3776
   87.0000     8.0339   111.9300     0.0176     0.1558     2.4137   -42.1398     6.1372     6.1102     6.2927
   87.5000     8.0357   114.0220     0.0147     0.1564     2.4161   -42.1263     6.1415     6.0724     6.2532
   88.0000     8.0375   113.5918     0.0133     0.1601     2.4079   -42.1129     6.1023     6.0766     6.1293
   88.5000     8.0244   110.9361     0.0134     0.1590     2.4050   -42.2493     6.1076     5.9971     6.2619
   89.0000     8.0262   110.5021     0.0150     0.1529     2.4170   -42.2352     6.0267     6.0013     6.4868
   89.5000     8.0280   113.1914     0.0181     0.1500     2.4239   -42.2217     5.9892     5.9226     6.7197
   90.0000     8.0297   113.5030     0.0197     0.1488     2.4269   -42.2083     5.9520     5.8451     6.8651
   90.5000     8.0315   112.6276     0.0216     0.1491     2.4263   -42.0489     5.8742     5.8080     6.9653
   91.0000     8.0333   111.3072     0.0244     0.1506     2.4226   -42.1847     5.8387     5.8130     6.9696
   91.5000     8.0351   110.1352     0.0260     0.1511     2.4197   -42.0187     5.8014     5.8171     6.8780
   92.0000     8.0369   108.0182     0.0291     0.1510     2.4213   -42.1545     5.8065     5.8211     6.3771
   92.5000     8.0387   106.5645     0.0308     0.1474     2.4266   -42.1410     5.8509     5.8741     6.6061
   93.0000     8.0404   105.1108     0.0324     0.1450     2.4297   -42.1275     5.8956     5.9234     6.9388
   93.5000     8.0422   103.0718     0.0342     0.1450     2.4305   -42.1141     6.0235     5.9757     7.0889
   94.0000     8.0440   100.5644     0.0356     0.1464     2.4283   -42.1006     6.1543     6.1497     7.1416
   94.5000     8.0458    98.7989     0.0357     0.1442     2.4314   -42.0872     6.2878     6.3727     6.9990
   95.0000     8.0476    98.7834     0.0358     0.1439     2.4330   -42.2263     6.5138     6.6497     6.9550
   95.5000     8.0493   100.6091     0.0344     0.1463     2.4308   -42.0603     6.6393     6.8433     7.0576
   96.0000     8.0511   102.5528     0.0345     0.1447     2.4272   -42.0468     6.8263     6.9922     7.2103
   96.5000     8.0529    99.8970     0.0346     0.1402     2.4370   -42.0389     6.9508     6.9016     7.4176
   97.0000     8.0547    97.5380     0.0347     0.1465     2.4303   -42.0362     6.8121     6.8153     7.6839
   97.5000     8.0565    94.5856     0.0348     0.1524     2.4252   -42.0297     6.6302     6.7265     7.8503
   98.0000     8.0583    92.8200     0.0349     0.1560     2.4155   -41.8626     6.4979     6.6407     7.6404
   98.5000     8.0452    92.3861     0.0351     0.1625     2.3954   -41.8447     6.3243     6.3767     6.9854
   99.0000     8.0321    94.0368     0.0366     0.1700     2.3813   -41.6776     6.1129     6.2953     7.0884
   99.5000     8.0042    96.7223     0.0382     0.1807     2.3672   -41.6597     5.9496     6.1721     6.8039
  100.0000     8.0059    98.6927     0.0429     0.1926     2.3538   -41.6418     5.7907     6.0094     5.9682
  100.5000     8.0074   100.6497     0.0445     0.1977     2.3382   -41.7732     5.2589     5.8508     5.9298
  101.0000     7.9935   102.4018     0.0506     0.2102     2.3188   -41.7552     4.5816     5.4644     6.0005
  101.5000     7.9803   104.1956     0.0537     0.2261     2.2949   -41.7374     3.6987     3.9766     6.0524
  102.0000     7.9817   106.7313     0.0493     0.2468     2.2629   -42.0180     3.4774     3.5627     3.0962
  102.5000     7.9830   109.5637     0.0434     0.2785     2.2188   -42.0000     3.2244     3.4686     3.0129
  103.0000     7.9844   111.8026     0.0390     0.2983     2.1755   -41.9821     2.5319     2.6682     2.6611
  103.5000     7.9705   112.5545     0.0316     0.3000     2.1509   -41.9642     2.1308     2.2459     2.3176
  104.0000     7.9570   110.6424     0.0242     0.3000     2.1330   -41.9463     1.9485     2.0261     2.1043
  104.5000     7.9438   108.5787     0.0152     0.3000     2.1465   -41.9284     1.8572     1.8923     1.8974
  105.0000     7.9005   106.6633     0.0093     0.2991     2.1750   -41.9104     2.0764     1.9883     2.0353
  105.5000     7.8421   103.8577     0.0034     0.2808     2.2043   -41.8816     2.2735     2.1479     2.2292
